     3.02           OBSERVATION DATA    M (MIXED)           RINEX VERSION / TYPE
SAVERINEX           SC600               20200518 105932 LCL PGM / RUN BY / DATE
       G = GPS       R = GLONASS       C = COMPASS          COMMENT
       S = SBAS      J = QZSS          E = GALILEO          COMMENT
BEAN                                                        MARKER NAME
1                                                           MARKER NUMBER
GEODETIC                                                    MARKER TYPE
Unige DICCA         GTER                                    OBSERVER / AGENCY
SC60291900056       SC600               2.12(191202)        REC # / TYPE / VERS
                    HEMA45          NONE                    ANT # / TYPE
  4509407.8091   693652.4678  4442337.6214                  APPROX POSITION XYZ
        0.0000        0.0000        0.0000                  ANTENNA: DELTA H/E/N
G    8 C1C L1C D1C S1C C2Y L2Y D2Y S2Y                      SYS / # / OBS TYPES
R    8 C1C L1C D1C S1C C2P L2P D2P S2P                      SYS / # / OBS TYPES
C    8 C1I L1I D1I S1I C7I L7I D7I S7I                      SYS / # / OBS TYPES
E    8 C1C L1C D1C S1C C7Q L7Q D7Q S7Q                      SYS / # / OBS TYPES
DBHZ                                                        COMMENT
     30.000                                                 INTERVAL
  2020    05    18    08    00    0.0000000     GPS         TIME OF FIRST OBS
  2020    05    18    08    59   30.0000000     GPS         TIME OF LAST OBS
     0                                                      RCV CLOCK OFFS APPL
G L1C  0.00000                                              SYS / PHASE SHIFT
G L2Y  0.00000                                              SYS / PHASE SHIFT
R L1C  0.00000                                              SYS / PHASE SHIFT
R L2P  0.25000                                              SYS / PHASE SHIFT
C L1I  0.00000                                              SYS / PHASE SHIFT
C L7I  0.00000                                              SYS / PHASE SHIFT
E L1C  0.50000                                              SYS / PHASE SHIFT
E L7Q -0.25000                                              SYS / PHASE SHIFT
 14 R02 -4 R03  5 R04  6 R05  1 R06 -4 R10 -5 R12 -1 R13 -2 GLONASS SLOT / FRQ #
    R14 -7 R15  0 R16 -1 R17  4 R18 -3 R23  3               GLONASS SLOT / FRQ #
 C1C   71.950 C2C   71.950 C2P   71.950                     GLONASS COD/PHS/BIS
    18                                                      LEAP SECONDS
*** Above antenna height is from mark to ANTENNA BOTTOM.    COMMENT
    17     4        0.0000        ANT MEASURE TYPE/HEIGT    COMMENT
    0.0000    0.0000    0.0458    0.0405    0.0000          COMMENT
                    BASE STATION                            COMMENT
                                                            END OF HEADER
> 2020 05 18 08 00  0.0000000  0 15        .000000000000
G02  24320598.508 6 127805661.729 6      2380.648          36.000    24320600.266 5  99588763.806 5      1855.060          33.000
G12  20115266.602 8 105706452.709 8       526.656          49.000    20115265.711 8  82368665.176 8       410.381          49.000
G24  20435806.258 8 107390877.032 8     -1189.867          51.000    20435807.500 8  83681197.556 8      -927.169          51.000
R05  23412296.602 5 125152108.915 5     -4284.820          33.000
R15  20258239.492 7 108253959.061 7     -1507.832          42.000    20258245.500 6  84197470.284 6     -1172.761          37.000
R17  20443245.258 6 109395948.840 6       495.781          37.000    20443246.617 5  85085712.065 5       385.608          34.000
R18  21625179.812 8 115436754.327 8      3882.570          49.000    21625188.508 7  89784127.587 7      3019.777          46.000
C11  25269688.961 5 131585907.785 5      3443.348          31.000    25269682.875 6 101750562.439 6      2662.742          40.000
C12  22641929.508 8 117902552.769 8      1480.469          50.000    22641930.086 8  91169697.770 8      1144.792          51.000
C24  22664734.000 8 118021159.368 8     -1419.211          48.000
C25  22391127.070 5 116596503.663 5      1374.391          32.000
E13  26219832.742 8 137786155.513 8      2716.188          50.000    26219835.062 8 105576413.436 8      2081.214          51.000
E19  25705715.414 8 135084452.448 8     -1713.352          48.000    25705714.922 7 103506264.142 7     -1312.819          45.000
E21  23663976.008 6 124355022.905 6       392.016          40.000    23663976.664 6  95285032.593 6       300.175          38.000
E27  24849409.469 5 130584524.390 5     -1688.730          35.000    24849406.477 6 100058279.619 6     -1294.043          39.000
> 2020 05 18 08 00 30.0000000  0 16        .000000000000
G02  24307016.938 6 127734288.076 6      2396.973          39.000    24307018.680 5  99533147.964 5      1867.768          33.000
G12  20112288.688 8 105690803.519 8       535.797          50.000    20112287.656 8  82356470.994 8       417.501          50.000
G19  22517920.367 5 118332473.880 5     -2498.445          31.000
G24  20442628.586 8 107426728.049 8     -1180.969          51.000    20442629.766 8  83709133.401 8      -920.238          51.000
G25  21466277.250 5 112806009.589 5      2269.211          34.000
R15  20266720.250 7 108299277.524 7     -1494.023          43.000    20266726.930 5  84232717.961 5     -1162.015          35.000
R17  20440536.148 5 109381453.597 5       490.785          34.000    20440538.820 6  85074437.999 6       381.719          36.000
R18  21603387.297 8 115320421.083 8      3892.621          49.000    21603394.648 7  89693646.230 7      3027.597          45.000
C11  25249848.055 5 131482586.899 5      3463.617          31.000    25249841.391 6 101670668.215 6      2678.047          40.000
C12  22633435.648 8 117858323.007 8      1487.188          50.000    22633435.609 8  91135496.494 8      1150.039          51.000
C24  22672922.422 8 118063798.101 8     -1404.266          48.000
C25  22383215.414 4 116555315.966 4      1390.312          29.000
E13  26204334.055 8 137704707.079 8      2732.934          50.000    26204336.805 8 105514004.927 8      2094.126          51.000
E19  25715520.008 7 135135974.419 7     -1702.160          47.000    25715520.320 7 103545741.989 7     -1304.181          45.000
E21  23661744.430 6 124343294.202 6       409.203          40.000    23661744.906 6  95276045.587 6       313.656          39.000
E27  24859048.258 5 130635179.763 5     -1669.281          33.000    24859047.016 6 100097093.417 6     -1278.718          40.000
> 2020 05 18 08 01  0.0000000  0 14        .000000000000
G02  24293451.891 6 127663002.358 6      2363.520          36.000    24293453.781 5  99477600.697 5      1841.710          31.000
G12  20109368.336 8 105675456.434 8       495.098          51.000    20109367.195 8  82344512.227 8       385.790          51.000
G19  22532330.109 5 118408207.971 5     -2541.406          35.000
G24  20449509.727 8 107462888.526 8     -1221.918          51.000    20449511.070 8  83737310.390 8      -952.144          51.000
G25  21453446.977 5 112738610.875 5      2231.883          31.000    21453445.297 5  87848289.970 5      1739.133          33.000
R15  20275233.438 7 108344767.872 7     -1530.758          45.000    20275236.984 5  84268099.372 5     -1190.589          33.000
R18  21581649.344 8 115204378.000 8      3851.633          51.000    21581654.859 7  89603390.594 7      2995.717          44.000
C11  25230003.633 5 131379249.297 5      3432.914          31.000    25229996.484 6 101590760.985 6      2655.045          40.000
C12  22625012.766 8 117814462.200 8      1444.555          49.000    22625012.281 8  91101580.546 8      1117.067          51.000
C24  22681133.516 7 118106557.130 7     -1438.637          46.000
E13  26188849.438 8 137623333.427 8      2699.867          51.000    26188852.570 8 105451653.723 8      2068.756          51.000
E19  25725369.984 7 135187738.564 7     -1740.816          45.000    25725371.664 7 103585405.426 7     -1333.917          45.000
E21  23659523.750 6 124331621.406 6       376.871          40.000    23659525.164 6  95267101.496 6       288.747          40.000
E27  24868681.094 5 130685809.302 5     -1698.879          35.000    24868684.086 6 100135894.410 6     -1301.975          40.000
> 2020 05 18 08 01 30.0000000  0 15        .000000000000
G02  24279975.055 6 127592180.832 6      2359.773          37.000    24279977.594 5  99422415.171 5      1838.791          35.000
G12  20106576.398 8 105660784.739 8       484.645          50.000    20106575.523 8  82333079.752 8       377.645          50.000
G15  24839591.344 5 130532932.104 5     -3716.457          33.000
G19  22546879.578 5 118484676.668 5     -2553.719          34.000    22546892.570 5  92325755.089 5     -1989.911          34.000
G24  20456520.742 8 107499731.546 8     -1232.637          51.000    20456522.141 8  83766019.233 8      -960.496          51.000
R15  20283849.508 7 108390809.537 7     -1537.078          44.000    20283852.391 4  84303909.533 4     -1195.505          29.000
R17  20435617.578 4 109355136.440 4       409.422          29.000    20435610.961 6  85053960.182 6       318.439          39.000
R18  21560037.797 8 115089009.239 8      3841.238          51.000    21560041.977 7  89513659.427 7      2987.630          44.000
C11                                                                  25210219.852 6 101511128.686 6      2655.048          39.000
C12  22616731.984 8 117771342.009 8      1431.750          49.000    22616731.281 8  91068237.328 8      1107.135          50.000
C24  22689438.727 7 118149806.582 7     -1443.008          47.000
E13  26173450.203 8 137542410.240 8      2696.723          51.000    26173453.961 8 105389647.713 8      2066.254          50.000
E19  25735336.789 7 135240117.149 7     -1749.344          46.000    25735339.516 7 103625539.654 7     -1340.331          45.000
E21  23657383.766 6 124320377.968 6       374.500          38.000    23657386.633 6  95258486.461 6       286.838          40.000
E27  24878382.211 6 130736804.562 6     -1699.141          36.000    24878388.383 6 100174968.655 6     -1301.957          41.000
> 2020 05 18 08 02  0.0000000  0 15        .000000000000
G02  24266514.531 5 127521447.496 5      2354.680          31.000    24266518.500 4  99367298.243 4      1834.818          28.000
G12  20103840.750 8 105646408.633 8       472.613          49.000    20103840.078 8  82321877.593 8       368.270          49.000
G15  24860801.266 5 130644372.775 5     -3713.840          35.000    24860798.594 5 101800813.810 5     -2893.901          32.000
G19  22561498.078 5 118561471.290 5     -2568.648          30.000
G24  20463589.539 8 107536878.332 8     -1244.977          51.000    20463590.938 8  83794964.782 8      -970.112          51.000
R15  20292496.445 7 108437016.927 7     -1544.770          43.000    20292498.820 5  84339847.693 5     -1201.487          30.000
R18  21538480.820 8 114973934.122 8      3829.242          51.000    21538483.789 7  89424156.689 7      2978.303          43.000
C11                                                                  25190439.789 6 101431482.588 6      2654.061          39.000
C12  22608521.547 8 117728587.974 8      1417.371          48.000    22608520.430 8  91035177.232 8      1096.071          50.000
C24  22697765.977 8 118193170.725 8     -1449.043          48.000
C25  22359746.477 5 116433076.442 5      1347.336          35.000
E13  26158064.398 8 137461560.380 8      2692.160          50.000    26158068.648 8 105327697.884 8      2062.824          50.000
E19  25745348.711 7 135292729.651 7     -1759.129          47.000    25745351.031 7 103665853.107 7     -1347.919          45.000
E21  23655253.266 6 124309184.691 6       370.676          40.000    23655256.250 6  95249909.812 6       283.860          39.000
E27  24888081.844 6 130787776.953 6     -1700.070          39.000    24888088.375 6 100214025.414 6     -1302.747          40.000
> 2020 05 18 08 02 30.0000000  0 16        .000000000000
G02  24253114.492 5 127450994.710 5      2352.375          31.000
G12  20101204.211 8 105632553.693 8       463.391          49.000    20101203.664 8  82311081.532 8       361.084          49.000
G19  22576226.500 5 118638868.595 5     -2579.770          34.000    22576233.961 5  92445902.821 5     -2010.210          34.000
G24  20470758.883 8 107574553.647 8     -1254.363          51.000    20470760.594 8  83824322.146 8      -977.426          51.000
G25  21415437.008 5 112538872.950 5      2211.191          30.000    21415440.094 5  87692630.356 5      1723.018          30.000
R15  20301217.188 7 108483619.657 7     -1549.484          43.000    20301230.156 5  84376094.214 5     -1205.155          31.000
R17  20431328.914 5 109332181.850 5       359.918          33.000    20431326.031 6  85036119.070 6       279.939          41.000
R18  21517022.180 8 114859386.762 8      3819.832          50.000    21517023.789 7  89335064.403 7      2970.987          42.000
C11                                                                  25170699.312 6 101351997.554 6      2654.786          37.000
C12  22600424.438 8 117686425.231 8      1405.648          48.000    22600423.195 8  91002574.332 8      1087.030          50.000
C24  22706158.664 8 118236873.255 8     -1452.184          49.000
C25  22352023.680 5 116392871.019 5      1345.562          32.000
E13  26142735.656 8 137381011.843 8      2690.281          50.000    26142740.250 8 105265978.916 8      2061.384          50.000
E19  25755448.047 7 135345800.429 7     -1766.262          47.000    25755449.188 7 103706517.686 7     -1353.384          45.000
E21  23653176.148 6 124298267.293 6       369.566          41.000    23653177.680 6  95241544.478 6       283.321          38.000
E27  24897820.844 6 130838952.136 6     -1698.734          39.000    24897827.578 6 100253237.565 6     -1301.670          41.000
> 2020 05 18 08 03  0.0000000  0 16        .000000000000
G02  24239739.359 5 127380719.847 5      2337.512          33.000
G12  20098630.484 8 105619028.823 8       441.922          49.000    20098630.086 8  82300542.684 8       344.355          49.000
G19  22591027.906 5 118716648.493 5     -2602.684          33.000    22591021.562 5  92506452.137 5     -2028.065          31.000
G24  20477992.523 8 107612566.998 8     -1276.105          51.000    20477994.281 8  83853942.930 8      -994.368          51.000
G25  21402879.391 6 112472877.110 6      2192.898          37.000    21402885.438 6  87641205.086 6      1708.755          37.000
R15  20309975.672 6 108530423.487 6     -1566.512          41.000    20309992.789 4  84412497.146 4     -1218.401          25.000
R17  20429417.391 6 109321978.600 6       323.852          38.000    20429417.773 6  85028183.205 6       251.878          41.000
R18  21495626.180 8 114745177.756 8      3797.832          48.000    21495627.031 7  89246235.280 7      2953.872          42.000
C11                                                                  25150963.633 6 101272529.134 6      2646.292          36.000
C12  22592404.453 8 117644666.027 8      1382.102          48.000    22592403.828 8  90970283.504 8      1068.695          51.000
C24  22714580.047 8 118280725.178 8     -1467.551          48.000
C25  22344326.883 4 116352796.675 4      1330.031          28.000
E13  26127428.664 8 137300575.961 8      2675.980          49.000    26127433.141 8 105204346.258 8      2050.457          51.000
E19  25765597.641 7 135399137.140 7     -1785.551          46.000    25765598.375 7 103747386.034 7     -1368.197          46.000
E21  23651115.469 6 124287434.853 6       356.566          40.000    23651115.562 6  95233244.263 6       273.201          38.000
E27  24907562.477 6 130890139.230 6     -1709.848          39.000    24907568.766 6 100292458.770 6     -1310.134          40.000
> 2020 05 18 08 03 30.0000000  0 17        .000000000000
G02  24226393.680 5 127310579.986 5      2336.945          32.000    24226409.188 5  99203095.072 5      1820.996          31.000
G12  20096122.922 8 105605850.959 8       435.625          49.000    20096122.609 8  82290274.213 8       339.448          49.000
G15  24924413.719 5 130978682.942 5     -3708.004          30.000
G19  22605904.789 5 118794825.731 5     -2609.809          32.000
G24  20485293.734 8 107650935.857 8     -1282.672          51.000    20485295.227 8  83883840.718 8      -999.485          51.000
G25  21390368.117 6 112407126.014 6      2189.312          37.000    21390380.547 5  87589970.254 5      1705.946          32.000
R15  20318775.555 7 108577446.359 7     -1568.941          42.000
R17  20427655.625 5 109312557.822 5       302.941          35.000    20427657.578 6  85020855.980 6       235.618          40.000
R18  21474296.492 7 114631329.808 7      3790.695          42.000    21474299.188 7  89157686.965 7      2948.322          44.000
R24  23042127.859 5 123216558.207 5     -3145.340          34.000    23042133.922 4  95835160.382 4     -2446.375          29.000
C11  25131242.828 5 130865006.946 5      3425.480          32.000    25131236.438 5 101193092.649 5      2648.920          35.000
C12  22584465.578 8 117603329.041 8      1373.016          48.000    22584465.578 8  90938319.136 8      1061.639          51.000
C24  22723033.547 8 118324743.828 8     -1468.035          49.000
E13  26112146.719 8 137220272.368 8      2676.754          48.000    26112151.570 8 105142815.009 8      2050.968          51.000
E19  25775800.695 7 135452755.981 7     -1789.793          46.000    25775801.961 7 103788470.584 7     -1371.373          47.000
E21  23649073.914 6 124276704.810 6       358.242          40.000    23649073.664 6  95225022.506 6       274.524          38.000
E27  24917308.547 6 130941355.388 6     -1705.641          41.000    24917314.711 6 100331702.352 6     -1306.940          39.000
> 2020 05 18 08 04  0.0000000  0 14        .000000000000
G12  20093706.680 8 105593153.190 8       415.059          48.000    20093706.164 8  82280379.843 8       323.422          49.000
G24  20492687.922 8 107689793.059 8     -1303.625          51.000    20492689.328 8  83914119.041 8     -1015.812          51.000
G25  21377926.539 5 112341753.599 5      2172.688          32.000    21377939.750 5  87539030.542 5      1693.000          31.000
R15  20327641.406 6 108624823.784 6     -1585.504          40.000
R17  20426067.445 5 109304055.990 5       268.277          30.000    20426070.062 6  85014243.409 6       208.666          38.000
R18  21453059.805 6 114517982.976 6      3769.684          41.000    21453065.961 7  89069528.296 7      2931.976          45.000
R24  23059852.680 5 123311350.450 5     -3170.258          33.000    23059860.516 4  95908888.123 4     -2465.756          26.000
C11  25111546.789 5 130762434.815 5      3415.156          35.000    25111541.438 5 101113793.123 5      2640.758          31.000
C12  22576634.031 8 117562547.829 8      1349.820          49.000    22576633.922 8  90906784.498 8      1043.773          51.000
C24  22731544.352 8 118369061.450 8     -1482.480          49.000
E13  26096915.758 7 137140236.626 7      2663.164          47.000    26096920.891 8 105081488.989 8      2040.582          50.000
E19  25786082.891 7 135506788.959 7     -1808.293          47.000    25786084.789 7 103829872.474 7     -1385.521          47.000
E21  23647076.500 6 124266210.473 6       345.562          40.000    23647076.891 6  95216981.438 6       264.776          39.000
E27  24927085.984 6 130992734.001 6     -1715.453          38.000    24927092.000 6 100371070.368 6     -1314.420          39.000
> 2020 05 18 08 04 30.0000000  0 15        .000000000000
G12  20091368.992 8 105580868.128 8       404.070          50.000    20091368.344 8  82270807.079 8       314.860          50.000
G24  20500162.289 8 107729071.345 8     -1314.879          51.000    20500163.953 8  83944725.469 8     -1024.581          51.000
G25  21365544.664 5 112276695.582 5      2165.461          31.000    21365557.555 4  87488388.272 4      1687.369          28.000
R15  20336560.453 6 108672487.475 6     -1592.168          39.000
R17  20424635.922 5 109296405.206 5       242.316          35.000    20424639.609 6  85008292.750 6       188.465          36.000
R18  21431908.109 7 114405073.581 7      3757.566          47.000    21431914.992 8  88981709.892 8      2922.552          48.000
R24  23077678.156 5 123406672.697 5     -3185.059          32.000
C11  25091869.227 5 130659979.412 5      3413.918          33.000
C12  22568896.812 8 117522257.297 8      1336.176          50.000    22568896.719 8  90875629.307 8      1033.243          51.000
C24  22740100.062 8 118413611.629 8     -1487.438          49.000
C25  22321516.688 4 116233977.391 4      1312.105          28.000
E13  26081723.734 7 137060403.923 7      2659.059          47.000    26081728.836 8 105020318.532 8      2037.437          50.000
E19  25796431.172 8 135561167.794 8     -1816.926          48.000    25796433.469 8 103871539.366 8     -1392.274          48.000
E21  23645111.906 7 124255884.816 7       342.664          42.000    23645112.875 6  95209069.599 6       262.537          39.000
E27  24936882.078 6 131044207.971 6     -1715.824          38.000    24936887.844 6 100410511.371 6     -1314.642          38.000
> 2020 05 18 08 05  0.0000000  0 15        .000000000000
G12  20089107.805 8 105568984.368 8       381.285          50.000    20089107.023 8  82261547.009 8       297.105          50.000
G15  24987967.508 5 131312687.982 5     -3717.320          30.000
G24  20507714.797 8 107768759.872 8     -1337.973          51.000    20507716.586 8  83975651.572 8     -1042.576          51.000
G25  21353220.625 4 112211931.670 4      2145.758          27.000    21353234.250 4  87437927.579 4      1672.010          26.000
R15  20345531.812 6 108720426.222 6     -1610.691          41.000
R17  20423364.586 4 109289595.197 4       205.535          27.000    20423367.898 5  85002995.909 5       159.852          34.000
R18  21410838.656 8 114292594.878 8      3733.758          50.000    21410845.273 8  88894226.479 8      2904.034          51.000
C11  25072215.492 5 130557616.146 5      3401.422          35.000
C12  22561251.961 8 117482447.707 8      1310.891          50.000    22561251.961 8  90844846.027 8      1013.531          51.000
C24  22748698.125 7 118458383.387 7     -1504.234          47.000
C25  22313954.789 5 116194609.412 5      1295.531          35.000
E13  26066568.797 8 136980765.259 8      2643.023          48.000    26066573.664 8 104959296.769 8      2025.189          49.000
E19  25806843.195 8 135615879.962 8     -1837.547          48.000    25806845.258 8 103913461.643 8     -1408.032          48.000
E21  23643177.641 7 124245716.689 7       328.105          42.000    23643179.477 6  95201278.423 6       251.295          41.000
E27  24946693.883 6 131095765.835 6     -1728.488          41.000    24946698.430 6 100450016.740 6     -1324.100          36.000
> 2020 05 18 08 05 30.0000000  0 14        .000000000000
G12  20086927.234 8 105557525.656 8       370.730          49.000    20086926.242 8  82252618.150 8       288.881          49.000
G15  25009134.797 5 131423877.417 5     -3712.367          32.000
G19  22666316.586 5 119112281.569 5     -2681.320          30.000
G24  20515349.883 8 107808882.296 8     -1348.918          51.000    20515351.750 8  84006915.765 8     -1051.105          51.000
R15  20354559.594 7 108768664.397 7     -1617.297          43.000    20354584.484 4  84597852.090 4     -1257.898          27.000
R17  20422258.156 6 109283612.522 6       179.918          38.000    20422258.305 5  84998366.332 5       139.933          34.000
R18  21389855.430 8 114180576.470 8      3722.031          50.000    21389861.562 8  88807101.054 8      2894.913          51.000
C11  25052587.711 6 130455407.559 6      3400.883          38.000
C12  22553704.352 8 117443144.366 8      1297.531          50.000    22553704.445 8  90814454.208 8      1003.376          51.000
C24  22757342.906 7 118503400.859 7     -1508.766          46.000
E13  26051456.328 8 136901347.055 8      2639.383          49.000    26051460.367 8 104898443.916 8      2022.441          49.000
E19  25817322.766 8 135670948.238 8     -1845.691          48.000    25817323.969 7 103955656.779 7     -1414.177          47.000
E21  23641276.938 6 124235730.344 6       325.820          40.000    23641280.539 6  95193626.514 6       249.484          41.000
E27  24956526.273 6 131147431.781 6     -1728.238          40.000    24956528.148 5 100489605.007 5     -1324.273          35.000
> 2020 05 18 08 06  0.0000000  0 13        .000000000000
G02  24160356.648 5 126963497.907 5      2294.980          33.000    24160332.039 4  98932522.655 4      1788.296          26.000
G12  20084822.883 8 105546467.665 8       362.281          50.000    20084821.883 8  82244001.540 8       282.297          50.000
G24  20523062.945 8 107849414.772 8     -1357.586          51.000    20523064.859 8  84038499.497 8     -1057.859          51.000
R15  20363637.953 6 108817178.166 6     -1621.289          36.000    20363650.945 4  84635584.875 4     -1261.015          25.000
R17  20421310.156 5 109278510.081 5       155.727          30.000    20421300.367 5  84994397.496 5       121.115          34.000
R18  21368954.039 8 114068998.537 8      3712.367          50.000    21368960.148 8  88720318.262 8      2887.397          51.000
C11  25032979.586 6 130353307.379 6      3401.809          37.000
C12  22546249.570 8 117404325.026 8      1286.195          50.000    22546249.461 8  90784436.633 8       994.686          51.000
C24  22766030.758 7 118548640.475 7     -1511.250          45.000
E13  26036382.102 8 136822127.685 8      2637.676          50.000    26036385.508 8 104837743.421 8      2021.142          49.000
E19  25827864.633 7 135726347.599 7     -1851.656          46.000    25827865.055 7 103998105.618 7     -1418.754          47.000
E21  23639405.391 6 124225901.947 6       325.371          40.000    23639410.617 6  95186095.651 6       249.298          41.000
E27  24966374.438 5 131199182.105 5     -1726.055          34.000    24966375.188 5 100529257.788 5     -1322.627          35.000
> 2020 05 18 08 06 30.0000000  0 13        .000000000000
G02  24147270.758 5 126894733.454 5      2287.402          30.000
G12  20082790.758 8 105535788.225 8       348.543          49.000    20082789.867 8  82235679.904 8       271.595          49.000
G24  20530849.727 8 107890334.897 8     -1371.473          51.000    20530851.734 8  84070385.294 8     -1068.680          51.000
R15  20372763.781 6 108865944.714 6     -1630.723          41.000
R17  20420501.977 6 109274169.778 6       128.277          37.000    20420501.727 6  84991021.206 6        99.768          36.000
R18  21348130.945 7 113957843.128 7      3696.945          47.000    21348137.320 8  88633864.100 8      2875.405          48.000
C11  25013387.500 5 130251296.008 5      3398.082          35.000
C12  22538883.836 8 117365969.109 8      1269.738          50.000    22538883.297 8  90754777.421 8       981.743          51.000
C24  22774757.109 7 118594080.290 7     -1519.230          42.000
E13  26021342.109 8 136743087.153 8      2630.555          51.000    26021344.758 8 104777179.960 8      2015.614          49.000
E19  25838464.500 7 135782054.249 7     -1863.164          46.000    25838465.148 7 104040789.921 7     -1427.565          47.000
E21  23637560.953 7 124216209.257 7       319.738          43.000    23637565.664 7  95178668.761 7       245.060          42.000
E27  24976233.398 5 131250994.389 5     -1729.289          34.000    24976233.562 5 100568958.021 5     -1325.387          33.000
> 2020 05 18 08 07  0.0000000  0 15        .000000000000
G02  24134232.141 5 126826224.698 5      2282.703          34.000
G12  20080840.531 8 105525540.364 8       337.586          48.000    20080839.578 8  82227694.568 8       263.057          48.000
G15  25072593.391 5 131757347.204 5     -3699.988          32.000
G24  20538720.266 8 107931695.934 8     -1382.867          51.000    20538722.805 8  84102614.676 8     -1077.559          51.000
G25  21304523.578 4 111956035.566 4      2114.531          29.000
R15  20381948.117 6 108915018.703 6     -1637.770          41.000    20381951.305 4  84711623.150 4     -1273.818          29.000
R18  21327397.828 8 113847169.573 8      3684.254          48.000    21327403.828 7  88547784.772 7      2865.534          44.000
C11  24993822.789 5 130149429.130 5      3396.445          34.000
C12  22531617.469 8 117328130.966 8      1255.836          50.000    22531616.914 8  90725518.596 8       971.068          51.000
C24  22783531.500 6 118639773.598 6     -1524.188          41.000
C25  22284239.359 4 116039876.603 4      1276.957          28.000
E13  26006346.719 8 136664281.405 8      2626.133          51.000    26006348.602 8 104716796.395 8      2012.250          50.000
E19  25849133.297 7 135838120.631 7     -1871.672          47.000    25849134.555 7 104083749.856 7     -1434.087          47.000
E21  23635753.242 7 124206706.113 7       316.938          45.000    23635757.086 7  95171387.114 7       242.833          42.000
E27  24986115.711 5 131302922.233 5     -1729.445          35.000    24986109.711 5 100608711.793 5     -1324.806          31.000
> 2020 05 18 08 07 30.0000000  0 15        .000000000000
G02  24121224.172 6 126757876.840 6      2272.031          39.000
G12  20078953.930 8 105515626.303 8       321.070          50.000    20078952.633 8  82219969.302 8       250.185          50.000
G24  20546656.086 8 107973400.313 8     -1399.828          50.000    20546658.844 8  84135111.603 8     -1090.775          51.000
G25  21292485.844 5 111892779.272 5      2101.387          35.000    21292487.531 5  87189165.705 5      1637.453          33.000
R15  20391170.562 6 108964300.991 6     -1650.391          37.000    20391175.188 5  84749953.748 5     -1283.640          32.000
R17  20419372.141 5 109268153.109 5        70.320          30.000    20419372.688 6  84986345.924 6        54.700          37.000
R18  21306737.602 8 113736883.493 8      3665.762          49.000    21306741.180 6  88462006.766 6      2851.148          41.000
R24  23186640.062 5 123989299.587 5     -3287.746          31.000    23186639.648 4  96436183.737 4     -2557.139          28.000
C11  24974268.859 5 130047612.547 5      3389.551          33.000
C12  22524432.109 8 117290715.275 8      1236.160          49.000    22524431.633 8  90696586.444 8       955.902          51.000
C24  22792336.336 7 118685623.879 7     -1534.914          44.000
E13  25991377.297 8 136585615.014 8      2615.961          51.000    25991378.805 8 104656519.624 8      2004.474          50.000
E19  25859852.320 8 135894447.852 8     -1885.922          48.000    25859854.164 7 104126909.639 7     -1445.015          47.000
E21  23633962.906 7 124197294.961 7       308.297          45.000    23633966.289 7  95164175.975 7       236.150          42.000
E27  24996001.930 6 131354868.004 6     -1735.789          37.000    24995996.781 5 100648520.500 5     -1329.868          31.000
> 2020 05 18 08 08  0.0000000  0 15        .000000000000
G02  24108256.758 6 126689739.085 6      2265.832          40.000    24108264.883 4  98719313.581 4      1765.583          26.000
G12  20077139.758 8 105506091.847 8       309.461          49.000    20077138.383 8  82212539.848 8       241.138          49.000
G19  22743740.156 5 119519139.868 5     -2748.371          33.000
G24  20554666.156 8 108015494.197 8     -1411.633          51.000    20554668.930 8  84167912.044 8     -1099.974          51.000
G25  21280509.336 6 111829794.757 6      2092.484          37.000
R15  20400440.781 5 109013838.487 5     -1657.434          35.000    20400445.883 5  84788482.885 5     -1289.118          32.000
R17  20419030.969 5 109266343.673 5        45.078          31.000    20419033.211 6  84984938.651 6        35.067          37.000
R18  21286159.633 8 113627036.298 8      3652.133          50.000    21286161.750 7  88376570.069 7      2840.545          44.000
C11  24954734.336 5 129945894.435 5      3386.500          32.000
C12  22517336.781 8 117253768.981 8      1221.781          48.000    22517336.336 8  90668017.251 8       944.689          50.000
C24  22801180.648 7 118731676.903 7     -1540.293          45.000
E13  25976443.531 8 136507136.417 8      2610.750          51.000    25976444.508 8 104596386.732 8      2000.406          50.000
E19  25870629.555 8 135951080.631 8     -1894.898          48.000    25870632.141 8 104170303.551 8     -1451.878          48.000
E21  23632198.039 7 124188021.919 7       304.848          43.000    23632201.758 6  95157070.687 6       233.399          41.000
E27  25005897.945 5 131406880.806 5     -1736.938          33.000    25005900.203 5 100688376.201 5     -1330.736          34.000
> 2020 05 18 08 08 30.0000000  0 13        .000000000000
G02  24095351.961 6 126621928.436 6      2255.410          38.000    24095354.062 4  98666446.332 4      1757.462          28.000
G12  20075419.250 8 105497050.661 8       293.801          48.000    20075417.859 8  82205494.784 8       228.939          48.000
G19  22759476.953 5 119601830.291 5     -2763.871          33.000
G24  20562772.359 8 108058091.748 8     -1427.746          51.000    20562775.094 8  84201104.927 8     -1112.529          51.000
R15  20409780.938 6 109063747.501 6     -1669.168          38.000    20409783.719 5  84827300.969 5     -1298.245          31.000
R18  21265686.703 8 113517748.514 8      3634.188          50.000    21265689.062 8  88291568.445 8      2826.590          48.000
C11  24935241.320 5 129844390.270 5      3380.660          34.000    24935251.766 5 100403893.418 5      2613.939          31.000
C12  22510353.422 8 117217406.558 8      1202.996          48.000    22510353.055 8  90639899.551 8       930.224          49.000
C24  22810085.492 7 118778045.991 7     -1550.352          47.000
E13  25961567.539 8 136428961.938 8      2601.391          51.000    25961568.062 8 104536486.880 8      1993.273          50.000
E19  25881486.164 7 136008131.795 7     -1907.934          47.000    25881489.500 8 104214018.050 8     -1461.932          48.000
E21  23630481.125 7 124179001.271 7       297.289          44.000    23630484.961 7  95150158.789 7       227.541          42.000
E27                                                                  25015833.742 5 100728364.429 5     -1334.908          34.000
> 2020 05 18 08 09  0.0000000  0 14        .000000000000
G02  24082489.367 5 126554340.838 5      2249.352          35.000
G12  20073772.062 8 105488395.302 8       282.059          48.000    20073770.438 8  82198750.334 8       219.783          49.000
G19  22775291.805 6 119684931.873 6     -2777.109          36.000
G24  20570954.055 8 108101085.431 8     -1439.746          51.000    20570956.617 8  84234606.469 8     -1121.880          51.000
R15  20419169.859 6 109113918.923 6     -1676.695          37.000    20419171.836 5  84866323.206 5     -1304.096          30.000
R17  20418863.414 6 109265509.309 6       -12.598          40.000    20418863.906 6  84984285.167 6        -9.801          37.000
R18  21245298.898 8 113408915.991 8      3619.984          50.000    21245302.438 8  88206920.921 8      2815.546          50.000
C11  24915770.164 5 129742996.537 5      3377.910          35.000    24915779.141 5 100325489.442 5      2611.658          35.000
C12  22503462.234 7 117181523.071 7      1188.082          47.000    22503461.750 8  90612152.184 8       918.628          49.000
C24  22819030.875 8 118824625.065 8     -1556.137          48.000
E13  25946729.328 8 136350986.810 8      2595.766          51.000    25946729.500 8 104476739.766 8      1988.915          50.000
E19  25892401.297 7 136065492.909 7     -1917.230          47.000    25892405.336 7 104257970.053 7     -1469.068          47.000
E21  23628792.172 7 124170126.024 7       293.332          44.000    23628795.414 7  95143358.268 7       224.758          42.000
E27                                                                  25025778.570 5 100768407.201 5     -1335.935          31.000
> 2020 05 18 08 09 30.0000000  0 14        .000000000000
G02  24069704.188 5 126487157.119 5      2241.777          35.000
G12  20072232.281 8 105480303.441 8       269.348          49.000    20072230.633 8  82192444.969 8       209.878          49.000
G19  22791218.172 5 119768620.162 5     -2790.199          33.000
G24  20579244.906 8 108144652.582 8     -1452.660          51.000    20579247.195 8  84268554.869 8     -1131.946          51.000
R15  20428641.195 6 109164534.174 6     -1685.332          37.000    20428642.516 5  84905690.568 5     -1310.814          30.000
R17  20419048.117 6 109266483.103 6       -40.020          40.000    20419047.164 6  84985042.671 6       -31.129          36.000
R18  21225030.586 8 113300724.109 8      3604.938          51.000    21225035.656 8  88122771.742 8      2803.843          50.000
C11  24896354.203 5 129641892.126 5      3374.379          34.000    24896361.102 6 100247309.077 6      2609.803          36.000
C12  22496697.266 7 117146296.264 7      1172.332          47.000    22496696.805 8  90584912.619 8       906.588          49.000
C24  22828050.414 8 118871590.758 8     -1562.887          49.000
E13  25931963.102 8 136273391.306 8      2589.375          50.000    25931963.672 8 104417283.527 8      1984.144          50.000
E19  25903409.016 7 136123340.424 7     -1927.203          47.000    25903413.336 7 104302294.754 7     -1476.727          47.000
E21  23627164.742 7 124161574.360 7       288.867          45.000    23627167.883 7  95136805.658 7       221.358          43.000
E27                                                                  25035767.680 5 100808670.971 5     -1337.216          33.000
> 2020 05 18 08 10  0.0000000  0 13        .000000000000
G02  24056925.273 5 126420004.360 5      2228.551          34.000
G12  20070728.453 8 105472400.001 8       250.738          49.000    20070726.984 8  82186286.461 8       195.384          49.000
G24  20587573.586 8 108188418.362 8     -1471.758          51.000    20587575.492 8  84302658.036 8     -1146.824          51.000
R15  20438125.219 6 109215211.665 6     -1700.168          41.000    20438128.445 5  84945106.324 5     -1322.353          33.000
R17  20419347.438 6 109268087.146 6       -73.734          37.000    20419344.148 5  84986290.269 5       -57.340          35.000
R18  21204812.008 8 113192796.670 8      3583.387          51.000    21204817.414 8  88038828.271 8      2787.082          48.000
C11  24876922.656 5 129540707.486 5      3364.602          34.000    24876927.430 5 100169066.698 5      2602.050          35.000
C12  22489987.234 7 117111355.495 7      1150.371          47.000    22489986.820 8  90557894.250 8       889.561          49.000
C24  22837073.016 8 118918571.239 8     -1575.848          49.000
E13  25917197.820 8 136195802.300 8      2576.586          48.000    25917199.180 8 104357832.252 8      1974.312          50.000
E19  25914437.906 7 136181298.064 7     -1943.238          47.000    25914441.984 8 104346703.835 8     -1488.975          48.000
E21  23625527.375 7 124152970.964 7       278.121          45.000    23625531.172 7  95130213.451 7       213.022          44.000
E27                                                                  25045737.453 5 100848808.008 5     -1343.669          35.000
> 2020 05 18 08 10 30.0000000  0 13        .000000000000
G02  24044208.961 6 126353176.379 6      2225.234          38.000
G12  20069315.547 8 105464974.441 8       242.609          50.000    20069313.680 8  82180500.326 8       189.046          50.000
G24  20595995.148 8 108232672.514 8     -1480.195          51.000    20595996.664 8  84337141.749 8     -1153.402          51.000
R15  20447675.719 5 109266246.581 5     -1704.355          34.000    20447678.508 5  84984800.083 5     -1325.616          30.000
R17  20419821.164 6 109270617.763 6       -96.586          41.000    20419817.648 5  84988258.506 5       -75.122          35.000
R18  21184699.656 8 113085433.186 8      3572.414          51.000    21184703.992 7  87955323.445 7      2778.547          46.000
C11  24857532.258 5 129439733.087 5      3365.590          34.000    24857535.320 6 100090986.966 6      2602.146          37.000
C12  22483387.438 7 117076989.711 7      1138.895          47.000    22483386.844 8  90531320.489 8       880.675          49.000
C24  22846153.312 8 118965854.479 8     -1578.109          48.000
E13  25902488.852 7 136118512.558 7      2574.375          46.000    25902491.484 8 104298610.255 8      1972.537          50.000
E19  25925543.000 7 136239654.737 7     -1948.734          47.000    25925546.469 8 104391418.675 8     -1493.171          48.000
E21  23623935.664 7 124144606.461 7       277.945          45.000    23623939.688 7  95123804.277 7       212.947          44.000
E27  25055736.734 4 131668785.353 4     -1751.191          29.000    25055737.820 5 100889070.982 5     -1341.894          35.000
> 2020 05 18 08 11  0.0000000  0 13        .000000000000
G02  24031534.070 5 126286567.470 5      2215.980          33.000    24031536.328 3  98405128.378 3      1726.738          23.000
G12  20067972.734 8 105457918.052 8       228.199          50.000    20067970.445 8  82175001.829 8       177.818          50.000
G24  20604488.750 8 108277306.335 8     -1494.996          51.000    20604489.914 8  84371921.300 8     -1164.935          51.000
R15  20457273.812 6 109317528.782 6     -1714.551          39.000    20457274.852 5  85024686.182 5     -1333.533          32.000
R17  20420446.609 6 109273964.232 6      -125.863          39.000    20420442.766 4  84990861.392 4       -97.894          29.000
R18  21164673.227 8 112978527.849 8      3554.930          50.000    21164675.391 7  87872174.880 7      2764.948          46.000
C11  24838161.516 5 129338863.776 5      3359.785          31.000    24838163.977 6 100012988.466 6      2597.884          37.000
C12  22476877.844 7 117043092.655 7      1121.266          46.000    22476876.820 8  90505109.155 8       866.958          50.000
C24  22855270.961 7 119013332.955 7     -1586.723          47.000
E13  25887816.219 7 136041415.694 7      2565.867          46.000    25887820.625 8 104239536.037 8      1966.003          51.000
E19  25936703.039 7 136298300.212 7     -1960.449          47.000    25936705.664 7 104436354.797 7     -1502.177          47.000
E21  23622368.938 7 124136372.323 7       271.371          45.000    23622372.461 7  95117495.009 7       208.026          44.000
E27                                                                  25065745.914 6 100929376.720 6     -1344.914          36.000
> 2020 05 18 08 11 30.0000000  0 12        .000000000000
G02  24018902.617 5 126220174.028 5      2206.754          30.000
G12  20066703.992 8 105451250.549 8       215.535          50.000    20066701.711 8  82169806.368 8       167.949          50.000
G24  20613058.219 8 108322340.352 8     -1508.020          51.000    20613059.422 8  84407012.710 8     -1175.080          51.000
R17  20421227.469 6 109278147.158 6      -153.871          38.000    20421225.344 4  84994114.850 4      -119.668          26.000
R18  21144735.906 7 112872105.823 7      3538.980          47.000    21144738.414 7  87789402.187 7      2752.540          47.000
C11  24818816.938 5 129238086.886 5      3356.473          30.000    24818817.273 6  99935088.552 6      2594.737          36.000
C12  22470462.102 7 117009685.310 7      1105.164          47.000    22470461.484 8  90479276.504 8       854.677          51.000
C24  22864429.531 7 119061026.782 7     -1593.496          43.000
E13  25873185.109 8 135964534.096 8      2559.000          48.000    25873190.727 8 104180626.757 8      1960.789          51.000
E19  25947921.891 7 136357253.568 7     -1970.348          47.000    25947923.492 7 104481526.816 7     -1509.705          47.000
E21  23620830.523 7 124128288.832 7       266.766          44.000    23620833.734 7  95111301.170 7       204.375          44.000
E27  25075764.273 6 131774029.378 6     -1757.469          36.000    25075769.258 6 100969740.636 6     -1346.581          37.000
> 2020 05 18 08 12  0.0000000  0 12        .000000000000
G12  20065501.281 8 105444930.337 8       203.727          50.000    20065499.234 8  82164881.544 8       158.748          50.000
G24  20621695.531 8 108367733.079 8     -1520.215          48.000    20621697.250 8  84442383.630 8     -1184.586          48.000
R15  20476611.992 6 109420785.685 6     -1730.691          37.000    20476609.461 5  85105056.759 5     -1346.087          32.000
R17  20422157.859 6 109283124.298 6      -180.215          40.000    20422183.250 4  84998042.594 4      -140.167          27.000
R18  21124880.977 7 112766129.851 7      3523.965          45.000    21124885.633 7  87706976.435 7      2740.865          47.000
C11  24799492.633 5 129137434.058 5      3352.824          31.000    24799487.688 5  99857257.530 5      2592.345          34.000
C12  22464133.031 8 116976728.020 8      1089.953          48.000    22464132.750 8  90453791.853 8       842.833          51.000
C24  22873620.703 6 119108895.117 6     -1599.664          41.000
E13  25858588.602 8 135887828.630 8      2552.773          50.000    25858594.648 8 104121852.462 8      1956.024          51.000
E19  25959191.211 8 136416472.070 8     -1979.438          48.000    25959191.984 7 104526902.008 7     -1516.721          47.000
E21  23619312.703 7 124120314.775 7       262.926          44.000    23619315.867 7  95105191.163 7       201.430          44.000
E27  25085800.336 6 131826742.313 6     -1758.875          39.000    25085800.523 6 101010131.085 6     -1347.668          37.000
> 2020 05 18 08 12 30.0000000  0 11        .000000000000
G12  20064383.180 8 105439055.405 8       187.258          50.000    20064381.453 8  82160303.683 8       145.915          50.000
G24  20630419.531 8 108413582.252 8     -1536.891          48.000    20630421.953 8  84478110.263 8     -1197.577          48.000
R17  20423254.609 5 109288995.933 5      -212.137          35.000    20423249.414 3  85002507.413 3      -164.995          23.000
R18  21105129.836 7 112660704.248 7      3503.824          46.000    21105135.883 7  87624978.772 7      2725.200          46.000
C11  24780203.500 5 129036970.393 5      3344.633          32.000    24780195.406 5  99779572.716 5      2586.155          35.000
C12  22457909.648 8 116944319.346 8      1069.988          49.000    22457909.320 8  90428731.406 8       827.531          51.000
C24  22882864.719 6 119157035.533 6     -1610.172          41.000
E13  25844045.414 8 135811399.889 8      2541.953          51.000    25844051.211 8 104063290.218 8      1947.778          51.000
E19  25970529.141 7 136476052.557 7     -1993.070          47.000    25970529.500 7 104572554.569 7     -1527.146          47.000
E21  23617834.461 7 124112548.630 7       254.480          44.000    23617837.711 7  95099240.461 7       194.905          45.000
E27  25095858.812 5 131879588.358 5     -1764.875          34.000    25095856.086 6 101050623.529 6     -1352.427          37.000
> 2020 05 18 08 13  0.0000000  0 13        .000000000000
G12  20063328.289 8 105433512.199 8       173.250          50.000    20063326.859 8  82155984.276 8       135.000          50.000
G24  20639209.312 8 108459774.320 8     -1551.414          50.000    20639211.938 8  84514104.075 8     -1208.894          50.000
R15  20496175.695 6 109525223.997 6     -1753.141          36.000    20496150.039 5  85186287.466 5     -1363.545          34.000
R17  20424496.188 5 109295646.892 5      -241.211          35.000    20424497.703 4  85007678.456 4      -187.605          29.000
R18  21085462.578 8 112555718.803 8      3486.145          50.000    21085468.898 7  87543323.473 7      2711.446          46.000
R24  23394939.141 5 125103161.083 5     -3463.777          31.000
C11  24760927.086 5 128936586.217 5      3338.801          31.000    24760918.016 5  99701949.351 5      2582.331          33.000
C12  22451770.117 8 116912348.474 8      1052.461          50.000    22451770.141 8  90404009.529 8       813.965          51.000
C24  22892140.703 7 119205336.218 7     -1618.727          45.000
E13  25829533.984 8 135735137.090 8      2533.453          51.000    25829539.359 8 104004855.123 8      1941.277          50.000
E19  25981913.703 7 136535880.648 7     -2004.156          46.000    25981914.414 7 104618396.857 7     -1535.703          47.000
E21  23616374.633 7 124104877.436 7       248.180          44.000    23616378.008 7  95093362.519 7       190.304          45.000
E27  25105917.188 6 131932454.436 6     -1768.094          37.000    25105915.227 6 101091131.222 6     -1354.839          39.000
> 2020 05 18 08 13 30.0000000  0 12        .000000000000
G12  20062374.727 8 105428501.292 8       152.387          49.000    20062373.469 8  82152079.667 8       118.743          49.000
G19  22921180.938 5 120451620.871 5     -2910.113          30.000
G24  20648103.125 8 108506510.131 8     -1572.672          51.000    20648105.812 8  84550521.589 8     -1225.459          51.000
R15  20506019.109 5 109577949.238 5     -1770.164          30.000    20506018.062 5  85227290.590 5     -1376.794          34.000
R18  21065917.688 8 112451382.135 8      3461.203          51.000    21065922.820 7  87462172.727 7      2692.047          46.000
C11  24741703.320 5 128836483.131 5      3326.320          32.000    24741694.578 5  99624543.348 5      2572.161          32.000
C12  22445753.055 8 116881015.379 8      1028.078          50.000    22445753.383 8  90379780.818 8       795.002          51.000
C24  22901486.625 7 119253996.265 7     -1633.832          45.000
E13  25815092.266 8 135659243.234 8      2517.910          50.000    25815097.195 8 103946702.710 8      1929.347          49.000
E19  25993383.406 7 136596155.440 7     -2022.402          47.000    25993384.617 7 104664581.410 7     -1549.492          47.000
E21  23614971.258 7 124097502.112 7       235.254          43.000    23614974.797 7  95087711.316 7       180.245          46.000
E27  25116020.398 6 131985541.307 6     -1779.055          37.000    25116017.695 6 101131808.195 6     -1363.091          38.000
> 2020 05 18 08 14  0.0000000  0 10        .000000000000
G12  20061523.367 8 105424027.648 8       141.504          49.000    20061522.055 8  82148593.714 8       110.263          49.000
G24  20657101.359 8 108553794.273 8     -1583.934          51.000    20657104.039 8  84587366.345 8     -1234.234          51.000
R18  21046496.195 8 112347703.691 8      3446.188          51.000    21046500.242 7  87381533.969 7      2680.371          47.000
C11  24722520.570 4 128736653.440 4      3323.086          29.000    24722526.461 5  99547360.389 5      2569.624          32.000
C12  22439859.789 8 116850326.266 8      1013.590          51.000    22439860.047 8  90356050.067 8       783.772          51.000
C24  22910902.008 7 119303020.789 7     -1639.059          46.000
E13  25800721.672 8 135583725.585 8      2512.375          50.000    25800726.414 8 103888838.575 8      1925.004          48.000
E19  26004939.094 7 136656880.911 7     -2030.312          47.000    26004940.555 7 104711111.293 7     -1555.670          47.000
E21  23613625.219 7 124090427.869 7       232.250          43.000    23613628.852 7  95082290.791 7       177.883          46.000
E27  25126165.562 5 132038854.155 5     -1779.703          34.000    25126162.648 6 101172658.258 6     -1363.363          37.000
> 2020 05 18 08 14 30.0000000  0 12        .000000000000
G02  23944201.422 5 125827627.043 5      2162.301          32.000
G12  20060710.578 8 105419756.659 8       142.977          50.000    20060709.227 8  82145265.669 8       111.410          50.000
G24  20666140.297 8 108601292.728 8     -1582.922          51.000    20666142.828 8  84624378.119 8     -1233.446          51.000
R17  20429278.281 5 109321134.466 5      -316.129          32.000    20429265.539 5  85027548.773 5      -245.890          32.000
R18  21027134.812 8 112244349.537 8      3443.723          50.000    21027139.039 8  87301147.446 8      2678.451          49.000
C11  24703345.453 5 128636799.250 5      3332.902          34.000    24703357.922 5  99470134.326 5      2577.317          30.000
C12  22434026.727 8 116819951.781 8      1011.141          50.000    22434026.945 8  90332562.608 8       781.926          51.000
C24  22920323.406 7 119352079.474 7     -1631.980          47.000
E13  25786359.625 8 135508252.948 8      2519.020          51.000    25786364.102 8 103831008.919 8      1930.155          48.000
E19  26016516.742 7 136717722.139 7     -2025.965          47.000    26016518.492 7 104757729.858 7     -1552.231          47.000
E21  23612272.961 7 124083321.419 7       241.480          43.000    23612276.594 7  95076845.573 7       184.947          46.000
E27  25136290.023 5 132092094.526 5     -1767.348          33.000    25136286.352 6 101213426.037 6     -1354.318          36.000
> 2020 05 18 08 15  0.0000000  0 13        .000000000000
G02  23931926.273 5 125763086.296 5      2134.094          32.000
G12  20059967.500 8 105415852.530 8       110.816          48.000    20059966.305 8  82142223.468 8        86.350          49.000
G24  20675251.297 8 108649169.873 8     -1615.496          51.000    20675253.773 8  84661684.979 8     -1258.828          51.000
R15  20535937.000 6 109737775.108 6     -1800.336          40.000    20535934.484 5  85351601.039 5     -1400.258          32.000
R17  20431144.734 5 109331194.216 5      -363.660          34.000
R18  21007865.945 8 112141490.893 8      3406.832          51.000    21007870.969 8  87221146.323 8      2649.758          49.000
C11  24684193.680 5 128537070.854 5      3308.645          35.000
C12  22428285.391 8 116790055.629 8       975.488          50.000    22428285.703 8  90309445.038 8       754.255          51.000
C24  22929782.570 8 119401335.114 8     -1658.355          48.000
E13  25772037.953 8 135432991.636 8      2491.859          51.000    25772042.297 8 103773341.202 8      1909.311          49.000
E19  26028146.922 7 136778841.842 7     -2055.270          46.000    26028149.812 7 104804561.821 7     -1574.733          47.000
E21  23610945.695 7 124076346.978 7       217.035          43.000    23610949.109 7  95071501.492 7       166.374          46.000
E27  25146424.008 5 132145350.782 5     -1789.738          35.000    25146421.375 6 101254237.268 6     -1371.071          36.000
> 2020 05 18 08 15 30.0000000  0 13        .000000000000
G02  23919696.516 5 125698814.490 5      2141.195          33.000
G12  20059301.859 8 105412354.834 8       113.801          49.000    20059300.820 8  82139497.993 8        88.676          49.000
G24  20684441.898 8 108697465.262 8     -1612.770          51.000    20684444.281 8  84699317.747 8     -1256.704          51.000
R15  20546000.758 5 109791544.314 5     -1793.133          32.000    20545998.609 5  85393421.397 5     -1394.677          31.000
R17  20433201.641 5 109342137.317 5      -374.512          30.000    20433197.172 5  85043891.240 5      -291.290          34.000
R18  20988698.641 8 112039172.824 8      3405.688          51.000    20988703.852 8  87141565.658 8      2648.868          49.000
C11  24665073.719 6 128437510.183 6      3319.988          36.000
C12  22422643.742 8 116760678.413 8       974.613          49.000    22422644.055 8  90286728.717 8       753.591          51.000
C24  22939286.938 7 119450827.293 7     -1649.625          47.000
E13  25757764.734 8 135357983.728 8      2500.094          51.000    25757768.664 8 103715867.663 8      1915.656          50.000
E19  26039837.320 7 136840278.211 7     -2048.988          45.000    26039841.414 7 104851636.455 7     -1570.106          47.000
E21  23609651.180 7 124069544.545 7       227.816          44.000    23609654.211 7  95066289.252 7       174.567          45.000
E27  25156577.867 6 132198709.501 6     -1776.285          36.000    25156577.266 6 101295122.544 6     -1361.032          36.000
> 2020 05 18 08 16  0.0000000  0 13        .000000000000
G12  20058724.562 8 105409320.831 8        89.660          50.000    20058723.547 8  82137133.833 8        69.865          50.000
G24  20693722.820 8 108746235.792 8     -1637.312          51.000    20693725.008 8  84737320.745 8     -1275.831          51.000
G25  21097083.570 5 110865943.373 5      1918.176          35.000    21097086.297 6  86389045.219 6      1494.698          36.000
R15  20556123.844 6 109845661.486 6     -1813.816          39.000    20556123.828 4  85435512.478 4     -1410.743          25.000
R17  20435418.516 5 109354050.535 5      -414.602          34.000
R18  20969644.977 8 111937458.377 8      3376.672          51.000    20969648.812 7  87062454.460 7      2626.300          46.000
C11  24645997.602 6 128338176.860 6      3303.758          37.000    24645999.602 5  99239219.534 5      2554.657          35.000
C12  22417112.953 8 116731878.397 8       946.691          50.000    22417113.203 8  90264458.736 8       732.042          51.000
C24  22948847.797 8 119500613.403 8     -1668.164          49.000
E13  25743551.180 8 135283289.152 8      2480.902          51.000    25743554.672 8 103658634.194 8      1900.945          50.000
E19  26051599.438 7 136902087.735 7     -2070.195          47.000    26051603.492 7 104898996.972 7     -1586.245          47.000
E21  23608400.719 7 124062972.015 7       211.590          46.000    23608403.203 7  95061253.151 7       162.023          46.000
E27                                                                  25166762.758 5 101336126.097 5     -1371.690          35.000
> 2020 05 18 08 16 30.0000000  0 13        .000000000000
G12  20058227.547 8 105406708.817 8        80.375          49.000    20058226.398 8  82135098.509 8        62.633          49.000
G24  20703086.297 8 108795440.870 8     -1647.094          51.000    20703088.406 8  84775662.350 8     -1283.450          51.000
G25  21086141.695 5 110808448.982 5      1911.215          33.000    21086150.477 5  86344244.626 5      1489.267          32.000
R15  20566307.359 6 109900085.254 6     -1819.289          38.000
R18  20950697.164 8 111836310.159 8      3362.445          50.000    20950699.758 7  86983783.646 7      2615.238          46.000
C11  24626958.070 6 128239032.673 6      3301.805          39.000    24626963.102 6  99162554.992 6      2553.355          39.000
C12  22411685.422 8 116703615.759 8       933.496          49.000    22411685.352 8  90242604.287 8       721.769          51.000
C24  22958457.867 8 119550652.726 8     -1671.750          49.000
C25  22152333.227 4 115353011.268 4      1131.562          27.000
E13  25729389.703 8 135208869.012 8      2476.301          50.000    25729393.062 8 103601611.002 8      1897.485          51.000
E19  26063424.875 7 136964227.773 7     -2076.477          47.000    26063427.805 7 104946610.732 7     -1591.150          47.000
E21  23607186.469 7 124056588.417 7       209.773          47.000    23607188.438 7  95056361.803 7       160.849          46.000
E27                                                                  25176964.594 4 101377204.566 4     -1371.400          29.000
> 2020 05 18 08 17  0.0000000  0 11        .000000000000
G12  20057786.453 8 105404390.625 8        69.848          50.000    20057785.469 8  82133292.132 8        54.427          50.000
G24  20712508.000 8 108844952.208 8     -1657.961          51.000    20712510.148 8  84814242.599 8     -1291.918          51.000
R15  20576523.938 6 109954685.123 6     -1825.062          38.000
R17  20440308.789 5 109380193.530 5      -464.230          33.000    20440310.750 5  85073490.983 5      -361.074          34.000
