     3.02           OBSERVATION DATA    M (MIXED)           RINEX VERSION / TYPE
SAVERINEX           SC600               20200516 095931 LCL PGM / RUN BY / DATE
       G = GPS       R = GLONASS       C = COMPASS          COMMENT
       S = SBAS      J = QZSS          E = GALILEO          COMMENT
BEAN                                                        MARKER NAME
1                                                           MARKER NUMBER
GEODETIC                                                    MARKER TYPE
Unige DICCA         GTER                                    OBSERVER / AGENCY
SC60291900056       SC600               2.12(191202)        REC # / TYPE / VERS
                    HEMA45          NONE                    ANT # / TYPE
  4509407.8091   693652.4678  4442337.6214                  APPROX POSITION XYZ
        0.0000        0.0000        0.0000                  ANTENNA: DELTA H/E/N
G    8 C1C L1C D1C S1C C2Y L2Y D2Y S2Y                      SYS / # / OBS TYPES
R    8 C1C L1C D1C S1C C2P L2P D2P S2P                      SYS / # / OBS TYPES
C    8 C1I L1I D1I S1I C7I L7I D7I S7I                      SYS / # / OBS TYPES
E    8 C1C L1C D1C S1C C7Q L7Q D7Q S7Q                      SYS / # / OBS TYPES
DBHZ                                                        COMMENT
     30.000                                                 INTERVAL
  2020    05    16    07    00    0.0000000     GPS         TIME OF FIRST OBS
  2020    05    16    07    59   30.0000000     GPS         TIME OF LAST OBS
     0                                                      RCV CLOCK OFFS APPL
G L1C  0.00000                                              SYS / PHASE SHIFT
G L2Y  0.00000                                              SYS / PHASE SHIFT
R L1C  0.00000                                              SYS / PHASE SHIFT
R L2P  0.25000                                              SYS / PHASE SHIFT
C L1I  0.00000                                              SYS / PHASE SHIFT
C L7I  0.00000                                              SYS / PHASE SHIFT
E L1C  0.50000                                              SYS / PHASE SHIFT
E L7Q -0.25000                                              SYS / PHASE SHIFT
 14 R01  1 R02 -4 R03  5 R04  6 R08  6 R10 -5 R11  0 R12 -1 GLONASS SLOT / FRQ #
    R13 -2 R14 -7 R20  2 R21  4 R22 -3 R23  3               GLONASS SLOT / FRQ #
 C1C   71.950 C2C   71.950 C2P   71.950                     GLONASS COD/PHS/BIS
    18                                                      LEAP SECONDS
*** Above antenna height is from mark to ANTENNA BOTTOM.    COMMENT
    17     4        0.0000        ANT MEASURE TYPE/HEIGT    COMMENT
    0.0000    0.0000    0.0458    0.0405    0.0000          COMMENT
                    BASE STATION                            COMMENT
                                                            END OF HEADER
> 2020 05 16 07 00  0.0000000  0 20        .000000000000
G12  21259349.367 8 111718639.936 8      2395.250          51.000    21259347.945 8  87053460.640 8      1866.432          51.000
G13  23518681.898 7 123591471.722 7     -3651.480          44.000    23518679.148 5  96305029.258 5     -2845.309          33.000
G15  22053003.227 8 115889301.060 8     -3013.668          49.000    22053004.281 8  90303354.551 8     -2348.313          49.000
G17  22777707.414 6 119697644.825 6     -1557.102          36.000    22777684.062 5  93270807.695 5     -1213.317          35.000
G19  21564015.180 6 113319722.653 6       238.199          38.000    21564015.086 5  88301022.666 5       185.607          35.000
G24  20239442.086 7 106358970.710 7       648.434          43.000    20239444.156 7  82877120.631 7       505.273          43.000
G25  23723886.352 5 124669881.706 5      3393.605          34.000    23723890.594 5  97145359.635 5      2644.365          31.000
R02  23284545.688 5 124250809.074 5     -4536.066          31.000
R03  20560971.203 8 110064486.701 8     -2423.973          51.000    20560973.500 7  85605734.011 7     -1885.312          47.000
R14  21827932.828 5 116355175.327 5      2595.961          31.000    21827933.500 4  90498467.093 4      2019.081          27.000
R22  21568670.070 5 115135035.455 5       504.391          35.000
R23  22726525.070 7 121571596.091 7      4043.184          46.000    22726532.125 6  94555706.806 6      3144.701          36.000
C20  24200822.469 5 126020027.326 5      -631.703          30.000
C23  22328590.438 8 116270864.024 8     -1050.578          51.000
C25  25733048.492 4 133998734.528 4     -2578.527          29.000
E02  24612194.422 6 129337933.883 6      1564.117          36.000
E03  24464178.461 8 128560110.259 8     -1798.176          51.000    24464182.570 8  98507103.163 8     -1377.808          51.000
E05  27514686.867 6 144590659.553 6     -3178.832          37.000    27514694.188 5 110790269.545 5     -2435.881          31.000
E24  25025301.320 6 131508832.474 6     -2348.160          36.000
E25  23623901.656 8 124144441.474 8      -693.762          51.000    23623904.547 8  95123676.156 8      -531.533          51.000
> 2020 05 16 07 00 30.0000000  0 15        .000000000000
G12  21245759.297 8 111647226.898 8      2372.949          50.000    21245758.320 8  86997814.139 8      1849.054          50.000
G13  23539593.125 7 123701357.944 7     -3666.773          46.000    23539592.250 5  96390654.846 5     -2857.226          35.000
G15  22070286.477 8 115980124.914 8     -3033.965          51.000    22070287.578 8  90374126.360 8     -2364.128          51.000
G24  20235823.359 7 106339954.699 7       626.609          44.000    20235825.281 7  82862302.955 7       488.270          44.000
G25  23704581.953 6 124568435.356 6      3377.762          40.000    23704585.461 6  97066310.593 6      2632.028          39.000
R03  20574667.734 8 110137803.365 8     -2456.176          50.000    20574670.516 8  85662758.076 8     -1910.359          48.000
R12  21801105.477 6 116457565.463 6     -2740.547          37.000    21801098.914 5  90578104.126 5     -2131.539          32.000
R22  21565965.516 6 115120568.264 6       467.297          38.000    21565965.719 4  89538188.864 4       363.459          26.000
R23  22703920.898 7 121450676.501 7      4025.809          47.000    22703927.625 6  94461658.279 6      3131.184          36.000
C23  22334711.922 8 116302739.612 8     -1067.016          51.000
E02  24603329.844 5 129291348.791 5      1548.914          33.000
E03  24474525.477 8 128614485.135 8     -1819.203          51.000    24474529.539 8  98548767.018 8     -1393.953          51.000
E05  27532885.578 5 144686295.802 5     -3189.422          35.000
E24  25038759.562 5 131579542.776 5     -2358.355          35.000
E25  23627928.312 8 124165601.275 8      -709.461          51.000    23627931.102 8  95139889.508 8      -543.616          51.000
> 2020 05 16 07 01  0.0000000  0 13        .000000000000
G12  21232209.016 8 111576020.752 8      2362.574          51.000    21232208.289 8  86942328.816 8      1840.967          51.000
G13  23560504.398 7 123811243.261 7     -3670.277          46.000    23560504.203 6  96476279.730 6     -2859.959          37.000
G15  22087598.516 8 116071099.066 8     -3042.488          51.000    22087599.305 8  90445015.267 8     -2370.770          51.000
G24  20232241.656 7 106321132.807 7       616.727          45.000    20232243.609 7  82847636.545 7       480.566          45.000
G25  23685279.148 7 124466995.695 7      3373.562          43.000    23685281.352 6  96987266.799 6      2628.753          41.000
R03  20588457.242 8 110211616.954 8     -2476.477          49.000    20588459.938 7  85720168.639 7     -1926.148          47.000
R14  21798840.070 6 116200126.319 6      2576.234          37.000    21798840.078 4  90377878.769 4      2003.732          26.000
R23  22681326.945 8 121329810.334 8      4020.359          48.000    22681332.867 5  94367651.312 5      3126.946          34.000
C23  22340840.648 8 116334653.205 8     -1071.859          51.000
E02                                                                  24594469.219 5  99031728.006 5      1184.166          35.000
E03  24484904.938 8 128669031.777 8     -1828.551          51.000    24484908.453 8  98590562.473 8     -1401.127          51.000
E05  27551057.102 5 144781790.356 5     -3188.016          34.000
E25  23631956.859 8 124186771.082 8      -713.270          51.000    23631959.336 8  95156110.517 8      -546.531          51.000
> 2020 05 16 07 01 30.0000000  0 17        .000000000000
G12  21218721.492 8 111505142.630 8      2356.020          51.000    21218720.391 8  86887099.102 8      1835.859          51.000
G13  23581437.992 7 123921246.162 7     -3669.727          46.000    23581437.711 6  96561996.250 6     -2859.527          37.000
G15  22104961.625 8 116162341.228 8     -3046.949          51.000    22104961.703 8  90516113.027 8     -2374.246          51.000
G17  22804871.273 6 119840391.317 6     -1607.602          38.000
G19  21560582.945 6 113301623.002 6       170.875          37.000    21560572.852 5  88286965.721 5       133.149          34.000
G24  20228719.906 7 106302625.578 7       610.570          46.000    20228722.047 7  82833215.332 7       475.769          46.000
G25  23666000.617 7 124365684.248 7      3373.711          44.000    23666002.148 6  96908322.901 6      2628.869          40.000
R03  20602361.016 8 110286046.612 8     -2492.340          49.000    20602363.812 7  85778058.340 7     -1938.487          46.000
R12  21831826.516 6 116621692.286 6     -2739.688          36.000
R14  21784317.836 5 116122737.392 5      2577.023          32.000
R22  21560938.281 6 115093675.628 6       421.316          37.000    21560930.820 4  89517328.234 4       327.691          29.000
R23  22658766.500 7 121209124.573 7      4018.797          47.000    22658771.992 6  94273784.664 6      3125.734          36.000
C23  22346999.422 8 116366723.847 8     -1072.684          51.000
E02                                                                  24585629.109 6  98996130.202 6      1184.133          39.000
E03  24495339.602 8 128723869.417 8     -1833.844          51.000    24495342.648 8  98632580.881 8     -1405.117          51.000
E05  27569224.109 5 144877251.950 5     -3183.027          33.000
E25  23636009.977 8 124208070.644 8      -713.289          51.000    23636012.164 8  95172430.949 8      -546.531          51.000
> 2020 05 16 07 02  0.0000000  0 17        .000000000000
G12  21205307.672 8 111434651.058 8      2342.289          51.000    21205305.984 8  86832170.635 8      1825.163          51.000
G13  23602404.453 7 124031421.529 7     -3676.488          45.000    23602403.938 6  96647847.163 6     -2864.796          37.000
G15  22122386.039 8 116253906.411 8     -3058.504          51.000    22122385.602 8  90587462.500 8     -2383.250          51.000
G17  22814096.773 6 119888868.070 6     -1625.152          39.000
G19  21559666.672 6 113296826.584 6       147.816          36.000    21559662.477 5  88283228.284 5       115.185          35.000
G24  20225269.039 7 106284491.441 7       597.230          45.000    20225271.469 7  82819084.829 7       465.374          45.000
G25  23646757.547 7 124264559.643 7      3366.824          43.000    23646759.297 6  96829524.573 6      2623.502          41.000
R03  20616390.281 8 110361147.344 8     -2515.531          49.000    20616392.602 7  85836469.956 7     -1956.527          46.000
R12  21847234.461 5 116703944.234 5     -2745.078          30.000
R22  21558651.195 5 115081539.927 5       392.871          35.000    21558642.938 4  89507814.740 4       305.569          26.000
R23  22636251.078 7 121088682.418 7      4009.625          44.000    22636256.297 5  94180107.447 5      3118.594          33.000
C23  22353199.086 8 116399008.118 8     -1080.762          51.000
C25  25792607.695 5 134308877.219 5     -2587.379          31.000
E02                                                                  24576824.266 6  98960670.986 6      1178.928          40.000
E03  24505840.289 8 128779054.207 8     -1846.152          51.000    24505843.234 8  98674865.293 8     -1414.617          51.000
E05  27587396.883 5 144972748.325 5     -3185.059          31.000
E25  23640098.531 8 124229556.555 8      -720.188          51.000    23640100.555 8  95188894.179 8      -551.853          51.000
> 2020 05 16 07 02 30.0000000  0 16        .000000000000
G12  21191971.719 8 111364568.638 8      2327.371          51.000    21191969.664 8  86777560.982 8      1813.536          51.000
G13  23623407.133 7 124141789.765 7     -3684.285          42.000    23623406.828 6  96733848.360 6     -2870.872          37.000
G15  22139875.516 8 116345814.313 8     -3071.180          51.000    22139874.648 8  90659079.019 8     -2393.127          51.000
G17  22823421.180 6 119937860.173 6     -1643.641          38.000    22823405.961 5  93458044.674 5     -1280.765          35.000
G19  21558882.141 6 113292717.970 6       122.891          37.000    21558878.484 5  88280026.736 5        95.759          33.000
G24  20221893.367 7 106266753.120 7       582.707          45.000    20221895.984 7  82805262.747 7       454.057          45.000
G25  23627554.000 6 124163645.331 6      3358.996          38.000    23627556.562 6  96750890.075 6      2617.400          39.000
R03  20630548.875 8 110436938.117 8     -2539.746          49.000    20630550.789 7  85895418.291 7     -1975.358          45.000
R14  21755403.617 5 115968557.716 5      2560.414          32.000
R22  21556520.891 5 115070167.890 5       363.262          34.000    21556520.930 5  89498998.040 5       282.537          31.000
R23  22613785.328 7 120968511.145 7      3999.230          42.000    22613792.500 5  94086640.944 5      3110.516          35.000
C23  22359443.867 8 116431527.767 8     -1089.809          51.000
C25  25807516.812 5 134386515.475 5     -2590.508          32.000
E02                                                                  24568057.414 6  98925367.247 6      1172.724          40.000
E03  24516411.445 8 128834607.122 8     -1859.777          51.000    24516414.367 8  98717431.783 8     -1425.048          51.000
E25  23644226.695 8 124251250.324 8      -728.527          51.000    23644228.672 8  95205516.672 8      -558.210          51.000
> 2020 05 16 07 03  0.0000000  0 19        .000000000000
G12  21178704.406 8 111294848.522 8      2319.094          51.000    21178702.867 8  86723233.628 8      1807.086          51.000
G13  23644436.195 6 124252300.723 6     -3684.785          39.000    23644436.438 5  96819960.835 5     -2871.255          33.000
G15  22157420.641 8 116438014.611 8     -3076.992          51.000    22157419.562 8  90730923.373 8     -2397.659          51.000
G17  22832836.250 6 119987363.688 6     -1655.242          37.000
G19  21558221.211 6 113289249.441 6       106.316          36.000    21558219.102 5  88277323.977 5        82.844          34.000
G20  24381492.273 4 128125604.518 4     -2334.008          29.000
G24  20218584.336 7 106249363.584 7       574.895          47.000    20218586.656 7  82791712.470 7       447.970          47.000
G25  23608381.250 6 124062894.470 6      3356.656          39.000    23608384.039 6  96672382.870 6      2615.576          39.000
R03  20644826.289 8 110513366.676 8     -2557.047          49.000    20644828.320 7  85954862.725 7     -1988.814          45.000
R12  21878089.727 5 116868829.822 5     -2749.543          35.000    21878073.531 4  90897935.345 4     -2138.530          24.000
R14  21740985.836 4 115891747.115 4      2558.371          29.000    21740994.422 4  90138014.343 4      1989.844          24.000
R23  22591361.086 6 120848566.490 6      3995.688          41.000    22591370.172 5  93993350.619 5      3107.757          35.000
C23  22365724.797 8 116464235.007 8     -1092.184          51.000
C25  25822432.000 5 134464183.325 5     -2588.332          30.000
E02  24559312.664 5 129060060.868 5      1529.109          32.000    24559319.523 6  98890182.126 6      1171.844          36.000
E03  24527043.828 8 128890478.931 8     -1866.605          51.000    24527046.430 8  98760242.647 8     -1430.232          51.000
E05  27623764.766 5 145163862.639 5     -3184.012          31.000
E24  25105890.008 5 131932338.261 5     -2351.117          35.000
E25  23648385.188 8 124273103.299 8      -729.891          51.000    23648387.266 8  95222261.149 8      -559.288          51.000
> 2020 05 16 07 03 30.0000000  0 15        .000000000000
G12  21165517.250 8 111225550.559 8      2305.609          51.000    21165516.312 8  86669235.205 8      1796.579          51.000
G13  23665502.062 6 124363010.759 6     -3691.676          38.000    23665504.188 5  96906228.444 5     -2876.630          33.000
G15  22175032.289 8 116530563.722 8     -3087.984          51.000    22175030.719 8  90803039.521 8     -2406.225          51.000
G19  21557693.047 6 113286480.217 6        83.688          37.000    21557693.211 5  88275166.202 5        65.220          34.000
G20  24394853.695 5 128195825.941 5     -2343.047          31.000    24394854.555 4  99892863.673 4     -1825.751          27.000
G24  20215353.133 7 106232382.586 7       561.902          47.000    20215355.031 7  82778480.529 7       437.849          47.000
G25  23589251.266 6 123962366.935 6      3349.996          41.000    23589253.664 6  96594049.780 6      2610.387          41.000
R03  20659233.289 8 110590489.077 8     -2579.559          50.000    20659235.430 7  86014846.818 7     -2006.323          44.000
R12  21893554.125 5 116951457.326 5     -2753.723          34.000    21893560.648 5  90962239.489 5     -2141.787          30.000
R23  22568993.203 7 120728913.000 7      3986.367          46.000    22569002.547 5  93900286.850 5      3100.508          35.000
C23  22372053.016 8 116497187.855 8     -1099.902          51.000
E02  24550618.938 5 129014354.822 5      1522.984          33.000
E03  24537748.234 8 128946727.263 8     -1878.523          51.000    24537749.984 8  98803342.022 8     -1439.385          51.000
E24  25119329.922 5 132002968.691 5     -2352.199          34.000
E25  23652585.078 8 124295173.571 8      -736.562          51.000    23652587.289 8  95239172.127 8      -564.373          51.000
> 2020 05 16 07 04  0.0000000  0 14        .000000000000
G12  21152389.375 8 111156562.500 8      2291.887          51.000    21152387.727 8  86615478.296 8      1785.889          51.000
G13  23686584.727 6 124473805.030 6     -3697.727          40.000
G15  22192688.383 8 116623346.274 8     -3099.113          51.000    22192686.125 8  90875337.584 8     -2414.897          51.000
G19  21557277.172 5 113284297.512 5        60.945          34.000    21557278.562 5  88273465.443 5        47.502          30.000
G20  24408249.398 5 128266219.037 5     -2351.664          33.000
G24  20212178.180 8 106215697.374 8       548.793          48.000    20212179.852 8  82765479.065 8       427.628          48.000
G25  23570142.680 7 123861951.082 7      3342.742          42.000    23570145.023 7  96515803.712 7      2604.734          42.000
R03  20673748.312 8 110668187.142 8     -2601.902          49.000    20673750.328 7  86075278.640 7     -2023.702          45.000
R22  21551041.211 5 115040909.064 5       282.621          32.000    21551024.938 5  89476226.143 5       219.816          30.000
R23  22546660.305 8 120609440.693 8      3976.812          49.000    22546668.281 6  93807364.037 6      3093.079          36.000
C20  24233044.289 5 126187811.754 5      -762.797          31.000
C23  22378406.984 8 116530274.249 8     -1107.625          51.000
E03  24548502.742 8 129003237.992 8     -1890.508          51.000    24548503.500 8  98846642.452 8     -1448.577          51.000
E25  23656804.703 8 124317347.590 8      -743.418          51.000    23656807.000 8  95256162.613 8      -569.659          51.000
> 2020 05 16 07 04 30.0000000  0 14        .000000000000
G12  21139337.125 8 111087971.973 8      2278.832          51.000    21139334.148 8  86562031.188 8      1775.716          51.000
G13  23707700.453 6 124584768.281 6     -3702.312          41.000    23707710.438 5  97079116.877 5     -2884.922          30.000
G15  22210404.914 8 116716446.520 8     -3109.551          51.000    22210402.023 8  90947883.196 8     -2423.030          51.000
G19  21556989.133 6 113282788.293 6        38.180          39.000    21556991.289 4  88272274.274 4        29.756          29.000
G24  20209076.219 8 106199396.536 8       536.129          48.000    20209077.984 8  82752777.111 8       417.763          48.000
G25  23551072.281 7 123761735.215 7      3336.016          42.000    23551075.344 7  96437713.467 7      2599.496          42.000
R03  20688386.805 8 110746545.873 8     -2623.793          49.000    20688389.305 7  86136224.312 7     -2040.731          45.000
R12  21924520.773 5 117116885.338 5     -2763.016          33.000    21924524.156 4  91090874.647 4     -2149.015          28.000
R23  22524378.672 7 120490242.831 7      3967.758          47.000    22524385.039 5  93714654.715 5      3086.034          35.000
C20  24237485.086 5 126210906.820 5      -778.652          31.000
C23  22384803.117 8 116563580.133 8     -1114.746          51.000
E03  24559323.211 8 129060096.891 8     -1902.016          51.000    24559323.617 8  98890209.654 8     -1457.356          51.000
E24                                                                  25146201.305 6 101253335.676 6     -1804.005          37.000
E25  23661060.352 8 124339711.669 8      -749.465          51.000    23661062.656 8  95273298.706 8      -574.256          51.000
> 2020 05 16 07 05  0.0000000  0 16        .000000000000
G10  24099821.734 5 126645411.262 5      -771.004          34.000
G12  21126368.102 8 111019819.757 8      2261.676          51.000    21126365.430 8  86508925.575 8      1762.345          51.000
G13  23728855.703 6 124695937.945 6     -3712.074          40.000    23728861.773 5  97165742.634 5     -2892.525          34.000
G15  22228188.844 8 116809901.765 8     -3123.809          50.000    22228185.719 8  91020705.423 8     -2434.137          50.000
G19  21556838.078 4 113281948.065 4        12.176          28.000    21556840.203 3  88271655.566 3         9.494          22.000
G24  20206054.828 8 106183519.260 8       519.383          49.000    20206056.703 8  82740405.188 8       404.714          49.000
G25  23532047.445 7 123661759.815 7      3325.699          44.000    23532051.492 6  96359810.602 6      2591.457          41.000
R03  20703154.977 8 110825601.764 8     -2649.688          49.000    20703157.961 7  86197712.205 7     -2060.871          45.000
R22  21548169.117 6 115025599.050 6       223.312          38.000    21548142.570 4  89464357.061 4       173.666          25.000
R23  22502155.859 7 120371364.102 7      3954.273          44.000    22502162.289 6  93622193.585 6      3075.549          37.000
C20  24242026.383 5 126234534.076 5      -798.344          31.000
C23  22391248.812 8 116597144.431 8     -1125.781          51.000
C25  25882189.969 5 134775350.525 5     -2601.020          31.000
E03  24570216.547 8 129117342.176 8     -1917.410          51.000    24570217.336 8  98934072.918 8     -1469.154          51.000
E24                                                                  25159646.148 6 101307478.190 6     -1807.917          36.000
E25  23665359.578 8 124362304.639 8      -759.770          51.000    23665361.664 8  95290610.189 8      -582.062          51.000
> 2020 05 16 07 05 30.0000000  0 16        .000000000000
G10  24104253.875 5 126668691.529 5      -777.152          33.000
G12  21113476.000 8 110952071.367 8      2259.430          51.000    21113474.078 8  86456134.606 8      1760.595          51.000
G13  23750043.422 6 124807276.754 6     -3706.039          40.000    23750048.180 5  97252500.047 5     -2887.823          34.000
G15  22246033.086 8 116903674.381 8     -3123.102          50.000    22246030.000 8  91093774.942 8     -2433.586          50.000
G24  20203107.758 8 106168032.167 8       517.559          50.000    20203109.648 8  82728337.312 8       403.292          50.000
G25  23513062.164 7 123561991.202 7      3330.008          45.000    23513066.227 7  96282068.849 7      2594.814          42.000
R03  20718045.945 8 110905315.514 8     -2659.961          50.000    20718048.859 7  86259711.738 7     -2068.859          44.000
R22  21546963.344 5 115019214.726 5       206.031          30.000    21546950.414 4  89459265.307 4       160.243          28.000
R23  22479985.945 6 120252773.801 6      3955.875          39.000    22479993.273 6  93529956.701 6      3076.795          38.000
C20  24246656.055 5 126258657.853 5      -804.656          30.000
C23  22397737.414 8 116630932.284 8     -1122.207          51.000
C25  25897163.398 5 134853308.247 5     -2591.672          30.000
C28  25012743.125 6 130247915.704 6      3162.078          39.000
E03  24581176.219 8 129174937.596 8     -1917.691          51.000    24581177.602 8  98978204.477 8     -1469.373          51.000
E24  25173089.992 5 132285476.960 5     -2349.211          33.000    25173098.336 5 101361634.283 5     -1799.967          30.000
E25  23669695.648 8 124385090.825 8      -754.859          51.000    23669697.500 8  95308069.724 8      -578.381          51.000
> 2020 05 16 07 06  0.0000000  0 16        .000000000000
G10  24108789.438 5 126692543.580 5      -812.016          33.000
G12  21100666.023 8 110884754.206 8      2228.461          51.000    21100664.086 8  86403679.661 8      1736.460          51.000
G13  23771268.320 6 124918809.101 6     -3729.211          41.000    23771271.898 5  97339408.321 5     -2905.879          32.000
G15  22263942.203 8 116997788.551 8     -3150.949          48.000    22263939.719 7  91167110.611 7     -2455.285          47.000
G24  20200240.117 8 106152961.788 8       487.219          50.000    20200241.758 8  82716594.169 8       379.654          50.000
G25  23494121.328 7 123462456.983 7      3305.742          44.000    23494124.922 7  96204509.756 7      2575.906          42.000
R03  20733064.227 8 110985710.501 8     -2699.434          51.000    20733066.914 7  86322241.129 7     -2099.562          44.000
R22  21545926.039 5 115013611.882 5       160.289          33.000    21545921.266 4  89455024.747 4       124.669          27.000
R23  22457874.344 6 120134503.767 6      3928.652          39.000    22457884.312 6  93437968.960 6      3055.618          38.000
C23  22404274.008 8 116664969.593 8     -1146.828          51.000
C25  25912153.352 4 134931379.321 4     -2610.938          28.000
C28  24994589.672 6 130153384.567 6      3140.305          41.000
E03  24592207.422 8 129232908.386 8     -1946.770          51.000    24592209.070 8  99022623.647 8     -1491.654          51.000
E05  27732982.508 5 145737802.915 5     -3201.543          34.000
E24  25186553.469 5 132356231.473 5     -2367.328          34.000    25186564.648 5 101415857.710 5     -1814.046          32.000
E25  23674073.367 8 124408095.997 8      -778.668          51.000    23674075.227 8  95325697.054 8      -596.591          51.000
> 2020 05 16 07 06 30.0000000  0 15        .000000000000
G12  21087930.320 8 110817827.119 8      2226.992          51.000    21087927.500 8  86351528.700 8      1735.319          51.000
G13  23792521.922 7 125030490.592 7     -3722.395          42.000    23792523.898 4  97426432.812 4     -2900.570          29.000
G15  22281907.211 7 117092199.556 7     -3149.277          45.000    22281905.898 7  91240677.626 7     -2453.982          46.000
G24  20197443.906 8 106138267.126 8       486.164          51.000    20197445.219 8  82705143.779 8       378.829          51.000
G25  23475217.125 7 123363116.278 7      3310.508          44.000    23475220.188 7  96127101.450 7      2579.616          42.000
R03  20748201.398 8 111066739.972 8     -2708.840          51.000    20748203.680 7  86385264.024 7     -2106.875          44.000
R12  21986788.773 5 117449487.537 5     -2775.852          31.000
R22  21545051.672 5 115008933.159 5       144.848          35.000    21545047.078 5  89451385.177 5       112.656          30.000
R23  22435815.953 7 120016515.605 7      3930.789          43.000    22435827.578 6  93346200.409 6      3057.280          38.000
C23  22410850.531 8 116699214.496 8     -1142.379          51.000
E02  24499121.898 5 128743753.350 5      1486.566          33.000    24499125.039 5  98647822.296 5      1139.030          32.000
E03  24603302.047 8 129291211.201 8     -1946.441          51.000    24603303.266 8  99067297.193 8     -1491.363          51.000
E05  27751207.922 5 145833581.784 5     -3190.484          33.000
E24  25200017.922 6 132426989.987 6     -2356.160          36.000    25200029.484 5 101470075.188 5     -1805.322          35.000
E25  23678484.602 8 124431277.432 8      -773.156          51.000    23678486.688 8  95343459.454 8      -592.400          51.000
> 2020 05 16 07 07  0.0000000  0 16        .000000000000
G12  21075252.875 8 110751205.693 8      2213.941          51.000    21075249.898 8  86299615.923 8      1725.152          51.000
G13  23813787.555 7 125142234.069 7     -3727.668          42.000    23813788.523 6  97513505.605 6     -2904.679          36.000
G15  22299911.797 7 117186820.223 7     -3159.141          46.000    22299911.773 7  91314408.046 7     -2461.668          46.000
G24  20194703.078 8 106123864.036 8       473.582          50.000    20194704.141 8  82693920.600 8       369.025          50.000
G25  23456333.953 7 123263885.151 7      3304.141          45.000    23456336.422 7  96049778.535 7      2574.658          42.000
R03  20763440.094 8 111148313.783 8     -2729.980          50.000    20763441.672 7  86448710.310 7     -2123.318          43.000
R12  22002387.227 6 117532812.615 6     -2779.980          36.000    22002384.250 5  91414393.933 5     -2162.213          30.000
R14  21627035.469 4 115284268.520 4      2506.094          29.000
R22  21544321.805 5 115005066.959 5       116.770          35.000
R23  22413796.836 7 119898727.564 7      3921.301          45.000    22413807.891 6  93254587.444 6      3049.898          37.000
C20  24261093.398 5 126333865.294 5      -858.801          35.000
C23  22417450.750 8 116733582.484 8     -1149.297          51.000
E03  24614443.523 8 129349759.693 8     -1957.352          51.000    24614443.914 8  99112158.981 8     -1499.810          51.000
E05  27769419.391 5 145929283.321 5     -3190.129          32.000
E24  25213467.797 6 132497675.918 6     -2356.535          38.000    25213478.398 5 101524237.135 5     -1805.854          34.000
E25  23682913.047 8 124454549.374 8      -778.805          51.000    23682915.297 8  95361291.204 8      -596.725          51.000
> 2020 05 16 07 07 30.0000000  0 14        .000000000000
G12  21062646.352 8 110684957.565 8      2201.434          51.000    21062644.047 8  86247994.001 8      1715.403          51.000
G13  23835077.055 6 125254104.216 6     -3731.676          40.000    23835076.766 5  97600677.106 5     -2907.805          30.000
G15  22317969.625 8 117281714.971 8     -3168.176          48.000    22317969.922 8  91388351.979 8     -2468.711          49.000
G19  21558005.484 5 113288100.387 5       -94.242          31.000
G24  20192030.539 8 106109820.017 8       461.625          50.000    20192031.586 8  82682977.197 8       359.708          50.000
G25  23437484.805 7 123164831.630 7      3298.312          45.000    23437486.812 7  95972594.038 7      2570.117          42.000
R03  20778791.883 8 111230496.220 8     -2750.105          49.000    20778792.500 7  86512629.936 7     -2138.971          42.000
R12  22018002.461 5 117616236.671 5     -2782.371          34.000    22018004.156 4  91479279.266 4     -2164.066          29.000
R23  22391830.023 8 119781212.287 8      3911.938          48.000    22391839.352 6  93163186.709 6      3042.618          36.000
C20  24266079.875 6 126359841.387 6      -874.398          36.000
C23  22424087.156 8 116768139.624 8     -1155.723          50.000
E03  24625644.211 8 129408619.465 8     -1967.734          51.000    24625644.008 8  99157259.263 8     -1507.792          51.000
E24  25226917.242 6 132568355.778 6     -2356.621          39.000    25226926.352 5 101578394.434 5     -1805.893          31.000
E25  23687371.328 8 124477978.098 8      -784.266          51.000    23687373.484 8  95379243.083 8      -600.973          51.000
> 2020 05 16 07 08  0.0000000  0 15        .000000000000
G12  21050132.211 8 110619196.500 8      2186.961          51.000    21050130.555 8  86196751.593 8      1704.125          51.000
G13  23856410.922 6 125366211.641 6     -3737.602          40.000    23856409.781 4  97688033.401 4     -2912.423          28.000
G15  22336101.102 8 117376993.727 8     -3179.324          50.000    22336101.195 8  91462595.134 8     -2477.395          50.000
G24  20189447.953 8 106096248.691 8       447.523          51.000    20189449.156 8  82672402.125 8       348.720          51.000
G25  23418691.117 7 123066069.725 7      3290.188          44.000    23418693.391 6  95895636.737 6      2563.779          41.000
R03  20794278.570 8 111313398.515 8     -2772.332          50.000    20794278.273 7  86577109.454 7     -2156.261          42.000
R12  22033652.703 5 117699804.482 5     -2787.539          33.000
R22  21543327.844 5 114999752.540 5        60.445          32.000    21543303.758 4  89444228.161 4        47.001          25.000
R23  22369936.594 8 119664089.493 8      3900.512          49.000    22369943.031 5  93072091.244 5      3033.737          34.000
C20  24271179.727 5 126386386.686 5      -891.461          34.000
C23  22430781.281 8 116802997.445 8     -1163.973          50.000
C25  25972163.914 4 135243885.316 4     -2607.406          28.000
E03  24636925.320 8 129467901.982 8     -1980.207          51.000    24636925.023 8  99202683.482 8     -1517.281          51.000
E24  25240387.570 6 132639141.868 6     -2358.395          37.000
E25  23691880.883 8 124501675.678 8      -791.414          51.000    23691882.789 8  95397400.971 8      -606.399          51.000
> 2020 05 16 07 08 30.0000000  0 13        .000000000000
G12  21037671.516 8 110553716.477 8      2180.199          51.000    21037669.898 8  86145728.200 8      1698.857          51.000
G13  23877749.391 6 125478347.318 6     -3736.148          37.000    23877748.289 5  97775411.827 5     -2911.294          32.000
G15  22354265.953 8 117472447.110 8     -3182.488          51.000    22354265.812 8  91536974.343 8     -2479.861          51.000
G24  20186915.992 8 106082943.357 8       441.273          51.000    20186917.461 8  82662034.336 8       343.849          51.000
G25  23399913.633 7 122967393.732 7      3289.914          43.000    23399916.625 7  95818746.360 7      2563.569          43.000
R03  20809860.289 8 111396805.894 8     -2786.430          51.000    20809860.031 7  86641981.842 7     -2167.223          44.000
R12  22049318.234 5 117783417.718 5     -2784.809          30.000
R23  22348077.734 8 119547153.505 8      3896.973          49.000    22348080.609 5  92981141.089 5      3030.979          32.000
C23  22437493.703 8 116837950.742 8     -1164.547          49.000
E02  24465435.289 5 128566728.199 5      1468.570          33.000    24465439.734 5  98512179.382 5      1125.412          35.000
E03  24648246.945 8 129527399.062 8     -1984.676          51.000    24648247.328 8  99248272.134 8     -1520.756          51.000
E24  25253838.711 5 132709826.878 5     -2351.980          34.000
E25  23696402.180 8 124525434.632 8      -790.836          51.000    23696403.992 8  95415605.874 8      -605.956          51.000
> 2020 05 16 07 09  0.0000000  0 15        .000000000000
G12  21025319.594 8 110488806.513 8      2161.496          51.000    21025317.930 8  86095149.039 8      1684.286          51.000
G13  23899148.078 6 125590797.759 6     -3746.301          37.000    23899147.055 4  97863035.541 4     -2919.211          28.000
G15  22372518.469 8 117568361.673 8     -3197.477          51.000    22372517.961 8  91611712.940 8     -2491.540          51.000
G24  20184489.789 8 106070193.799 8       423.023          50.000    20184491.406 8  82652099.602 8       329.629          51.000
G25  23381207.641 7 122869093.367 7      3277.672          44.000    23381211.195 7  95742148.688 7      2554.030          43.000
R03  20825590.602 8 111481008.909 8     -2812.531          50.000    20825590.914 7  86707473.061 7     -2187.524          45.000
R12  22065018.789 6 117867382.853 6     -2793.855          36.000
R14  21570952.969 5 114985324.287 5      2479.141          30.000
R22  21542970.469 5 114997844.631 5         5.668          34.000    21542947.562 4  89442708.932 4         4.399          28.000
R23  22326309.156 8 119430702.354 8      3881.062          50.000    22326311.180 5  92890568.078 5      3018.607          34.000
C23  22444279.320 8 116873285.285 8     -1176.875          48.000
E02  24457124.711 5 128523053.733 5      1456.973          33.000    24457130.922 6  98478714.480 6      1116.501          37.000
E03  24659663.594 8 129587398.014 8     -2000.965          51.000    24659665.375 8  99294245.365 8     -1533.219          51.000
E24                                                                  25267334.594 5 101741077.866 5     -1806.983          34.000
E25  23700989.922 8 124549542.947 8      -802.160          51.000    23700991.852 8  95434078.473 8      -614.666          51.000
> 2020 05 16 07 09 30.0000000  0 14        .000000000000
G12  21013021.391 8 110424178.816 8      2147.230          51.000    21013020.383 8  86044789.821 8      1673.167          51.000
G13  23920551.305 6 125703272.063 6     -3751.703          39.000    23920550.102 4  97950677.916 4     -2923.405          28.000
G15  22390803.008 8 117664445.696 8     -3208.020          51.000    22390801.867 8  91686583.573 8     -2499.755          51.000
G24  20182114.539 8 106057712.215 8       409.121          50.000    20182116.281 8  82642373.678 8       318.793          50.000
G25  23362518.516 7 122770880.904 7      3270.027          45.000    23362522.445 7  95665619.538 7      2548.073          44.000
R03  20841413.297 8 111565709.331 8     -2833.984          50.000    20841414.539 7  86773351.163 7     -2204.210          45.000
R12  22080704.375 4 117951184.031 4     -2797.402          28.000
R22  21543022.891 6 114998109.814 6       -23.023          36.000    21543001.172 4  89442874.798 4       -17.919          27.000
R23  22304577.000 8 119314446.984 8      3869.457          49.000    22304579.336 6  92800147.243 6      3009.578          37.000
C23  22451083.141 7 116908714.707 7     -1184.895          46.000
E02  24448826.727 5 128479451.613 5      1450.059          33.000    24448833.125 6  98445297.369 6      1111.120          36.000
E03  24671120.492 8 129647608.681 8     -2012.840          51.000    24671123.789 8  99340380.831 8     -1542.273          51.000
E24                                                                  25280798.438 5 101795304.174 5     -1807.961          34.000
E25  23705588.984 8 124573711.073 8      -808.891          51.000    23705591.086 8  95452596.899 8      -619.790          51.000
> 2020 05 16 07 10  0.0000000  0 15        .000000000000
G12  21000798.781 8 110359948.401 8      2135.070          51.000    21000798.102 8  85994740.145 8      1663.691          51.000
G13  23941980.719 6 125815882.206 6     -3755.148          40.000    23941979.391 4  98038426.059 4     -2926.084          25.000
G15  22409140.977 8 117760811.274 8     -3216.090          51.000    22409139.328 8  91761673.584 8     -2506.044          51.000
G24  20179812.078 8 106045613.199 8       397.602          50.000    20179813.938 8  82632945.859 8       309.816          50.000
G25  23343868.289 7 122672871.962 7      3264.324          46.000    23343872.508 7  95589248.966 7      2543.629          44.000
R03  20857350.078 8 111651019.973 8     -2853.145          50.000    20857352.031 7  86839703.846 7     -2219.115          46.000
R12  22096448.883 5 118035290.234 5     -2800.133          34.000    22096455.648 4  91805233.974 4     -2177.872          26.000
R22  21543230.469 5 114999212.021 5       -50.297          33.000    21543203.242 4  89443732.173 4       -39.132          24.000
R23  22282903.477 8 119198508.724 8      3859.969          48.000    22282907.086 6  92709973.060 6      3002.198          38.000
C20  24292440.359 5 126497086.292 5      -953.129          30.000
C23  22457926.875 7 116944352.126 7     -1190.723          47.000
E02  24440562.969 5 128436024.110 5      1445.492          34.000    24440568.305 5  98412015.554 5      1107.687          34.000
E03  24682639.758 8 129708144.178 8     -2022.629          51.000    24682643.742 8  99386765.178 8     -1549.819          51.000
E24                                                                  25294266.547 5 101849539.571 5     -1807.348          31.000
E25  23710221.047 8 124598052.818 8      -813.668          51.000    23710223.273 8  95471248.357 8      -623.496          51.000
> 2020 05 16 07 10 30.0000000  0 14        .000000000000
G12  20988641.734 8 110296063.143 8      2132.879          49.000    20988640.109 8  85944959.408 8      1661.984          49.000
G13  23963425.609 6 125928573.260 6     -3748.383          39.000    23963423.750 5  98126213.253 5     -2920.827          31.000
G15  22427521.875 8 117857403.121 8     -3214.297          51.000    22427519.969 8  91836939.914 8     -2504.650          51.000
G24  20177572.539 8 106033844.793 8       395.938          50.000    20177574.367 8  82623775.665 8       308.523          50.000
G25  23325246.797 7 122575014.893 7      3268.414          46.000    23325251.477 7  95512996.733 7      2546.816          45.000
R03  20873390.258 8 111736882.943 8     -2861.891          48.000    20873392.531 7  86906486.122 7     -2225.918          47.000
R22  21543587.148 6 115001098.038 6       -66.746          37.000    21543567.539 4  89445295.025 4       -51.923          28.000
R23  22261279.773 8 119082838.778 8      3860.566          48.000    22261285.000 6  92620007.582 6      3002.663          39.000
C20  24297990.258 5 126525894.601 5      -958.195          31.000
C23  22464800.547 8 116980145.047 8     -1186.617          48.000
E02                                                                  24432326.555 5  98378828.548 5      1111.889          33.000
E03  24694211.156 8 129768950.357 8     -2022.230          51.000    24694215.086 8  99433356.913 8     -1549.432          51.000
E24                                                                  25307732.422 5 101903750.285 5     -1799.458          32.000
E25  23714875.883 8 124622514.687 8      -808.148          51.000    23714878.273 8  95489991.853 8      -619.258          51.000
> 2020 05 16 07 11  0.0000000  0 14        .000000000000
G12  20976579.711 8 110232677.649 8      2105.363          49.000    20976577.250 8  85895568.117 8      1640.543          49.000
G13  23984914.672 6 126041496.923 6     -3766.840          38.000    23984913.242 4  98214205.730 4     -2935.200          26.000
G15  22445974.547 8 117954372.610 8     -3237.656          50.000    22445972.953 8  91912500.519 8     -2522.849          50.000
G24  20175425.391 8 106022561.649 8       368.934          51.000    20175427.242 8  82614983.597 8       287.481          51.000
G25  23306683.609 7 122477464.723 7      3247.480          46.000    23306688.398 7  95436983.639 7      2530.507          45.000
R03  20889561.797 8 111823451.464 8     -2896.496          48.000    20889564.461 7  86973817.198 7     -2252.830          46.000
R12  22127947.266 5 118203511.546 5     -2810.574          35.000    22127949.602 4  91936084.264 4     -2186.002          29.000
R22  21544115.914 5 115003923.875 5      -108.836          34.000
R23  22239736.078 8 118967597.983 8      3835.090          48.000    22239742.484 6  92530375.877 6      2982.848          38.000
C23  22471733.312 8 117016245.787 8     -1207.516          48.000
E02                                                                  24424137.219 5  98345879.127 5      1096.121          30.000
E03  24705863.469 8 129830179.819 8     -2047.098          51.000    24705866.711 8  99480272.984 8     -1568.570          51.000
E24                                                                  25321217.766 5 101958043.965 5     -1810.491          33.000
E25  23719582.758 8 124647250.013 8      -828.191          51.000    23719585.359 8  95508944.881 8      -634.582          51.000
> 2020 05 16 07 11 30.0000000  0 15        .000000000000
G12  20964557.953 8 110169503.437 8      2098.246          51.000    20964556.688 8  85846341.472 8      1634.997          51.000
G13  24006392.469 5 126154361.650 5     -3765.410          32.000
G15  22464443.430 8 118051427.858 8     -3240.559          50.000    22464442.414 8  91988127.959 8     -2525.111          50.000
G19  21566385.016 5 113332138.385 5      -267.867          33.000
G24  20173315.617 8 106011474.795 8       362.258          51.000    20173317.586 8  82606344.480 8       282.279          51.000
G25  23288123.844 7 122379933.076 7      3246.723          45.000    23288128.094 7  95360985.001 7      2529.914          44.000
R03  20905810.297 8 111910426.522 8     -2910.012          49.000    20905812.023 7  87041464.446 7     -2263.345          46.000
R22  21544765.391 5 115007396.046 5      -130.691          35.000    21544746.555 4  89450166.917 4      -101.661          24.000
R23  22218218.891 8 118852496.978 8      3830.230          49.000    22218225.547 6  92440852.881 6      2979.068          37.000
C20  24309328.359 5 126585065.787 5      -997.340          33.000
C23  22478670.016 7 117052367.245 7     -1208.406          47.000
E02                                                                  24415946.695 5  98312894.388 5      1096.510          33.000
E03  24717540.984 8 129891541.675 8     -2051.652          51.000    24717543.156 8  99527290.474 8     -1572.015          51.000
E24                                                                  25334665.375 5 102012202.474 5     -1805.621          31.000
E25  23724286.453 8 124671968.643 8      -827.699          51.000    23724289.406 8  95527885.112 8      -634.202          51.000
> 2020 05 16 07 12  0.0000000  0 14        .000000000000
G12  20952635.062 8 110106847.249 8      2079.598          51.000    20952635.344 8  85797518.474 8      1620.466          51.000
G15  22482986.125 8 118148872.499 8     -3254.945          49.000    22482985.992 8  92064058.856 8     -2536.321          49.000
G19  21567992.516 5 113340610.531 5      -296.082          33.000
G24  20171301.750 8 106000891.879 8       344.062          51.000    20171303.719 8  82598098.032 8       268.101          51.000
G25  23269626.094 7 122282727.429 7      3234.547          45.000    23269629.148 7  95285240.373 7      2520.429          43.000
R03  20922192.273 8 111998116.097 8     -2935.238          48.000    20922192.938 7  87109667.396 7     -2282.963          45.000
R22  21545596.828 5 115011825.881 5      -164.047          35.000
R23  22196788.289 8 118737847.035 8      3813.539          49.000    22196792.125 5  92351670.633 5      2966.086          34.000
C20  24315137.914 6 126615311.337 6     -1017.898          36.000
C23  22485668.820 8 117088812.823 8     -1220.504          49.000
E02                                                                  24407814.133 6  98280136.057 6      1087.959          36.000
E03  24729301.508 8 129953340.877 8     -2067.574          51.000    24729302.711 8  99574643.080 8     -1584.257          51.000
E24                                                                  25348136.758 5 102066444.284 5     -1810.161          30.000
E25  23729045.141 8 124696976.228 8      -838.594          51.000    23729048.578 8  95547046.768 8      -642.571          51.000
> 2020 05 16 07 12 30.0000000  0 14        .000000000000
G12  20940799.922 8 110044652.627 8      2061.105          51.000    20940800.648 8  85749055.152 8      1606.056          51.000
G15  22501591.641 8 118246647.063 8     -3269.004          49.000    22501592.500 8  92140246.830 8     -2547.276          49.000
G24  20169373.023 8 105990755.827 8       326.004          51.000    20169374.727 8  82590199.814 8       254.029          51.000
G25  23251179.891 7 122185791.823 7      3222.344          47.000    23251181.945 7  95209706.153 7      2510.917          47.000
R03  20938694.953 8 112086458.476 8     -2960.051          48.000    20938695.516 7  87178378.136 7     -2302.259          44.000
R12  22175322.133 5 118456629.941 5     -2824.734          32.000
R22  21546595.422 5 115017155.238 5      -197.133          34.000
R23  22175432.164 8 118623604.754 8      3796.949          48.000    22175434.820 5  92262816.594 5      2953.183          33.000
C20  24321044.461 5 126646083.563 5     -1039.281          31.000
C23  22492719.227 8 117125525.730 8     -1232.484          49.000
E02                                                                  24399724.570 5  98247559.197 5      1079.719          33.000
E03  24741133.828 8 130015519.005 8     -2083.250          51.000    24741134.570 8  99622286.014 8     -1596.256          51.000
E24                                                                  25361624.258 5 102120750.257 5     -1814.430          30.000
E25  23733847.875 8 124722215.122 8      -849.605          51.000    23733851.758 8  95566385.649 8      -651.002          51.000
> 2020 05 16 07 13  0.0000000  0 14        .000000000000
G12  20929055.430 8 109982935.381 8      2058.656          51.000    20929054.859 8  85700963.827 8      1604.151          50.000
G15  22520262.609 8 118344764.002 8     -3266.898          50.000    22520263.898 8  92216701.581 8     -2545.635          50.000
G24  20167532.352 8 105981082.389 8       324.039          51.000    20167533.859 8  82582662.072 8       252.498          51.000
G25  23232788.195 8 122089142.435 8      3226.215          48.000    23232790.180 8  95134394.977 8      2513.934          48.000
R03  20955321.930 8 112175464.705 8     -2968.410          49.000    20955323.000 7  87247605.184 7     -2308.763          45.000
R12  22191175.016 4 118541274.105 4     -2816.914          29.000
R14  21460505.445 5 114396564.338 5      2430.719          32.000
R22  21547756.297 5 115023399.135 5      -213.797          33.000
R23  22154153.250 7 118509785.328 7      3796.484          47.000    22154160.141 6  92174290.439 6      2952.824          36.000
C20  24327057.352 5 126677396.143 5     -1044.094          31.000
C23  22499823.891 8 117162520.725 8     -1228.672          50.000
E03  24753040.547 8 130078089.735 8     -2082.852          51.000    24753041.352 8  99670229.791 8     -1595.918          51.000
E24                                                                  25375128.164 5 102175122.711 5     -1806.366          34.000
E25  23738697.438 8 124747699.719 8      -844.133          51.000    23738701.461 8  95585912.800 8      -646.818          51.000
> 2020 05 16 07 13 30.0000000  0 13        .000000000000
G12  20917358.641 8 109921469.899 8      2041.184          50.000    20917356.867 8  85653068.673 8      1590.533          50.000
G15  22538955.383 8 118442994.240 8     -3279.680          50.000    22538956.883 8  92293244.594 8     -2555.595          50.000
G24  20165736.602 8 105971645.411 8       307.086          51.000    20165738.062 8  82575308.568 8       239.288          51.000
G25  23214408.062 8 121992553.690 8      3215.113          48.000    23214410.328 8  95059131.060 8      2505.283          48.000
R03  20972029.570 8 112264900.306 8     -2991.871          49.000    20972030.961 7  87317166.177 7     -2327.011          45.000
R12  22207021.805 5 118625929.878 5     -2824.453          32.000
R14  21446853.750 4 114323798.468 4      2420.039          29.000
R23  22132911.281 7 118396162.748 7      3780.582          45.000    22132920.656 6  92085917.311 6      2940.450          38.000
C20  24333128.844 5 126709023.309 5     -1063.199          33.000
C23  22506939.695 8 117199572.960 8     -1239.586          50.000
E03  24764978.227 8 130140824.990 8     -2097.383          51.000    24764979.758 8  99718299.640 8     -1607.056          51.000
E24  25388592.984 5 133417955.842 5     -2361.852          35.000    25388605.734 6 102229385.516 6     -1809.602          36.000
E25  23743550.562 8 124773202.727 8      -853.980          51.000    23743554.391 8  95605454.048 8      -654.334          51.000
> 2020 05 16 07 14  0.0000000  0 14        .000000000000
G12  20905744.781 8 109860439.285 8      2028.969          50.000    20905743.875 8  85605512.348 8      1581.015          50.000
G13  24114285.539 5 126721424.221 5     -3788.020          31.000
G15  22557704.070 8 118541517.975 8     -3287.094          50.000    22557705.570 8  92370016.290 8     -2561.372          50.000
G24  20164020.961 8 105962629.332 8       295.371          51.000    20164022.422 8  82568283.041 8       230.159          51.000
G25  23196074.484 8 121896209.520 8      3209.309          48.000    23196076.578 7  94984057.706 7      2500.760          47.000
R03  20988850.344 7 112354947.215 7     -3009.805          47.000    20988852.992 7  87387202.668 7     -2340.959          46.000
R22  21550514.328 4 115038092.782 4      -273.160          29.000
R23  22111741.688 7 118282927.712 7      3769.984          43.000    22111752.688 6  91997845.578 6      2932.207          38.000
C20  24339296.281 5 126741144.772 5     -1076.992          35.000
C23  22514101.188 8 117236863.405 8     -1245.113          50.000
E02  24375639.391 5 128094841.643 5      1399.809          33.000    24375638.719 5  98150594.723 5      1072.239          33.000
E03  24776981.852 8 130203906.184 8     -2106.551          51.000    24776984.312 8  99766634.569 8     -1614.119          51.000
E24  25402077.836 6 133488814.327 6     -2360.703          38.000    25402090.234 5 102283679.583 5     -1808.967          35.000
E25  23748441.875 8 124798906.311 8      -858.215          51.000    23748445.477 8  95625148.991 8      -657.593          51.000
> 2020 05 16 07 14 30.0000000  0 14        .000000000000
G12  20894201.781 8 109799779.839 8      2013.770          51.000    20894201.945 8  85558245.249 8      1569.171          51.000
G13  24135923.055 5 126835131.391 5     -3793.562          33.000
G15  22576495.914 8 118640268.518 8     -3297.418          50.000    22576497.133 8  92446964.729 8     -2569.417          50.000
G24  20162373.180 8 105953969.778 8       280.734          51.000    20162374.711 8  82561535.332 8       218.754          51.000
G25  23177775.438 8 121800046.776 8      3200.371          48.000    23177776.914 8  94909125.731 8      2493.796          48.000
R03  21005772.023 8 112445535.767 8     -3030.473          50.000    21005775.594 7  87457660.414 7     -2357.034          45.000
R12  22238779.891 5 118795588.419 5     -2831.809          30.000
R23  22090633.875 7 118170019.845 7      3756.047          44.000    22090645.531 6  91910028.295 6      2921.370          38.000
C20  24345548.352 6 126773695.415 6     -1094.113          40.000
C23  22521295.883 8 117274328.224 8     -1253.676          51.000
E02  24367667.703 5 128052965.490 5      1392.039          35.000    24367671.938 5  98118498.538 5      1066.603          35.000
E03  24789039.133 8 130267267.679 8     -2118.578          51.000    24789042.141 8  99815184.280 8     -1623.347          51.000
E24  25415557.812 6 133559649.003 6     -2362.777          39.000    25415570.375 6 102337955.352 6     -1810.275          37.000
E25  23753359.039 8 124824745.580 8      -865.383          51.000    23753362.531 8  95644947.911 8      -663.121          51.000
> 2020 05 16 07 15  0.0000000  0 14        .000000000000
G12  20882735.445 8 109739522.233 8      2010.352          51.000    20882735.344 8  85511291.297 8      1566.508          51.000
G15  22595336.047 8 118739273.319 8     -3295.852          49.000    22595336.930 8  92524111.291 8     -2568.196          49.000
G24  20160799.039 8 105945697.464 8       277.758          51.000    20160800.703 8  82555089.365 8       216.435          51.000
G25  23159516.672 7 121704096.531 7      3203.355          47.000    23159518.055 7  94834359.367 7      2496.124          47.000
R03  21022801.445 8 112536692.655 8     -3039.387          50.000    21022803.875 7  87528560.155 7     -2363.970          44.000
R12  22254683.328 5 118880514.153 5     -2823.688          31.000    22254678.977 4  92462606.638 4     -2196.201          25.000
R22  21553903.203 5 115056183.956 5      -319.781          33.000    21553897.594 5  89488128.746 5      -248.719          31.000
R23  22069595.719 7 118057473.864 7      3754.082          46.000    22069605.703 6  91822492.564 6      2919.848          36.000
C20  24351889.805 6 126806703.652 6     -1099.375          37.000
C23  22528529.711 8 117311996.897 8     -1250.660          51.000
E02                                                                  24359735.648 5  98086534.856 5      1069.647          35.000
E03  24801155.367 8 130330938.084 8     -2118.949          51.000    24801158.539 8  99863970.686 8     -1623.610          51.000
E24  25429038.875 6 133630489.401 6     -2352.637          37.000    25429052.188 6 102392235.580 6     -1802.909          38.000
E25  23758307.609 8 124850749.964 8      -861.164          51.000    23758310.930 8  95664873.334 8      -659.820          51.000
> 2020 05 16 07 15 30.0000000  0 13        .000000000000
G12  20871358.742 8 109679735.656 8      1976.824          51.000    20871357.766 8  85464704.391 8      1540.383          51.000
G13  24179268.492 5 127062926.219 5     -3810.988          33.000
G15  22614236.828 8 118838597.954 8     -3324.414          48.000    22614237.383 8  92601507.071 8     -2590.453          49.000
G19  21582830.859 5 113418575.425 5      -459.445          35.000
G24  20159311.758 8 105937881.487 8       244.629          51.000    20159313.328 8  82548998.989 8       190.620          51.000
G25  23141311.391 7 121608428.407 7      3175.941          46.000    23141313.195 7  94759812.808 7      2474.760          46.000
R03  21039949.328 8 112628483.567 8     -3078.574          50.000    21039950.352 7  87599953.064 7     -2394.447          44.000
R23  22048639.406 8 117945364.506 8      3721.289          48.000    22048646.578 5  91735296.482 5      2894.339          34.000
C23  22535815.641 8 117349937.100 8     -1277.434          50.000
E02                                                                  24351843.625 5  98054756.144 5      1049.926          32.000
E03  24813343.008 8 130394984.396 8     -2149.453          51.000    24813346.195 8  99913045.135 8     -1646.966          51.000
E24  25442533.172 5 133701403.582 5     -2372.988          33.000    25442547.055 6 102446572.397 6     -1818.398          36.000
E25  23763300.484 8 124876987.245 8      -886.613          51.000    23763303.422 8  95684977.217 8      -679.371          51.000
> 2020 05 16 07 16  0.0000000  0 15        .000000000000
G12  20860040.914 8 109620259.093 8      1975.957          51.000    20860039.750 8  85418359.025 8      1539.707          51.000
G13  24200962.062 5 127176929.864 5     -3801.797          35.000
G15  22633167.219 8 118938078.657 8     -3320.141          48.000    22633167.094 8  92679024.468 8     -2587.126          48.000
G19  21585442.477 5 113432301.835 5      -467.844          31.000    21585442.008 4  88388788.889 4      -364.554          27.000
G24  20157880.781 8 105930361.498 8       244.320          51.000    20157882.164 8  82543139.257 8       190.379          51.000
