     3.02           OBSERVATION DATA    M (MIXED)           RINEX VERSION / TYPE
SAVERINEX           SC600               20200503 085931 LCL PGM / RUN BY / DATE
       G = GPS       R = GLONASS       C = COMPASS          COMMENT
       S = SBAS      J = QZSS          E = GALILEO          COMMENT
BEAN                                                        MARKER NAME
1                                                           MARKER NUMBER
GEODETIC                                                    MARKER TYPE
Unige DICCA         GTER                                    OBSERVER / AGENCY
SC60291900056       SC600               2.12(191226)        REC # / TYPE / VERS
                    HEMA45          NONE                    ANT # / TYPE
  4509407.8091   693652.4678  4442337.6214                  APPROX POSITION XYZ
        0.0000        0.0000        0.0000                  ANTENNA: DELTA H/E/N
G    8 C1C L1C D1C S1C C2Y L2Y D2Y S2Y                      SYS / # / OBS TYPES
R    8 C1C L1C D1C S1C C2P L2P D2P S2P                      SYS / # / OBS TYPES
C    8 C1I L1I D1I S1I C7I L7I D7I S7I                      SYS / # / OBS TYPES
E    8 C1C L1C D1C S1C C7Q L7Q D7Q S7Q                      SYS / # / OBS TYPES
DBHZ                                                        COMMENT
     30.000                                                 INTERVAL
  2020    05    03    06    00    0.0000000     GPS         TIME OF FIRST OBS
  2020    05    03    06    59   30.0000000     GPS         TIME OF LAST OBS
     0                                                      RCV CLOCK OFFS APPL
G L1C  0.00000                                              SYS / PHASE SHIFT
G L2Y  0.00000                                              SYS / PHASE SHIFT
R L1C  0.00000                                              SYS / PHASE SHIFT
R L2P  0.25000                                              SYS / PHASE SHIFT
C L1I  0.00000                                              SYS / PHASE SHIFT
C L7I  0.00000                                              SYS / PHASE SHIFT
E L1C  0.50000                                              SYS / PHASE SHIFT
E L7Q -0.25000                                              SYS / PHASE SHIFT
 12 R02 -4 R03  5 R04  6 R05  1 R10 -5 R13 -2 R14 -7 R15  0 GLONASS SLOT / FRQ #
    R16 -1 R17  4 R18 -3 R23  3                             GLONASS SLOT / FRQ #
 C1C   71.950 C2C   71.950 C2P   71.950                     GLONASS COD/PHS/BIS
    18                                                      LEAP SECONDS
*** Above antenna height is from mark to ANTENNA BOTTOM.    COMMENT
    17     4        0.0000        ANT MEASURE TYPE/HEIGT    COMMENT
    0.0000    0.0000    0.0458    0.0405    0.0000          COMMENT
                    BASE STATION                            COMMENT
                                                            END OF HEADER
> 2020 05 03 06 00  0.0000000  0 17        .000000000000
G13  20313058.438 8 106745834.289 8      -932.957          51.000    20313055.859 8  83178554.296 8      -726.980          49.000
G15  20393353.094 7 107167799.353 7       689.934          43.000    20393352.664 7  83507366.734 7       537.611          43.000
G19  24419783.922 7 128326829.892 7      3409.941          47.000    24419783.055 6  99994903.584 6      2657.097          41.000
G28  21553765.680 6 113265789.182 6     -1919.938          38.000    21553763.789 5  88259051.675 5     -1496.058          34.000
R04  22160033.062 5 118665974.763 5     -4212.234          31.000    22160038.188 6  92295767.990 6     -3276.182          36.000
R05  19365237.906 8 103518310.242 8     -1145.012          51.000    19365240.797 8  80514236.192 8      -890.565          48.000
R15  19329956.047 7 103293536.528 7      -662.734          43.000    19329958.992 6  80339363.963 6      -515.460          41.000
R16  21326068.266 7 113920040.283 7      2809.453          42.000    21326068.398 6  88604489.301 6      2185.130          36.000
C05  39766337.164 6 207073751.735 6        17.496          37.000    39766335.328 6 160122555.680 6        13.626          40.000
C14  24653331.102 5 128376388.102 5     -3323.605          33.000    24653333.805 6  99268785.146 6     -2569.624          39.000
C24  22594329.195 8 117654641.804 8     -1615.520          50.000
C25  22370840.938 7 116490818.219 7      1271.008          45.000
E05  23672086.156 8 124397669.858 8       507.594          48.000    23672088.898 7  95317696.158 7       388.923          45.000
E09  22726659.305 8 119429371.815 8     -2136.473          51.000    22726661.227 8  91510830.137 8     -1637.023          51.000
E24  21710025.188 8 114086953.120 8       691.965          51.000    21710039.867 8  87417371.552 8       530.204          51.000
E25  26716322.547 5 140395214.429 5      2636.223          34.000    26716321.469 7 107575551.074 7      2019.460          46.000
E31  24726600.406 8 129939193.313 8     -1881.090          50.000    24726603.625 8  99563815.233 8     -1441.325          49.000
> 2020 05 03 06 00 30.0000000  0 18        .000000000000
G13  20318418.703 8 106774003.237 8      -945.594          51.000    20318416.297 8  83200504.120 8      -736.826          49.000
G15  20389453.219 7 107147304.945 7       675.570          45.000    20389452.891 7  83491397.060 7       526.418          45.000
G17  23339219.242 5 122648428.075 5      2216.977          32.000
G19  24400316.008 7 128224522.258 7      3409.754          47.000    24400314.227 6  99915183.369 6      2656.954          40.000
G28  21564755.984 5 113323545.902 5     -1930.617          34.000    21564755.250 5  88304056.823 5     -1504.386          33.000
R04  22183650.859 5 118792429.084 5     -4219.234          35.000    22183655.914 6  92394121.300 6     -3281.624          37.000
R05  19371727.461 8 103553001.503 8     -1168.418          50.000    19371730.617 8  80541218.267 8      -908.773          48.000
R15  19333712.773 7 103313611.236 7      -676.176          44.000    19333716.078 6  80354977.611 6      -525.918          39.000
R16  21310314.719 6 113835882.204 6      2800.223          41.000    21310312.094 6  88539033.021 6      2177.951          36.000
C05  39766225.367 6 207073169.575 6        20.410          37.000    39766223.562 6 160122105.514 6        15.586          40.000
C14  24672478.148 6 128476101.464 6     -3324.871          37.000    24672482.531 6  99345889.719 6     -2571.037          36.000
C24  22603647.516 8 117703165.092 8     -1620.039          50.000
C25  22363535.164 7 116452777.326 7      1264.336          44.000
E05  23669213.117 8 124382569.796 8       498.340          48.000    23669215.148 7  95306125.998 7       381.797          45.000
E09  22738873.266 8 119493554.183 8     -2143.066          51.000    22738875.414 8  91560008.768 8     -1642.069          51.000
E24  21706096.492 8 114066305.155 8       683.754          51.000    21706110.555 8  87401550.382 8       523.906          51.000
E25                                                                  26701280.422 7 107514984.902 7      2017.685          44.000
E31  24737348.547 8 129995675.340 8     -1885.082          51.000    24737351.695 8  99607093.658 8     -1444.434          48.000
> 2020 05 03 06 01  0.0000000  0 20        .000000000000
G13  20323866.133 8 106802630.243 8      -961.359          51.000    20323863.867 8  83222810.876 8      -749.111          49.000
G15  20385651.164 7 107127324.685 7       657.934          45.000    20385650.984 7  83475828.037 7       512.676          45.000
G17  23326600.242 5 122582113.114 5      2205.414          30.000    23326605.406 4  95518532.001 4      1718.501          27.000
G19  24380863.281 8 128122295.411 8      3406.629          48.000    24380860.594 6  99835526.132 6      2654.519          39.000
G24  22535324.648 5 118423928.373 5      2694.789          32.000
G28  21575821.172 6 113381705.848 6     -1944.703          38.000    21575819.734 5  88349367.684 5     -1515.356          34.000
G30  23634127.320 5 124198165.521 5     -2851.008          31.000
R04  22207319.648 6 118919171.292 6     -4228.863          38.000    22207324.375 5  92492698.545 5     -3289.119          35.000
R05  19378362.836 8 103588473.265 8     -1194.922          50.000    19378366.695 8  80568807.397 8      -929.384          48.000
R15  19337559.602 7 103334168.401 7      -692.656          42.000    19337562.562 6  80370966.470 6      -538.733          38.000
R16  21294628.188 6 113752087.773 6      2787.500          38.000    21294626.297 6  88473859.593 6      2168.053          37.000
C05  39766113.430 6 207072586.794 6        19.422          37.000    39766111.719 6 160121654.845 6        15.193          40.000
C14  24691652.109 6 128575949.043 6     -3330.285          36.000    24691656.047 5  99423098.016 5     -2574.895          35.000
C24  22613006.922 8 117751901.109 8     -1627.547          49.000
C25  22356281.820 7 116415009.184 7      1254.832          44.000
E05  23666408.164 8 124367827.964 8       485.754          48.000    23666409.500 7  95294830.303 7       372.225          46.000
E09  22751139.930 8 119558012.554 8     -2152.723          51.000    22751141.984 8  91609398.896 8     -1649.543          51.000
E24  21702229.891 8 114045984.340 8       672.312          51.000    21702243.672 8  87385979.896 8       515.169          51.000
E25  26686278.477 5 140237335.238 5      2626.891          33.000    26686267.922 6 107454539.871 6      2013.064          41.000
E31  24748134.359 8 130052354.713 8     -1892.176          50.000    24748137.492 8  99650523.286 8     -1449.825          48.000
> 2020 05 03 06 01 30.0000000  0 17        .000000000000
G13  20329397.094 8 106831695.757 8      -978.523          51.000    20329395.086 8  83245459.324 8      -762.486          49.000
G15  20381943.328 7 107107840.003 7       638.910          45.000    20381943.195 7  83460645.145 7       497.852          45.000
G19  24361422.609 7 128020132.780 7      3402.055          47.000    24361419.406 6  99755918.905 6      2650.955          39.000
G28  21586957.008 6 113440225.178 6     -1958.945          38.000    21586956.539 6  88394967.082 6     -1526.451          37.000
R04  22231037.477 6 119046177.347 6     -4240.051          40.000    22231041.352 5  92591481.021 5     -3297.820          32.000
R05  19385140.016 8 103624704.390 8     -1222.629          50.000    19385144.547 8  80596987.147 8      -950.937          48.000
R15  19341492.312 7 103355185.988 7      -710.578          43.000    19341495.562 6  80387313.486 6      -552.672          38.000
R16  21279004.852 6 113668637.410 6      2773.742          36.000    21279005.547 6  88408953.706 6      2157.355          36.000
C05  39765997.594 6 207071983.532 6        18.297          37.000    39765995.820 6 160121188.361 6        14.139          40.000
C14  24710847.906 6 128675909.018 6     -3336.250          37.000    24710851.430 6  99500393.268 6     -2579.855          38.000
C24  22622403.242 8 117800828.999 8     -1636.438          49.000
C25  22349076.898 7 116377493.909 7      1243.895          44.000
E05  23663667.820 8 124353425.190 8       472.195          48.000    23663669.000 7  95283794.395 7       361.848          47.000
E09  22763455.227 8 119622726.180 8     -2163.672          51.000    22763456.992 8  91658984.613 8     -1657.875          51.000
E24  21698421.367 8 114025970.361 8       659.688          51.000    21698435.039 8  87370644.522 8       505.520          51.000
E25  26671293.633 6 140158587.990 6      2620.070          38.000    26671279.906 6 107394201.176 6      2007.775          38.000
E31  24758953.727 8 130109210.086 8     -1900.391          49.000    24758956.898 8  99694087.780 8     -1456.123          48.000
> 2020 05 03 06 02  0.0000000  0 16        .000000000000
G13  20335028.883 8 106861290.603 8      -992.516          51.000    20335026.945 8  83268520.227 8      -773.392          50.000
G15  20378347.188 7 107088942.008 7       622.930          46.000    20378346.453 7  83445919.420 7       485.400          46.000
G19  24342011.516 7 127918127.871 7      3400.152          46.000    24342009.297 6  99676434.632 6      2649.472          41.000
R04  22254820.523 6 119173535.714 6     -4248.324          40.000    22254824.727 5  92690537.519 5     -3304.252          30.000
R05  19392076.227 8 103661785.667 8     -1247.402          49.000    19392080.898 7  80625828.112 7      -970.202          47.000
R15  19345528.766 7 103376754.054 7      -725.211          42.000    19345531.484 6  80404088.597 6      -564.056          37.000
R16  21263463.883 6 113585624.056 6      2762.535          36.000    21263466.375 5  88344387.738 5      2148.638          34.000
C05  39765895.164 6 207071449.431 6        19.543          37.000    39765893.273 6 160120775.357 6        14.876          40.000
C14  24730082.914 5 128776068.661 5     -3339.059          35.000    24730085.461 6  99577843.067 6     -2582.135          41.000
C24  22631853.109 8 117850037.134 8     -1642.164          48.000
C25  22341938.039 7 116340320.895 7      1236.016          45.000
E05  23661009.211 8 124339452.712 8       461.246          49.000    23661010.523 7  95273088.183 7       353.527          47.000
E09  22775835.961 8 119687784.597 8     -2171.617          51.000    22775837.164 8  91708834.533 8     -1664.032          51.000
E24  21694688.484 8 114006353.252 8       650.004          51.000    21694701.586 8  87355613.213 8       498.097          51.000
E25  26656351.297 6 140080070.601 6      2616.145          39.000    26656333.914 5 107334038.547 5      2004.581          34.000
E31  24769823.344 8 130166330.402 8     -1905.621          49.000    24769826.547 7  99737855.294 7     -1460.184          47.000
> 2020 05 03 06 02 30.0000000  0 18        .000000000000
G13  20340738.500 8 106891294.061 8     -1007.621          51.000    20340736.984 8  83291899.515 8      -785.162          50.000
G15  20374840.109 7 107070512.227 7       605.863          45.000    20374838.836 7  83431558.542 7       472.098          45.000
G17  23289142.992 5 122385266.442 5      2170.566          34.000    23289136.891 5  95365149.008 5      1691.363          32.000
G19  24322607.695 7 127816163.977 7      3397.215          43.000    24322606.094 6  99596982.329 6      2647.183          39.000
G28  21609467.070 6 113558509.530 6     -1983.508          38.000    21609466.391 6  88487137.123 6     -1545.597          37.000
R04  22278646.594 6 119301120.559 6     -4257.320          41.000    22278652.414 4  92789770.115 4     -3311.249          28.000
R05  19399149.047 8 103699593.888 8     -1273.066          51.000    19399153.031 7  80655234.493 7      -990.163          47.000
R15  19349644.109 7 103398748.376 7      -740.906          43.000    19349647.766 6  80421195.329 6      -576.260          39.000
R16  21247981.602 6 113502926.396 6      2750.512          36.000    21247984.555 5  88280067.393 5      2139.290          32.000
C05  39765782.992 6 207070865.450 6        19.582          37.000    39765781.133 6 160120323.768 6        15.115          39.000
C14  24749332.133 4 128876307.102 4     -3344.020          29.000    24749335.195 7  99655353.698 7     -2585.216          44.000
C24  22641333.406 7 117899405.488 7     -1649.059          47.000
C25  22334842.969 7 116303371.102 7      1227.234          46.000
E05  23658409.742 8 124325791.275 8       449.430          50.000    23658410.781 8  95262620.337 8       344.344          48.000
E09  22788258.953 8 119753066.928 8     -2180.422          51.000    22788259.812 8  91758856.028 8     -1670.776          51.000
E24  21691008.211 8 113987012.581 8       639.340          51.000    21691020.859 8  87340793.737 8       489.911          51.000
E25  26641430.008 5 140001663.666 5      2611.254          35.000    26641410.156 5 107273922.495 5      2000.615          33.000
E31  24780720.172 8 130223594.326 8     -1911.883          49.000    24780723.086 7  99781732.828 7     -1464.886          46.000
> 2020 05 03 06 03  0.0000000  0 16        .000000000000
G13  20346535.914 8 106921759.254 8     -1024.359          51.000    20346534.984 8  83315638.599 8      -798.202          50.000
G15  20371432.336 7 107052604.205 7       586.988          47.000    20371430.539 7  83417604.231 7       457.393          47.000
G19  24303221.000 6 127714296.936 6      3393.086          39.000    24303219.922 6  99517605.522 6      2643.966          39.000
G28  21620828.008 5 113618210.161 5     -1997.582          34.000    21620828.453 5  88533657.029 5     -1556.557          32.000
R04  22302524.469 6 119428982.245 6     -4267.734          40.000
R05  19406368.508 8 103738182.017 8     -1300.457          51.000    19406371.281 8  80685247.464 8     -1011.467          48.000
R15  19353849.828 7 103421220.964 7      -758.227          42.000    19353854.227 6  80438673.976 6      -589.732          40.000
R16  21232569.172 6 113420598.650 6      2737.234          36.000    21232571.219 5  88216034.750 5      2128.963          35.000
C05  39765671.227 6 207070283.905 6        18.258          37.000    39765669.453 6 160119874.068 6        14.163          40.000
C24  22650854.289 7 117948985.249 7     -1657.301          46.000
C25  22327800.664 7 116266696.823 7      1216.859          47.000
E05  23655879.562 8 124312494.496 8       436.066          50.000    23655880.391 8  95252431.901 8       334.018          48.000
E09  22800733.945 8 119818625.153 8     -2190.961          51.000    22800734.586 8  91809088.930 8     -1678.821          51.000
E24  21687390.391 8 113968000.781 8       627.152          51.000    21687402.953 8  87326226.269 8       480.557          51.000
E25                                                                  26626520.750 5 107213964.014 5      1995.542          32.000
E31  24791654.172 8 130281053.210 8     -1919.668          48.000    24791656.328 7  99825759.751 7     -1470.917          46.000
> 2020 05 03 06 03 30.0000000  0 16        .000000000000
G13  20352417.711 8 106952668.416 8     -1042.070          51.000    20352417.016 8  83339723.628 8      -812.003          49.000
G15  20368120.594 7 107035201.296 7       567.398          47.000    20368119.125 7  83404043.520 7       442.129          47.000
G19  24283851.305 6 127612512.624 6      3387.340          41.000    24283849.883 6  99438293.043 6      2639.486          40.000
G28  21632257.383 6 113678279.614 6     -2012.691          38.000    21632258.453 6  88580481.936 6     -1568.334          37.000
R04  22326450.141 6 119557099.191 6     -4279.199          40.000    22326459.359 4  92988912.675 4     -3328.263          26.000
R05  19413730.367 8 103777530.843 8     -1328.664          51.000    19413732.375 8  80715852.093 8     -1033.405          49.000
R15  19358140.727 7 103444151.795 7      -776.445          43.000    19358145.617 6  80456509.105 6      -603.902          37.000
R16  21217224.445 6 113338623.808 6      2722.055          37.000    21217225.664 6  88152276.546 6      2117.154          36.000
C05  39765556.664 6 207069687.198 6        16.203          37.000    39765554.914 6 160119412.658 6        12.233          40.000
C24  22660412.766 7 117998757.764 7     -1666.551          47.000
C25  22320807.133 7 116230280.289 7      1205.305          46.000
E05  23653415.211 8 124299545.450 8       421.492          49.000    23653416.258 8  95242509.883 8       323.054          48.000
E09  22813256.961 8 119884440.662 8     -2202.465          49.000    22813258.398 8  91859518.986 8     -1687.552          51.000
E24  21683831.719 8 113949299.711 8       613.906          51.000    21683844.016 8  87311896.878 8       470.417          51.000
E25  26611658.438 5 139845209.287 5      2596.379          34.000    26611661.695 5 107154124.005 5      1989.388          33.000
E31  24802621.672 7 130338687.919 7     -1928.457          47.000    24802623.164 7  99869921.380 7     -1477.502          45.000
> 2020 05 03 06 04  0.0000000  0 17        .000000000000
G13  20358380.766 8 106984004.880 8     -1045.707          51.000    20358380.289 8  83364141.624 8      -814.840          50.000
G15  20364901.953 7 107018287.907 7       561.598          47.000    20364901.070 7  83390864.235 7       437.609          47.000
G19  24264495.953 7 127510797.340 7      3395.219          42.000    24264493.898 7  99359034.468 7      2645.625          42.000
G24  22443679.570 5 117942323.519 5      2664.707          35.000    22443695.875 5  91903169.699 5      2076.395          33.000
G28  21643754.508 6 113738695.487 6     -2013.566          41.000    21643754.617 6  88627559.178 6     -1569.013          40.000
R04  22350419.547 6 119685450.741 6     -4276.172          38.000    22350423.703 4  93088727.705 4     -3325.908          25.000
R05  19421231.227 8 103817622.380 8     -1342.691          51.000    19421232.703 8  80747034.416 8     -1044.316          50.000
R15  19362514.586 7 103467522.054 7      -780.180          43.000    19362517.523 6  80474685.900 6      -606.806          38.000
R16  21201943.453 5 113256985.712 5      2721.195          33.000    21201943.508 6  88088780.291 6      2116.485          36.000
C05  39765435.938 6 207069058.794 6        27.398          37.000    39765434.273 6 160118926.715 6        21.165          39.000
C24  22670005.180 7 118048705.415 7     -1661.973          47.000
C25  22313859.766 7 116194104.892 7      1207.801          46.000
E05  23651013.930 8 124286928.294 8       420.953          50.000    23651014.914 8  95232842.185 8       322.534          48.000
E09  22825825.258 8 119950495.962 8     -2199.863          50.000    22825827.992 8  91910132.791 8     -1685.657          51.000
E24  21680328.969 8 113930892.338 8       614.648          51.000    21680340.938 8  87297792.508 8       470.961          51.000
E25  26596824.383 6 139767243.726 6      2602.547          39.000    26596827.953 5 107094394.149 5      1993.965          31.000
E31  24813619.242 8 130396480.451 8     -1923.023          48.000    24813620.672 7  99914203.954 7     -1473.530          45.000
> 2020 05 03 06 04 30.0000000  0 18        .000000000000
G05  24649430.992 5 129533639.581 5     -3635.613          31.000
G13  20364428.742 8 107015787.717 8     -1067.758          51.000    20364428.312 8  83388907.457 8      -832.019          50.000
G15  20361780.383 8 107001883.873 8       537.484          48.000    20361779.586 8  83378081.834 8       418.819          48.000
G17  23240105.156 5 122127567.673 5      2124.125          32.000
G19  24245158.188 7 127409173.593 7      3385.039          46.000    24245156.172 7  99279847.229 7      2637.693          43.000
G24  22428523.266 5 117862670.153 5      2651.375          35.000    22428541.070 5  91841102.046 5      2066.003          32.000
G28  21655321.281 6 113799476.361 6     -2032.152          38.000    21655319.961 6  88674920.904 6     -1583.492          38.000
R04  22374435.672 6 119814053.249 6     -4291.805          36.000    22374435.664 4  93188732.871 4     -3338.070          28.000
R05  19428874.188 8 103858475.168 8     -1375.352          51.000    19428875.781 8  80778808.800 8     -1069.718          51.000
R15  19366973.273 7 103491349.107 7      -802.570          45.000    19366977.375 6  80493218.110 6      -624.221          40.000
C05  39765312.805 6 207068417.638 6        20.770          37.000    39765311.141 6 160118430.915 6        16.226          40.000
C24  22679634.609 8 118098846.089 8     -1675.629          48.000
C25  22306962.367 7 116158189.491 7      1192.105          44.000
E05  23648679.836 8 124274662.893 8       402.207          50.000    23648680.422 8  95223444.020 8       308.128          48.000
E09  22838443.578 8 120016809.347 8     -2215.602          51.000    22838446.898 8  91960944.338 8     -1697.663          51.000
E24  21676885.727 8 113912797.373 8       597.137          51.000    21676897.555 8  87283927.530 8       457.531          51.000
E25  26582018.812 6 139689428.646 6      2590.426          41.000    26582015.344 4 107034761.606 4      1985.012          28.000
E31  24824650.195 8 130454448.547 8     -1936.086          48.000    24824652.320 7  99958621.041 7     -1483.432          46.000
> 2020 05 03 06 05  0.0000000  0 19        .000000000000
G05  24670185.016 5 129642707.624 5     -3635.734          31.000
G13  20370570.695 8 107048064.622 8     -1083.965          51.000    20370570.305 8  83414058.272 8      -844.648          50.000
G15  20358765.125 8 106986038.314 8       518.875          49.000    20358764.383 8  83365734.652 8       404.318          49.000
G19  24225847.375 7 127307692.693 7      3380.395          44.000    24225846.352 7  99200771.243 7      2634.077          44.000
G24  22413408.602 5 117783242.439 5      2644.051          35.000
G28  21666966.039 7 113860667.878 7     -2046.285          42.000    21666963.805 6  88722602.599 6     -1594.508          39.000
R04  22398506.594 4 119942952.071 4     -4301.645          29.000    22398507.055 5  93288987.484 5     -3345.727          30.000
R05  19436668.031 8 103900136.519 8     -1402.129          51.000    19436669.656 8  80811212.061 8     -1090.545          50.000
R14  22118117.086 5 117901952.259 5     -3408.969          33.000    22118112.172 4  91701508.182 4     -2651.423          29.000
R15  19371526.922 7 103515680.028 7      -819.320          44.000    19371530.234 6  80512142.121 6      -637.249          38.000
R16  21171585.016 5 113094853.329 5      2689.586          33.000    21171586.617 5  87962643.509 5      2091.903          35.000
C05  39765196.359 6 207067811.111 6        19.953          37.000    39765194.625 6 160117961.914 6        15.193          39.000
C24  22689309.578 8 118149226.076 8     -1683.199          48.000
C25  22300123.438 7 116122581.414 7      1181.676          44.000
E05  23646422.000 8 124262797.959 8       388.914          51.000    23646422.406 8  95214352.688 8       297.957          49.000
E09  22851120.750 8 120083427.858 8     -2225.652          51.000    22851124.109 8  92011989.671 8     -1705.331          51.000
E24  21673510.891 8 113895062.311 8       585.293          51.000    21673522.680 8  87270338.336 8       448.447          51.000
E25  26567250.961 7 139611812.547 7      2584.105          43.000
E31  24835723.492 8 130512638.715 8     -1943.266          48.000    24835726.438 7 100003208.302 7     -1489.047          45.000
> 2020 05 03 06 05 30.0000000  0 18        .000000000000
G05  24690940.352 5 129751764.503 5     -3636.645          30.000
G13  20376804.031 8 107080821.249 8     -1099.582          51.000    20376803.688 8  83439582.916 8      -856.817          50.000
G15  20355853.500 8 106970737.704 8       501.199          49.000    20355852.742 8  83353812.084 8       390.545          49.000
G17  23215991.930 5 122000867.066 5      2098.113          31.000    23216006.227 5  95065633.530 5      1634.900          30.000
G19  24206560.938 7 127206343.170 7      3376.328          45.000    24206561.367 7  99121797.693 7      2630.908          44.000
G24  22398335.031 5 117704027.206 5      2637.270          35.000    22398343.578 5  91717454.892 5      2055.000          33.000
G28  21678685.797 7 113922253.360 7     -2059.098          44.000    21678683.320 6  88770591.241 6     -1604.492          37.000
R05  19444610.188 8 103942590.478 8     -1428.051          51.000    19444611.484 8  80844231.811 8     -1110.706          50.000
R15  19376170.945 7 103540497.743 7      -835.098          45.000    19376173.914 6  80531444.796 6      -649.523          40.000
R16  21156519.727 5 113014370.543 5      2676.469          34.000    21156519.930 5  87900045.845 5      2081.701          34.000
C05  39765083.828 6 207067224.841 6        19.449          37.000    39765081.945 6 160117508.563 6        14.934          39.000
C24  22699027.211 7 118199829.924 7     -1690.203          47.000
C25  22293340.781 7 116087266.086 7      1172.492          44.000
E05  23644237.680 8 124251319.697 8       376.477          51.000    23644238.305 8  95205557.661 8       288.394          50.000
E09  22863853.383 8 120150336.075 8     -2234.805          51.000    22863856.789 8  92063256.988 8     -1712.338          51.000
E24  21670201.508 8 113877672.236 8       574.227          51.000    21670213.117 8  87257013.488 8       439.959          51.000
E25  26552517.719 7 139534381.563 7      2578.242          43.000    26552512.242 5 106915960.469 5      1975.261          34.000
E31  24846836.047 7 130571035.048 7     -1949.602          47.000    24846839.312 7 100047953.548 7     -1493.880          45.000
> 2020 05 03 06 06  0.0000000  0 18        .000000000000
G05  24711693.664 5 129860810.653 5     -3630.367          31.000
G13  20383124.750 8 107114036.850 8     -1110.320          51.000    20383124.242 8  83465465.195 8      -865.185          50.000
G15  20353041.812 8 106955962.443 8       488.105          49.000    20353040.656 8  83342298.888 8       380.342          49.000
G17  23204046.031 6 121938084.449 6      2090.938          37.000    23204069.984 5  95016712.127 5      1629.302          33.000
G19  24187296.258 7 127105107.783 7      3377.176          42.000    24187297.133 7  99042912.994 7      2631.569          43.000
G24  22383305.828 5 117625057.920 5      2635.848          31.000
G28  21690475.883 6 113984210.095 6     -2066.785          40.000    21690474.039 6  88818869.210 6     -1610.479          39.000
R05  19452696.297 8 103985814.936 8     -1449.039          51.000    19452697.469 8  80877850.806 8     -1127.033          49.000
R15  19380902.211 7 103565779.670 7      -845.770          44.000    19380905.664 6  80551108.519 6      -657.821          40.000
R16  21141524.648 6 112934259.649 6      2668.641          37.000    21141522.281 5  87837737.405 5      2075.609          31.000
C05  39764971.172 6 207066638.361 6        24.336          37.000    39764969.336 6 160117055.031 6        18.652          39.000
C24  22708783.969 7 118250636.065 7     -1692.395          46.000
C25  22286611.359 7 116052223.005 7      1167.949          44.000
E05  23642123.117 8 124240208.250 8       368.879          51.000    23642124.250 8  95197043.670 8       282.624          50.000
E09  22876636.984 8 120217512.459 8     -2239.156          51.000    22876640.625 8  92114729.774 8     -1715.693          51.000
E24  21666953.672 8 113860606.082 8       568.012          51.000    21666964.969 8  87243936.805 8       435.242          51.000
E25  26537814.961 7 139457115.678 7      2577.258          43.000    26537815.547 6 106856756.798 6      1974.737          40.000
E31  24857983.484 7 130629615.584 7     -1951.273          46.000    24857986.734 7 100092839.907 7     -1495.054          45.000
> 2020 05 03 06 06 30.0000000  0 17        .000000000000
G13  20389538.992 8 107147743.748 8     -1130.047          51.000    20389538.383 8  83491730.285 8      -880.556          50.000
G15  20350336.422 8 106941745.670 8       466.348          49.000    20350335.242 8  83331220.867 8       363.388          49.000
G17  23192175.320 6 121875701.664 6      2074.746          37.000    23192169.484 6  94968055.719 6      1616.685          37.000
G19  24168060.062 7 127004022.160 7      3368.559          45.000    24168061.109 7  98964145.037 7      2624.854          44.000
G28  21702342.148 7 114046568.170 7     -2083.555          43.000    21702340.000 6  88867459.914 6     -1623.549          38.000
R04  22471024.172 5 120331313.274 5     -4326.434          30.000
R05  19460932.180 8 104029841.434 8     -1479.066          51.000    19460933.469 7  80912093.617 7     -1150.385          47.000
R15  19385725.953 7 103591556.604 7      -865.648          44.000    19385728.953 6  80571157.219 6      -673.285          39.000
R16  21126603.984 6 112854554.228 6      2651.895          36.000    21126601.703 5  87775744.391 5      2062.588          31.000
C05  39764864.656 6 207066083.782 6        19.668          37.000    39764862.805 6 160116626.169 6        15.338          39.000
C24  22718585.797 7 118301675.607 7     -1703.434          46.000
C25  22279940.320 7 116017484.188 7      1154.578          44.000
E05  23640084.672 8 124229496.802 8       352.164          51.000    23640086.227 8  95188836.181 8       269.858          50.000
E09  22889477.508 8 120284988.590 8     -2252.336          51.000    22889481.398 8  92166432.229 8     -1725.777          51.000
E24  21663773.477 8 113843895.837 8       552.859          51.000    21663784.992 8  87231132.847 8       423.676          51.000
E25  26523149.023 7 139380047.930 7      2567.609          43.000    26523154.000 7 106797704.898 7      1967.290          43.000
E31  24869171.914 7 130688411.307 7     -1961.586          46.000    24869174.891 7 100137891.174 7     -1503.147          44.000
> 2020 05 03 06 07  0.0000000  0 18        .000000000000
G13  20396017.789 8 107181789.376 8     -1140.582          51.000    20396016.891 8  83518259.323 8      -888.768          50.000
G15  20347708.484 8 106927935.853 8       453.520          50.000    20347707.586 8  83320459.964 8       353.392          50.000
G17  23180351.273 6 121813569.168 6      2066.660          36.000    23180345.258 6  94919640.877 6      1610.388          36.000
G19  24148824.289 7 126902936.934 7      3369.414          45.000    24148824.820 7  98885377.401 7      2625.517          43.000
G24  22353326.305 5 117467502.162 5      2622.914          33.000
G28  21714255.328 7 114109172.963 7     -2090.922          42.000    21714252.727 6  88916242.819 6     -1629.290          39.000
R04  22495271.656 5 120461149.500 5     -4329.738          32.000    22495271.766 5  93692010.658 5     -3367.574          31.000
R05  19469289.031 8 104074513.746 8     -1499.824          51.000    19469289.938 7  80946838.747 7     -1166.530          47.000
R15  19390613.086 7 103617671.673 7      -876.172          44.000    19390616.281 6  80591468.944 6      -681.467          41.000
R16  21111728.383 4 112775100.264 4      2643.898          29.000    21111728.625 5  87713946.883 5      2056.365          33.000
C05  39764735.305 6 207065409.988 6        24.758          37.000    39764733.430 6 160116105.170 6        18.658          39.000
C24  22728403.266 7 118352796.339 7     -1705.340          45.000
C25  22273297.609 7 115982898.395 7      1150.297          42.000
E05  23638093.453 8 124219033.634 8       344.547          51.000    23638095.086 8  95180818.927 8       264.033          50.000
E09  22902346.117 8 120352611.074 8     -2256.609          51.000    22902349.867 8  92218246.832 8     -1729.075          51.000
E24  21660631.898 8 113827388.600 8       546.809          51.000    21660643.992 8  87218484.468 8       418.935          51.000
E25  26508491.719 7 139303026.435 7      2566.500          43.000    26508498.719 7 106738688.462 7      1966.578          44.000
E31  24880372.125 7 130747268.397 7     -1962.938          46.000    24880374.922 7 100182989.452 7     -1504.096          44.000
> 2020 05 03 06 07 30.0000000  0 16        .000000000000
G13  20402600.078 8 107216379.346 8     -1167.141          51.000    20402599.008 8  83545212.512 8      -909.463          49.000
G15  20345197.359 8 106914739.627 8       424.570          50.000    20345196.625 8  83310177.183 8       330.834          51.000
G17  23168615.797 6 121751895.025 6      2043.102          36.000    23168609.016 6  94871583.149 6      1592.030          36.000
G19  24129628.383 7 126802061.340 7      3354.000          47.000    24129628.328 6  98806773.066 6      2613.503          41.000
G28  21726254.266 6 114172227.805 6     -2114.109          40.000    21726252.148 6  88965376.468 6     -1647.355          40.000
R04  22519576.758 5 120591316.473 5     -4349.363          35.000    22519578.547 5  93793251.639 5     -3382.841          32.000
R05  19477805.578 8 104120039.552 8     -1536.855          51.000    19477806.633 7  80982247.656 7     -1195.335          47.000
R15  19395602.203 7 103644331.911 7      -902.930          45.000    19395605.625 6  80612204.693 6      -702.279          40.000
C05  39764622.109 6 207064820.721 6        13.496          37.000    39764620.289 6 160115649.486 6        10.176          39.000
C24  22738274.875 7 118404200.982 7     -1723.262          43.000
C25  22266724.039 7 115948669.180 7      1130.020          44.000
E05  23636188.836 8 124209025.088 8       321.094          51.000    23636190.266 8  95173150.037 8       246.024          50.000
E09  22915281.586 8 120420584.639 8     -2276.672          51.000    22915284.961 8  92270330.443 8     -1744.442          51.000
E24  21657568.172 8 113811289.586 8       524.863          51.000    21657580.430 8  87206148.858 8       402.171          51.000
E25  26493882.305 7 139226257.418 7      2549.742          45.000    26493890.117 7 106679865.484 7      1953.651          45.000
E31  24891623.000 7 130806391.161 7     -1980.219          46.000    24891625.875 7 100228291.283 7     -1517.200          44.000
> 2020 05 03 06 08  0.0000000  0 18        .000000000000
G13  20409263.242 8 107251394.355 8     -1175.164          51.000    20409261.930 8  83572496.911 8      -915.712          49.000
G15  20342780.484 8 106902038.840 8       414.133          51.000    20342780.039 8  83300280.444 8       322.701          51.000
G17  23156946.062 6 121690563.028 6      2037.609          36.000    23156938.414 5  94823792.199 5      1587.745          33.000
G19  24110450.477 7 126701279.551 7      3356.797          47.000    24110450.328 7  98728241.802 7      2615.686          42.000
G24  22323498.273 5 117310772.202 5      2605.309          32.000    22323496.469 5  91410989.997 5      2030.114          32.000
G28  21738315.789 7 114235611.456 7     -2118.957          43.000    21738314.070 6  89014766.340 6     -1651.132          38.000
R04  22543922.578 6 120721688.590 6     -4350.227          37.000    22543924.156 5  93894652.156 5     -3383.510          32.000
R05  19486458.844 8 104166296.286 8     -1554.992          51.000    19486460.234 7  81018225.079 7     -1209.438          47.000
R15  19400670.445 7 103671414.304 7      -910.727          46.000    19400673.031 6  80633268.766 6      -708.343          40.000
R16  21082217.898 5 112617397.025 5      2614.887          31.000    21082211.805 4  87591312.845 4      2033.807          28.000
C05  39764502.477 6 207064197.988 6        20.457          37.000    39764500.664 6 160115167.912 6        15.761          39.000
C24  22748177.672 7 118455770.376 7     -1722.891          42.000
C25  22260197.688 7 115914678.487 7      1128.188          46.000
E05  23634348.383 8 124199352.871 8       315.777          51.000    23634349.633 8  95165738.854 8       241.929          51.000
E09  22928260.930 8 120488789.344 8     -2278.309          51.000    22928263.828 8  92322591.150 8     -1745.756          51.000
E24  21654559.461 8 113795479.273 8       521.199          51.000    21654571.758 8  87194034.458 8       399.360          51.000
E25  26479298.680 7 139149622.458 7      2551.316          46.000    26479306.203 7 106621145.212 7      1954.965          46.000
E31  24902901.352 7 130865659.153 7     -1979.023          47.000    24902904.664 7 100273704.417 7     -1516.356          44.000
> 2020 05 03 06 08 30.0000000  0 17        .000000000000
G13  20416028.438 8 107286945.263 8     -1189.469          51.000    20416027.070 8  83600198.919 8      -926.859          49.000
G15  20340479.211 8 106889945.341 8       397.465          51.000    20340478.898 8  83290856.928 8       309.713          51.000
G19  24091312.086 8 126600705.698 8      3353.438          48.000    24091311.586 6  98649872.580 6      2613.065          40.000
G28  21750460.609 7 114299432.782 7     -2130.359          43.000    21750458.484 6  89064497.185 6     -1660.023          36.000
R04  22568326.195 5 120852375.478 5     -4356.590          35.000    22568329.008 5  93996297.472 5     -3388.459          33.000
R05  19495269.305 8 104213395.593 8     -1579.527          51.000    19495271.211 7  81054857.859 7     -1228.521          47.000
R14  22252829.711 5 118620046.010 5     -3427.152          32.000
R15  19405838.648 7 103699029.926 7      -924.918          45.000    19405841.312 6  80654747.610 6      -719.381          40.000
R16  21067578.641 5 112539198.790 5      2603.906          35.000    21067575.312 5  87530487.084 5      2025.263          31.000
C05  39764397.594 6 207063651.759 6        21.129          37.000    39764395.773 6 160114745.519 6        16.432          39.000
C24  22758132.914 6 118507613.547 6     -1728.285          41.000
C25  22253738.250 7 115881036.183 7      1120.133          44.000
E05  23632593.125 8 124190128.688 8       304.441          51.000    23632594.328 8  95158670.972 8       233.231          51.000
E09  22941305.008 8 120557335.316 8     -2286.180          51.000    22941307.672 8  92375113.333 8     -1751.757          51.000
E24  21651626.859 8 113780068.202 8       511.434          51.000    21651639.516 8  87182225.991 8       391.854          51.000
E25  26464761.883 7 139073233.159 7      2546.574          46.000    26464768.461 7 106562613.177 7      1951.214          46.000
E31  24914228.250 7 130925182.008 7     -1984.000          47.000    24914231.727 7 100319312.817 7     -1520.154          44.000
> 2020 05 03 06 09  0.0000000  0 20        .000000000000
G13  20422857.977 8 107322835.477 8     -1203.988          50.000    20422857.227 8  83628165.306 8      -938.173          50.000
G15  20338256.234 8 106878263.392 8       380.484          51.000    20338255.875 8  83281754.093 8       296.481          51.000
G17  23133830.633 6 121569105.736 6      2014.160          36.000    23133826.398 5  94729164.991 5      1569.472          35.000
G19  24072176.742 7 126500146.640 7      3349.605          46.000    24072176.648 7  98571514.870 7      2610.082          43.000
G24  22293822.445 5 117154827.424 5      2594.602          32.000
G28  21762650.852 6 114363492.757 6     -2141.281          40.000    21762648.438 6  89114414.023 6     -1668.531          39.000
G30  23896630.508 4 125577639.915 4     -2893.945          29.000    23896635.688 5  97852721.301 5     -2255.034          30.000
R04  22592751.680 6 120983173.763 6     -4363.738          37.000    22592754.961 5  94098029.382 5     -3394.019          33.000
R05  19504199.758 8 104261136.087 8     -1604.059          51.000    19504202.070 8  81091989.351 8     -1247.601          48.000
R14  22272119.133 6 118722890.680 6     -3429.383          36.000
R15  19411068.648 7 103726976.720 7      -939.047          43.000    19411070.820 6  80676484.002 6      -730.370          39.000
R16  21052991.031 5 112461255.531 5      2591.484          35.000    21052987.906 5  87469864.559 5      2015.599          34.000
C05  39764269.922 6 207062987.287 6        22.383          37.000    39764268.125 6 160114231.699 6        17.241          39.000
C24  22768103.469 6 118559534.678 6     -1734.066          37.000
C25  22247307.344 7 115847547.414 7      1111.676          43.000
E05  23630885.750 8 124181156.767 8       292.891          51.000    23630887.156 8  95151796.371 8       224.462          51.000
E09  22954376.391 8 120626025.093 8     -2294.035          51.000    22954378.875 8  92427745.699 8     -1757.737          51.000
E24  21648732.852 8 113764859.421 8       501.625          51.000    21648746.141 8  87170572.537 8       384.341          51.000
E25  26450234.461 7 138996893.597 7      2541.797          45.000    26450240.008 7 106504119.227 7      1947.614          46.000
E31  24925566.016 7 130984761.922 7     -1988.844          47.000    24925569.180 7 100364964.939 7     -1523.859          44.000
> 2020 05 03 06 09 30.0000000  0 17        .000000000000
G13  20429790.305 8 107359265.805 8     -1222.969          50.000    20429789.891 8  83656552.563 8      -952.963          49.000
G15  20336150.070 8 106867195.397 8       359.109          51.000    20336149.633 8  83273129.653 8       279.825          51.000
G17  23122383.617 5 121508956.290 5      1997.676          35.000    23122379.648 5  94682295.307 5      1556.627          34.000
G19  24053082.641 7 126399807.183 7      3341.500          45.000    24053082.680 7  98493328.352 7      2603.766          42.000
G28  21774924.125 6 114427990.643 6     -2156.516          41.000    21774922.367 6  89164672.166 6     -1680.396          38.000
R04  22617235.836 6 121114284.628 6     -4375.133          38.000    22617238.953 5  94200004.475 5     -3402.878          31.000
R05  19513288.219 8 104309720.947 8     -1633.004          51.000    19513291.047 8  81129777.562 8     -1270.114          49.000
R14  22291439.391 5 118825895.379 5     -3435.402          32.000    22291437.703 4  92420143.211 4     -2671.980          29.000
R15  19416398.250 7 103755457.460 7      -957.879          44.000    19416399.984 6  80698635.661 6      -745.017          41.000
C05  39764157.945 6 207062404.010 6        18.297          37.000    39764156.102 6 160113780.625 6        14.468          39.000
C24  22778127.828 6 118611732.109 6     -1744.184          41.000
C25  22240943.797 7 115814411.442 7      1099.074          43.000
E05  23629264.844 8 124172639.001 8       276.895          51.000    23629266.477 8  95145269.757 8       212.208          51.000
E09  22967513.164 8 120695058.916 8     -2306.320          49.000    22967515.727 8  92480641.720 8     -1767.151          51.000
E24  21645915.664 8 113750053.694 8       487.309          51.000    21645929.328 8  87159227.878 8       373.479          51.000
E25  26435754.391 7 138920805.551 7      2532.824          44.000    26435759.469 7 106445817.975 7      1940.703          47.000
E31  24936952.781 7 131044598.720 7     -1998.191          46.000    24936955.203 7 100410813.880 7     -1531.106          43.000
> 2020 05 03 06 10  0.0000000  0 16        .000000000000
G13  20436816.031 8 107396186.209 8     -1238.828          51.000    20436815.523 8  83685321.700 8      -965.321          50.000
G15  20334151.367 8 106856691.895 8       340.766          51.000    20334150.539 8  83264945.110 8       265.532          51.000
G19  24034021.406 7 126299640.590 7      3335.918          44.000    24034021.617 7  98415276.462 7      2599.417          43.000
G24  22264297.250 4 116999671.003 4      2577.121          29.000
G28  21787270.977 7 114492874.412 7     -2169.242          43.000    21787270.117 6  89215230.921 6     -1690.319          37.000
R04  22641768.109 6 121245653.755 6     -4383.227          38.000    22641772.344 5  94302180.440 5     -3409.176          31.000
R05  19522524.703 8 104359097.776 8     -1659.020          51.000    19522528.289 8  81168181.753 8     -1290.349          49.000
R15  19421818.227 7 103784419.248 7      -973.219          45.000    19421820.797 6  80721161.500 6      -756.948          41.000
C05  39764051.969 6 207061852.192 6        18.160          37.000    39764050.227 6 160113353.935 6        13.994          39.000
C24  22788195.688 6 118664155.208 6     -1751.094          41.000
C25  22234638.609 7 115781578.488 7      1089.379          44.000
E05  23627721.094 8 124164526.066 8       263.832          51.000    23627722.602 8  95139053.344 8       202.139          51.000
E09  22980704.195 7 120764385.813 7     -2315.648          44.000    22980708.492 8  92533762.342 8     -1774.310          51.000
E24  21643165.664 8 113735600.538 8       476.023          51.000    21643179.344 8  87148153.367 8       364.739          51.000
E25  26421312.195 6 138844919.634 6      2526.348          41.000    26421317.969 8 106387671.578 8      1935.716          49.000
E31  24948378.703 7 131104641.002 7     -2004.719          44.000    24948380.492 7 100456820.289 7     -1535.928          43.000
> 2020 05 03 06 10 30.0000000  0 17        .000000000000
G13  20443911.641 8 107433473.578 8     -1250.297          51.000    20443910.828 8  83714376.791 8      -974.257          49.000
G15  20332236.836 8 106846630.514 8       326.773          51.000    20332235.672 8  83257105.063 8       254.629          51.000
G19  24014970.094 7 126199526.676 7      3335.074          46.000    24014970.586 7  98337265.687 7      2598.759          44.000
G28  21799667.648 7 114558018.251 7     -2176.898          45.000    21799666.547 6  89265992.304 6     -1696.291          36.000
R04  22666324.672 6 121377152.023 6     -4386.621          36.000    22666330.219 5  94404456.838 5     -3411.816          30.000
R05  19531885.727 8 104409139.549 8     -1680.352          51.000    19531889.672 8  81207103.120 8     -1306.940          49.000
R14  22330119.406 4 119032058.760 4     -3437.738          28.000    22330126.930 5  92580496.481 5     -2673.793          33.000
R15  19427304.016 7 103813734.763 7      -984.160          43.000    19427306.703 6  80743962.450 6      -765.458          40.000
C05  39763928.656 6 207061209.902 6        21.773          37.000    39763926.906 6 160112857.231 6        16.882          39.000
C23  25905610.266 6 134897303.006 6      2708.910          36.000
C24  22798282.859 6 118716680.770 6     -1753.684          41.000
C25  22228368.242 7 115748926.275 7      1084.137          44.000
E05  23626231.156 8 124156695.442 8       255.160          51.000    23626232.320 8  95133053.262 8       195.530          51.000
E09  22993926.602 7 120833881.581 7     -2320.469          46.000    22993933.117 8  92587012.443 8     -1778.030          51.000
E24  21640459.039 8 113721376.178 8       469.168          51.000    21640472.867 8  87137254.190 8       359.507          51.000
E25  26406885.719 7 138769113.176 7      2524.418          43.000    26406892.281 8 106329586.057 8      1934.297          50.000
E31  24959819.758 7 131164764.184 7     -2006.496          43.000    24959821.633 7 100502888.707 7     -1537.511          43.000
> 2020 05 03 06 11  0.0000000  0 19        .000000000000
G13  20451099.297 8 107471245.028 8     -1264.859          51.000    20451098.453 8  83743809.061 8      -985.608          49.000
G15  20330428.984 8 106837129.494 8       309.586          51.000    20330427.570 8  83249701.661 8       241.236          51.000
G19  23995952.422 7 126099586.601 7      3330.703          47.000    23995952.438 7  98259390.321 7      2595.356          44.000
G28  21812135.820 7 114623537.766 7     -2187.941          43.000    21812133.859 6  89317046.458 6     -1704.889          36.000
G30  23962869.766 5 125925730.545 5     -2904.598          32.000
R04  22690926.875 5 121508895.690 5     -4393.020          34.000    22690933.695 4  94506924.085 4     -3416.796          29.000
R05  19541393.602 8 104459964.342 8     -1704.922          51.000    19541397.516 8  81246633.484 8     -1326.053          49.000
R14  22349479.773 5 119135244.795 5     -3438.855          32.000    22349486.211 4  92660746.417 4     -2674.665          29.000
R15  19432878.266 7 103843521.646 7      -998.520          44.000    19432881.305 6  80767130.012 6      -776.626          41.000
R16  20995380.477 5 112153557.783 5      2542.082          31.000    20995380.398 5  87230551.367 5      1977.175          30.000
C05  39763810.297 6 207060593.456 6        22.461          37.000    39763808.578 6 160112380.553 6        17.595          39.000
C23  25890019.875 6 134816121.332 6      2705.918          37.000
C24  22808411.781 6 118769424.313 6     -1759.945          38.000
C25  22222154.594 7 115716571.151 7      1075.812          44.000
E05  23624817.305 8 124149265.358 8       243.227          51.000    23624818.367 8  95127360.079 8       186.380          51.000
E09  23007206.133 8 120903663.061 8     -2328.562          51.000    23007211.828 8  92640481.381 8     -1784.193          51.000
E24  21637818.422 8 113707497.771 8       459.133          51.000    21637832.125 8  87126620.092 8       351.842          51.000
E25  26392498.000 7 138693504.231 7      2519.484          46.000    26392504.523 8 106271651.923 8      1930.379          50.000
E31  24971298.133 7 131225084.545 7     -2011.680          43.000    24971300.602 7 100549108.188 7     -1541.462          42.000
> 2020 05 03 06 11 30.0000000  0 17        .000000000000
G13  20458371.242 8 107509459.225 8     -1282.332          51.000    20458370.266 8  83773586.326 8      -999.220          48.000
G15  20328719.984 8 106828148.541 8       289.551          51.000    20328718.688 8  83242703.514 8       225.624          51.000
G19  23976960.664 8 125999782.213 8      3323.434          48.000    23976960.406 7  98181620.712 7      2589.692          43.000
G28  21824667.008 7 114689389.250 7     -2201.777          43.000    21824664.969 5  89368359.280 5     -1715.671          35.000
R04  22715566.062 6 121640839.206 6     -4402.547          36.000    22715574.641 5  94609546.787 5     -3424.203          31.000
R05  19551040.125 8 104511528.651 8     -1732.309          51.000    19551043.711 8  81286739.045 8     -1347.351          49.000
R14  22368849.180 5 119238488.891 5     -3443.453          31.000    22368860.156 4  92741047.516 4     -2678.232          26.000
R15  19438531.789 7 103873735.771 7     -1015.348          42.000    19438536.359 6  80790629.919 6      -789.715          40.000
C05  39763689.125 6 207059962.066 6        20.098          37.000    39763687.320 6 160111892.298 6        15.689          38.000
C23  25874447.648 6 134735032.184 6      2700.441          37.000
C24  22818574.391 6 118822343.829 6     -1768.172          37.000
C25  22215990.141 7 115684472.121 7      1064.605          45.000
E05  23623471.734 8 124142195.241 8       228.602          51.000    23623473.164 8  95121942.707 8       175.156          51.000
E09  23020532.812 8 120973687.966 8     -2339.336          51.000    23020536.695 8  92694136.822 8     -1792.436          51.000
E24  21635235.703 8 113693923.588 8       446.297          51.000    21635249.023 8  87116219.079 8       341.977          51.000
E25  26378140.750 8 138618052.204 8      2511.238          48.000    26378146.664 8 106213838.018 8      1924.217          51.000
E31  24982805.969 7 131285559.508 7     -2019.527          43.000    24982808.844 7 100595446.114 7     -1547.481          42.000
> 2020 05 03 06 12  0.0000000  0 19        .000000000000
G13  20465735.016 8 107548155.982 8     -1297.500          51.000    20465733.789 8  83803739.631 8     -1011.042          48.000
G15  20327117.680 8 106819728.730 8       271.789          51.000    20327116.414 8  83236142.612 8       211.784          51.000
G17  23066233.578 5 121213868.864 5      1934.297          33.000    23066235.906 5  94452379.277 5      1507.244          32.000
G19  23958003.117 8 125900157.153 8      3318.297          48.000    23958001.844 7  98103990.843 7      2585.686          42.000
G24  22205700.250 5 116691758.673 5      2552.344          35.000    22205695.039 5  90928607.998 5      1988.839          35.000
G28  21837268.406 6 114755610.992 6     -2213.043          41.000    21837267.016 6  89419960.626 6     -1724.449          38.000
R04  22740249.648 5 121773020.092 5     -4409.094          34.000    22740260.430 5  94712354.104 5     -3429.298          31.000
R05  19560832.195 8 104563871.498 8     -1757.223          51.000    19560835.953 8  81327450.104 8     -1366.729          50.000
R15  19444272.859 7 103904416.215 7     -1030.004          42.000    19444277.375 6  80814492.448 6      -801.117          39.000
R16  20967002.133 5 112001968.501 5      2513.988          30.000    20966996.281 4  87112632.872 4      1955.324          29.000
C05  39763572.633 6 207059355.447 6        20.473          37.000    39763570.836 6 160111423.203 6        15.683          39.000
C23  25858899.766 6 134654075.707 6      2696.781          37.000
C24  22828779.086 6 118875478.079 6     -1774.270          36.000
C25  22209882.930 7 115652668.791 7      1055.543          44.000
E05  23622202.453 8 124135525.950 8       216.109          51.000    23622204.273 8  95116832.457 8       165.569          51.000
E09  23033912.961 8 121043995.486 8     -2347.836          51.000    23033915.102 8  92748008.792 8     -1798.925          50.000
E24  21632718.055 8 113680693.225 8       435.770          51.000    21632731.281 8  87106081.536 8       333.901          51.000
E25  26363821.344 8 138542797.761 8      2505.641          48.000    26363826.094 8 106156175.519 8      1919.954          50.000
E31  24994350.805 6 131346227.802 6     -2024.781          41.000    24994353.789 6 100641932.182 6     -1551.423          41.000
> 2020 05 03 06 12 30.0000000  0 19        .000000000000
G13  20473182.602 8 107587293.713 8     -1312.168          51.000    20473181.344 8  83834236.523 8     -1022.472          48.000
G15  20325614.422 8 106811829.311 8       254.488          51.000    20325613.281 8  83229987.208 8       198.300          51.000
G19  23939072.570 7 125800673.563 7      3313.492          47.000    23939070.711 7  98026471.144 7      2581.942          43.000
G24  22191140.156 5 116615221.250 5      2546.094          34.000    22191154.000 5  90869010.226 5      1983.963          34.000
G28  21849931.742 7 114822159.201 7     -2223.887          42.000    21849930.375 5  89471816.354 5     -1732.899          34.000
R04  22764968.672 5 121905392.999 5     -4415.520          31.000    22764981.297 5  94815310.695 5     -3434.302          32.000
R05  19570762.016 8 104616949.416 8     -1781.742          51.000    19570765.383 8  81368732.895 8     -1385.799          49.000
R14  22407628.328 5 119445245.914 5     -3446.973          30.000    22407639.672 4  92901916.809 4     -2680.982          29.000
R15  19450093.492 7 103935518.955 7     -1043.879          42.000    19450097.508 6  80838683.399 6      -811.906          39.000
R16  20952915.219 4 111926711.316 4      2500.688          29.000    20952912.875 5  87054085.774 5      1944.985          31.000
C05  39763452.984 6 207058732.785 6        20.500          36.000    39763451.273 6 160110941.693 6        16.127          39.000
C23  25843369.562 6 134573211.450 6      2693.691          36.000
C24  22839016.859 6 118928785.300 6     -1779.656          36.000
C25  22203824.156 7 115621120.230 7      1047.168          42.000
E05  23621001.781 8 124129216.884 8       204.152          51.000    23621003.852 8  95111998.232 8       156.375          51.000
E09  23047338.180 8 121114543.421 8     -2355.777          51.000    23047339.672 8  92802064.949 8     -1805.085          49.000
E24  21630258.016 8 113667764.994 8       425.711          51.000    21630270.977 8  87096175.495 8       326.230          51.000
E25  26349531.602 7 138467700.294 7      2500.496          46.000    26349534.969 8 106098633.328 8      1915.988          50.000
E31  25005924.445 6 131407046.922 6     -2029.762          39.000    25005927.406 6 100688533.853 6     -1555.440          41.000
> 2020 05 03 06 13  0.0000000  0 18        .000000000000
G13  20480708.344 8 107626841.570 8     -1326.918          51.000    20480707.188 8  83865053.001 8     -1033.962          48.000
G15  20324204.586 8 106804420.268 8       236.953          51.000    20324203.516 8  83224213.922 8       184.639          51.000
G19  23920162.898 7 125701303.783 7      3308.617          45.000    23920160.727 7  97949040.197 7      2578.143          42.000
G28  21862651.141 7 114889000.843 7     -2234.770          44.000    21862650.109 5  89523900.712 5     -1741.382          35.000
G30  24029340.609 5 126275021.121 5     -2915.543          31.000    24029342.477 5  98396149.254 5     -2271.846          31.000
R04  22789723.000 5 122037926.789 5     -4421.723          30.000    22789728.766 5  94918413.287 5     -3439.121          34.000
