     3.02           OBSERVATION DATA    M (MIXED)           RINEX VERSION / TYPE
SAVERINEX           SC600               20200515 155930 LCL PGM / RUN BY / DATE
       G = GPS       R = GLONASS       C = COMPASS          COMMENT
       S = SBAS      J = QZSS          E = GALILEO          COMMENT
BEAN                                                        MARKER NAME
1                                                           MARKER NUMBER
GEODETIC                                                    MARKER TYPE
Unige DICCA         GTER                                    OBSERVER / AGENCY
SC60291900056       SC600               2.12(191202)        REC # / TYPE / VERS
                    HEMA45          NONE                    ANT # / TYPE
  4509407.8091   693652.4678  4442337.6214                  APPROX POSITION XYZ
        0.0000        0.0000        0.0000                  ANTENNA: DELTA H/E/N
G    8 C1C L1C D1C S1C C2Y L2Y D2Y S2Y                      SYS / # / OBS TYPES
R    8 C1C L1C D1C S1C C2P L2P D2P S2P                      SYS / # / OBS TYPES
C    8 C1I L1I D1I S1I C7I L7I D7I S7I                      SYS / # / OBS TYPES
E    8 C1C L1C D1C S1C C7Q L7Q D7Q S7Q                      SYS / # / OBS TYPES
DBHZ                                                        COMMENT
     30.000                                                 INTERVAL
  2020    05    15    13    00    0.0000000     GPS         TIME OF FIRST OBS
  2020    05    15    13    59   30.0000000     GPS         TIME OF LAST OBS
     0                                                      RCV CLOCK OFFS APPL
G L1C  0.00000                                              SYS / PHASE SHIFT
G L2Y  0.00000                                              SYS / PHASE SHIFT
R L1C  0.00000                                              SYS / PHASE SHIFT
R L2P  0.25000                                              SYS / PHASE SHIFT
C L1I  0.00000                                              SYS / PHASE SHIFT
C L7I  0.00000                                              SYS / PHASE SHIFT
E L1C  0.50000                                              SYS / PHASE SHIFT
E L7Q -0.25000                                              SYS / PHASE SHIFT
 12 R01  1 R02 -4 R03  5 R08  6 R10 -5 R12 -1 R13 -2 R14 -7 GLONASS SLOT / FRQ #
    R15  0 R17  4 R18 -3 R23  3                             GLONASS SLOT / FRQ #
 C1C   71.950 C2C   71.950 C2P   71.950                     GLONASS COD/PHS/BIS
    18                                                      LEAP SECONDS
*** Above antenna height is from mark to ANTENNA BOTTOM.    COMMENT
    17     4        0.0000        ANT MEASURE TYPE/HEIGT    COMMENT
    0.0000    0.0000    0.0458    0.0405    0.0000          COMMENT
                    BASE STATION                            COMMENT
                                                            END OF HEADER
> 2020 05 15 13 00  0.0000000  0 17        .000000000000
G18  20340745.727 8 106891422.966 8       537.980          49.000    20340745.492 8  83292013.023 8       419.206          49.000
G21  20670467.961 8 108624049.415 8       364.266          51.000    20670465.898 8  84642173.417 8       283.846          50.000
G25  24290368.586 7 127646729.484 7     -3477.527          45.000    24290372.133 7  99464997.491 7     -2709.765          45.000
G29  22014810.227 5 115688579.497 5     -2382.086          33.000
G31  22342607.594 8 117411171.320 8     -2589.098          51.000    22342607.062 8  91489212.693 8     -2017.482          51.000
R14  21632881.094 7 115315434.326 7     -3961.949          44.000    21632890.914 8  89689802.759 8     -3081.516          48.000
R15  19259045.609 8 102914497.454 8      -530.867          50.000    19259047.156 8  80044598.160 8      -412.900          48.000
R17  19237797.125 7 102945402.000 7      -517.285          44.000    19237800.125 6  80068649.624 6      -402.336          41.000
R18  21113468.031 8 112705178.040 8      2693.699          48.000    21113471.164 7  87659592.231 7      2095.099          44.000
C05  39628233.961 6 206354612.668 6        15.016          36.000    39628233.016 5 159566471.882 5        11.490          34.000
C29  21518599.664 8 112052983.072 8      -133.773          51.000
C30  23900842.117 5 124457957.711 5     -2495.125          30.000
E01  23744430.766 7 124777839.012 7       585.566          46.000    23744431.695 8  95608979.412 8       448.741          48.000
E13  24545464.453 7 128987279.794 7     -1939.480          46.000    24545466.188 7  98834421.497 7     -1486.185          45.000
E21  24670210.055 8 129642818.124 8     -2091.246          51.000    24670214.367 8  99336718.710 8     -1602.329          51.000
E26  22426489.594 8 117852030.435 8       738.691          51.000    22426491.516 8  90302172.643 8       566.031          51.000
E33                                                                  26587876.312 5 107058378.901 5      2030.367          35.000
> 2020 05 15 13 00 30.0000000  0 16        .000000000000
G18  20337727.203 8 106875561.503 8       518.688          49.000    20337727.188 8  83279653.434 8       404.172          49.000
G21  20668434.008 8 108613360.739 8       347.699          51.000    20668431.641 8  84633844.589 8       270.934          50.000
G25  24310232.500 7 127751112.716 7     -3482.055          46.000    24310236.047 7  99546334.973 7     -2713.292          46.000
G31  22357421.828 8 117489018.415 8     -2601.355          51.000    22357421.688 8  91549872.742 8     -2027.030          51.000
R14  21655213.969 8 115434471.765 8     -3974.250          48.000    21655222.086 7  89782387.369 7     -3091.086          47.000
R15  19262098.320 8 102930810.576 8      -557.270          50.000    19262099.961 7  80057286.146 7      -433.432          47.000
R17  19240743.500 7 102961169.408 7      -534.410          43.000    19240746.648 6  80080913.145 6      -415.649          41.000
R18  21098366.391 8 112624564.428 8      2679.988          48.000    21098369.148 7  87596892.743 7      2084.435          43.000
C05  39628147.086 6 206354160.162 6        14.477          36.000    39628146.219 5 159566121.982 5        11.236          34.000
C29  21519397.984 8 112057139.545 8      -143.914          51.000
C30  23915214.078 5 124532831.926 5     -2498.492          31.000
E01  23741120.508 7 124760443.128 7       573.695          46.000    23741121.734 8  95595650.091 8       439.531          48.000
E13  24556554.992 7 129045561.442 7     -1946.395          46.000    24556556.555 7  98879078.824 7     -1491.405          45.000
E21  24682174.516 8 129705690.530 8     -2100.836          51.000    24682177.570 8  99384893.652 8     -1609.666          50.000
E26  22422302.438 8 117830029.796 8       727.430          51.000    22422305.039 8  90285315.004 8       557.432          51.000
E33                                                                  26572766.320 6 106997539.394 6      2025.503          37.000
> 2020 05 15 13 01  0.0000000  0 17        .000000000000
G18  20334809.867 8 106860231.105 8       497.723          50.000    20334809.984 8  83267707.673 8       387.836          50.000
G21  20666485.477 8 108603121.893 8       329.422          51.000    20666483.094 8  84625866.283 8       256.692          50.000
G25  24330113.297 7 127855584.548 7     -3488.102          46.000    24330116.359 7  99627741.494 7     -2718.004          46.000
G29  22042066.133 5 115831860.164 5     -2395.004          32.000
G31  22372296.719 8 117567184.786 8     -2615.180          51.000    22372296.938 8  91610781.587 8     -2037.802          51.000
R14  21677606.242 8 115553825.954 8     -3988.086          50.000    21677612.148 7  89875218.326 7     -3101.848          46.000
R15  19265290.578 8 102947869.144 8      -585.508          50.000    19265292.531 8  80070553.935 8      -455.395          48.000
R17  19243777.508 7 102977405.967 7      -553.422          43.000    19243780.961 6  80093541.597 6      -430.439          40.000
R18  21083332.641 8 112544312.421 8      2664.605          49.000    21083334.562 6  87534474.560 6      2072.474          41.000
C05  39628053.078 6 206353670.590 6        13.203          36.000    39628052.164 5 159565743.923 5        10.019          34.000
C29  21520245.461 8 112061553.254 8      -155.676          51.000
C30  23929590.156 5 124607761.734 5     -2502.699          32.000
E01  23737870.023 7 124743361.710 7       559.816          46.000    23737871.016 8  95582561.733 8       428.959          48.000
E13  24567675.852 7 129104000.978 7     -1954.836          45.000    24567677.203 7  98923857.160 7     -1497.939          45.000
E21  24694185.375 8 129768806.760 8     -2112.254          51.000    24694188.078 8  99433255.395 8     -1618.483          51.000
E26  22418171.047 8 117808320.970 8       714.395          51.000    22418174.633 8  90268680.965 8       547.465          51.000
E33                                                                  26557682.500 6 106936796.573 6      2019.807          40.000
> 2020 05 15 13 01 30.0000000  0 17        .000000000000
G18  20332015.984 8 106845549.041 8       480.754          51.000    20332016.055 8  83256267.106 8       374.613          51.000
G21  20664644.742 8 108593449.569 8       315.219          51.000    20664642.461 8  84618329.407 8       245.622          50.000
G25  24350032.836 7 127960260.893 7     -3490.410          45.000    24350035.633 7  99709307.373 7     -2719.803          45.000
G29  22055752.945 5 115903763.849 5     -2399.781          33.000
G31  22387253.906 8 117645784.870 8     -2625.000          51.000    22387254.453 8  91672028.392 8     -2045.455          51.000
R14  21700079.000 8 115673612.477 8     -3997.797          48.000    21700083.070 7  89968385.520 7     -3109.401          45.000
R15  19268644.711 8 102965792.198 8      -609.648          50.000    19268647.391 8  80084494.076 8      -474.171          49.000
R17  19246921.344 7 102994229.134 7      -568.277          43.000    19246924.125 6  80106626.292 6      -441.993          39.000
R18  21068389.242 8 112464542.276 8      2653.070          50.000    21068390.148 7  87472431.191 7      2063.502          42.000
C05  39627974.156 5 206353260.183 5        14.621          35.000    39627973.273 5 159565426.045 5        10.989          34.000
C29  21521164.648 8 112066339.707 8      -163.633          51.000
C30  23944005.281 4 124682719.715 4     -2504.133          29.000
E01  23734701.812 7 124726713.001 7       549.863          47.000    23734702.562 8  95569804.934 8       421.318          48.000
E13  24578848.891 7 129162714.306 7     -1959.500          46.000    24578850.172 7  98968845.281 7     -1501.468          45.000
E21  24706264.773 8 129832283.391 8     -2119.711          51.000    24706267.336 8  99481893.289 8     -1624.233          51.000
E26  22414117.602 8 117787020.915 8       705.336          51.000    22414122.000 8  90252360.173 8       540.443          51.000
E33  26542644.586 6 139482530.618 6      2632.469          36.000    26542645.922 7 106876240.909 7      2017.071          42.000
> 2020 05 15 13 02  0.0000000  0 16        .000000000000
G18  20329325.555 8 106831410.481 8       463.078          51.000    20329325.828 8  83245250.058 8       360.840          51.000
G21  20662891.625 8 108584238.582 8       300.160          50.000    20662889.641 8  84611152.015 8       233.891          49.000
G25  24369970.992 7 128065035.736 7     -3493.297          42.000    24369973.805 7  99790950.012 7     -2722.053          42.000
G26  20569016.148 5 108090881.766 5      1273.680          30.000
G31  22402273.148 8 117724711.613 8     -2635.484          51.000    22402273.383 8  91733529.716 8     -2053.624          51.000
R14  21722611.672 7 115793721.615 7     -4008.016          47.000    21722614.328 7  90061803.629 7     -3117.349          43.000
R15  19272140.711 8 102984473.535 8      -634.426          51.000    19272143.484 8  80099023.996 8      -493.442          48.000
R17  19250154.594 7 103011530.493 7      -583.816          42.000    19250156.859 6  80120082.881 6      -454.079          40.000
R18  21053516.562 8 112385148.457 8      2641.156          51.000    21053517.781 7  87410680.499 7      2054.233          43.000
C05  39627890.656 6 206352824.156 6        15.703          36.000    39627889.742 5 159565089.660 5        12.294          34.000
C29  21522135.297 8 112071394.451 8      -172.133          51.000
E01  23731596.406 7 124710393.214 7       539.527          47.000    23731596.891 8  95557300.168 8       413.404          48.000
E13  24590053.539 7 129221595.257 7     -1964.445          46.000    24590055.273 7  99013961.826 7     -1505.293          45.000
E21  24718392.453 8 129896014.983 8     -2127.723          49.000    24718394.914 8  99530726.528 8     -1630.297          51.000
E26  22410121.984 8 117766024.634 8       695.758          51.000    22410126.641 8  90236272.119 8       533.182          51.000
E33  26527632.320 6 139403640.537 6      2628.781          37.000    26527635.836 7 106815792.712 7      2013.917          44.000
> 2020 05 15 13 02 30.0000000  0 17        .000000000000
G18  20326743.312 8 106817840.384 8       443.148          51.000    20326743.891 8  83234675.970 8       345.310          51.000
G21  20661230.961 8 108575513.212 8       283.098          49.000    20661229.172 8  84604353.035 8       220.599          49.000
G25  24389932.094 7 128169932.708 7     -3498.340          43.000    24389935.656 7  99872687.826 7     -2725.982          43.000
G26  20561794.031 5 108052957.245 5      1258.098          31.000    20561799.938 4  84197127.732 4       980.342          29.000
G31  22417358.844 8 117803987.336 8     -2648.074          51.000    22417358.484 8  91795302.980 8     -2063.434          51.000
R14  21745208.445 7 115914175.510 7     -4020.570          45.000    21745210.844 7  90155489.909 7     -3127.110          44.000
R15  19275783.570 8 103003938.344 8      -661.566          51.000    19275786.281 8  80114163.285 8      -514.552          48.000
R17  19253481.344 7 103029333.717 7      -601.414          43.000    19253484.078 6  80133929.866 6      -467.766          39.000
R18  21038719.180 8 112306156.969 8      2626.566          49.000    21038720.914 7  87349242.693 7      2042.885          43.000
C05  39627807.148 6 206352390.285 6        15.008          36.000    39627806.203 5 159564753.435 5        11.164          34.000
C29  21523162.016 8 112076741.522 8      -182.809          51.000
C30  23972889.281 5 124833112.858 5     -2509.863          35.000
E01  23728558.438 7 124694428.377 7       526.562          46.000    23728558.789 8  95545067.377 8       403.407          49.000
E13  24601294.445 7 129280667.447 7     -1972.082          44.000    24601296.961 7  99059224.907 7     -1510.941          45.000
E21  24730573.453 8 129960025.851 8     -2137.984          49.000    24730576.305 8  99579773.766 8     -1638.232          51.000
E26  22406189.016 8 117745356.851 8       683.723          51.000    22406193.641 8  90220435.762 8       523.900          51.000
E33  26512651.188 6 139324916.529 6      2621.676          37.000    26512656.773 7 106755471.737 7      2008.814          45.000
> 2020 05 15 13 03  0.0000000  0 18        .000000000000
G18  20324266.547 8 106804824.731 8       423.844          51.000    20324267.180 8  83224533.917 8       330.271          51.000
G20  23935438.203 6 125781569.490 6      3308.055          37.000    23935440.234 5  98011621.605 5      2577.705          31.000
G21  20659660.258 8 108567259.373 8       266.453          49.000    20659658.336 8  84597921.478 8       207.626          49.000
G25  24409913.555 7 128274936.569 7     -3502.867          44.000    24409917.945 7  99954508.918 7     -2729.510          43.000
G26  20554651.984 5 108015422.294 5      1243.418          34.000    20554657.875 5  84167885.423 5       968.903          34.000
G31  22432507.688 8 117883595.250 8     -2659.895          49.000    22432507.273 8  91857335.105 8     -2072.648          49.000
R14  21767866.484 7 116034956.793 7     -4032.211          43.000    21767869.797 7  90249430.850 7     -3136.164          45.000
R15  19279570.570 8 103024172.508 8      -688.203          51.000    19279573.055 8  80129900.955 8      -535.269          49.000
R17  19256899.609 7 103047622.756 7      -618.590          42.000    19256901.289 6  80148154.640 6      -481.125          38.000
R18  21023993.672 7 112227554.377 7      2612.742          47.000    21023995.758 7  87288107.351 7      2032.133          42.000
C05  39627721.039 5 206351941.876 5        14.430          35.000
C29  21524242.234 8 112082366.486 8      -192.938          51.000
C30  23987357.766 5 124908443.696 5     -2513.566          32.000
E01  23725585.250 7 124678805.583 7       514.156          47.000    23725585.906 8  95533096.655 8       393.973          49.000
E13  24612568.734 7 129339915.529 7     -1978.590          44.000    24612571.820 7  99104622.812 7     -1516.050          45.000
E21  24742804.766 8 130024301.388 8     -2147.762          48.000    24742808.180 8  99629023.805 8     -1645.676          51.000
E26  22402316.016 8 117725003.383 8       672.371          51.000    22402320.844 8  90204840.265 8       515.211          51.000
E33  26497698.758 6 139246345.368 6      2615.746          37.000    26497706.023 7 106695267.921 7      2004.240          45.000
> 2020 05 15 13 03 30.0000000  0 18        .000000000000
G18  20321898.836 8 106792382.087 8       405.215          51.000    20321899.602 8  83214838.364 8       315.755          51.000
G20  23916561.539 6 125682362.424 6      3305.398          37.000    23916567.711 5  97934337.492 5      2575.638          34.000
G21  20658182.656 8 108559494.763 8       250.645          49.000    20658180.938 8  84591871.153 8       195.307          49.000
G25  24429918.766 7 128380064.721 7     -3506.355          44.000    24429923.719 7 100036426.852 7     -2732.228          44.000
G26  20547590.578 5 107978315.983 5      1229.766          30.000    20547595.758 5  84138971.357 5       958.253          31.000
G31  22447722.609 7 117963551.913 7     -2671.035          47.000    22447722.711 7  91919638.958 7     -2081.326          47.000
R14  21790588.906 7 116156081.264 7     -4043.074          43.000    21790593.453 7  90343638.703 7     -3144.616          47.000
R15  19283504.789 8 103045195.107 8      -713.879          51.000    19283506.977 8  80146251.831 8      -555.239          48.000
R17  19260411.602 7 103066414.691 7      -634.879          43.000    19260413.367 6  80162770.630 6      -493.795          38.000
R18  21009344.125 7 112149360.677 7      2599.637          46.000    21009346.484 7  87227290.041 7      2021.940          43.000
C05  39627635.852 6 206351498.392 6        14.875          36.000    39627635.070 5 159564063.768 5        11.076          34.000
C29  21525379.148 8 112088287.106 8      -202.309          51.000
C30  24001845.008 5 124983866.959 5     -2516.375          33.000
E01  23722680.758 8 124663544.400 8       502.629          48.000    23722682.188 8  95521403.012 8       385.128          50.000
E13  24623879.984 7 129399356.849 7     -1984.562          44.000    24623882.977 7  99150168.733 7     -1520.567          45.000
E21  24755089.562 7 130088859.450 7     -2156.652          47.000    24755093.836 8  99678490.408 8     -1652.518          51.000
E26  22398506.414 8 117704982.547 8       661.812          51.000    22398511.352 8  90189499.645 8       507.106          51.000
E33  26482779.578 6 139167946.423 6      2610.344          40.000    26482787.000 7 106635196.083 7      2000.107          44.000
> 2020 05 15 13 04  0.0000000  0 18        .000000000000
G18  20319640.211 8 106780513.015 8       386.070          51.000    20319641.461 8  83205589.766 8       300.834          51.000
G20  23897698.906 6 125583228.358 6      3303.188          37.000    23897700.258 5  97857090.266 5      2573.909          33.000
G21  20656798.180 8 108552219.628 8       234.391          50.000    20656796.883 8  84586202.233 8       182.642          49.000
G25  24449947.953 7 128485316.520 7     -3510.539          42.000    24449952.781 7 100118441.156 7     -2735.485          42.000
G26  20540614.734 4 107941658.775 4      1214.914          28.000
G31  22463003.070 7 118043854.818 7     -2682.555          44.000    22463003.625 7  91982212.649 7     -2090.302          44.000
R14  21813374.734 6 116277546.137 6     -4054.426          41.000    21813380.914 7  90438111.350 7     -3153.442          46.000
R15  19287586.469 8 103067006.293 8      -740.184          51.000    19287588.305 8  80163216.068 8      -575.698          48.000
R17  19264017.539 7 103085708.596 7      -651.496          42.000    19264018.609 6  80177777.027 6      -506.719          37.000
R18  20994772.789 8 112071577.498 8      2585.840          48.000    20994775.094 7  87166792.063 7      2011.209          42.000
C05  39627551.688 5 206351059.649 5        14.477          35.000    39627550.945 5 159563725.265 5        10.947          34.000
C29  21526572.727 8 112094503.389 8      -212.203          51.000
C30  24016349.891 5 125059382.338 5     -2518.836          31.000
E01  23719845.648 8 124648646.485 8       490.473          48.000    23719847.633 8  95509987.722 8       375.841          50.000
E13  24635227.867 7 129458990.753 7     -1990.961          44.000    24635230.758 7  99195862.230 7     -1525.589          45.000
E21  24767427.609 8 130153700.163 8     -2166.113          48.000    24767433.039 8  99728173.577 8     -1659.749          51.000
E26  22394760.219 8 117685294.765 8       650.645          51.000    22394764.672 8  90174414.211 8       498.540          51.000
E33  26467894.250 7 139089721.222 7      2604.516          43.000    26467899.875 7 106575257.346 7      1995.728          43.000
> 2020 05 15 13 04 30.0000000  0 19        .000000000000
G18  20317490.664 8 106769217.221 8       367.609          51.000    20317491.984 8  83196787.855 8       286.449          51.000
G20  23878850.781 4 125484205.864 4      3299.199          29.000
G21  20655506.961 8 108545433.525 8       218.668          50.000    20655505.516 8  84580914.360 8       170.391          50.000
G25  24470000.180 6 128590690.504 6     -3513.773          39.000    24470004.695 6 100200550.658 6     -2738.008          39.000
G26  20533716.086 5 107905415.419 5      1201.297          32.000    20533721.219 5  84082154.278 5       936.079          34.000
G29  22138491.016 5 116338554.887 5     -2431.496          31.000    22138487.672 5  90653404.846 5     -1894.672          30.000
G31  22478348.914 7 118124501.304 7     -2693.328          44.000    22478349.203 7  92045054.121 7     -2098.697          44.000
R14  21836222.141 6 116399348.034 6     -4064.727          38.000    21836231.484 7  90532846.165 7     -3161.454          46.000
R15  19291815.609 8 103089606.010 8      -765.773          51.000    19291817.305 8  80180793.618 8      -595.602          48.000
R17  19267716.414 6 103105502.186 6      -667.516          41.000    19267717.500 6  80193172.041 6      -519.179          38.000
R18  20980279.156 8 111994205.243 8      2572.816          48.000    20980280.969 7  87106613.634 7      2001.079          43.000
C05  39627468.586 5 206350626.468 5        15.238          35.000    39627467.836 5 159563391.009 5        11.940          34.000
C29  21527823.047 8 112101014.532 8      -221.316          51.000
C30  24030872.898 5 125134988.686 5     -2520.988          30.000
E01  23717079.883 8 124634112.720 8       479.168          48.000    23717082.211 8  95498851.448 8       367.137          50.000
E13  24646611.984 7 129518815.691 7     -1996.578          43.000    24646615.250 7  99241702.097 7     -1529.852          45.000
E21  24779820.406 8 130218822.685 8     -2174.750          51.000    24779825.727 8  99778072.634 8     -1666.277          51.000
E26  22391077.438 8 117665939.599 8       640.336          51.000    22391081.062 8  90159583.624 8       490.680          51.000
E33  26453042.578 7 139011670.215 7      2599.570          46.000    26453045.367 7 106515452.107 7      1991.929          42.000
> 2020 05 15 13 05  0.0000000  0 18        .000000000000
G18  20315450.734 8 106758497.462 8       348.355          51.000    20315451.992 8  83188434.794 8       271.446          51.000
G21  20654309.094 8 108539138.334 8       202.203          50.000    20654307.523 8  84576009.018 8       157.561          50.000
G25  24490075.258 5 128696188.217 5     -3518.352          35.000    24490079.750 6 100282756.594 6     -2741.576          36.000
G26  20526904.031 5 107869609.109 5      1186.617          34.000    20526909.016 5  84054261.836 5       924.640          34.000
G29  22152390.383 4 116411595.777 4     -2437.535          29.000    22152385.008 4  90710312.078 4     -1899.381          26.000
G31  22493761.375 7 118205491.685 7     -2704.863          47.000    22493760.227 7  92108163.453 7     -2107.686          47.000
R14  21859132.562 5 116521486.226 5     -4076.234          34.000    21859145.242 7  90627842.535 7     -3170.401          43.000
R15  19296192.766 8 103112997.015 8      -792.324          51.000    19296194.086 7  80198986.610 7      -616.252          47.000
R17  19271509.172 7 103125796.616 7      -684.098          42.000    19271511.242 6  80208956.594 6      -532.076          39.000
R18  20965862.773 8 111917247.548 8      2558.918          48.000    20965864.727 7  87046757.665 7      1990.273          42.000
C05  39627387.289 6 206350202.658 6        14.742          36.000    39627386.438 5 159563062.839 5        11.539          33.000
C29  21529130.242 8 112107822.692 8      -231.324          51.000
C30  24045413.766 5 125210688.099 5     -2524.656          32.000
E01  23714384.133 8 124619946.938 8       466.625          48.000    23714386.773 8  95487997.134 8       357.529          50.000
E13  24658032.844 7 129578833.184 7     -2003.164          44.000    24658036.547 7  99287689.521 7     -1534.814          45.000
E21  24792267.664 8 130284229.188 8     -2184.336          51.000    24792271.383 8  99828189.280 8     -1673.739          51.000
E26  22387458.375 8 117646919.632 8       628.996          51.000    22387461.727 8  90145009.896 8       481.979          51.000
E33  26438224.758 7 138933797.110 7      2593.367          46.000    26438225.242 7 106455783.157 7      1987.221          42.000
> 2020 05 15 13 05 30.0000000  0 17        .000000000000
G18  20313516.133 8 106748331.355 8       329.547          51.000    20313517.688 8  83180513.152 8       256.790          51.000
G21  20653200.180 8 108533311.200 8       186.305          50.000    20653198.836 8  84571468.398 8       145.172          50.000
G26  20520171.969 5 107834229.885 5      1171.863          33.000    20520171.250 5  84026672.704 5       913.131          35.000
G29  22166316.648 6 116484777.478 6     -2441.754          37.000    22166314.930 6  90767336.668 6     -1902.665          36.000
G31  22509234.664 8 118286801.084 8     -2715.699          49.000    22509232.852 8  92171521.351 8     -2116.129          49.000
R14  21882105.039 6 116643935.202 6     -4086.719          38.000    21882117.500 6  90723080.712 6     -3178.556          37.000
R15  19300713.656 8 103137156.450 8      -818.242          51.000    19300714.914 7  80217777.253 7      -636.414          47.000
R17  19275391.016 6 103146567.574 6      -700.555          40.000    19275393.594 6  80225111.773 6      -544.876          39.000
R18  20951519.828 7 111840682.717 7      2545.422          46.000    20951522.383 7  86987207.331 7      1979.776          42.000
C05  39627303.242 6 206349766.496 6        14.656          36.000    39627302.680 5 159562725.799 5        11.499          34.000
C29  21530490.203 8 112114905.182 8      -240.754          51.000
C30  24059969.555 5 125286457.406 5     -2526.539          31.000
E01  23711754.375 8 124606127.901 8       454.641          48.000    23711757.148 8  95477408.506 8       348.409          50.000
E13  24669486.062 7 129639019.724 7     -2009.086          43.000    24669489.727 7  99333806.463 7     -1539.525          45.000
E21  24804764.680 8 130349896.720 8     -2193.457          51.000    24804766.789 8  99878505.909 8     -1680.632          51.000
E26  22383898.664 8 117628212.337 8       618.238          51.000    22383901.828 8  90130675.747 8       473.712          51.000
E33  26423436.523 7 138856080.426 7      2587.727          46.000    26423436.055 7 106396234.065 7      1982.762          42.000
> 2020 05 15 13 06  0.0000000  0 18        .000000000000
G18  20311701.305 8 106738794.864 8       310.094          50.000    20311703.086 8  83173082.132 8       241.631          51.000
G20  23822388.727 6 125187498.900 6      3292.516          37.000    23822393.078 5  97548723.517 5      2565.597          34.000
G21  20652194.836 8 108528027.849 8       169.734          50.000    20652193.461 8  84567351.478 8       132.258          50.000
G25  24530294.359 5 128907569.009 5     -3525.914          32.000    24530300.344 5 100447480.974 5     -2747.466          32.000
G26  20513534.555 5 107799352.376 5      1157.598          32.000    20513534.570 5  83999495.474 5       902.024          34.000
G29  22180284.406 6 116558178.558 6     -2447.688          36.000    22180289.102 6  90824532.329 6     -1907.289          36.000
G31  22524782.430 8 118368503.027 8     -2727.164          49.000    22524780.891 8  92235185.139 8     -2125.063          49.000
R14  21905150.781 7 116766768.905 7     -4098.090          43.000
R15  19305392.633 8 103162161.512 8      -844.730          51.000    19305394.172 7  80237225.606 7      -657.013          46.000
R17  19279375.648 7 103167890.619 7      -717.215          42.000    19279378.594 6  80241696.345 6      -557.834          39.000
R18  20937265.000 7 111764588.817 7      2531.332          46.000    20937268.055 7  86928023.251 7      1968.814          42.000
C05  39627231.055 6 206349390.330 6        14.340          36.000
C29  21531917.555 8 112122336.817 8      -250.828          51.000
E01  23709205.289 8 124592732.736 8       442.156          49.000    23709207.812 8  95467144.672 8       338.774          51.000
E13  24680986.125 7 129699450.125 7     -2015.680          42.000    24680988.852 7  99380110.243 7     -1544.539          45.000
E21  24817325.422 8 130415900.733 8     -2202.973          51.000    24817326.766 8  99929080.365 8     -1688.049          51.000
E26  22380412.727 8 117609893.630 8       606.848          51.000    22380415.297 8  90116639.323 8       464.966          51.000
E33  26408692.031 7 138778597.084 7      2581.582          45.000    26408691.969 7 106336863.751 7      1978.026          43.000
> 2020 05 15 13 06 30.0000000  0 18        .000000000000
G18  20309984.977 8 106729775.517 8       290.941          50.000    20309986.547 8  83166054.059 8       226.708          50.000
G20  23803600.180 6 125088758.762 6      3289.293          39.000    23803603.977 5  97471783.220 5      2563.082          31.000
G21  20651271.562 8 108523175.419 8       153.465          50.000    20651269.945 8  84563570.361 8       119.583          50.000
G25  24550434.156 5 129013403.563 5     -3529.699          34.000    24550439.289 5 100529949.398 5     -2750.424          33.000
G26  20506971.352 5 107764860.969 5      1142.613          35.000    20506972.703 5  83972619.797 5       890.348          35.000
G29  22194272.352 5 116631685.836 5     -2452.754          34.000    22194278.453 5  90881810.597 5     -1911.240          33.000
G31  22540382.695 8 118450482.514 8     -2738.328          50.000    22540381.812 8  92299065.207 8     -2133.762          49.000
R14  21928247.328 7 116889870.117 7     -4108.750          47.000    21928251.859 6  90914318.947 6     -3195.697          38.000
R15  19310208.562 8 103187897.880 8      -871.223          51.000    19310210.344 7  80257242.766 7      -677.621          47.000
R17  19283441.789 6 103189649.552 6      -733.602          40.000    19283444.984 6  80258619.946 6      -570.576          39.000
R18  20923076.422 7 111688852.656 7      2517.535          45.000    20923078.938 6  86869117.324 6      1958.083          40.000
C05  39627149.570 6 206348966.103 6        13.500          36.000    39627149.180 5 159562107.663 5        10.644          34.000
C29  21533390.391 8 112130005.678 8      -260.738          51.000
E01  23706715.633 8 124579650.125 8       429.773          49.000    23706718.125 8  95457120.332 8       329.244          51.000
E13  24692511.102 6 129760010.713 6     -2021.926          40.000    24692512.664 7  99426513.809 7     -1549.322          45.000
E21  24829928.352 8 130482128.241 8     -2212.449          51.000    24829929.633 8  99979826.059 8     -1695.253          51.000
E26  22376979.133 8 117591850.904 8       595.695          51.000    22376981.203 8  90102814.358 8       456.448          51.000
E33  26393969.453 7 138701235.572 7      2575.434          42.000    26393970.438 7 106277586.778 7      1973.306          42.000
> 2020 05 15 13 07  0.0000000  0 19        .000000000000
G18  20308375.305 8 106721316.829 8       269.551          50.000    20308376.711 8  83159462.872 8       210.040          50.000
G20  23784825.430 6 124990097.193 6      3283.949          39.000    23784828.953 5  97394904.117 5      2558.918          30.000
G21  20650438.469 8 108518797.146 8       134.992          50.000    20650436.836 8  84560158.738 8       105.192          50.000
G25  24570594.633 6 129119342.133 6     -3536.168          39.000    24570598.297 6 100612498.800 6     -2755.459          38.000
G26  20500491.219 6 107730803.084 6      1124.590          38.000    20500492.281 6  83946081.175 6       876.307          37.000
G29  22208288.945 5 116705341.429 5     -2460.738          33.000    22208291.203 5  90939204.534 5     -1917.464          34.000
G31  22556043.523 8 118532780.688 8     -2751.621          50.000    22556043.086 8  92363193.612 8     -2144.120          50.000
R14  21951401.117 8 117013279.953 8     -4121.938          49.000    21951405.312 7  91010304.314 7     -3205.954          43.000
R15  19315169.891 8 103214409.484 8      -899.820          51.000    19315172.086 8  80277862.879 8      -699.860          48.000
R17  19287596.977 6 103211887.180 6      -752.355          41.000    19287600.711 6  80275915.869 6      -585.168          38.000
R18  20908963.359 7 111613519.556 7      2501.242          44.000    20908965.422 6  86810524.913 6      1945.411          41.000
C05  39627067.133 6 206348536.016 6        11.801          36.000    39627066.539 5 159561774.614 5         8.865          34.000
C29  21534916.992 8 112137954.465 8      -272.734          51.000
C30  24103737.320 5 125514418.131 5     -2537.965          34.000
E01  23704294.094 8 124566924.800 8       415.102          50.000    23704296.641 8  95447369.744 8       318.083          51.000
E13  24704068.484 6 129820743.941 6     -2030.492          41.000    24704069.711 7  99473049.680 7     -1555.739          44.000
E21  24842581.859 8 130548622.247 8     -2224.055          51.000    24842583.281 8 100030775.967 8     -1704.104          51.000
E26  22373606.188 8 117574127.589 8       582.422          51.000    22373608.305 8  90089234.163 8       446.238          51.000
E33  26379277.922 6 138624040.340 6      2567.219          41.000    26379278.992 6 106218437.218 6      1967.197          41.000
> 2020 05 15 13 07 30.0000000  0 19        .000000000000
G18  20306879.625 8 106713456.733 8       253.602          50.000    20306880.906 8  83153338.126 8       197.612          50.000
G20  23766073.562 6 124891555.483 6      3284.426          40.000    23766078.383 4  97318118.453 4      2559.296          29.000
G21  20649702.742 8 108514930.320 8       121.926          50.000    20649701.180 8  84557145.633 8        95.010          50.000
G25  24590782.039 6 129225421.523 6     -3537.000          40.000    24590783.906 6 100695157.930 6     -2756.107          41.000
G26  20494101.141 6 107697217.375 6      1113.008          39.000    20494101.344 6  83919910.515 6       867.279          39.000
G29  22222340.469 5 116779182.778 5     -2463.266          34.000    22222340.508 5  90996743.277 5     -1919.422          34.000
G31  22571771.648 8 118615433.258 8     -2759.367          50.000    22571771.156 8  92427598.151 8     -2150.159          50.000
R14  21974618.477 8 117137033.672 8     -4129.211          50.000    21974621.688 7  91106557.148 7     -3211.612          44.000
R15  19320283.680 8 103241734.707 8      -922.777          51.000    19320286.102 8  80299115.815 8      -717.716          48.000
R17  19291848.750 6 103234640.386 6      -765.410          39.000    19291852.484 6  80293612.762 6      -595.319          38.000
R18  20894933.398 6 111538628.838 6      2490.348          41.000    20894937.086 7  86752276.588 7      1936.937          43.000
C05  39626990.852 5 206348139.252 5        14.320          35.000    39626990.070 5 159561467.017 5        11.049          34.000
C29  21536504.438 8 112146220.293 8      -279.227          51.000
C30  24118366.344 5 125590551.585 5     -2538.074          35.000
E01  23701948.211 8 124554595.840 8       405.840          50.000    23701950.477 8  95437922.867 8       310.995          51.000
E13  24715665.656 6 129881686.708 6     -2033.367          41.000    24715666.805 7  99519746.090 7     -1558.026          44.000
E21  24855292.984 8 130615420.206 8     -2230.164          51.000    24855294.750 8 100081958.815 8     -1708.860          51.000
E26  22370301.141 8 117556761.554 8       574.406          51.000    22370303.352 8  90075927.723 8       440.097          51.000
E33  26364626.070 7 138547050.275 7      2564.574          43.000    26364624.523 6 106159444.957 6      1964.983          40.000
> 2020 05 15 13 08  0.0000000  0 18        .000000000000
G18  20305489.461 8 106706150.904 8       234.496          51.000    20305490.398 8  83147645.273 8       182.724          51.000
G20  23747336.531 6 124793092.528 6      3281.039          41.000    23747340.555 4  97241394.180 4      2556.651          27.000
G21  20649055.680 8 108511530.256 8       105.887          50.000    20649054.375 8  84554496.242 8        82.509          50.000
G25  24610987.562 7 129331596.333 7     -3540.527          42.000    24610988.312 6 100777891.450 6     -2758.856          41.000
G26  20487792.867 6 107664061.511 6      1097.859          40.000    20487792.375 6  83894074.755 6       855.475          40.000
G31  22587558.227 8 118698393.515 8     -2770.094          49.000    22587557.305 8  92492242.439 8     -2158.515          49.000
R14  21997890.930 8 117261083.550 8     -4139.754          51.000    21997893.148 7  91203040.326 7     -3219.812          44.000
R15  19325541.352 8 103269828.567 8      -948.953          51.000    19325543.961 8  80320966.592 8      -738.075          49.000
R17  19296188.102 6 103257862.330 6      -781.680          40.000    19296191.984 6  80311674.310 6      -607.973          37.000
R18  20880977.141 6 111464136.348 6      2476.902          39.000    20880984.211 7  86694338.021 7      1926.480          44.000
C05  39626912.281 6 206347730.075 6        14.188          36.000    39626911.609 5 159561151.119 5        10.874          34.000
C29  21538144.125 8 112154758.843 8      -288.891          51.000
C30  24132999.234 5 125666752.313 5     -2540.180          31.000
E01  23699669.578 8 124542620.117 8       393.633          51.000    23699671.422 8  95428746.656 8       301.552          51.000
E13  24727293.812 6 129942793.610 6     -2039.387          41.000    24727295.031 7  99566568.238 7     -1562.695          43.000
E21  24868053.203 8 130682477.325 8     -2239.273          51.000    24868055.586 8 100133340.234 8     -1715.810          51.000
E26  22367055.664 8 117539708.354 8       563.516          51.000    22367057.555 8  90062860.975 8       431.821          51.000
E33  26350005.891 7 138470222.062 7      2558.406          45.000    26350001.688 6 106100576.672 6      1960.466          40.000
> 2020 05 15 13 08 30.0000000  0 18        .000000000000
G18  20304205.000 8 106699400.844 8       214.949          50.000    20304205.562 8  83142385.472 8       167.493          50.000
G20  23728615.469 6 124694713.163 6      3277.152          41.000    23728617.680 4  97164721.213 4      2553.622          29.000
G21  20648497.570 8 108508597.905 8        89.145          50.000    20648496.516 8  84552211.305 8        69.463          49.000
G25  24631210.727 7 129437867.070 7     -3544.836          42.000    24631211.812 6 100860699.714 6     -2762.213          41.000
G26  20481566.828 6 107631338.675 6      1082.582          41.000    20481565.469 6  83868576.474 6       843.573          41.000
G29  22250523.664 6 116927321.917 6     -2474.273          37.000    22250524.805 5  91112192.366 5     -1927.990          32.000
G31  22603403.117 8 118781660.397 8     -2781.406          49.000    22603402.078 8  92557125.691 8     -2167.333          49.000
R14  22021218.156 8 117385427.770 8     -4150.469          49.000    22021220.016 7  91299752.463 7     -3228.142          43.000
R15  19330942.844 8 103298692.459 8      -975.758          51.000    19330945.883 8  80343416.288 8      -758.923          49.000
R17  19300615.477 6 103281553.086 6      -798.215          39.000    19300617.430 6  80330100.409 6      -620.834          36.000
R18  20867097.727 7 111390044.747 7      2462.152          44.000    20867104.539 6  86636711.233 6      1915.007          41.000
C05  39626831.961 5 206347311.264 5        13.070          35.000
C29  21539836.562 8 112163571.239 8      -299.086          51.000
E01  23697458.438 8 124531000.369 8       380.738          51.000    23697460.156 8  95419843.201 8       291.720          51.000
E13  24738953.062 6 130004065.063 6     -2045.746          38.000    24738954.320 7  99613516.481 7     -1567.481          43.000
E21  24880863.094 8 130749794.668 8     -2249.000          51.000    24880865.719 8 100184921.041 8     -1723.188          51.000
E26  22363870.062 8 117522969.508 8       551.973          51.000    22363871.984 8  90050035.093 8       423.057          51.000
E33  26335417.617 7 138393558.159 7      2552.098          47.000    26335413.141 6 106041834.301 6      1955.441          41.000
> 2020 05 15 13 09  0.0000000  0 18        .000000000000
G18  20303021.102 8 106693179.052 8       197.688          51.000    20303021.328 8  83137537.334 8       154.042          51.000
G20  23709905.617 6 124596393.081 6      3275.418          41.000    23709906.391 5  97088108.230 5      2552.262          31.000
G21  20648023.242 8 108506105.661 8        74.898          50.000    20648022.258 8  84550269.305 8        58.362          50.000
G25  24651445.805 6 129544205.312 6     -3546.801          40.000    24651448.469 6 100943560.588 6     -2763.744          40.000
G26  20475418.102 6 107599023.519 6      1069.141          40.000    20475416.359 6  83843395.856 6       833.100          41.000
G31  22619300.898 8 118865204.068 8     -2790.328          49.000    22619300.141 8  92622224.624 8     -2174.282          49.000
R14  22044594.109 7 117510035.519 7     -4158.906          45.000    22044597.141 7  91396669.603 7     -3234.705          42.000
R15  19336483.125 8 103328298.209 8     -1000.164          51.000    19336486.570 8  80366442.991 8      -777.905          50.000
R17  19305124.477 6 103305683.028 6      -812.793          41.000    19305127.117 6  80348868.180 6      -632.172          37.000
R18  20853288.992 7 111316326.975 7      2449.895          44.000    20853292.578 6  86579375.231 6      1905.477          39.000
R24  22125618.250 6 118315569.153 6     -3476.355          36.000
C05                                                                  39626743.680 5 159560475.339 5        11.384          34.000
C29  21541576.203 8 112172629.862 8      -307.000          51.000
E01  23695309.945 8 124519710.359 8       369.945          51.000    23695311.523 8  95411192.418 8       283.417          51.000
E13  24750638.039 6 130065472.605 6     -2050.277          37.000    24750639.602 7  99660569.031 7     -1570.917          43.000
E21  24893717.297 8 130817344.359 8     -2256.477          51.000    24893720.039 8 100236679.887 8     -1728.953          51.000
E26  22360739.055 8 117506517.501 8       542.664          51.000    22360741.648 8  90037429.025 8       415.876          51.000
E33  26320856.062 7 138317032.228 7      2547.746          47.000    26320852.836 7 105983197.596 7      1952.295          42.000
> 2020 05 15 13 09 30.0000000  0 18        .000000000000
G18  20301954.914 8 106687576.045 8       178.020          51.000    20301954.969 8  83133171.362 8       138.717          51.000
G20  23691225.070 7 124498226.029 7      3271.258          42.000    23691225.383 5  97011614.529 5      2549.035          33.000
G21  20647649.852 8 108504143.857 8        58.125          49.000    20647648.883 8  84548740.626 8        45.292          49.000
G25  24671710.625 6 129650700.392 6     -3550.789          41.000    24671714.102 6 101026543.689 6     -2766.852          41.000
G26  20469363.711 6 107567208.270 6      1053.645          38.000    20469362.820 6  83818604.754 6       821.019          38.000
G31  22635268.359 8 118949112.743 8     -2801.301          50.000    22635267.953 8  92687607.971 8     -2182.832          50.000
R14  22068035.531 7 117634995.417 7     -4169.461          43.000    22068041.305 6  91493860.681 6     -3242.911          39.000
R15  19342179.688 8 103358737.532 8     -1026.879          51.000    19342183.188 8  80390117.997 8      -798.684          50.000
R17  19309732.719 7 103330342.843 7      -829.078          42.000    19309734.891 5  80368048.016 5      -644.842          35.000
R18  20839567.070 6 111243076.165 6      2435.469          41.000    20839568.781 6  86522402.319 6      1894.253          39.000
R24  22145139.992 5 118419957.420 5     -3480.438          34.000
C05  39626667.242 6 206346454.512 6        14.320          36.000    39626666.500 5 159560164.792 5        10.883          34.000
C29  21543380.203 8 112182023.987 8      -317.078          51.000
E01  23693241.789 8 124508841.804 8       356.852          51.000    23693243.117 8  95402864.558 8       273.417          51.000
E13  24762366.016 6 130127105.670 6     -2056.539          39.000    24762367.992 7  99707794.382 7     -1575.862          42.000
E21  24906632.656 8 130885216.404 8     -2266.098          50.000    24906635.836 8 100288685.722 8     -1736.381          51.000
E26  22357680.070 8 117490442.755 8       531.129          51.000    22357682.914 8  90025112.042 8       406.999          51.000
E33  26306337.992 7 138240735.728 7      2540.980          46.000    26306336.898 7 105924736.683 7      1946.994          44.000
> 2020 05 15 13 10  0.0000000  0 18        .000000000000
G18  20300994.805 8 106682530.941 8       158.602          51.000    20300994.469 8  83129240.113 8       123.586          50.000
G20  23672562.875 7 124400154.315 7      3267.246          43.000    23672562.625 5  96935195.091 5      2545.909          34.000
G21  20647365.539 8 108502650.505 8        41.805          49.000    20647364.836 8  84547576.996 8        32.575          49.000
G25  24691994.133 6 129757290.583 6     -3555.109          41.000    24691996.664 6 101109600.831 6     -2770.218          41.000
G26  20463392.328 6 107535833.989 6      1037.902          36.000    20463393.391 6  83794157.239 6       808.755          36.000
G31  22651293.453 8 119033323.111 8     -2812.180          50.000    22651292.844 8  92753226.394 8     -2191.309          50.000
R14  22091530.891 7 117760242.919 7     -4179.816          43.000    22091539.805 6  91591275.527 6     -3250.965          37.000
R15  19348020.828 8 103389948.455 8     -1053.320          51.000    19348024.039 8  80414393.160 8      -819.252          50.000
R17  19314428.203 7 103355468.706 7      -845.566          43.000    19314429.914 6  80387590.348 6      -657.663          37.000
R18  20825920.508 6 111170231.253 6      2421.113          39.000    20825923.195 6  86465745.221 6      1883.091          39.000
R24  22164678.211 5 118524432.573 5     -3484.918          31.000
C05  39626589.023 6 206346046.635 6        13.633          36.000    39626588.398 5 159559850.349 5        10.641          34.000
C29  21545237.219 8 112191692.989 8      -327.027          51.000
E01  23691242.500 8 124498335.046 8       344.105          51.000    23691243.875 8  95394813.909 8       263.623          51.000
E13  24774125.156 6 130188902.468 6     -2062.805          40.000    24774127.688 6  99755145.157 6     -1580.585          41.000
E21  24919597.828 8 130953349.429 8     -2275.578          50.000    24919601.508 8 100340891.539 8     -1743.643          51.000
E26  22354681.344 8 117474684.413 8       519.816          51.000    22354684.188 8  90013037.471 8       398.364          51.000
E33  26291851.461 7 138164608.752 7      2534.727          46.000    26291852.875 7 105866405.663 7      1942.082          45.000
> 2020 05 15 13 10 30.0000000  0 19        .000000000000
G18  20300142.016 8 106678049.404 8       139.887          51.000    20300141.352 8  83125748.000 8       109.003          51.000
G20  23653920.922 7 124302187.236 7      3263.625          43.000    23653919.805 6  96858857.166 6      2543.087          36.000
G21  20647171.664 8 108501631.375 8        25.844          50.000    20647170.789 8  84546782.850 8        20.138          50.000
G25  24712297.086 7 129863980.607 7     -3557.891          45.000    24712298.867 7 101192735.729 7     -2772.388          45.000
G26  20457506.086 6 107504908.379 6      1023.059          39.000    20457508.578 6  83770059.319 6       797.192          39.000
G31  22667376.500 8 119117838.702 8     -2822.395          49.000    22667375.227 8  92819082.656 8     -2199.268          49.000
R14  22115081.195 7 117885780.860 7     -4189.551          43.000    22115091.359 6  91688916.200 6     -3258.539          39.000
R15  19354006.992 8 103421936.435 8     -1079.289          51.000    19354010.320 8  80439272.657 8      -839.450          50.000
R17  19319211.586 7 103381064.940 7      -860.957          42.000    19319213.344 6  80407498.550 6      -669.633          37.000
R18  20812352.125 6 111097798.884 6      2406.910          41.000    20812354.367 6  86409409.009 6      1872.044          37.000
R24  22184235.445 5 118628998.275 5     -3487.344          31.000    22184246.812 4  92267101.099 4     -2712.378          25.000
C05  39626510.609 5 206345638.520 5        13.355          35.000    39626510.016 5 159559534.293 5        10.463          34.000
C29  21547147.938 8 112201642.234 8      -336.418          51.000
C30  24206377.555 4 126048884.762 4     -2553.191          29.000
E01  23689313.383 8 124488197.087 8       331.633          51.000    23689315.047 8  95387045.843 8       254.141          51.000
E13  24785916.594 6 130250867.796 6     -2068.320          38.000    24785919.398 6  99802625.066 6     -1584.925          40.000
E21  24932613.633 8 131021748.840 8     -2284.590          49.000    24932617.539 8 100393301.493 8     -1750.449          51.000
E26  22351743.773 8 117459248.169 8       509.070          51.000    22351747.383 8  90001209.706 8       390.061          51.000
E33  26277397.914 7 138088658.183 7      2528.598          45.000    26277401.406 7 105808209.790 7      1937.524          45.000
> 2020 05 15 13 11  0.0000000  0 17        .000000000000
G18  20299409.047 8 106674197.730 8       121.531          51.000    20299408.359 8  83122746.717 8        94.700          51.000
G20  23635312.234 7 124204394.026 7      3260.559          43.000    23635310.289 6  96782654.721 6      2540.698          38.000
G21  20647080.562 8 108501152.194 8        10.641          49.000    20647079.477 8  84546409.461 8         8.294          49.000
G25  24732631.812 7 129970835.860 7     -3560.875          45.000    24732634.164 7 101275999.422 7     -2774.714          45.000
G26  20451718.688 6 107474499.444 6      1008.555          39.000    20451721.414 6  83746364.073 6       785.887          40.000
G31  22683529.414 8 119202723.629 8     -2831.914          49.000    22683527.805 8  92885226.703 8     -2206.686          49.000
R14  22138699.000 7 118011673.366 7     -4198.418          44.000    22138707.672 6  91786832.575 6     -3265.436          41.000
R15  19360150.969 8 103454768.523 8     -1104.746          51.000    19360154.477 8  80464808.691 8      -859.250          49.000
R17  19324095.047 7 103407197.613 7      -876.242          42.000    19324096.234 6  80427823.949 6      -681.525          37.000
R18  20798872.953 5 111025847.925 5      2393.875          34.000    20798873.250 5  86353447.247 5      1861.906          34.000
C05  39626444.883 5 206345296.336 5        13.500          35.000    39626444.281 5 159559269.201 5        10.560          34.000
C29  21549124.797 8 112211937.043 8      -345.316          51.000
E01  23687467.297 8 124478495.439 8       319.816          51.000    23687469.188 8  95379612.111 8       245.057          51.000
E13  24797752.609 6 130313066.958 6     -2073.613          37.000    24797755.312 6  99850284.148 6     -1588.849          40.000
E21  24945692.625 8 131090480.473 8     -2292.977          49.000    24945696.922 8 100445965.991 8     -1756.887          51.000
E26  22348880.133 8 117444200.339 8       498.844          51.000    22348884.703 8  89989679.553 8       382.204          51.000
E33  26262990.812 7 138012951.315 7      2523.133          45.000    26262995.141 7 105750200.653 7      1933.384          45.000
> 2020 05 15 13 11 30.0000000  0 19        .000000000000
G18  20298765.820 8 106670816.944 8       103.477          51.000    20298764.805 8  83120112.346 8        80.631          50.000
G20  23616707.117 6 124106619.342 6      3257.582          40.000    23616704.516 6  96706466.749 6      2538.379          40.000
G21  20647061.984 8 108501054.081 8        -4.434          50.000    20647060.555 8  84546333.017 8        -3.458          50.000
G25  24752967.641 7 130077696.295 7     -3563.211          45.000    24752970.844 7 101359267.172 7     -2776.531          45.000
G26  20445999.945 6 107444450.325 6       993.707          37.000    20446002.781 6  83722949.185 6       774.320          37.000
G29  22335784.781 5 117375329.687 5     -2501.766          35.000    22335767.578 5  91461285.379 5     -1949.422          34.000
G31  22699721.672 8 119287815.932 8     -2841.094          49.000    22699720.344 8  92951532.342 8     -2213.842          49.000
R14  22162352.375 6 118137756.357 6     -4207.180          40.000    22162359.062 6  91884897.075 6     -3272.254          41.000
R15  19366422.266 8 103488282.971 8     -1129.984          51.000    19366426.023 7  80490875.463 7      -878.877          47.000
R17  19329048.242 7 103433703.324 7      -891.238          42.000    19329049.977 6  80448439.479 6      -693.185          39.000
R18  20785450.586 6 110954217.694 6      2380.836          36.000    20785454.477 5  86297734.750 5      1851.761          35.000
R24  22223398.875 5 118838423.099 5     -3492.105          31.000    22223402.625 4  92429957.024 4     -2716.082          26.000
C05  39626361.555 6 206344862.976 6        14.535          36.000    39626361.188 5 159558934.576 5        11.363          33.000
C29  21551137.820 8 112222419.618 8      -353.906          51.000
E01  23685674.109 8 124469072.440 8       308.113          51.000    23685676.008 8  95372391.885 8       236.084          51.000
E13  24809602.914 6 130375340.034 6     -2078.602          37.000    24809605.070 6  99897999.845 6     -1592.530          40.000
E21  24958804.703 8 131159384.983 8     -2300.969          49.000    24958809.688 8 100498762.935 8     -1763.143          51.000
E26  22346060.430 8 117429381.968 8       488.773          51.000    22346065.219 8  89978325.216 8       374.524          51.000
E33  26248600.039 7 137937330.279 7      2517.789          44.000    26248604.547 7 105692257.287 7      1929.296          46.000
> 2020 05 15 13 12  0.0000000  0 18        .000000000000
G18  20298239.734 8 106668051.551 8        79.621          51.000    20298238.469 8  83117957.499 8        62.042          50.000
G20  23598133.641 6 124009010.943 6      3248.711          37.000    23598130.266 6  96630408.326 6      2531.466          37.000
G21  20647143.391 8 108501480.829 8       -25.230          51.000    20647141.461 8  84546665.548 8       -19.660          50.000
G25  24773331.547 7 130184705.655 7     -3571.848          44.000    24773335.602 7 101442650.980 7     -2783.261          44.000
G26  20440378.016 6 107414907.509 6       974.051          39.000    20440381.398 6  83699928.769 6       759.001          38.000
G31  22715980.641 8 119373258.287 8     -2856.215          50.000    22715980.117 8  93018110.742 8     -2225.625          51.000
R14  22186069.125 5 118264173.356 5     -4221.496          35.000    22186073.289 6  91983221.339 6     -3283.386          40.000
R15  19372848.391 8 103522626.362 8     -1160.969          49.000    19372852.680 7  80517586.935 7      -902.976          46.000
R17  19334097.266 6 103460727.532 6      -911.781          40.000    19334100.383 6  80469458.336 6      -709.160          37.000
R18  20772119.820 6 110883055.937 6      2361.844          38.000    20772124.016 5  86242386.713 5      1836.987          34.000
C05  39626288.469 5 206344481.194 5         9.363          35.000
C29  21553214.414 8 112233232.948 8      -368.273          51.000
C30  24250596.805 4 126279222.759 4     -2564.570          28.000
E01  23683961.734 8 124460073.930 8       290.484          51.000    23683963.359 8  95365496.916 8       222.648          51.000
E13  24821494.812 6 130437830.691 6     -2088.758          38.000    24821496.477 6  99945882.283 6     -1600.558          40.000
E21  24971977.156 8 131228606.499 8     -2315.039          50.000    24971982.461 8 100551802.747 8     -1773.798          51.000
E26  22343312.047 8 117414937.595 8       472.930          51.000    22343316.664 8  89967257.448 8       362.408          51.000
E33  26234253.281 7 137861940.727 7      2506.918          42.000    26234257.758 7 105634491.314 7      1920.828          46.000
> 2020 05 15 13 12 30.0000000  0 17        .000000000000
G18  20297821.383 8 106665852.657 8        65.137          51.000    20297820.289 8  83116244.087 8        50.756          51.000
G20  23579582.406 5 123911523.617 5      3248.828          34.000    23579578.469 5  96554444.184 5      2531.554          33.000
G21  20647315.219 8 108502383.209 8       -36.703          50.000    20647312.969 8  84547368.715 8       -28.600          50.000
G25  24793713.977 7 130291814.109 7     -3570.688          43.000    24793718.430 7 101526112.013 7     -2782.357          43.000
G26  20434843.656 6 107385823.985 6       962.988          38.000    20434847.367 6  83677266.272 6       750.380          38.000
G31  22732296.641 8 119458999.569 8     -2861.727          51.000    22732297.109 8  93084922.067 8     -2229.920          51.000
R15  19379420.602 8 103557748.665 8     -1182.352          49.000    19379424.891 7  80544904.245 7      -919.607          46.000
R17  19339234.062 7 103488219.144 7      -922.926          42.000    19339237.289 6  80490840.646 6      -717.834          38.000
R18  20758867.492 5 110812314.086 5      2352.375          34.000    20758872.461 6  86187365.241 6      1829.628          37.000
C05  39626216.227 5 206344105.986 5        13.688          35.000    39626215.992 5 159558350.703 5        10.506          34.000
