     3.02           OBSERVATION DATA    M (MIXED)           RINEX VERSION / TYPE
SAVERINEX           SC600               20200507 215931 LCL PGM / RUN BY / DATE
       G = GPS       R = GLONASS       C = COMPASS          COMMENT
       S = SBAS      J = QZSS          E = GALILEO          COMMENT
BEAN                                                        MARKER NAME
1                                                           MARKER NUMBER
GEODETIC                                                    MARKER TYPE
Unige DICCA         GTER                                    OBSERVER / AGENCY
SC60291900056       SC600               2.12(191226)        REC # / TYPE / VERS
                    HEMA45          NONE                    ANT # / TYPE
  4509407.8091   693652.4678  4442337.6214                  APPROX POSITION XYZ
        0.0000        0.0000        0.0000                  ANTENNA: DELTA H/E/N
G    8 C1C L1C D1C S1C C2Y L2Y D2Y S2Y                      SYS / # / OBS TYPES
R    8 C1C L1C D1C S1C C2P L2P D2P S2P                      SYS / # / OBS TYPES
C    8 C1I L1I D1I S1I C7I L7I D7I S7I                      SYS / # / OBS TYPES
E    8 C1C L1C D1C S1C C7Q L7Q D7Q S7Q                      SYS / # / OBS TYPES
DBHZ                                                        COMMENT
     30.000                                                 INTERVAL
  2020    05    07    19    00    0.0000000     GPS         TIME OF FIRST OBS
  2020    05    07    19    59   30.0000000     GPS         TIME OF LAST OBS
     0                                                      RCV CLOCK OFFS APPL
G L1C  0.00000                                              SYS / PHASE SHIFT
G L2Y  0.00000                                              SYS / PHASE SHIFT
R L1C  0.00000                                              SYS / PHASE SHIFT
R L2P  0.25000                                              SYS / PHASE SHIFT
C L1I  0.00000                                              SYS / PHASE SHIFT
C L7I  0.00000                                              SYS / PHASE SHIFT
E L1C  0.50000                                              SYS / PHASE SHIFT
E L7Q -0.25000                                              SYS / PHASE SHIFT
 14 R02 -4 R03  5 R04  6 R05  1 R06 -4 R09 -2 R10 -5 R14 -7 GLONASS SLOT / FRQ #
    R15  0 R16 -1 R17  4 R18 -3 R19  3 R20  2               GLONASS SLOT / FRQ #
 C1C   71.950 C2C   71.950 C2P   71.950                     GLONASS COD/PHS/BIS
    18                                                      LEAP SECONDS
*** Above antenna height is from mark to ANTENNA BOTTOM.    COMMENT
    17     4        0.0000        ANT MEASURE TYPE/HEIGT    COMMENT
    0.0000    0.0000    0.0458    0.0405    0.0000          COMMENT
                    BASE STATION                            COMMENT
                                                            END OF HEADER
> 2020 05 07 19 00  0.0000000  0 20        .000000000000
G03  22900105.625 8 120340880.580 8      3137.625          48.000    22900109.383 7  93772139.922 7      2444.906          42.000
G08  21003128.102 8 110372190.140 8     -1983.621          50.000    21003132.867 8  86004295.713 8     -1545.679          50.000
G10  23931918.320 6 125763067.308 6     -3197.938          37.000    23931918.656 6  97997205.904 6     -2491.899          38.000
G11  19874979.445 8 104443749.588 8       335.402          49.000    19874979.070 8  81384716.961 8       261.352          49.000
G14  22228435.211 6 116811267.594 6      1408.695          41.000    22228435.117 5  91021786.869 5      1097.685          35.000
G22  21298159.898 8 111922674.324 8      1759.406          51.000    21298158.266 8  87212397.153 8      1370.966          49.000
G27  23165019.156 7 121732972.224 7     -3458.914          43.000    23165020.859 7  94856846.260 7     -2695.258          42.000
G32  22009257.266 5 115659435.035 5       -61.875          32.000    22009260.172 5  90124238.549 5       -48.214          30.000
R04  20178027.445 7 108052428.512 7     -2261.246          44.000    20178029.773 7  84040788.360 7     -1758.744          46.000
R05  19616702.508 8 104862535.717 8      1998.762          51.000    19616705.203 8  81559755.969 8      1554.595          50.000
R19  20880843.938 5 111698436.804 5     -2447.230          30.000    20880846.109 5  86876567.988 5     -1903.401          35.000
C05                                                                  39652171.273 6 159662862.882 6       -18.933          37.000
C11  21763133.547 8 113326343.286 8       622.723          48.000    21763133.766 8  87631108.305 8       481.592          50.000
C12  23038254.531 8 119966212.694 8     -2306.004          48.000    23038253.938 8  92765476.028 8     -1783.124          48.000
C14  24273461.562 5 126398286.585 5      3087.770          32.000    24273444.070 6  97739146.657 6      2387.541          36.000
C21  22126132.594 8 115216600.352 8      -922.742          51.000
C22  25781793.484 4 134252564.043 4     -3061.520          28.000
E05  24261841.078 8 127496922.758 8      1492.453          48.000    24261845.805 8  97692380.952 8      1143.622          49.000
E30                                                                  26480829.727 5 106627326.996 5     -1999.463          30.000
E36  24824347.516 6 130452822.496 6     -1736.809          40.000    24824352.719 6  99957350.242 6     -1330.694          37.000
> 2020 05 07 19 00 30.0000000  0 19        .000000000000
G03  22882207.688 8 120246825.178 8      3124.480          48.000    22882211.453 7  93698850.058 7      2434.663          44.000
G08  21014486.477 8 110431878.562 8     -2004.070          51.000    21014491.352 8  86050806.166 8     -1561.613          51.000
G10  23950172.781 5 125858994.216 5     -3205.176          35.000    23950173.742 5  98071954.138 5     -2497.540          34.000
G11  19873102.195 8 104433884.663 8       313.863          49.000    19873101.852 8  81377029.996 8       244.569          49.000
G14  22220429.156 6 116769194.982 6      1387.887          39.000    22220429.578 6  90989003.029 6      1081.464          38.000
G22  21288141.883 8 111870026.436 8      1741.887          51.000    21288139.727 8  87171372.857 8      1357.314          49.000
G27  23184775.531 6 121836796.840 6     -3471.285          41.000    23184778.633 6  94937748.548 6     -2704.894          41.000
G32  22009654.773 5 115661529.066 5       -85.840          32.000    22009658.477 5  90125870.344 5       -66.885          32.000
R04  20190743.320 7 108120523.404 7     -2286.785          43.000    20190745.828 7  84093751.047 7     -1778.611          45.000
R05  19605540.500 8 104802871.562 8      1970.340          48.000    19605544.336 8  81513350.554 8      1532.487          50.000
R19  20894596.305 4 111771998.302 4     -2465.746          29.000    20894598.086 5  86933783.279 5     -1917.806          32.000
C05                                                                  39652302.070 6 159663389.769 6       -22.570          37.000
C11  21759571.148 8 113307793.140 8       605.457          48.000    21759571.477 8  87616764.150 8       468.178          51.000
C12  23051557.344 7 120035487.202 7     -2320.543          46.000    23051556.188 7  92819043.460 7     -1794.397          46.000
C14  24255682.242 5 126305703.194 5      3076.301          31.000    24255660.719 5  97667555.383 5      2378.628          35.000
C21  22131479.133 8 115244442.257 8      -941.684          51.000
C22  25799433.906 4 134344422.565 4     -3070.152          28.000
E05  24253345.234 8 127452280.639 8      1475.062          49.000    24253349.609 8  97658174.667 8      1130.395          49.000
E36  24834268.688 6 130504957.944 6     -1747.680          40.000    24834273.148 6  99997298.108 6     -1338.727          37.000
> 2020 05 07 19 01  0.0000000  0 18        .000000000000
G03  22864444.250 8 120153476.400 8      3115.043          48.000    22864448.344 7  93626110.838 7      2427.309          45.000
G08  21026020.227 8 110492487.527 8     -2020.465          51.000    21026024.602 8  86098033.907 8     -1574.391          51.000
G10  23968532.375 5 125955483.816 5     -3209.723          32.000    23968531.602 5  98147129.103 5     -2501.086          33.000
G11  19871406.883 8 104424976.092 8       296.148          49.000    19871406.633 8  81370088.257 8       230.768          49.000
G14  22212601.750 6 116728062.113 6      1370.520          37.000    22212602.039 6  90956951.417 6      1067.934          36.000
G22  21278282.523 8 111818214.121 8      1728.320          51.000    21278279.945 8  87130999.646 8      1346.743          49.000
G27  23204658.859 6 121941291.858 6     -3479.020          41.000    23204664.016 6  95019173.243 6     -2710.924          40.000
G32  22010251.531 6 115664661.935 6      -106.672          39.000    22010253.250 6  90128311.438 6       -83.124          38.000
R04  20203662.070 7 108189702.883 7     -2308.492          44.000    20203664.094 7  84147557.317 7     -1795.494          44.000
R05  19594596.766 8 104744376.496 8      1945.680          49.000    19594601.648 8  81467854.385 8      1513.306          49.000
R19  20908510.883 5 111846438.758 5     -2480.059          30.000    20908513.148 5  86991681.448 5     -1928.937          32.000
C05                                                                  39652519.508 6 159664265.679 6       -23.805          37.000
C11  21756167.570 8 113290069.684 8       591.914          48.000    21756168.016 8  87603059.245 8       457.808          51.000
C12  23065002.703 7 120105505.207 7     -2331.426          46.000    23065002.000 7  92873185.772 7     -1802.679          47.000
C21  22136993.992 8 115273159.814 8      -956.793          51.000
E05  24245008.109 8 127408468.487 8      1461.742          51.000    24245012.547 8  97624604.374 8      1120.015          51.000
E30  26510729.531 5 139314810.862 5     -2622.570          34.000
E36  24844310.016 6 130557723.648 6     -1754.297          38.000    24844313.156 6 100037728.938 6     -1344.082          37.000
> 2020 05 07 19 01 30.0000000  0 19        .000000000000
G03  22846664.078 7 120060040.636 7      3109.199          47.000    22846668.391 7  93553303.802 7      2422.753          45.000
G08  21037577.562 8 110553220.605 8     -2033.254          51.000    21037581.234 8  86145358.368 8     -1584.357          50.000
G10  23986843.086 5 126051710.439 5     -3210.211          34.000
G11  19869742.469 8 104416229.883 8       282.105          48.000    19869742.438 8  81363273.020 8       219.822          49.000
G14  22204802.352 6 116687075.970 6      1357.312          39.000    22204803.852 6  90925014.161 6      1057.646          36.000
G22  21268430.539 8 111766442.964 8      1718.137          51.000    21268427.859 8  87090658.489 8      1338.808          48.000
G27  23224519.406 7 122045660.357 7     -3483.473          44.000    23224524.875 7  95100499.380 7     -2714.394          44.000
G32  22010895.250 5 115668038.544 5      -123.758          34.000    22010897.367 5  90130942.546 5       -96.429          33.000
R04  20216631.797 7 108259153.292 7     -2326.305          43.000    20216633.430 7  84201574.334 7     -1809.345          44.000
R05  19583721.312 8 104686243.702 8      1924.910          49.000    19583726.445 8  81422639.985 8      1497.152          48.000
R19  20922439.141 5 111920947.630 5     -2491.223          32.000    20922441.617 5  87049632.778 5     -1937.618          33.000
C05                                                                  39652672.289 6 159664879.376 6       -21.627          37.000
C11  21752771.734 8 113272386.347 8       582.047          48.000    21752772.297 8  87589385.359 8       450.057          51.000
C12  23078440.438 8 120175478.317 8     -2338.328          48.000    23078439.906 8  92927293.417 8     -1808.180          48.000
C14  24220336.352 5 126121657.642 5      3064.574          30.000    24220332.148 6  97525236.563 6      2369.699          40.000
C21  22142525.375 8 115301963.966 8      -968.184          51.000
E05  24236678.336 8 127364692.359 8      1451.781          51.000    24236682.797 8  97591061.669 8      1112.416          51.000
E30  26525691.859 5 139393434.961 5     -2624.090          34.000
E36  24854319.797 6 130610324.821 6     -1757.598          37.000    24854321.594 6 100078033.708 6     -1346.482          38.000
> 2020 05 07 19 02  0.0000000  0 19        .000000000000
G03  22828935.164 8 119966873.339 8      3100.168          48.000    22828938.828 7  93480705.945 7      2415.718          43.000
G08  21049225.531 8 110614430.904 8     -2049.137          50.000    21049228.719 8  86193054.685 8     -1596.730          50.000
G11  19868176.555 8 104408001.365 8       264.645          48.000    19868176.703 8  81356861.181 8       206.213          48.000
G14  22197099.055 6 116646592.306 6      1339.699          41.000    22197100.422 5  90893468.462 5      1043.921          33.000
G22  21258653.883 8 111715067.446 8      1704.961          51.000    21258651.086 8  87050625.648 8      1328.541          48.000
G27  23244423.523 7 122150254.608 7     -3491.148          45.000    23244427.906 7  95182001.358 7     -2720.378          45.000
G32  22011652.672 6 115672012.911 6      -143.422          37.000    22011653.867 4  90134040.503 4      -111.773          28.000
R04  20229718.422 7 108329232.056 7     -2347.250          42.000    20229720.594 7  84256080.045 7     -1825.639          43.000
R05  19572981.758 8 104628835.052 8      1900.605          51.000    19572986.500 7  81377988.846 7      1478.252          47.000
R19  20936447.266 5 111995885.226 5     -2506.672          33.000    20936449.398 5  87107917.525 5     -1949.637          30.000
C05                                                                  39652827.914 6 159665506.308 6       -21.805          36.000
C11  21749451.117 8 113255095.360 8       568.871          48.000    21749451.906 8  87576014.859 8       439.966          51.000
C12  23091937.305 8 120245756.715 8     -2348.598          50.000    23091936.844 8  92981637.103 8     -1816.067          49.000
C14  24202694.352 5 126029811.770 5      3057.094          31.000    24202696.273 7  97454215.522 7      2363.933          42.000
C21  22148140.797 8 115331204.441 8      -982.855          51.000
E05  24228423.031 8 127321307.325 8      1438.738          51.000    24228427.391 8  97557818.626 8      1102.395          51.000
E09  23397484.609 6 122954607.059 6     -1366.809          36.000
E30  26540675.062 5 139472188.233 5     -2627.625          33.000
E36  24864365.492 6 130663115.673 6     -1763.746          39.000    24864367.938 6 100118483.831 6     -1351.382          40.000
> 2020 05 07 19 02 30.0000000  0 19        .000000000000
G03  22811259.039 8 119873984.173 8      3099.484          49.000    22811261.688 7  93408324.864 7      2415.186          43.000
G08  21060965.602 8 110676125.418 8     -2056.738          50.000    21060968.562 8  86241128.332 8     -1602.650          50.000
G10  24023520.445 5 126244447.612 5     -3208.332          34.000    24023523.164 5  98372311.880 5     -2500.005          33.000
G11  19866710.922 8 104400299.674 8       255.641          48.000    19866710.938 8  81350859.860 8       199.200          48.000
G14  22189493.602 6 116606621.323 6      1331.555          40.000    22189493.062 6  90862322.208 6      1037.575          38.000
G22  21248953.914 8 111664096.229 8      1700.074          51.000    21248951.344 7  87010907.857 7      1324.736          47.000
G27  23264371.984 7 122255080.895 7     -3490.332          46.000    23264373.773 7  95263684.107 7     -2719.739          46.000
G32  22012525.352 5 115676593.770 5      -155.230          35.000
R04  20242923.594 7 108399944.302 7     -2359.613          42.000    20242925.578 7  84311078.496 7     -1835.255          42.000
R05  19562380.047 8 104572160.569 8      1884.758          51.000    19562383.633 7  81333908.732 7      1465.923          47.000
R19  20950537.227 5 112071258.808 5     -2512.461          33.000    20950539.469 5  87166541.371 5     -1954.139          33.000
C05                                                                  39652988.062 6 159666150.914 6       -15.825          37.000
C11  21746207.727 8 113238206.103 8       563.984          49.000    21746208.508 8  87562955.008 8       436.133          51.000
C12  23105494.125 8 120316348.038 8     -2350.578          50.000    23105494.078 8  93036222.770 8     -1817.553          51.000
C14  24185097.305 5 125938194.307 5      3057.805          31.000    24185104.664 7  97383371.100 7      2364.489          44.000
C21  22153841.484 8 115360888.153 8      -989.191          51.000
E05  24220243.625 8 127278322.633 8      1433.969          51.000    24220247.719 8  97524882.318 8      1098.806          51.000
E30  26555683.445 5 139551057.920 5     -2622.602          33.000
E36  24874449.477 6 130716104.643 6     -1761.594          39.000    24874453.195 6 100159085.727 6     -1350.065          40.000
> 2020 05 07 19 03  0.0000000  0 19        .000000000000
G03  22793616.156 8 119781269.692 8      3081.953          50.000    22793617.422 6  93336079.898 6      2401.525          41.000
G08  21072777.883 8 110738198.105 8     -2080.848          51.000    21072780.695 8  86289496.661 8     -1621.440          51.000
G10  24041873.539 6 126340890.342 6     -3220.273          37.000    24041876.164 6  98447462.042 6     -2509.304          36.000
G11  19865325.844 8 104393021.127 8       230.012          49.000    19865325.586 8  81345188.264 8       179.230          48.000
G14  22181965.797 6 116567059.874 6      1306.316          41.000    22181964.797 5  90831495.165 5      1017.915          35.000
G22  21239310.977 8 111613425.096 8      1678.570          51.000    21239308.789 7  86971423.853 7      1307.977          47.000
G27  23284344.195 7 122360032.352 7     -3505.926          45.000    23284343.562 7  95345464.381 7     -2731.893          45.000
G32  22013492.938 5 115681676.167 5      -183.680          35.000    22013491.391 5  90141571.670 5      -143.118          33.000
R04  20256226.375 7 108471179.945 7     -2388.824          43.000    20256228.703 6  84366483.975 6     -1857.974          41.000
R05  19551896.078 8 104516115.597 8      1852.102          51.000    19551898.609 7  81290318.217 7      1440.526          47.000
R19  20964689.148 5 112146961.316 5     -2534.762          31.000    20964691.594 5  87225420.974 5     -1971.487          35.000
C05                                                                  39653132.578 6 159666732.891 6       -22.615          37.000
C11  21743021.828 8 113221615.922 8       542.539          49.000    21743022.367 8  87550126.438 8       419.592          51.000
C12  23119090.414 8 120387147.706 8     -2369.004          48.000    23119091.352 8  93090969.518 8     -1831.704          51.000
C14  24167526.273 5 125846702.882 5      3041.457          31.000    24167536.586 7  97312624.141 7      2352.524          45.000
C21  22159606.828 8 115390909.973 8     -1011.797          51.000
E05  24212120.469 8 127235634.338 8      1412.602          51.000    24212124.195 8  97492173.103 8      1082.395          51.000
E30  26570696.500 5 139629952.132 5     -2634.918          33.000
E36  24884550.508 6 130769186.988 6     -1776.266          39.000    24884554.586 6 100199759.220 6     -1360.987          36.000
> 2020 05 07 19 03 30.0000000  0 18        .000000000000
G03  22776043.547 8 119688925.045 8      3075.676          49.000    22776043.695 6  93264123.090 6      2396.634          41.000
G08  21084698.812 8 110800841.474 8     -2093.730          51.000    21084701.664 8  86338309.664 8     -1631.478          51.000
G10  24060263.688 6 126437528.902 6     -3220.914          36.000    24060266.508 6  98522764.790 6     -2509.803          36.000
G11  19864058.461 8 104386360.613 8       215.590          49.000    19864057.992 8  81339998.256 8       167.992          49.000
G14  22174552.758 6 116528103.221 6      1292.496          40.000    22174551.922 6  90801139.341 6      1007.140          36.000
G22  21229762.516 8 111563248.250 8      1668.152          51.000    21229760.555 8  86932325.011 8      1299.862          48.000
G27  23304376.016 7 122465300.891 7     -3510.391          44.000    23304376.078 7  95427491.772 7     -2735.369          45.000
R04  20269663.055 7 108543132.872 7     -2406.531          43.000    20269666.062 6  84422447.424 6     -1871.743          39.000
R05  19541566.945 8 104460898.969 8      1830.684          51.000    19541569.219 7  81247371.961 7      1423.865          47.000
R19  20978939.719 5 112223189.494 5     -2545.473          31.000    20978942.203 6  87284709.535 6     -1979.812          37.000
C05                                                                  39653298.430 6 159667400.830 6       -20.905          36.000
C11  21739930.398 8 113205518.266 8       532.176          48.000    21739930.828 8  87537678.709 8       411.536          51.000
C12  23132762.766 7 120458347.178 7     -2376.230          45.000    23132764.961 8  93146025.452 8     -1837.374          51.000
C14  24150016.484 5 125755531.070 5      3037.195          31.000    24150029.336 7  97242124.375 7      2348.797          45.000
C21  22165473.977 8 115421460.679 8     -1023.305          51.000
E05  24204090.727 8 127193437.242 8      1402.230          51.000    24204094.477 8  97459840.255 8      1074.433          51.000
E09  23421177.180 6 123079114.344 6     -1401.262          36.000
E36  24894705.703 6 130822556.672 6     -1779.910          37.000    24894709.867 6 100240652.962 6     -1363.675          36.000
> 2020 05 07 19 04  0.0000000  0 18        .000000000000
G03  22758514.672 8 119596811.337 8      3066.855          48.000    22758514.445 7  93192346.249 7      2389.761          42.000
G08  21096701.352 8 110863913.747 8     -2109.215          51.000    21096704.117 8  86387456.883 8     -1643.544          51.000
G10  24078664.016 6 126534221.378 6     -3223.332          37.000    24078666.734 6  98598109.542 6     -2511.690          37.000
G11  19862882.133 8 104380178.608 8       198.562          49.000    19862881.727 8  81335181.107 8       154.724          49.000
G14  22167227.703 6 116489612.878 6      1275.316          37.000    22167227.711 5  90771146.930 5       993.756          35.000
G22  21220281.664 8 111513425.525 8      1655.188          51.000    21220279.867 8  86893502.125 8      1289.756          48.000
G27  23324441.250 7 122570744.176 7     -3517.488          45.000    23324442.508 7  95509655.381 7     -2740.900          45.000
G32  22015798.086 6 115693808.763 6      -219.828          36.000    22015794.438 6  90150997.538 6      -171.310          36.000
R04  20283206.266 7 108615656.738 7     -2426.484          44.000    20283208.547 6  84478854.834 6     -1887.266          36.000
R05  19531366.312 8 104406369.587 8      1806.645          51.000    19531368.648 8  81204960.240 8      1405.168          48.000
R19  20993261.414 5 112299799.873 5     -2559.867          30.000    20993264.578 6  87344295.384 6     -1991.005          38.000
C05                                                                  39653459.031 6 159668047.290 6       -20.914          37.000
C11  21736907.008 8 113189775.247 8       519.191          49.000    21736907.562 8  87525505.204 8       401.454          51.000
C12  23146484.875 7 120529806.620 7     -2385.828          45.000    23146488.211 8  93201282.457 8     -1845.016          51.000
C14                                                                  24132556.602 7  97171765.458 7      2343.200          46.000
C21  22171415.633 8 115452400.028 8     -1037.414          51.000
E05  24196128.055 8 127151591.938 8      1389.340          51.000    24196131.836 8  97427776.959 8      1064.520          51.000
E36  24904888.906 6 130876073.655 6     -1786.078          37.000    24904895.680 6 100281659.419 6     -1368.532          40.000
> 2020 05 07 19 04 30.0000000  0 19        .000000000000
G03  22741037.516 8 119504970.709 8      3060.789          48.000    22741037.969 7  93120782.202 7      2385.033          43.000
G08  21108793.055 8 110927454.597 8     -2121.914          51.000    21108795.422 8  86436969.229 8     -1653.440          51.000
G10  24097081.820 5 126631007.071 5     -3223.754          35.000    24097084.484 6  98673526.897 6     -2512.019          36.000
G11  19861804.836 8 104374516.862 8       184.137          49.000    19861804.406 8  81330769.356 8       143.483          49.000
G14  22159999.625 6 116451631.462 6      1261.695          38.000    22160000.023 6  90741551.014 6       983.139          36.000
G22  21210876.164 8 111463998.535 8      1644.934          51.000    21210873.922 8  86854987.627 8      1281.766          48.000
G27  23344547.734 8 122676401.198 8     -3521.465          48.000    23344549.195 8  95591985.518 8     -2743.999          48.000
G32  22017114.977 5 115700737.771 5      -235.652          31.000    22017115.891 5  90156396.719 5      -183.622          31.000
R04  20296863.828 7 108688789.768 7     -2443.844          42.000    20296864.586 5  84535736.050 5     -1900.767          34.000
R05  19521301.891 8 104352570.392 8      1785.254          51.000    19521304.609 8  81163116.434 8      1388.531          48.000
R19  21007661.367 4 112376833.574 4     -2571.359          27.000    21007665.906 6  87404210.475 6     -1999.952          38.000
C05                                                                  39653622.008 6 159668703.598 6       -18.954          36.000
C11  21733959.898 8 113174428.577 8       508.879          49.000    21733960.477 8  87513638.190 8       393.431          51.000
C12  23160265.117 7 120601566.002 7     -2392.938          46.000    23160269.156 8  93256771.347 8     -1850.510          51.000
C14  24115111.578 5 125573712.981 5      3025.867          31.000    24115126.961 7  97101579.924 7      2339.617          45.000
C21  22177439.469 8 115483767.148 8     -1048.727          51.000
E05  24188240.438 8 127110140.221 8      1379.082          51.000    24188244.008 8  97396015.250 8      1056.684          51.000
E30  26615910.164 5 139867563.228 5     -2639.707          35.000
E36  24915108.789 6 130929778.776 6     -1789.195          39.000    24915117.852 6 100322810.056 6     -1371.160          39.000
> 2020 05 07 19 05  0.0000000  0 17        .000000000000
G03  22723603.992 7 119413358.750 7      3048.062          47.000    22723606.195 7  93049396.333 7      2375.114          44.000
G08  21120964.812 8 110991416.777 8     -2140.949          51.000    21120966.898 8  86486809.870 8     -1668.272          51.000
G10  24115507.961 5 126727838.487 5     -3229.664          35.000    24115511.141 5  98748979.879 5     -2516.624          35.000
G11  19860818.039 8 104369330.704 8       163.059          50.000    19860817.695 8  81326728.188 8       127.059          50.000
G14  22152859.656 5 116414114.840 5      1240.812          35.000    22152860.633 5  90712317.290 5       966.870          33.000
G22  21201537.219 8 111414921.818 8      1628.215          51.000    21201534.578 8  86816746.069 8      1268.742          48.000
G27  23364685.953 8 122782224.144 8     -3532.090          50.000    23364687.375 8  95674444.918 8     -2752.278          50.000
R04  20310625.305 7 108762481.840 7     -2467.816          42.000    20310627.836 5  84593052.142 5     -1919.410          33.000
R05  19511365.680 8 104299456.499 8      1757.102          51.000    19511368.695 8  81121805.640 8      1366.635          48.000
C05                                                                  39653778.773 6 159669334.783 6       -21.851          37.000
C11  21731080.281 8 113159434.044 8       492.004          49.000    21731081.031 8  87502043.456 8       380.482          51.000
C12  23174094.680 7 120673579.141 7     -2406.664          47.000    23174098.336 8  93312456.451 8     -1860.868          50.000
C14  24097717.047 6 125483127.810 6      3014.668          36.000    24097731.680 7  97031533.782 7      2331.123          44.000
C21  22183536.508 8 115515515.392 8     -1066.422          51.000
E05  24180419.055 8 127069037.099 8      1362.395          51.000    24180422.500 8  97364520.671 8      1043.922          51.000
E30  26631000.188 5 139946854.275 5     -2647.137          34.000
E36  24925356.633 6 130983626.344 6     -1799.129          41.000    24925365.281 6 100364069.875 6     -1378.517          39.000
> 2020 05 07 19 05 30.0000000  0 18        .000000000000
G03  22706246.922 7 119322149.347 7      3044.055          46.000    22706251.336 7  92978324.145 7      2371.994          44.000
G08  21133249.156 8 111055971.737 8     -2151.375          51.000    21133250.969 8  86537112.405 8     -1676.396          51.000
G10  24133975.055 5 126824886.743 5     -3228.398          35.000    24133978.891 5  98824601.842 5     -2515.635          35.000
G11  19859954.859 8 104364793.594 8       150.824          51.000    19859954.398 8  81323192.768 8       117.525          50.000
G14  22145841.898 6 116377236.936 6      1229.121          41.000    22145842.711 5  90683581.327 5       957.763          32.000
G22  21192297.953 8 111366368.087 8      1620.059          51.000    21192295.453 8  86778912.009 8      1262.383          49.000
G27  23384888.086 8 122888383.574 8     -3533.809          50.000    23384889.391 8  95757166.502 8     -2753.617          50.000
R04  20324523.281 7 108836905.184 7     -2482.199          43.000    20324524.203 4  84650936.891 4     -1930.605          27.000
R05  19501590.711 8 104247204.944 8      1737.895          51.000    19501594.297 8  81081165.581 8      1351.699          48.000
C05                                                                  39653962.141 6 159670073.128 6       -18.625          37.000
C11  21728301.414 8 113144963.888 8       483.891          49.000    21728302.242 8  87490854.219 8       374.081          51.000
C12  23188006.281 8 120746016.354 8     -2411.207          48.000    23188008.883 8  93368469.477 8     -1864.707          50.000
C14  24080390.984 6 125392895.388 6      3012.102          39.000    24080403.797 7  96961760.462 7      2329.172          42.000
C21  22189739.133 8 115547814.467 8     -1075.477          51.000
E05  24172697.016 8 127028456.065 8      1354.277          51.000    24172700.008 8  97333426.137 8      1037.687          51.000
E09  23453776.438 5 123250426.102 5     -1447.355          32.000
E30  26646133.008 5 140026375.675 5     -2644.938          34.000
E36  24935664.625 7 131037789.066 7     -1800.273          42.000    24935672.602 6 100405571.203 6     -1379.631          40.000
> 2020 05 07 19 06  0.0000000  0 16        .000000000000
G03  22688896.242 7 119230971.051 7      3030.188          47.000    22688901.891 7  92907276.118 7      2361.185          45.000
G08  21145575.016 8 111120745.114 8     -2171.367          51.000    21145576.219 8  86587585.126 8     -1691.974          51.000
G10  24152412.258 5 126921777.367 5     -3236.090          35.000    24152416.867 5  98900100.996 5     -2521.628          34.000
G11  19859144.469 8 104360533.851 8       128.719          51.000    19859143.898 8  81319873.482 8       100.303          51.000
G14  22138875.961 7 116340626.803 7      1207.254          43.000    22138877.273 6  90655053.934 6       940.720          36.000
G22  21183087.492 8 111317965.074 8      1602.309          51.000    21183085.062 8  86741195.390 8      1248.552          49.000
G27  23405082.555 8 122994504.748 8     -3545.332          50.000    23405084.078 8  95839858.282 8     -2762.599          50.000
R04  20338486.156 6 108911676.470 6     -2506.695          41.000    20338487.836 5  84709092.333 5     -1949.649          30.000
R05  19491906.492 8 104195438.049 8      1708.738          51.000    19491910.281 8  81040902.460 8      1329.019          48.000
C05                                                                  39654101.227 6 159670632.969 6       -22.283          37.000
C11  21725552.617 8 113130649.940 8       466.039          49.000    21725553.383 8  87479785.768 8       360.305          51.000
C12  23201928.133 8 120818507.590 8     -2425.797          50.000    23201929.375 8  93424524.250 8     -1875.729          49.000
C14  24063062.211 6 125302647.898 6      2999.766          39.000    24063072.828 6  96891975.526 6      2319.763          41.000
C21  22195976.547 8 115580293.678 8     -1094.094          51.000
E05  24165003.602 8 126988025.216 8      1336.613          51.000    24165005.922 8  97302446.662 8      1024.098          51.000
E36  24945961.273 6 131091894.300 6     -1811.125          41.000    24945968.102 6 100447028.396 6     -1387.715          40.000
> 2020 05 07 19 06 30.0000000  0 17        .000000000000
G03  22671624.164 7 119140204.957 7      3021.512          47.000    22671630.547 7  92836549.344 7      2354.425          45.000
G08  21158014.289 8 111186115.359 8     -2186.188          51.000    21158014.938 8  86638522.959 8     -1703.523          51.000
G10  24170891.586 5 127018888.601 5     -3238.258          33.000    24170896.836 5  98975772.133 5     -2523.315          33.000
G11  19858459.250 8 104356931.984 8       111.910          51.000    19858458.523 8  81317066.828 8        87.203          51.000
G14  22132033.555 7 116304665.830 7      1190.746          42.000    22132034.375 6  90627032.487 6       927.857          36.000
G22  21173977.914 8 111270093.015 8      1589.691          51.000    21173975.055 8  86703892.502 8      1238.721          48.000
G27  23425341.211 8 123100965.488 8     -3551.582          48.000    23425343.602 8  95922814.684 8     -2767.467          48.000
R04  20352585.430 7 108987179.372 7     -2525.949          43.000    20352590.586 4  84767816.861 4     -1964.627          28.000
R05  19482385.773 8 104144543.688 8      1684.781          51.000    19482389.367 8  81001317.979 8      1310.385          48.000
R19  21066021.289 5 112688970.430 5     -2629.383          32.000    21066024.125 5  87647017.063 5     -2045.079          32.000
C05                                                                  39654268.195 6 159671305.513 6       -21.724          37.000
C11  21722906.242 8 113116869.797 8       453.199          49.000    21722906.953 8  87469130.078 8       350.427          51.000
C12  23215932.719 8 120891428.501 8     -2435.062          50.000    23215932.555 8  93480911.255 8     -1882.972          49.000
C14  24045802.719 6 125212763.191 6      2993.281          38.000    24045810.594 6  96822471.107 6      2314.290          41.000
C21  22202320.430 8 115613328.083 8     -1107.633          51.000
E05  24157411.086 8 126948125.248 8      1323.848          51.000    24157413.477 8  97271873.981 8      1014.419          51.000
E36  24956319.352 7 131146321.986 7     -1816.930          42.000    24956323.758 6 100488732.697 6     -1392.310          37.000
> 2020 05 07 19 07  0.0000000  0 18        .000000000000
G03  22654427.844 8 119049835.957 8      3011.875          48.000    22654433.195 7  92766131.999 7      2346.919          43.000
G08  21170563.367 8 111252064.563 8     -2201.719          49.000    21170564.039 8  86689911.947 8     -1715.622          49.000
G10  24189409.484 5 127116204.401 5     -3241.199          32.000    24189415.188 4  99051612.078 4     -2525.610          29.000
G11  19857896.141 8 104353972.231 8        94.234          51.000    19857895.352 8  81314760.521 8        73.429          51.000
G14  22125311.656 7 116269339.211 7      1173.086          43.000    22125312.086 5  90599505.238 5       914.087          34.000
G22  21164966.070 8 111222735.415 8      1576.254          51.000    21164962.898 8  86666990.515 8      1228.250          48.000
G27  23445660.453 7 123207747.331 7     -3558.492          47.000    23445664.070 7  96006021.308 7     -2772.851          47.000
G32  22025390.414 6 115744206.290 6      -338.648          38.000    22025394.719 6  90190298.502 6      -263.882          38.000
R04  20366818.477 6 109063393.426 6     -2545.852          41.000
R05  19473025.500 8 104094506.365 8      1660.008          51.000    19473029.227 8  80962400.118 8      1291.117          48.000
R19  21080833.711 5 112768197.613 5     -2643.973          33.000    21080832.672 5  87708638.179 5     -2056.423          32.000
C05                                                                  39654460.031 6 159672078.197 6       -22.651          37.000
C11  21720359.562 8 113103608.260 8       439.652          49.000    21720360.219 8  87458875.428 8       339.852          51.000
C12  23230016.227 8 120964762.047 8     -2445.035          49.000    23230015.039 8  93537617.358 8     -1890.762          49.000
C14  24028608.961 6 125123226.495 6      2985.293          36.000    24028613.867 6  96753235.712 6      2308.089          41.000
C21  22208767.406 8 115646899.927 8     -1121.742          51.000
E05  24149916.523 8 126908740.520 8      1310.395          51.000    24149918.898 8  97241696.126 8      1004.107          51.000
E36  24966735.352 6 131201055.692 6     -1823.555          37.000    24966737.625 5 100530671.507 5     -1397.389          35.000
> 2020 05 07 19 07 30.0000000  0 17        .000000000000
G03  22637244.195 7 118959534.384 7      3004.906          47.000    22637247.406 7  92695767.187 7      2341.488          43.000
G08  21183159.453 8 111318260.439 8     -2214.645          49.000    21183160.180 8  86741493.117 8     -1725.697          49.000
G11  19857392.562 8 104351325.338 8        79.098          51.000    19857391.656 8  81312698.001 8        61.635          51.000
G14  22118647.227 6 116234317.248 6      1158.461          41.000    22118647.805 6  90572215.500 6       902.703          36.000
G22  21155989.250 8 111175562.170 8      1565.367          51.000    21155986.336 8  86630232.170 8      1219.767          49.000
G27  23465976.867 7 123314517.333 7     -3562.602          43.000    23465981.852 7  96089218.722 7     -2776.053          43.000
G32  22027366.922 5 115754582.183 5      -356.172          31.000    22027366.938 5  90198383.537 5      -277.533          30.000
R04  20381119.867 7 109139978.025 7     -2562.914          43.000    20381148.312 4  84886664.098 4     -1993.372          29.000
R05  19463762.727 8 104044990.926 8      1637.727          51.000    19463766.211 7  80923888.137 7      1273.787          47.000
R19  21095682.445 5 112847626.637 5     -2654.973          33.000    21095682.094 5  87770416.203 5     -2064.979          32.000
C05                                                                  39654613.711 6 159672697.401 6       -21.026          37.000
C11  21717849.625 8 113090538.700 8       428.496          49.000    21717850.453 8  87448769.202 8       331.355          51.000
C12  23244115.438 8 121038179.537 8     -2452.496          50.000    23244114.133 8  93594388.359 8     -1896.510          50.000
C14  24011416.664 6 125033711.394 6      2979.430          36.000    24011419.336 6  96684016.951 6      2304.095          40.000
C21  22215254.641 8 115680680.059 8     -1133.375          51.000
E05  24142457.031 8 126869540.888 8      1299.703          51.000    24142458.859 8  97211660.094 8       995.808          50.000
E36                                                                  24977146.906 5 100572591.261 5     -1399.613          32.000
> 2020 05 07 19 08  0.0000000  0 17        .000000000000
G03  22620122.484 7 118869559.058 7      2995.688          47.000    22620124.133 7  92625656.623 7      2334.305          44.000
G08  21195851.734 8 111384959.119 8     -2229.684          51.000    21195852.477 8  86793466.049 8     -1737.416          51.000
G11  19856997.570 8 104349249.206 8        61.652          51.000    19856996.516 8  81311080.238 8        48.041          51.000
G14  22112089.812 6 116199859.159 6      1141.211          41.000    22112089.914 5  90545365.047 5       889.249          30.000
G22  21147096.586 8 111128831.218 8      1552.348          51.000    21147094.023 8  86593818.453 8      1209.622          49.000
G27  23486339.750 7 123421531.016 7     -3569.270          42.000    23486345.812 7  96172606.039 7     -2781.246          42.000
G32  22029462.758 6 115765609.873 6      -375.707          39.000    22029459.742 6  90206966.513 6      -292.759          39.000
R04  20395538.945 6 109217191.882 6     -2582.219          41.000    20395573.070 4  84946719.561 4     -2008.380          27.000
R05  19454646.648 8 103996260.708 8      1613.262          51.000    19454650.031 7  80885986.895 7      1254.759          47.000
R19  21110617.977 5 112927518.968 5     -2668.863          32.000    21110617.047 5  87832554.628 5     -2075.783          32.000
C05                                                                  39654778.375 6 159673359.564 6       -21.386          37.000
C11  21715425.703 8 113077917.285 8       415.160          50.000    21715426.727 8  87439009.519 8       321.064          51.000
C12  23258279.195 8 121111935.423 8     -2462.242          48.000    23258278.047 8  93651421.068 8     -1903.910          50.000
C14  23994277.586 6 124944474.324 6      2971.676          40.000    23994277.680 6  96615013.204 6      2298.063          40.000
C21  22221830.227 8 115714922.238 8     -1147.152          51.000
E05  24135081.812 8 126830784.740 8      1286.461          51.000    24135082.281 8  97181963.856 8       985.676          48.000
E09  23496045.461 5 123472545.238 5     -1509.855          32.000    23496046.203 5  94608842.453 5     -1156.824          33.000
> 2020 05 07 19 08 30.0000000  0 17        .000000000000
G03  22603050.500 7 118779846.073 7      2986.461          45.000    22603051.828 7  92555750.443 7      2327.115          45.000
G08  21208627.477 8 111452093.901 8     -2244.957          51.000    21208628.133 8  86845778.812 8     -1749.320          51.000
G11  19856698.875 8 104347679.847 8        43.906          50.000    19856697.820 8  81309857.363 8        34.213          50.000
G14  22105627.336 6 116165901.240 6      1123.656          38.000    22105626.312 5  90518904.338 5       875.576          32.000
G22  21138275.719 8 111082477.456 8      1538.980          51.000    21138272.969 8  86557698.629 8      1199.206          48.000
G27  23506737.406 7 123528721.138 7     -3575.793          44.000    23506743.188 7  96256130.832 7     -2786.332          44.000
G32  22031669.008 6 115777198.612 6      -395.770          39.000    22031667.109 6  90215996.619 6      -308.392          38.000
R04  20410063.086 6 109294965.210 6     -2601.656          41.000
R05  19445665.109 8 103948250.558 8      1588.465          51.000    19445668.516 7  80848645.712 7      1235.473          47.000
R19  21125626.531 5 113007807.047 5     -2682.648          31.000    21125627.367 5  87895000.895 5     -2086.507          35.000
C05                                                                  39654941.562 6 159674016.772 6       -21.863          37.000
C11  21713075.938 8 113065680.668 8       401.539          50.000    21713076.844 8  87429547.393 8       310.459          51.000
C12  23272495.289 7 121185964.276 7     -2472.004          46.000    23272494.883 8  93708664.859 8     -1911.637          51.000
C14  23977181.586 7 124855452.260 7      2963.914          43.000    23977178.977 6  96546175.746 6      2291.778          40.000
C21  22228481.852 8 115749560.493 8     -1161.121          51.000
E05  24127778.602 8 126792407.667 8      1272.961          51.000    24127778.508 8  97152558.098 8       975.281          49.000
E09  23504699.086 5 123518027.357 5     -1521.973          30.000    23504699.672 5  94643691.583 5     -1165.747          33.000
> 2020 05 07 19 09  0.0000000  0 17        .000000000000
G03  22586029.711 7 118690402.138 7      2976.617          45.000    22586031.648 7  92486053.921 7      2319.442          45.000
G08  21221487.070 8 111519668.795 8     -2260.043          51.000    21221488.414 8  86898434.539 8     -1761.072          51.000
G11  19856497.562 8 104346622.779 8        26.344          49.000    19856496.688 8  81309033.676 8        20.528          49.000
G14  22099261.109 6 116132450.358 6      1106.414          40.000    22099260.047 6  90492838.779 6       862.141          36.000
G22  21129527.727 8 111036506.457 8      1525.742          51.000    21129524.773 8  86521877.089 8      1188.890          48.000
G27  23527170.148 7 123636091.202 7     -3582.316          46.000    23527174.492 7  96339795.801 7     -2791.415          46.000
G32  22033984.508 6 115789365.925 6      -415.312          37.000    22033981.641 6  90225477.796 6      -323.617          36.000
R04  20424692.188 6 109373299.620 6     -2620.691          39.000
R05  19436819.508 8 103900967.562 8      1563.648          51.000    19436822.906 7  80811870.077 7      1216.174          47.000
R19  21140710.375 5 113088495.670 5     -2696.762          31.000    21140712.273 5  87957758.673 5     -2097.484          34.000
C05                                                                  39655104.320 6 159674672.260 6       -22.255          37.000
C11  21710801.445 8 113053835.306 8       388.102          50.000    21710802.031 8  87420387.807 8       300.150          51.000
C12  23286764.461 7 121260270.833 7     -2481.668          45.000    23286765.391 8  93766123.402 8     -1919.031          51.000
C14  23960129.312 7 124766652.005 7      2955.934          46.000    23960124.117 6  96477509.764 6      2285.730          39.000
C21  22235210.766 8 115784598.837 8     -1174.902          51.000
E05  24120548.594 8 126754415.865 8      1259.781          51.000    24120548.914 8  97123447.543 8       965.305          50.000
E09  23513420.914 5 123563858.489 5     -1533.543          34.000    23513422.047 5  94678801.689 5     -1175.088          34.000
> 2020 05 07 19 09 30.0000000  0 19        .000000000000
G03  22569059.539 7 118601224.789 7      2968.867          45.000    22569062.188 7  92416565.117 7      2313.406          45.000
G08  21234429.234 8 111587678.561 8     -2273.609          51.000    21234431.375 8  86951429.148 8     -1771.644          51.000
G11  19856393.227 8 104346075.481 8        10.375          48.000    19856392.555 8  81308607.201 8         8.084          48.000
G14  22092991.688 6 116099504.422 6      1090.168          40.000    22092990.891 5  90467166.659 5       849.485          35.000
G22  21120851.734 8 110990914.834 8      1514.031          51.000    21120849.266 8  86486351.191 8      1179.765          50.000
G27  23547636.273 7 123743635.426 7     -3587.059          47.000    23547638.820 7  96423596.421 7     -2795.114          47.000
G32  22036410.180 6 115802108.409 6      -433.469          41.000    22036409.031 6  90235407.032 6      -337.765          39.000
R04  20439425.406 6 109452188.032 6     -2638.184          36.000
R05  19428109.508 8 103854408.858 8      1540.527          51.000    19428112.750 7  80775657.761 7      1198.191          46.000
R19  21155868.297 5 113169580.702 5     -2709.082          33.000    21155869.406 5  88020824.754 5     -2107.064          33.000
C05                                                                  39655266.031 6 159675323.218 6       -20.809          37.000
C11  21708601.445 8 113042378.629 8       376.125          50.000    21708601.711 8  87411528.780 8       290.838          51.000
C12  23301085.969 7 121334850.573 7     -2489.766          45.000    23301088.719 8  93823793.199 8     -1925.314          51.000
C14  23943119.484 7 124678071.318 7      2949.629          46.000    23943112.391 6  96409013.591 6      2280.671          38.000
C21  22242015.359 8 115820032.175 8     -1187.027          51.000
E03  26676171.062 6 140184225.281 6      3085.242          40.000    26676167.219 5 107413873.861 5      2363.930          32.000
E05  24113391.539 8 126716806.392 8      1247.887          51.000    24113392.914 8  97094629.913 8       956.197          51.000
E09  23522207.031 5 123610031.794 5     -1543.816          32.000    23522211.578 5  94714178.877 5     -1182.852          34.000
E36  25019155.625 5 131476550.580 5     -1850.762          35.000
> 2020 05 07 19 10  0.0000000  0 19        .000000000000
G03  22552143.203 7 118512329.129 7      2958.125          46.000    22552146.453 7  92347295.806 7      2305.032          46.000
G08  21247456.180 8 111656135.492 8     -2289.645          50.000    21247458.992 8  87004772.205 8     -1784.139          50.000
G11  19856388.633 7 104346052.610 7        -8.301          47.000    19856388.164 7  81308589.380 7        -6.468          47.000
G14  22086821.023 6 116067078.451 6      1071.570          40.000    22086820.812 6  90441899.699 6       834.987          37.000
G22  21112250.484 8 110945716.749 8      1499.754          51.000    21112248.812 8  86451131.922 8      1168.636          49.000
G27  23568137.797 7 123851365.665 7     -3594.531          46.000    23568138.766 7  96507541.985 7     -2800.936          46.000
G32  22038946.672 5 115815439.328 5      -454.625          32.000    22038948.406 5  90245794.867 5      -354.247          32.000
R04  20454260.688 6 109531640.568 6     -2658.012          36.000
R05  19419538.289 8 103808589.855 8      1514.637          51.000    19419541.188 7  80740020.793 7      1178.054          47.000
R19  21171103.141 5 113251075.177 5     -2723.258          34.000    21171103.641 5  88084209.309 5     -2118.089          35.000
C05                                                                  39655429.219 6 159675980.316 6       -22.352          37.000
C11  21706478.828 8 113031325.627 8       361.371          49.000    21706478.922 8  87402981.896 8       279.483          51.000
C12  23315463.172 7 121409716.442 7     -2500.734          47.000    23315466.703 8  93881684.250 8     -1933.597          51.000
C14  23926154.641 7 124589725.397 7      2940.566          46.000    23926146.438 6  96340698.960 6      2274.113          38.000
C21  22248898.352 8 115855872.896 8     -1201.738          51.000
E03  26658572.609 6 140091747.198 6      3080.629          41.000    26658567.648 5 107343005.108 5      2360.772          30.000
E05  24106310.133 8 126679593.887 8      1233.418          51.000    24106312.227 8  97066116.447 8       945.116          51.000
E09                                                                  23531066.516 5  94749853.806 5     -1192.703          33.000
E36  25029744.117 6 131532187.368 6     -1857.836          37.000
> 2020 05 07 19 10 30.0000000  0 19        .000000000000
G03  22535281.555 7 118423720.545 7      2949.102          47.000    22535285.477 7  92278250.252 7      2298.004          46.000
G08  21260568.586 8 111725042.232 8     -2304.168          49.000    21260571.867 8  87058465.769 8     -1795.456          49.000
G11  19856484.852 7 104346559.085 7       -25.309          47.000    19856484.477 7  81308984.040 7       -19.721          47.000
G14  22080750.953 6 116035178.282 6      1054.707          40.000    22080751.055 6  90417042.424 6       821.853          37.000
G22  21103725.273 8 110900916.781 8      1487.043          51.000    21103723.750 8  86416222.848 8      1158.738          49.000
G27  23588674.797 7 123959284.035 7     -3600.086          45.000    23588674.750 7  96591634.158 7     -2805.265          45.000
G32  22041596.516 6 115829368.533 6      -473.586          37.000    22041598.750 6  90256644.249 6      -369.025          37.000
R04  20469203.242 5 109611658.420 5     -2675.988          34.000
R05  19411106.312 8 103763516.040 8      1490.289          49.000    19411109.312 7  80704963.400 7      1159.114          47.000
R19  21186414.508 4 113332982.696 4     -2735.809          29.000    21186415.648 6  88147915.098 6     -2127.854          37.000
C05                                                                  39655594.734 6 159676646.826 6       -22.370          37.000
C11  21704434.828 8 113020681.480 8       348.332          50.000    21704434.789 8  87394751.169 8       269.292          51.000
C12  23329896.703 8 121484871.800 8     -2509.594          49.000    23329900.031 8  93939799.164 8     -1940.716          51.000
C14  23909235.320 7 124501619.836 7      2933.031          43.000    23909226.859 6  96272570.217 6      2268.133          36.000
C21  22255860.258 8 115892123.721 8     -1214.840          51.000
E03  26640996.781 6 139999386.598 6      3077.023          41.000
E05  24099305.164 8 126642783.277 8      1220.613          51.000    24099307.945 8  97037910.919 8       935.242          51.000
E09  23539982.133 6 123703437.073 6     -1568.152          36.000    23539983.828 5  94785768.681 5     -1201.706          33.000
E36  25040367.305 5 131588017.914 5     -1863.535          34.000    25040369.750 5 100827193.725 5     -1427.993          34.000
> 2020 05 07 19 11  0.0000000  0 19        .000000000000
G03  22518474.945 7 118335400.999 7      2939.707          46.000    22518478.773 7  92209429.888 7      2290.681          46.000
G08  21273766.422 8 111794398.272 8     -2318.660          51.000    21273770.141 8  87112509.445 8     -1806.745          51.000
G11  19856682.180 7 104347596.667 7       -42.754          47.000    19856681.859 8  81309792.551 8       -33.315          48.000
G14  22074780.641 6 116003805.848 6      1037.465          37.000    22074781.000 5  90392596.362 5       808.414          35.000
G22  21095276.266 8 110856515.629 8      1474.070          51.000    21095274.008 8  86381624.588 8      1148.626          48.000
G27  23609246.734 7 124067389.152 7     -3605.750          43.000    23609246.562 7  96675871.831 7     -2809.675          43.000
G32  22044358.523 5 115843884.593 5      -492.992          33.000    22044360.008 5  90267955.405 5      -384.153          33.000
R04  20484245.188 5 109692180.221 5     -2694.617          35.000    20484256.062 4  85316193.666 4     -2095.807          25.000
R05  19402814.039 8 103719189.122 8      1465.797          50.000    19402817.484 8  80670486.929 8      1140.067          48.000
R19  21201802.930 5 113415303.098 5     -2750.973          31.000    21201805.164 6  88211942.084 6     -2139.645          36.000
C05                                                                  39655762.719 6 159677323.187 6       -22.280          37.000
C11  21702469.703 8 113010447.953 8       334.965          49.000    21702469.555 8  87386837.963 8       258.971          51.000
C12  23344386.102 8 121560316.543 8     -2519.062          49.000    23344388.586 8  93998137.829 8     -1947.884          51.000
C14  23892360.367 6 124413756.714 6      2925.281          38.000    23892353.109 6  96204628.987 6      2262.388          38.000
C21  22262900.500 8 115928783.883 8     -1228.219          51.000
E03  26623443.859 6 139907145.664 6      3073.344          41.000    26623454.727 5 107201617.655 5      2354.759          34.000
E05  24092377.047 8 126606375.997 8      1207.492          51.000    24092380.328 8  97010014.448 8       925.218          51.000
E09  23548973.844 6 123750676.601 6     -1580.066          37.000    23548970.883 5  94821965.088 5     -1210.604          34.000
E36  25051026.297 5 131644031.019 5     -1869.074          33.000    25051028.047 5 100870111.976 5     -1432.483          35.000
> 2020 05 07 19 11 30.0000000  0 19        .000000000000
G03  22501719.719 7 118247352.153 7      2931.281          45.000    22501723.797 7  92140820.436 7      2284.118          45.000
G08  21287045.672 8 111864181.859 8     -2332.246          51.000    21287049.500 8  87166886.277 8     -1817.332          51.000
G11  19856977.094 8 104349146.292 8       -59.211          48.000    19856976.789 8  81311000.051 8       -46.135          48.000
G14  22068907.352 6 115972943.007 6      1021.133          39.000    22068908.398 6  90368547.425 6       795.691          36.000
G22  21086899.438 8 110812493.940 8      1462.066          51.000    21086896.484 8  86347322.037 8      1139.276          48.000
G27  23629849.578 6 124175659.382 6     -3610.699          41.000    23629849.906 6  96760238.204 6     -2813.532          40.000
G32  22047228.688 5 115858968.259 5      -511.809          33.000    22047227.000 5  90279700.797 5      -398.815          32.000
R04  20499399.586 5 109773298.663 5     -2711.602          35.000    20499403.430 4  85379285.775 4     -2109.023          25.000
R05  19394658.242 8 103675590.255 8      1442.180          50.000    19394661.844 8  80636576.735 8      1121.698          48.000
R19  21217264.883 5 113498015.347 5     -2762.973          31.000    21217267.281 5  88276273.863 5     -2148.982          35.000
C05                                                                  39655929.336 6 159677994.521 6       -21.431          37.000
C11  21700579.781 8 113000606.707 8       322.621          49.000    21700579.727 8  87379228.086 8       249.393          51.000
C12  23358926.898 8 121636030.474 8     -2527.297          50.000    23358928.570 8  94056684.587 8     -1954.176          51.000
C14  23875527.172 6 124326118.134 6      2918.551          40.000    23875523.758 7  96136861.356 7      2256.917          42.000
C21  22270015.523 8 115965832.508 8     -1240.375          51.000
E03  26605910.398 6 139815006.530 6      3070.637          41.000    26605919.070 6 107131017.613 6      2352.987          38.000
E05  24085522.281 8 126570353.118 8      1195.344          51.000    24085525.828 8  96982412.513 8       915.934          51.000
E09  23558034.352 5 123798252.244 5     -1590.316          34.000    23558024.938 5  94858419.032 5     -1218.599          33.000
E36                                                                  25061718.461 6 100913159.684 6     -1436.260          36.000
> 2020 05 07 19 12  0.0000000  0 19        .000000000000
G03  22485015.266 7 118159569.844 7      2921.102          46.000    22485019.445 7  92072418.675 7      2276.183          45.000
G08  21300404.898 8 111934386.356 8     -2347.633          50.000    21300409.094 8  87221591.081 8     -1829.327          50.000
G11  19857368.617 8 104351203.413 8       -77.711          48.000    19857368.070 8  81312602.992 8       -60.554          48.000
G14  22063129.945 6 115942585.639 6      1003.117          37.000    22063131.172 6  90344892.305 6       781.647          36.000
G22  21078593.852 8 110768846.860 8      1448.070          51.000    21078590.914 8  86313311.345 8      1128.366          49.000
G27  23650481.852 6 124284087.411 6     -3617.430          38.000    23650483.820 6  96844727.552 6     -2818.773          37.000
G32  22050206.188 5 115874617.006 5      -532.031          33.000    22050210.438 5  90291925.009 5      -414.573          33.000
R04  20514648.961 6 109854946.411 6     -2731.055          38.000
R05  19386637.758 8 103632715.144 8      1416.473          51.000    19386641.125 8  80603229.434 8      1101.698          48.000
R19  21232798.484 5 113581113.483 5     -2777.309          30.000    21232802.055 5  88340905.694 5     -2160.132          35.000
C05                                                                  39656093.703 6 159678656.830 6       -22.283          37.000
C11  21698764.391 8 112991153.645 8       308.047          49.000    21698764.375 8  87371918.374 8       238.159          51.000
C12  23373517.797 8 121712007.502 8     -2537.461          51.000    23373518.727 8  94115434.781 8     -1962.201          51.000
C14  23858739.461 7 124238700.084 7      2909.621          44.000    23858738.211 7  96069264.207 7      2249.864          45.000
C21  22277203.641 8 116003262.986 8     -1254.633          51.000
E03  26588395.492 7 139722965.513 7      3065.863          42.000    26588402.758 6 107060492.744 6      2349.219          39.000
