     3.04           OBSERVATION DATA    M (MIXED)           RINEX VERSION / TYPE
Convert 2.6.2       NovAtel             20200515 153134 UTC PGM / RUN BY / DATE 
Rinex Version 3.04 Observation File                         COMMENT             
                                                            MARKER NAME         
                                                            MARKER NUMBER       
                                                            MARKER TYPE         
                                                            OBSERVER / AGENCY   
                    NovAtel GPSCard                         REC # / TYPE / VERS 
                                                            ANT # / TYPE        
        0.0000        0.0000        0.0000                  APPROX POSITION XYZ 
        0.0000        0.0000        0.0000                  ANTENNA: DELTA H/E/N
G    8 C1C L1C D1C S1C C2W L2W D2W S2W                      SYS / # / OBS TYPES 
R    8 C1C L1C D1C S1C C2P L2P D2P S2P                      SYS / # / OBS TYPES 
E    8 C1C L1C D1C S1C C7Q L7Q D7Q S7Q                      SYS / # / OBS TYPES 
C    8 C2I L2I D2I S2I C7I L7I D7I S7I                      SYS / # / OBS TYPES 
DBHZ                                                        SIGNAL STRENGTH UNIT
    30.000                                                  INTERVAL            
  2020    05    08    18    00    0.0000000     GPS         TIME OF FIRST OBS   
  2020    05    08    18    59   30.0000000     GPS         TIME OF LAST OBS    
G L1C  0.00000  09 G22 G08 G10 G32 G27 G14 G01 G11 G03      SYS / PHASE SHIFT   
G L2W  0.00000  08 G22 G08 G10 G32 G27 G14 G11 G03          SYS / PHASE SHIFT   
R L1C  0.00000  03 R06 R05 R20                              SYS / PHASE SHIFT   
R L2P  0.25000  02 R05 R20                                  SYS / PHASE SHIFT   
E L1C  0.50000  05 E12 E24 E19 E04 E33                      SYS / PHASE SHIFT   
E L7Q -0.25000  04 E12 E24 E19 E04                          SYS / PHASE SHIFT   
C L2I  0.00000  05 C21 C05 C19 C22 C12                      SYS / PHASE SHIFT   
C L7I  0.00000  02 C05 C12                                  SYS / PHASE SHIFT   
  3 R06 -4 R05  1 R20  2                                    GLONASS SLOT / FRQ #
 C1C  -71.950 C2C  -71.950 C2P  -71.950                     GLONASS COD/PHS/BIS 
     0     0     0     0GPS                                 LEAP SECONDS        
                                                            END OF HEADER       
> 2020 05 08 18 00  0.0000000  0 16      -0.000000000000
G22  22835165.453 8 119999677.141 8      3011.562          49.000    22835165.328 7  93506159.438 7      2346.673          44.000  
G08  20327702.656 8 106822802.007 8      -106.625          51.000    20327705.523 8  83238555.866 8       -83.084          51.000  
G10  22088428.883 6 116075538.222 6     -2434.219          39.000    22088427.969 6  90448477.728 6     -1896.794          37.000  
G32  22629490.859 5 118918773.594 5      1912.664          34.000    22629494.094 5  92663987.186 5      1490.382          35.000  
G27  21297627.859 8 111919759.129 8     -2275.070          51.000    21297629.281 8  87210213.062 8     -1772.780          51.000  
G14  23605847.398 8 124049576.742 8      2739.133          48.000    23605849.828 7  96662015.607 7      2134.393          44.000  
R06  21941326.922 6 117082739.067 6      4213.047          36.000                                                                  
R05  19612699.406 8 104840796.520 8       506.457          50.000    19612703.992 8  81542865.711 8       393.914          49.000  
R20  19816768.094 6 105968780.005 6      -540.672          38.000    19816772.172 8  82420174.230 8      -420.523          49.000  
E12  21710925.188 8 114091683.386 8      -284.082          50.000    21710924.195 8  87420898.118 8      -217.652          51.000  
E24  25189597.625 8 132372202.956 8     -2745.840          48.000    25189609.352 7 101428082.163 7     -2104.016          43.000  
E19  25195373.547 7 132402612.588 7      1063.414          43.000    25195376.375 6 101451384.865 6       815.001          41.000  
C21  25107696.258 6 130742352.601 6      3367.203          37.000                                                                  
C05  39637195.852 5 206401280.329 5       -23.012          35.000    39637194.625 6 159602556.815 6       -17.670          36.000  
C19  23200000.578 5 120808507.218 5     -1862.840          31.000                                                                  
C22  22310098.102 8 116174617.669 8      1321.676          51.000                                                                  
> 2020 05 08 18 00 30.0000000  0 16      -0.000000000000
G22  22817999.336 8 119909466.844 8      3002.895          50.000    22817998.445 7  93435865.736 7      2339.918          44.000  
G08  20328358.469 8 106826248.576 8      -122.797          51.000    20328361.406 8  83241241.490 8       -95.686          51.000  
G10  22102355.094 6 116148720.856 6     -2444.605          40.000    22102356.570 6  90505503.161 6     -1904.891          39.000  
G32  22618612.062 6 118861606.888 6      1898.734          37.000                                                                  
G27  21310654.344 8 111988210.798 8     -2287.980          51.000    21310655.602 8  87263552.016 8     -1782.839          51.000  
G14  23590229.938 8 123967504.558 8      2732.613          49.000    23590231.688 7  96598063.330 7      2129.313          44.000  
R06  21917667.891 5 116956489.800 5      4204.000          35.000                                                                  
R05  19609933.914 8 104826012.852 8       479.590          51.000    19609938.453 8  81531367.329 8       373.014          48.000  
R20  19819839.727 6 105985205.490 6      -553.973          39.000    19819844.039 8  82432949.579 8      -430.871          49.000  
E12  21712563.180 8 114100290.467 8      -289.414          50.000    21712562.297 8  87427493.140 8      -221.678          51.000  
E24  25205285.500 8 132454643.251 8     -2749.770          48.000    25205297.539 7 101491250.583 7     -2106.815          43.000  
E19  25189340.695 7 132370908.711 7      1050.469          43.000    25189342.219 6 101427092.323 6       804.881          41.000  
C21  25088309.750 6 130641396.157 6      3363.277          38.000                                                                  
C05  39637326.109 5 206401957.659 5       -21.922          35.000    39637324.859 6 159603081.410 6       -17.501          36.000  
C19  23210766.836 6 120864573.797 6     -1875.012          36.000                                                                  
C22  22302527.703 8 116135196.295 8      1306.727          51.000                                                                  
> 2020 05 08 18 01  0.0000000  0 16      -0.000000000000
G22  22800884.906 8 119819529.170 8      2992.695          50.000    22800882.930 7  93365784.492 7      2331.974          42.000  
G08  20329109.906 8 106830197.353 8      -140.656          51.000    20329112.688 8  83244318.449 8      -109.602          51.000  
G10  22116342.258 6 116222223.969 6     -2456.238          40.000    22116345.094 6  90562778.294 6     -1913.953          39.000  
G32  22607816.602 6 118804873.505 6      1883.277          40.000    22607813.969 5  92575213.159 5      1467.489          35.000  
G27  21323756.227 8 112057059.871 8     -2302.215          51.000    21323757.555 8  87317200.597 8     -1793.937          51.000  
G14  23574652.422 8 123885642.778 8      2724.598          48.000    23574653.633 7  96534274.997 7      2123.064          45.000  
R06  21894064.109 6 116830532.254 6      4193.113          36.000                                                                  
R05  19607322.609 8 104812052.147 8       451.008          51.000    19607326.711 8  81520509.025 8       350.784          48.000  
R20  19822987.172 6 106002035.062 6      -567.895          39.000    19822991.422 8  82446039.242 8      -441.696          48.000  
E12  21714233.852 8 114109069.474 8      -296.000          50.000    21714233.148 8  87434219.907 8      -226.832          51.000  
E24  25220997.562 7 132537212.139 7     -2755.047          47.000    25221010.352 7 101554517.545 7     -2110.912          44.000  
E19  25183385.148 7 132339611.007 7      1035.859          44.000    25183386.305 7 101403110.991 7       793.795          42.000  
C21  25068948.539 6 130540570.500 6      3357.801          39.000                                                                  
C05  39637455.945 5 206402634.237 5       -22.738          35.000    39637454.797 6 159603604.563 6       -17.888          37.000  
C19  23221606.562 5 120921021.210 5     -1888.473          34.000                                                                  
C22  22295045.734 8 116096236.864 8      1290.305          51.000                                                                  
> 2020 05 08 18 01 30.0000000  0 16      -0.000000000000
G22  22783823.297 8 119729870.239 8      2984.012          50.000    22783819.945 7  93295920.491 7      2325.208          43.000  
G08  20329957.812 8 106834653.377 8      -156.891          51.000    20329960.773 8  83247790.660 8      -122.252          51.000  
G10  22130390.852 6 116296049.771 6     -2466.203          40.000    22130392.336 6  90620304.809 6     -1921.720          40.000  
G32  22597104.703 6 118748578.452 6      1869.246          38.000    22597102.508 6  92531346.893 6      1456.562          38.000  
G27  21336934.258 8 112126309.707 8     -2314.891          51.000    21336935.203 8  87371161.468 8     -1803.814          51.000  
G14  23559115.781 7 123803998.635 7      2717.789          47.000    23559116.836 7  96470656.227 7      2117.758          44.000  
R06  21870516.203 6 116704874.866 6      4183.879          38.000                                                                  
R05  19604866.180 8 104798919.387 8       423.992          51.000    19604869.844 7  81510294.701 7       329.775          47.000  
R20  19826210.711 6 106019274.419 6      -581.438          37.000    19826215.250 8  82459447.630 8      -452.232          48.000  
E12  21715938.203 8 114118025.245 8      -301.383          51.000    21715937.750 8  87441082.118 8      -230.936          51.000  
E24  25236734.461 7 132619911.992 7     -2758.754          47.000    25236747.977 7 101617884.874 7     -2113.828          44.000  
E19  25177508.078 7 132308724.680 7      1022.719          44.000    25177509.109 7 101379444.872 7       783.738          42.000  
C21  25049613.906 6 130439882.025 6      3354.090          39.000                                                                  
C05  39637586.406 5 206403313.554 5       -22.578          35.000    39637585.352 6 159604129.858 6       -17.631          36.000  
C19  23232519.078 4 120977823.966 4     -1901.020          29.000                                                                  
C22  22287653.312 8 116057744.628 8      1275.320          51.000                                                                  
> 2020 05 08 18 02  0.0000000  0 17      -0.000000000000
G22  22766810.477 8 119640468.299 8      2976.422          50.000    22766806.086 6  93226256.726 6      2319.293          41.000  
G08  20330897.953 8 106839594.006 8      -172.176          51.000    20330901.133 8  83251640.472 8      -134.166          51.000  
G10  22144495.859 6 116370172.811 6     -2475.191          38.000    22144497.742 6  90678062.968 6     -1928.724          37.000  
G32  22586472.383 5 118692700.672 5      1855.797          34.000    22586471.266 5  92487805.903 5      1446.079          34.000  
G27  21350183.711 8 112195935.930 8     -2326.469          51.000    21350184.125 8  87425415.600 8     -1812.836          51.000  
G01  22271519.922 5 117037622.089 5      2499.855          35.000                                                                  
G14  23543616.508 7 123722551.692 7      2712.156          46.000    23543617.500 7  96407191.117 7      2113.372          42.000  
R06  21847021.016 6 116579498.154 6      4175.297          39.000                                                                  
R05  19602559.875 8 104786591.200 8       398.137          51.000    19602563.391 7  81500706.178 7       309.662          47.000  
R20  19829506.656 6 106036900.267 6      -593.453          38.000    19829510.883 7  82473156.595 7      -461.575          47.000  
E12  21717671.828 8 114127134.777 8      -305.477          51.000    21717671.586 8  87448062.141 8      -234.094          51.000  
E24  25252491.625 8 132702717.416 8     -2761.293          48.000    25252505.164 7 101681333.109 7     -2115.812          45.000  
E19  25171704.641 7 132278227.336 7      1010.938          43.000    25171705.547 7 101356076.798 7       774.507          43.000  
C21  25030301.117 6 130339309.439 6      3351.035          37.000                                                                  
C05  39637713.062 5 206403972.532 5       -21.074          35.000    39637711.922 6 159604639.406 6       -15.985          36.000  
C19  23243501.766 6 121035013.288 6     -1911.465          36.000                                                                  
C22  22280345.578 8 116019697.175 8      1261.406          48.000                                                                  
> 2020 05 08 18 02 30.0000000  0 17      -0.000000000000
G22  22749856.398 8 119551375.754 8      2964.336          49.000    22749852.289 7  93156834.020 7      2309.876          43.000  
G08  20331940.469 8 106845071.369 8      -191.770          51.000    20331943.484 8  83255908.526 8      -149.434          51.000  
G10  22158666.734 6 116444641.988 6     -2488.316          38.000    22158670.555 6  90736090.956 6     -1938.945          39.000  
G32  22575928.547 5 118637306.66625      1838.277          35.000    22575931.844 5  92444666.85825      1432.424          34.000  
G27  21363513.750 8 112265988.535 8     -2342.430          50.000    21363513.922 8  87480001.969 8     -1825.273          50.000  
G01  22257280.570 5 116962785.855 5      2491.176          31.000                                                                  
G14  23528164.930 7 123641356.109 7      2702.078          45.000    23528165.969 7  96343921.835 7      2105.516          43.000  
R06  21823588.672 6 116454457.844 6      4162.047          39.000                                                                  
R05  19600414.242 8 104775119.582 8       367.859          51.000    19600417.383 8  81491783.827 8       286.116          48.000  
R20  19832885.141 6 106054965.727 6      -609.609          39.000    19832889.406 7  82487207.504 7      -474.144          47.000  
E12  21719444.438 8 114136449.568 8      -314.074          51.000    21719444.234 8  87455199.441 8      -240.672          51.000  
E24  25268278.656 8 132785677.580 8     -2768.195          48.000    25268291.336 7 101744899.900 7     -2121.023          45.000  
E19  25165984.938 7 132248171.037 7       994.191          42.000    25165986.234 7 101333046.646 7       761.900          43.000  
C21  25011019.742 5 130238905.436 5      3343.938          35.000                                                                  
C05  39637845.367 5 206404661.87125       -23.711          35.000    39637844.312 6 159605172.480 6       -18.308          36.000  
C19  23254562.594 5 121092610.136 5     -1926.750          34.000                                                                  
C22  22273133.289 7 115982146.128 7      1243.207          47.000                                                                  
> 2020 05 08 18 03  0.0000000  0 16      -0.000000000000
G22  22732959.469 8 119462584.004 8      2955.859          49.000    22732956.750 7  93087645.687 7      2303.268          44.000  
G08  20333083.219 8 106851075.594 8      -208.035          51.000    20333085.977 8  83260587.130 8      -162.108          51.000  
G10  22172901.336 6 116519445.034 6     -2498.160          40.000    22172906.484 6  90794379.066 6     -1946.619          40.000  
G32  22565469.969 6 118582363.143 6      1823.527          36.000    22565476.109 5  92401853.901 5      1420.940          35.000  
G27  21376922.359 8 112336456.230 8     -2354.723          48.000    21376923.320 8  87534911.780 8     -1834.852          48.000  
G14  23512759.648 7 123560404.666 7      2695.266          45.000    23512760.914 7  96280842.820 7      2100.208          42.000  
R06  21800218.344 6 116329747.352 6      4152.555          38.000                                                                  
R05  19598426.703 8 104764494.457 8       341.125          51.000    19598429.914 8  81483519.863 8       265.319          49.000  
R20  19836343.938 6 106073461.351 6      -622.535          39.000    19836348.258 7  82501592.963 7      -484.194          47.000  
E12  21721254.180 8 114145959.810 8      -319.246          51.000    21721253.922 8  87462486.505 8      -244.656          51.000  
E24  25284093.070 8 132868780.221 8     -2771.551          48.000    25284104.500 7 101808575.841 7     -2123.492          44.000  
E19  25160346.859 6 132218546.147 6       981.445          41.000    25160349.617 7 101310347.102 7       751.948          43.000  
C21  24991767.633 5 130138661.747 5      3340.141          33.000                                                                  
C05  39637981.492 5 206405370.539 5       -22.930          34.000    39637980.578 6 159605721.257 6       -17.679          36.000  
C19  23265699.008 5 121150602.449 5     -1938.859          31.000                                                                  
C22  22266015.078 8 115945082.027 8      1228.410          48.000                                                                  
> 2020 05 08 18 03 30.0000000  0 15      -0.000000000000
G22  22716112.789 8 119374055.973 8      2946.434          49.000    22716111.438 7  93018662.851 7      2295.923          44.000  
G08  20334318.828 8 106857568.436 8      -224.543          51.000    20334321.305 8  83265646.474 8      -174.972          51.000  
G10  22187191.703 6 116594540.969 6     -2508.070          39.000    22187196.781 6  90852895.349 6     -1954.344          39.000  
G27  21390402.352 7 112407299.143 7     -2367.684          47.000    21390404.414 7  87590114.029 7     -1844.949          47.000  
G14  23497394.102 7 123479661.477 7      2688.094          44.000    23497395.984 6  96217926.126 6      2094.622          41.000  
R06  21776903.406 6 116205330.884 6      4142.129          37.000                                                                  
R05  19596590.188 8 104754676.539 8       313.781          51.000    19596593.172 8  81475883.723 8       244.052          49.000  
R20  19839875.695 6 106092348.273 6      -636.227          39.000    19839880.117 7  82516282.761 7      -494.846          47.000  
E12  21723093.773 8 114155627.104 8      -324.875          51.000    21723093.492 8  87469893.921 8      -248.987          51.000  
E24  25299926.844 7 132951984.532 7     -2775.246          47.000    25299937.383 7 101872329.719 7     -2126.584          45.000  
E19  25154783.977 7 132189315.120 7       967.699          43.000    25154787.438 7 101287949.311 7       741.481          42.000  
C21  24972538.812 5 130038541.944 5      3335.613          32.000                                                                  
C05  39638114.352 5 206406063.271 5       -22.461          35.000    39638113.352 6 159606256.172 6       -17.749          37.000  
C19  23276905.156 5 121208950.221 5     -1951.309          34.000                                                                  
C22  22258983.922 8 115908467.243 8      1213.000          51.000                                                                  
> 2020 05 08 18 04  0.0000000  0 15      -0.000000000000
G22  22699319.328 8 119285805.729 8      2937.379          49.000    22699317.969 7  92949896.460 7      2288.867          44.000  
G08  20335650.125 8 106864563.977 8      -241.246          51.000    20335652.523 8  83271097.524 8      -187.987          51.000  
G10  22201539.859 6 116669940.600 6     -2517.668          40.000    22201543.594 6  90911648.262 6     -1961.823          38.000  
G27  21403956.609 8 112478529.098 8     -2380.508          49.000    21403959.461 8  87645617.887 8     -1854.939          49.000  
G14  23482071.172 7 123399142.322 7      2680.707          42.000    23482073.031 6  96155184.007 6      2088.866          40.000  
R06  21753647.992 5 116081225.884 5      4131.555          32.000                                                                  
R05  19594907.094 8 104745679.191 8       286.547          50.000    19594910.133 8  81468885.783 8       222.870          49.000  
R20  19843483.734 6 106111641.027 6      -649.523          40.000    19843488.039 7  82531288.218 7      -505.185          46.000  
E12  21724965.734 8 114165464.785 8      -330.410          51.000    21724965.453 8  87477431.860 8      -253.178          51.000  
E24  25315781.805 7 133035301.375 7     -2778.668          46.000    25315792.289 7 101936169.797 7     -2129.164          46.000  
E19  25149299.297 7 132160491.397 7       954.316          42.000    25149301.727 6 101265863.566 6       731.275          41.000  
C21  24953336.812 5 129938560.659 5      3330.805          34.000                                                                  
C05  39638246.133 5 206406748.90825       -22.605          35.000    39638245.109 6 159606787.143 6       -17.637          36.000  
C19  23288181.656 5 121267664.505 5     -1963.363          35.000                                                                  
C22  22252042.133 8 115872315.307 8      1197.625          51.000                                                                  
> 2020 05 08 18 04 30.0000000  0 14      -0.000000000000
G22  22682581.852 8 119197849.093 8      2927.270          49.000    22682579.711 7  92881358.891 7      2280.990          44.000  
G08  20337079.828 8 106872076.604 8      -258.695          51.000    20337082.164 8  83276951.498 8      -201.581          51.000  
G10  22215948.016 6 116745655.985 6     -2529.141          36.000    22215950.211 6  90970647.236 6     -1970.756          36.000  
G27  21417587.500 8 112550159.117 8     -2394.055          50.000    21417590.688 8  87701433.487 8     -1865.495          51.000  
G14  23466794.141 7 123318864.471 7      2672.191          42.000    23466796.211 6  96092629.923 6      2082.228          40.000  
R05  19593380.055 8 104737516.683 8       258.488          50.000    19593383.141 8  81462537.179 8       201.043          49.000  
R20  19847170.484 6 106131354.653 6      -663.922          40.000    19847174.789 7  82546621.036 7      -516.384          46.000  
E12  21726872.922 8 114175487.418 8      -336.906          51.000    21726872.547 8  87485111.528 8      -258.101          51.000  
E24  25331660.109 7 133118742.888 7     -2783.070          45.000    25331671.531 7 102000105.429 7     -2132.526          47.000  
E19  25143894.781 7 132132090.013 7       940.105          42.000    25143896.141 6 101244101.518 6       720.110          39.000  
C21  24934165.695 5 129838733.912 5      3324.820          32.000                                                                  
C05  39638379.742 5 206407444.573 5       -22.645          35.000    39638378.609 6 159607324.073 6       -17.876          36.000  
C19  23299529.625 5 121326757.470 5     -1975.984          32.000                                                                  
C22  22245192.148 8 115836641.074 8      1181.477          51.000                                                                  
> 2020 05 08 18 05  0.0000000  0 16      -0.000000000000
G22  22665898.555 8 119110177.210 8      2918.039          50.000    22665896.094 7  92813043.208 7      2273.797          44.000  
G08  20338606.156 8 106880096.678 8      -275.473          51.000    20338608.484 8  83283200.887 8      -214.654          51.000  
G10  22230413.828 6 116821674.738 6     -2538.840          39.000    22230415.930 6  91029882.703 6     -1978.314          38.000  
G32  22524485.117 5 118366978.34825      1764.477          33.000    22524489.508 5  92233997.97725      1374.917          32.000  
G27  21431292.734 8 112622178.190 8     -2406.738          51.000    21431296.047 8  87757552.235 8     -1875.381          51.000  
G14  23451561.609 6 123238820.656 6      2664.531          41.000    23451563.977 6  96030258.199 6      2076.259          41.000  
R06  21707304.258 5 115833950.356 5      4110.094          31.000                                                                  
R05  19592007.312 8 104730178.843 8       231.188          49.000    19592010.062 8  81456829.945 8       179.813          48.000  
R20  19850933.906 6 106151479.896 6      -677.664          40.000    19850938.586 7  82562273.952 7      -527.075          46.000  
E12  21728813.445 8 114185685.379 8      -342.504          51.000    21728813.023 8  87492925.544 8      -262.453          51.000  
E24  25347559.016 7 133202297.036 7     -2786.617          43.000    25347572.492 7 102064127.376 7     -2135.249          47.000  
E19  25138569.094 7 132104101.849 7       926.465          44.000    25138569.883 6 101222656.067 6       709.730          39.000  
C21  24915023.430 5 129739053.736 5      3321.277          30.000                                                                  
C05  39638513.148 5 206408139.555 5       -23.223          35.000    39638511.969 6 159607861.462 6       -17.743          36.000  
C19  23310948.289 5 121386217.310 5     -1987.227          30.000                                                                  
C22  22238431.805 8 115801435.366 8      1166.062          51.000                                                                  
> 2020 05 08 18 05 30.0000000  0 16      -0.000000000000
G22  22649268.711 8 119022786.585 8      2907.828          50.000    22649266.555 7  92744946.680 7      2265.844          45.000  
G08  20340228.117 8 106888619.502 8      -292.836          51.000    20340230.297 8  83289842.030 8      -228.184          51.000  
G10  22244935.969 6 116897989.584 6     -2549.215          38.000    22244938.312 6  91089348.696 6     -1986.411          36.000  
G32  22514454.117 6 118314261.800 6      1749.086          38.000    22514460.766 6  92192919.988 6      1362.922          38.000  
G27  21445070.680 8 112694579.620 8     -2420.176          50.000    21445073.742 8  87813968.919 8     -1885.852          50.000  
G14  23436373.508 7 123159008.547 7      2655.973          42.000    23436376.227 6  95968066.970 6      2069.593          41.000  
R06  21684232.945 5 115710819.305 5      4098.156          32.000                                                                  
R05  19590787.641 8 104723660.104 8       203.230          48.000    19590790.750 8  81451759.805 8       158.068          48.000  
R20  19854773.492 6 106172011.707 6      -691.523          41.000    19854778.211 7  82578243.123 7      -537.852          46.000  
E12  21730786.352 8 114196053.538 8      -348.750          51.000    21730785.875 8  87500869.978 8      -267.239          51.000  
E24  25363477.375 7 133285956.251 7     -2790.766          42.000    25363493.547 8 102128229.842 8     -2138.398          48.000  
E19  25133321.172 7 132076522.296 7       912.125          43.000    25133321.875 6 101201523.702 6       698.851          38.000  
C21  24895909.008 5 129639516.653 5      3314.512          30.000                                                                  
C05  39638645.250 5 206408827.290 5       -23.203          34.000    39638644.203 6 159608394.041 6       -17.879          36.000  
C19  23322436.500 5 121446037.113 5     -2000.496          30.000                                                                  
C22  22231760.180 8 115766693.421 8      1149.941          51.000                                                                  
> 2020 05 08 18 06  0.0000000  0 15      -0.000000000000
G22  22632659.094 8 118935502.869 8      2905.699          50.000    22632657.633 7  92676933.438 7      2264.185          47.000  
G08  20341912.289 8 106897470.026 8      -302.492          51.000    20341914.344 8  83296738.530 8      -235.708          51.000  
G10  22259512.258 5 116974508.646 5     -2551.414          32.000    22259481.977 5  91148882.802 5     -1988.125          32.000  
G32  22504474.539 5 118261819.984 5      1741.586          35.000    22504482.055 5  92152056.316 5      1357.086          35.000  
G27  21458887.562 8 112767186.680 8     -2425.629          50.000    21458890.086 8  87870545.812 8     -1890.101          50.000  
G14  23421197.391 7 123079255.535 7      2655.469          45.000    23421199.930 7  95905921.810 7      2069.197          43.000  
R06  21661183.695 5 115587835.722 5      4094.379          31.000                                                                  
R05  19589687.312 8 104717781.670 8       183.148          49.000    19589690.875 7  81447187.710 7       142.449          47.000  
R20  19858655.836 6 106192772.555 6      -697.914          40.000    19858660.438 7  82594390.429 7      -542.822          46.000  
E12  21732758.320 8 114206416.766 8      -347.441          51.000    21732757.781 8  87508810.631 8      -266.347          51.000  
E24  25379382.797 7 133369542.994 7     -2787.133          42.000    25379400.594 7 102192276.766 7     -2135.695          47.000  
E19  25128117.617 7 132049176.341 7       905.672          44.000    25128117.734 6 101180570.359 6       693.981          37.000  
C21  24876788.477 4 129539965.538 4      3317.621          28.000                                                                  
C05  39638742.836 5 206409335.923 5       -15.887          35.000    39638741.867 6 159608787.388 6       -12.544          36.000  
C22  22225144.148 8 115732241.975 8      1141.449          51.000                                                                  
> 2020 05 08 18 06 30.0000000  0 14      -0.000000000000
G22  22616170.219 8 118848853.656 8      2889.691          50.000    22616169.898 8  92609414.595 8      2251.711          48.000  
G08  20343759.133 8 106907175.132 8      -325.750          51.000    20343761.273 8  83304300.938 8      -253.831          51.000  
G32  22494648.703 6 118210181.391 6      1719.887          37.000    22494652.953 5  92111818.729 5      1340.178          33.000  
G11  20490638.008 5 107679053.009 5      1772.961          34.000                                                                  
G27  21472843.383 8 112840524.400 8     -2444.797          51.000    21472845.273 8  87927692.062 8     -1905.037          51.000  
G14  23406133.312 7 123000090.443 7      2641.090          46.000    23406135.297 7  95844234.766 7      2057.996          42.000  
R06  21638264.211 6 115465536.909 6      4077.457          36.000                                                                  
R05  19588807.430 8 104713078.887 8       149.359          50.000    19588810.945 7  81443529.987 7       116.168          46.000  
R20  19862681.539 6 106214298.663 6      -717.988          41.000    19862686.102 7  82611132.949 7      -558.435          46.000  
E12  21734829.625 8 114217301.609 8      -359.594          51.000    21734828.883 8  87517150.950 8      -275.539          51.000  
E24  25395375.195 7 133453581.445 7     -2796.934          42.000    25395393.258 7 102256669.772 7     -2143.052          47.000  
E19  25123058.844 7 132022591.037 7       885.457          43.000    25123057.422 6 101160199.841 6       678.453          37.000  
C05  39638906.047 5 206410184.99925       -22.086          35.000    39638905.055 6 159609444.695 6       -17.114          37.000  
C22  22218684.109 8 115698603.141 8      1119.652          51.000                                                                  
> 2020 05 08 18 07  0.0000000  0 16      -0.000000000000
G22  22599712.625 8 118762368.186 8      2877.852          50.000    22599712.984 8  92542023.366 8      2242.485          48.000  
G08  20345678.727 8 106917262.622 8      -344.809          51.000    20345680.961 8  83312161.304 8      -268.682          51.000  
G10  22288848.609 6 117128685.118 6     -2579.645          37.000    22288845.453 5  91269093.408 5     -2010.113          34.000  
G32  22484886.789 6 118158873.950 6      1702.902          38.000    22484889.656 5  92071840.668 5      1326.940          34.000  
G11  20480561.414 5 107626089.78525      1759.277          34.000                                                                  
G27  21486848.305 8 112914119.063 8     -2459.703          51.000    21486849.734 8  87985038.518 8     -1916.655          51.000  
G14  23391091.914 8 122921043.722 8      2630.605          48.000    23391092.891 6  95782639.991 6      2049.826          41.000  
R06  21615384.969 6 115343447.529 6      4064.000          38.000                                                                  
R05  19588057.586 8 104709070.923 8       119.785          50.000    19588061.211 7  81440412.729 7        93.169          46.000  
R20  19866760.266 6 106236109.821 6      -733.895          41.000    19866764.836 7  82628097.158 7      -570.807          47.000  
E12  21736910.484 8 114228235.948 8      -367.637          51.000    21736909.406 8  87525529.201 8      -281.675          51.000  
E24  25411363.609 7 133537596.996 7     -2802.336          43.000    25411381.289 7 102321045.256 7     -2147.297          46.000  
E19  25118054.883 7 131996294.647 7       869.320          43.000    25118052.398 6 101140050.667 6       666.363          37.000  
C05  39639044.984 5 206410908.33325       -24.277          34.000    39639044.000 6 159610003.048 6       -18.709          37.000  
C19  23357318.617 5 121627687.41525     -2037.367          30.000                                                                  
C22  22212290.688 8 115665309.359 8      1101.863          51.000                                                                  
> 2020 05 08 18 07 30.0000000  0 15      -0.000000000000
G22  22583307.945 8 118676160.099 8      2868.902          51.000    22583308.008 7  92474848.259 7      2235.512          47.000  
G08  20347692.531 8 106927845.124 8      -361.047          51.000    20347694.555 8  83320407.423 8      -281.335          51.000  
G10  22303600.273 6 117206205.700 6     -2588.789          37.000    22303599.477 6  91329498.955 6     -2017.242          36.000  
G32  22475207.141 5 118108016.545 5      1688.539          30.000    22475209.266 4  92032211.169 4      1315.736          29.000  
G27  21500923.195 8 112988081.847 8     -2471.496          51.000    21500924.336 8  88042671.827 8     -1925.842          51.000  
G14  23376095.062 8 122842230.735 8      2623.188          49.000    23376094.688 6  95721227.342 6      2044.046          40.000  
R06  21592567.516 6 115221685.037 6      4053.105          39.000                                                                  
R05  19587459.266 8 104705871.718 8        93.137          51.000    19587462.625 7  81437924.487 7        72.443          46.000  
R20  19870913.883 6 106258321.530 6      -747.016          40.000    19870918.586 7  82645372.922 7      -581.012          47.000  
E12  21739022.219 8 114239332.578 8      -372.555          51.000    21739020.750 8  87534031.818 8      -285.497          51.000  
E24  25427368.414 7 133621700.042 7     -2804.844          43.000    25427385.867 7 102385487.778 7     -2149.212          45.000  
E19  25113127.398 7 131970400.131 7       856.402          42.000    25113125.047 6 101120209.477 6       656.049          37.000  
C05  39639180.977 5 206411616.440 5       -23.168          35.000    39639180.008 6 159610550.618 6       -18.030          37.000  
C19  23369087.898 5 121688971.572 5     -2048.594          30.000                                                                  
C22  22205984.938 8 115632472.629 8      1086.914          51.000                                                                  
> 2020 05 08 18 08  0.0000000  0 15      -0.000000000000
G22  22566954.086 8 118590218.544 8      2859.535          50.000    22566953.688 8  92407880.843 8      2228.213          48.000  
G08  20349798.297 8 106938911.387 8      -377.633          51.000    20349800.367 8  83329030.480 8      -294.259          51.000  
G10  22318401.656 5 117283989.516 5     -2597.324          30.000    22318402.406 5  91390109.670 5     -2023.887          31.000  
G27  21515065.336 8 113062399.341 8     -2483.887          51.000    21515065.984 8  88100581.508 8     -1935.497          51.000  
G14  23361140.875 8 122763642.067 8      2614.996          49.000    23361139.859 6  95659989.513 6      2037.663          41.000  
R06  21569809.352 6 115100241.086 6      4042.191          39.000                                                                  
R05  19587009.945 8 104703468.752 8        66.094          50.000    19587013.242 7  81436055.540 7        51.409          47.000  
R20  19875140.312 6 106280921.857 6      -760.719          40.000    19875144.945 7  82662950.941 7      -591.670          47.000  
E12  21741162.516 8 114250579.614 8      -378.137          51.000    21741160.688 8  87542649.667 8      -289.705          51.000  
E24  25443386.734 7 133705876.234 7     -2807.676          44.000    25443404.398 7 102449986.342 7     -2151.373          44.000  
E19  25108274.234 7 131944896.048 7       843.062          42.000    25108272.109 6 101100667.388 6       646.013          38.000  
C21  24800788.086 5 129144182.086 5      3289.727          34.000                                                                  
C05  39639311.672 5 206412297.203 5       -23.016          35.000    39639310.781 6 159611077.017 6       -17.716          37.000  
C19  23380923.812 5 121750584.938 5     -2059.898          34.000                                                                  
C22  22199764.641 8 115600081.359 8      1071.551          51.000                                                                  
> 2020 05 08 18 08 30.0000000  0 15      -0.000000000000
G22  22550659.008 8 118504586.255 8      2849.320          50.000    22550657.984 7  92341154.400 7      2220.250          46.000  
G08  20352004.039 8 106950502.720 8      -394.992          51.000    20352006.297 8  83338062.673 8      -307.789          51.000  
G10  22333260.609 4 117362075.697 4     -2607.355          29.000    22333261.562 4  91450972.033 4     -2031.706          29.000  
G27  21529282.633 8 113137111.515 8     -2496.867          51.000    21529282.977 8  88158798.738 8     -1945.611          51.000  
G14  23346237.508 8 122685321.826 8      2606.352          49.000    23346236.336 6  95598960.832 6      2030.927          40.000  
R06  21547118.938 6 114979161.309 6      4030.156          41.000                                                                  
R05  19586717.227 8 104701903.421 8        38.414          51.000    19586720.391 7  81434838.070 7        29.878          47.000  
R20  19879447.672 6 106303954.037 6      -774.855          40.000    19879452.031 7  82680864.835 7      -602.669          47.000  
E12  21743339.453 8 114262018.672 8      -384.336          51.000    21743337.289 8  87551414.649 8      -294.527          50.000  
E24  25459426.445 7 133790164.791 7     -2811.352          45.000    25459444.438 7 102514571.004 7     -2154.151          45.000  
E19  25103503.203 7 131919824.379 7       828.684          42.000    25103501.672 6 101081456.632 6       634.915          39.000  
C21  24781856.766 5 129045584.494 5      3283.551          32.000                                                                  
C05  39639444.938 5 206412991.541 5       -23.371          35.000    39639444.062 6 159611613.941 6       -18.253          37.000  
C19  23392829.258 5 121812566.668 5     -2072.008          35.000                                                                  
C22  22193637.938 8 115568177.073 8      1055.453          51.000                                                                  
> 2020 05 08 18 09  0.0000000  0 15      -0.000000000000
G22  22534422.484 8 118419263.290 8      2838.977          49.000    22534420.648 7  92274669.031 7      2212.190          46.000  
G08  20354309.680 8 106962618.725 8      -412.602          51.000    20354311.891 8  83347503.708 8      -321.508          51.000  
G10  22348176.672 5 117440461.323 5     -2617.902          32.000    22348177.625 5  91512051.725 5     -2039.922          31.000  
G27  21543574.711 8 113212216.218 8     -2510.059          51.000    21543575.047 8  88217321.833 8     -1955.890          51.000  
G14  23331385.203 7 122607272.130 7      2596.891          47.000    23331384.055 7  95538142.943 7      2023.555          42.000  
R06  21524497.656 7 114858448.363 7      4017.484          43.000                                                                  
R05  19586581.008 8 104701174.685 8        10.328          51.000    19586584.188 8  81434271.279 8         8.033          48.000  
R20  19883835.625 6 106327417.459 6      -789.293          39.000    19883839.727 7  82699114.155 7      -613.895          47.000  
E12  21745552.812 8 114273649.220 8      -391.004          51.000    21745550.430 8  87560326.358 8      -299.541          50.000  
E24  25475487.188 7 133874562.706 7     -2815.133          44.000    25475505.359 7 102579239.446 7     -2156.994          45.000  
E19  25098814.391 7 131895184.714 7       813.934          42.000    25098814.531 6 101062576.916 6       623.715          41.000  
C21  24762957.055 5 128947161.534 5      3277.852          30.000                                                                  
C05  39639580.711 5 206413698.600 5       -23.773          35.000    39639579.609 5 159612161.669 5       -18.498          35.000  
C19  23404802.070 5 121874913.844 5     -2084.672          30.000                                                                  
C22  22187604.320 8 115536759.358 8      1039.078          51.000                                                                  
> 2020 05 08 18 09 30.0000000  0 14      -0.000000000000
G22  22518246.477 8 118334259.855 8      2828.207          48.000    22518244.133 7  92208432.672 7      2203.802          44.000  
G08  20356716.773 8 106975268.127 8      -430.496          51.000    20356718.969 8  83357360.375 8      -335.455          51.000  
G27  21557943.016 8 113287720.796 8     -2523.375          51.000    21557943.227 8  88276156.531 8     -1966.270          51.000  
G14  23316585.773 7 122529504.318 7      2587.477          46.000    23316585.500 6  95477544.702 6      2016.216          41.000  
R06  21501947.617 7 114738115.150 7      4005.020          43.000                                                                  
R05  19586602.805 8 104701290.494 8       -17.922          51.000    19586606.344 8  81434361.379 8       -13.939          48.000  
R20  19888305.992 6 106351321.414 6      -804.039          39.000    19888310.156 7  82717706.108 7      -625.367          47.000  
E12  21747804.234 8 114285480.204 8      -397.641          50.000    21747801.781 8  87569391.659 8      -304.722          50.000  
E24  25491570.156 7 133959076.547 7     -2818.898          45.000    25491588.266 7 102643996.728 7     -2160.011          45.000  
E19  25094209.742 7 131870986.525 7       799.340          43.000    25094210.906 6 101044035.455 6       612.392          41.000  
C21  24744092.797 5 128848923.902 5      3271.266          31.000                                                                  
C05  39639720.750 5 206414427.886 5       -24.621          34.000    39639719.391 6 159612724.843 6       -19.063          37.000  
C19  23416844.977 5 121937656.929 5     -2096.621          30.000                                                                  
C22  22181665.922 8 115505837.367 8      1022.539          51.000                                                                  
> 2020 05 08 18 10  0.0000000  0 15      -0.000000000000
G22  22502121.820 7 118249527.466 7      2820.520          46.000    22502119.453 7  92142407.488 7      2197.808          44.000  
G08  20359216.039 8 106988402.023 8      -445.230          51.000    20359218.219 8  83367594.563 8      -346.933          51.000  
G32  22428150.984 5 117860703.327 5      1610.629          33.000                                                                  
G27  21572377.578 8 113363574.082 8     -2533.477          51.000    21572377.875 8  88335262.960 8     -1974.138          51.000  
G14  23301830.812 7 122451971.481 7      2581.324          45.000    23301831.586 7  95417129.530 7      2011.422          43.000  
R06  21479459.641 7 114618114.493 7      3995.156          43.000                                                                  
R05  19586773.109 8 104702200.071 8       -42.867          51.000    19586776.477 8  81435068.835 8       -33.341          49.000  
R20  19892849.133 6 106375616.358 6      -815.352          38.000    19892853.492 7  82736602.155 7      -634.162          46.000  
E12  21750084.336 8 114297462.149 8      -401.180          50.000    21750081.977 8  87578572.617 8      -307.419          51.000  
E24  25507665.180 7 134043654.336 7     -2819.539          44.000    25507683.102 7 102708803.007 7     -2160.550          45.000  
E19  25089679.625 7 131847180.362 7       787.695          42.000    25089681.328 7 101025794.379 7       603.383          42.000  
C21  24725251.570 5 128750823.784 5      3268.426          34.000                                                                  
C05  39639855.188 5 206415128.123 5       -22.004          34.000    39639853.992 6 159613266.298 6       -17.012          37.000  
C19  23428952.922 6 122000697.037 6     -2105.816          36.000                                                                  
C22  22175813.469 8 115475362.197 8      1009.008          51.000                                                                  
> 2020 05 08 18 10 30.0000000  0 16      -0.000000000000
G22  22486054.664 7 118165096.782 7      2808.074          46.000    22486052.945 7  92076617.384 7      2188.114          45.000  
G08  20361813.086 8 107002049.617 8      -464.766          51.000    20361815.102 8  83378229.042 8      -362.155          51.000  
G10  22393247.469 6 117677323.03726     -2647.137          36.000                                                                  
G32  22419006.414 5 117812663.674 5      1591.656          30.000                                                                  
G27  21586883.297 8 113439804.024 8     -2548.504          50.000    21586884.406 8  88394662.881 8     -1985.848          50.000  
G14  23287126.977 7 122374705.512 7      2569.684          46.000    23287128.531 7  95356922.329 7      2002.351          42.000  
R06  21457040.586 7 114498479.823 7      3980.348          45.000                                                                  
R05  19587097.312 8 104703932.358 8       -72.742          51.000    19587100.578 8  81436416.179 8       -56.577          49.000  
R20  19897470.898 6 106400332.752 6      -832.316          37.000    19897474.805 7  82755826.019 7      -647.357          45.000  
E12  21752398.711 8 114309624.636 8      -409.703          49.000    21752396.672 8  87587891.917 8      -313.941          51.000  
E24  25523777.367 7 134128323.254 7     -2825.133          45.000    25523794.914 7 102773679.074 7     -2164.797          44.000  
E19  25085229.844 7 131823796.217 7       771.059          43.000    25085232.109 7 101007876.647 7       590.847          42.000  
C21  24706440.953 6 128652891.982 6      3260.461          37.000                                                                  
C05  39639989.859 5 206415829.313 5       -24.738          34.000    39639988.688 6 159613808.519 6       -19.153          37.000  
C19  23441126.578 6 122064085.022 6     -2119.695          36.000                                                                  
C22  22170052.484 8 115445363.303 8       990.746          51.000                                                                  
> 2020 05 08 18 11  0.0000000  0 17      -0.000000000000
G22  22470049.961 8 118080990.971 8      2799.691          48.000    22470049.031 7  92011080.422 7      2181.578          44.000  
G08  20364512.023 8 107016233.160 8      -480.180          51.000    20364514.023 8  83389281.140 8      -374.169          51.000  
G10  22408383.398 6 117756848.690 6     -2654.301          37.000    22408384.492 6  91758583.085 6     -2068.290          36.000  
G32  22409960.953 6 117765116.990 6      1577.941          38.000    22409969.578 6  91765074.864 6      1229.568          38.000  
G11  20402402.398 4 107215355.26124      1661.625          29.000                                                                  
G27  21601464.227 8 113516431.075 8     -2559.258          48.000    21601466.469 8  88454372.242 8     -1994.227          49.000  
G14  23272479.000 7 122297731.263 7      2562.457          47.000    23272480.672 7  95296942.441 7      1996.720          43.000  
R06  21434695.086 7 114379237.166 7      3969.738          46.000                                                                  
R05  19587579.352 8 104706509.178 8       -98.449          51.000    19587582.906 8  81438420.384 8       -76.572          49.000  
R20  19902175.930 6 106425493.392 6      -844.688          37.000    19902179.836 7  82775395.400 7      -656.979          45.000  
E12  21754751.617 8 114321989.791 8      -414.031          49.000    21754750.102 8  87597366.500 8      -317.257          50.000  
E24  25539910.320 7 134213102.980 7     -2826.430          46.000    25539927.469 7 102838640.036 7     -2165.719          42.000  
E19  25080864.273 7 131800856.458 7       758.633          42.000    25080867.148 6 100990299.400 6       581.428          41.000  
C21  24687667.516 6 128555151.979 6      3256.387          40.000                                                                  
C05                                                                  39640127.641 6 159614368.136 6       -17.827          37.000  
C19  23453368.734 5 122127840.633 5     -2129.742          32.000                                                                  
C22  22164387.016 8 115415862.768 8       976.539          51.000                                                                  
> 2020 05 08 18 11 30.0000000  0 15      -0.000000000000
G22  22454099.750 8 117997170.679 8      2788.539          50.000    22454099.633 7  91945765.975 7      2172.891          44.000  
G08  20367305.250 8 107030912.383 8      -498.180          51.000    20367307.391 8  83400719.470 8      -388.195          51.000  
G10  22423565.969 5 117836632.599 5     -2663.781          33.000    22423565.461 5  91820752.340 5     -2075.668          30.000  
G11  20392951.688 4 107165683.68524      1648.234          28.000                                                                  
G27  21616112.891 7 113593413.506 7     -2572.609          47.000    21616116.039 7  88514358.528 7     -2004.634          47.000  
G14  23257879.383 7 122221010.909 7      2552.441          47.000    23257881.023 7  95237160.397 7      1988.919          44.000  
R06  21412415.852 7 114260349.315 7      3956.297          46.000                                                                  
R05  19588211.391 8 104709888.629 8      -126.598          51.000    19588214.805 8  81441048.852 8       -98.465          49.000  
R20  19906956.156 6 106451058.059 6      -859.496          38.000    19906960.047 7  82795279.024 7      -668.497          43.000  
E12  21757135.320 8 114334517.562 8      -420.996          48.000    21757134.383 8  87606965.686 8      -322.510          50.000  
E24  25556055.992 7 134297950.996 7     -2830.000          45.000    25556072.633 6 102903653.339 6     -2168.610          40.000  
E19  25076575.422 7 131778321.172 7       743.812          42.000    25076578.633 6 100973032.124 6       569.950          40.000  
C21  24668924.266 6 128457565.583 6      3249.609          41.000                                                                  
C05  39640264.734 5 206417260.17425       -23.723          35.000    39640263.203 6 159614914.212 6       -18.592          36.000  
C22  22158809.719 8 115386820.991 8       959.797          51.000                                                                  
> 2020 05 08 18 12  0.0000000  0 16      -0.000000000000
G22  22438206.391 8 117913648.797 8      2781.738          50.000    22438206.570 7  91880684.038 7      2167.589          43.000  
G08  20370194.992 8 107046098.777 8      -511.977          51.000    20370197.234 8  83412553.003 8      -398.943          51.000  
G10  22438799.141 5 117916683.321 5     -2670.637          35.000    22438797.578 5  91883129.505 5     -2081.016          34.000  
G32  22392134.617 6 117671450.338 6      1548.152          36.000    22392130.094 5  91692037.825 5      1206.353          34.000  
G27  21630831.227 8 113670761.196 8     -2581.688          48.000    21630834.812 8  88574629.403 8     -2011.708          48.000  
G01  21994114.594 5 115579832.550 5      2363.008          33.000                                                                  
G14  23243330.875 8 122144558.344 8      2546.613          48.000    23243332.719 7  95177587.018 7      1984.378          43.000  
R06  21390205.266 7 114141830.863 7      3947.223          46.000                                                                  
R05  19588995.484 8 104714081.331 8      -150.590          51.000    19588999.023 8  81444309.849 8      -117.125          49.000  
R20  19911814.695 6 106477038.415 6      -869.789          38.000    19911818.266 7  82815485.953 7      -676.500          44.000  
E12  21759552.211 8 114347219.444 8      -423.656          48.000    21759551.703 8  87616698.291 8      -324.614          50.000  
E24  25572216.219 7 134382876.390 7     -2829.438          44.000    25572232.266 6 102968725.900 6     -2168.084          39.000  
E19  25072365.984 7 131756201.981 7       733.113          43.000    25072369.453 6 100956083.659 6       561.548          40.000  
C21  24650214.102 6 128360145.611 6      3247.164          41.000                                                                  
C05                                                                  39640397.703 6 159615454.284 6       -15.831          36.000  
C22  22153322.875 8 115358249.454 8       947.164          51.000                                                                  
> 2020 05 08 18 12 30.0000000  0 17      -0.000000000000
G22  22422372.812 8 117830441.813 8      2767.684          49.000    22422372.172 7  91815847.477 7      2156.640          42.000  
G08  20373184.266 8 107061808.346 8      -532.863          51.000    20373186.195 8  83424794.206 8      -415.218          51.000  
G10  22454085.609 6 117997014.000 6     -2683.176          36.000    22454085.586 5  91945724.733 5     -2090.790          35.000  
G32  22383364.148 6 117625344.245 6      1527.695          40.000    22383361.398 6  91656110.891 6      1190.418          38.000  
G27  21645622.344 8 113748488.220 8     -2597.738          50.000    21645625.852 8  88635195.871 8     -2024.212          51.000  
G01  21980661.297 5 115509135.775 5      2352.859          32.000                                                                  
G14  23228837.016 7 122068392.004 7      2533.617          47.000    23228838.891 7  95118236.657 7      1974.248          43.000  
R06  21368067.805 7 114023701.870 7      3930.457          46.000                                                                  
R05  19589934.578 8 104719102.622 8      -181.836          51.000    19589938.328 8  81448215.293 8      -141.428          49.000  
R20  19916754.102 6 106503450.995 6      -887.973          39.000    19916757.766 7  82836029.036 7      -690.646          44.000  
E12  21762005.492 8 114360111.304 8      -433.516          49.000    21762005.227 8  87626576.457 8      -332.124          50.000  
E24  25588393.609 7 134467892.579 7     -2835.934          42.000    25588409.578 6 103033868.047 6     -2173.148          38.000  
E19  25068238.812 6 131734515.001 6       715.148          41.000    25068242.250 6 100939466.369 6       547.825          38.000  
C21  24631539.773 6 128262909.314 6      3237.461          40.000                                                                  
C05  39640535.133 5 206418668.733 5       -24.422          35.000    39640533.852 6 159616002.387 6       -18.885          36.000  
C19  23490480.586 5 122321117.028 5     -2165.180          32.000                                                                  
C22  22147929.250 8 115330163.944 8       927.559          51.000                                                                  
> 2020 05 08 18 13  0.0000000  0 16      -0.000000000000
G22  22406606.266 8 117747588.653 8      2757.738          48.000    22406604.008 7  91751286.619 7      2148.891          43.000  
G08  20376280.234 8 107078078.210 8      -549.867          51.000    20376282.203 8  83437472.000 8      -428.468          51.000  
G10  22469431.922 5 118077659.994 5     -2691.305          33.000    22469434.383 5  92008565.721 5     -2097.124          32.000  
G27  21660493.055 8 113826630.759 8     -2609.777          51.000    21660496.453 8  88696086.141 8     -2033.593          51.000  
G14  23214405.016 7 121992552.094 7      2524.383          46.000    23214406.867 7  95059140.685 7      1967.052          43.000  
R06  21346011.258 7 113906003.954 7      3917.953          46.000                                                                  
R05  19591035.805 8 104724989.761 8      -208.766          50.000    19591039.570 8  81452794.191 8      -162.370          49.000  
R20  19921781.812 6 106530334.782 6      -902.156          39.000    19921785.531 7  82856938.622 7      -701.677          44.000  
E04  26347175.227 7 138455339.207 7      2977.621          42.000    26347182.812 6 106089178.170 6      2281.702          40.000  
E12  21764502.148 8 114373231.046 8      -439.270          49.000    21764501.938 8  87636629.241 8      -336.568          50.000  
E24  25604595.312 6 134553035.003 6     -2838.211          41.000    25604611.883 6 103099106.970 6     -2174.650          39.000  
E19  25064201.258 6 131713298.296 6       701.281          41.000    25064204.703 6 100923209.446 6       537.376          37.000  
C21  24612909.250 6 128165895.722 6      3232.078          38.000                                                                  
C05  39640680.109 5 206419423.657 5       -23.805          35.000    39640678.773 6 159616586.179 6       -18.643          37.000  
C19  23502988.961 4 122386264.938 4     -2174.273          29.000                                                                  
