     3.02           OBSERVATION DATA    M (MIXED)           RINEX VERSION / TYPE
SAVERINEX           SC600               20200507 045931 LCL PGM / RUN BY / DATE
       G = GPS       R = GLONASS       C = COMPASS          COMMENT
       S = SBAS      J = QZSS          E = GALILEO          COMMENT
BEAN                                                        MARKER NAME
1                                                           MARKER NUMBER
GEODETIC                                                    MARKER TYPE
Unige DICCA         GTER                                    OBSERVER / AGENCY
SC60291900056       SC600               2.12(191226)        REC # / TYPE / VERS
                    HEMA45          NONE                    ANT # / TYPE
  4509407.8091   693652.4678  4442337.6214                  APPROX POSITION XYZ
        0.0000        0.0000        0.0000                  ANTENNA: DELTA H/E/N
G    8 C1C L1C D1C S1C C2Y L2Y D2Y S2Y                      SYS / # / OBS TYPES
R    8 C1C L1C D1C S1C C2P L2P D2P S2P                      SYS / # / OBS TYPES
C    8 C1I L1I D1I S1I C7I L7I D7I S7I                      SYS / # / OBS TYPES
E    8 C1C L1C D1C S1C C7Q L7Q D7Q S7Q                      SYS / # / OBS TYPES
DBHZ                                                        COMMENT
     30.000                                                 INTERVAL
  2020    05    07    02    00    0.0000000     GPS         TIME OF FIRST OBS
  2020    05    07    02    59   30.0000000     GPS         TIME OF LAST OBS
     0                                                      RCV CLOCK OFFS APPL
G L1C  0.00000                                              SYS / PHASE SHIFT
G L2Y  0.00000                                              SYS / PHASE SHIFT
R L1C  0.00000                                              SYS / PHASE SHIFT
R L2P  0.25000                                              SYS / PHASE SHIFT
C L1I  0.00000                                              SYS / PHASE SHIFT
C L7I  0.00000                                              SYS / PHASE SHIFT
E L1C  0.50000                                              SYS / PHASE SHIFT
E L7Q -0.25000                                              SYS / PHASE SHIFT
 12 R04  6 R05  1 R06 -4 R07  5 R09 -2 R10 -7 R15  0 R16 -1 GLONASS SLOT / FRQ #
    R19  3 R20  2 R21  4 R22 -3                             GLONASS SLOT / FRQ #
 C1C   71.950 C2C   71.950 C2P   71.950                     GLONASS COD/PHS/BIS
    18                                                      LEAP SECONDS
*** Above antenna height is from mark to ANTENNA BOTTOM.    COMMENT
    17     4        0.0000        ANT MEASURE TYPE/HEIGT    COMMENT
    0.0000    0.0000    0.0458    0.0405    0.0000          COMMENT
                    BASE STATION                            COMMENT
                                                            END OF HEADER
> 2020 05 07 02 00  0.0000000  0 15        .000000000000
G02  22735137.484 6 119473933.384 6     -1419.215          39.000    22735132.828 6  93096572.364 6     -1105.882          39.000
G06  23254947.078 6 122205484.178 6     -3249.668          36.000    23254938.133 6  95225055.430 6     -2532.212          36.000
G07  20786497.086 8 109233772.264 8      -194.320          51.000    20786496.344 8  85117224.759 8      -151.418          51.000
G09  21793748.664 6 114526923.508 6     -2184.844          37.000    21793750.609 6  89241757.428 6     -1702.476          37.000
G30  21088059.844 8 110818515.877 8      1997.148          50.000    21088060.922 8  86352109.483 8      1556.220          50.000
R07  19524907.945 8 104518357.008 8       122.848          48.000    19524909.492 7  81292080.675 7        95.548          46.000
R09  19844322.969 8 105967571.545 8      1938.082          50.000    19844323.883 8  82419225.120 8      1507.394          50.000
R10  21898148.648 6 116729445.999 6      4228.523          41.000
C05  39785448.938 5 207173271.895 5       -10.328          34.000    39785448.398 6 160199508.166 6        -8.264          40.000
C20  23057008.820 5 120063886.899 5      1976.520          30.000
C23  22528817.109 8 117313423.470 8      -363.508          51.000
C25  25477160.859 5 132666263.114 5     -2838.117          30.000
E12  24533814.312 6 128926051.133 6     -2232.508          38.000    24533814.570 7  98787492.971 7     -1710.560          44.000
E19  23923216.156 7 125717349.500 7       392.328          43.000    23923216.180 7  96328883.086 7       300.660          45.000
E21  25314463.516 8 133028423.700 8      2366.898          51.000    25314466.852 8 101930899.230 8      1813.627          51.000
> 2020 05 07 02 00 30.0000000  0 14        .000000000000
G02  22743283.117 6 119516743.798 6     -1434.816          39.000    22743279.305 6  93129931.084 6     -1118.039          39.000
G06  23273521.539 6 122303094.476 6     -3257.383          36.000    23273513.266 6  95301115.334 6     -2538.223          36.000
G07  20787654.602 8 109239852.838 8      -210.566          51.000    20787653.297 8  85121962.889 8      -164.078          51.000
G09  21806246.242 6 114592595.628 6     -2192.492          37.000    21806246.508 6  89292930.474 6     -1708.439          37.000
G30  21076702.453 8 110758834.694 8      1982.051          51.000    21076704.070 8  86305604.668 8      1544.455          51.000
R07  19524261.453 8 104514894.439 8       108.570          49.000    19524262.922 7  81289387.566 7        84.444          46.000
R09  19833505.516 8 105909808.970 8      1913.160          50.000    19833507.141 8  82374298.662 8      1488.013          50.000
R10  21874382.352 7 116602766.587 7      4217.547          42.000
C05  39785512.797 5 207173604.405 5       -11.148          34.000    39785512.250 6 160199765.256 6        -8.464          40.000
C23  22530961.477 8 117324589.598 8      -380.434          51.000
C25  25493533.250 5 132751515.794 5     -2845.707          31.000
E12  24546587.289 6 128993174.512 6     -2241.758          39.000    24546587.914 7  98838925.164 7     -1717.779          44.000
E19  23920995.750 7 125705680.325 7       386.352          44.000    23920996.422 7  96319941.776 7       295.991          46.000
E21  25300982.281 8 132957578.006 8      2356.742          51.000    25300985.703 8 101876614.857 8      1805.872          51.000
> 2020 05 07 02 01  0.0000000  0 14        .000000000000
G02  22751515.133 6 119560006.242 6     -1449.895          40.000    22751513.102 6  93163642.063 6     -1129.788          40.000
G06  23292136.344 5 122400923.130 5     -3264.043          34.000    23292129.703 5  95377345.448 5     -2543.407          34.000
G07  20788902.461 8 109246408.010 8      -226.539          51.000    20788900.406 8  85127070.819 8      -176.524          51.000
G09  21818782.391 6 114658471.975 6     -2199.871          37.000    21818781.039 6  89344262.725 6     -1714.188          36.000
G30  21065429.711 8 110699595.413 8      1967.180          51.000    21065431.641 8  86259444.211 8      1532.867          51.000
R07  19523691.359 8 104511844.050 8        94.656          49.000    19523692.930 7  81287015.060 7        73.622          46.000
R09  19822826.398 8 105852780.973 8      1888.500          51.000    19822827.922 8  82329943.545 8      1468.830          49.000
R10  21850676.305 7 116476404.223 7      4206.586          42.000
C05  39785576.906 5 207173939.144 5       -11.652          34.000    39785576.352 6 160200023.324 6        -8.693          40.000
C23  22533200.945 8 117336251.316 8      -397.141          51.000
C25  25509949.812 5 132836995.381 5     -2853.293          33.000
E12  24559411.734 6 129060567.176 6     -2251.254          40.000    24559412.492 7  98890563.667 7     -1724.801          45.000
E19  23918808.148 7 125694183.436 7       380.199          44.000    23918809.352 7  96311132.465 7       291.253          46.000
E21  25287556.523 8 132887025.463 8      2346.676          51.000    25287560.164 8 101822555.124 8      1798.096          51.000
> 2020 05 07 02 01 30.0000000  0 14        .000000000000
G02  22759832.852 7 119603717.052 7     -1463.699          42.000    22759831.836 6  93197702.403 6     -1140.545          39.000
G06  23310791.195 5 122498965.488 5     -3270.762          34.000    23310788.164 5  95453742.090 5     -2548.642          34.000
G07  20790239.984 8 109253435.070 8      -241.391          51.000    20790237.523 8  85132546.462 8      -188.094          51.000
G09  21831356.891 6 114724550.166 6     -2204.676          38.000    21831355.727 6  89395752.158 6     -1717.932          38.000
G30  21054241.367 8 110640797.493 8      1953.262          51.000    21054243.281 8  86213627.683 8      1522.022          51.000
R07  19523198.055 8 104509205.507 8        81.715          48.000    19523199.945 7  81284962.846 7        63.556          45.000
R09  19812285.023 8 105796487.732 8      1864.922          51.000    19812285.648 8  82286159.924 8      1450.495          49.000
R10  21827030.008 6 116350360.530 6      4197.047          41.000
C05  39785641.055 5 207174272.439 5       -10.633          34.000    39785640.352 6 160200281.062 6        -7.962          40.000
C23  22535535.133 8 117348406.287 8      -412.637          51.000
C25  25526409.344 6 132922696.221 6     -2859.836          36.000
E12  24572287.234 7 129128225.416 7     -2259.035          43.000    24572287.305 7  98942405.691 7     -1730.862          45.000
E19  23916653.109 7 125682857.718 7       375.500          45.000    23916654.484 7  96302454.320 7       287.622          46.000
E21  25274186.453 8 132816766.126 8      2337.848          51.000    25274189.906 8 101768720.030 8      1791.311          51.000
> 2020 05 07 02 02  0.0000000  0 15        .000000000000
G02  22768233.547 6 119647863.045 6     -1478.688          41.000    22768230.969 5  93232101.878 5     -1152.224          34.000
G06  23329486.109 5 122597206.890 5     -3278.125          35.000    23329485.086 5  95530293.884 5     -2554.380          33.000
G07  20791664.781 8 109260921.912 8      -257.355          51.000    20791662.312 8  85138380.397 8      -200.537          51.000
G09  21843967.867 6 114790818.157 6     -2212.551          38.000    21843967.625 6  89447389.530 6     -1724.066          39.000
G30  21043135.086 8 110582430.602 8      1938.316          51.000    21043136.656 8  86168147.022 8      1510.376          51.000
R06  21704723.188 4 115820561.297 4     -2764.441          29.000
R07  19522779.836 8 104506968.185 8        67.832          49.000    19522781.742 7  81283222.724 7        52.758          45.000
R09  19801879.391 8 105740920.163 8      1840.098          51.000    19801879.695 8  82242940.736 8      1431.187          50.000
R10  21803442.625 6 116224628.094 6      4186.145          40.000
C05                                                                  39785702.148 6 160200529.734 6        -8.098          40.000
C23  22537961.820 8 117361042.502 8      -429.258          51.000
C25  25542909.406 6 133008604.866 6     -2867.102          37.000
E12  24585210.633 7 129196135.888 7     -2268.109          43.000    24585210.008 7  98994440.953 7     -1737.734          45.000
E19  23914528.555 7 125671691.979 7       369.461          46.000    23914529.617 7  96293898.740 7       283.108          45.000
E21  25260869.953 8 132746790.261 8      2327.727          50.000    25260873.539 8 101715102.132 8      1783.604          51.000
> 2020 05 07 02 02 30.0000000  0 14        .000000000000
G02  22776718.797 6 119692455.626 6     -1493.367          40.000    22776713.289 6  93266849.285 6     -1163.660          36.000
G06  23348222.008 6 122695657.470 6     -3284.586          36.000    23348223.328 6  95607008.602 6     -2559.418          36.000
G07  20793179.367 8 109268880.807 8      -272.754          51.000    20793176.602 8  85144582.141 8      -212.536          51.000
G09  21856616.969 6 114857288.323 6     -2218.719          38.000    21856617.031 6  89499184.443 6     -1728.869          38.000
G30  21032113.281 8 110524509.054 8      1923.684          51.000    21032114.477 8  86123013.363 8      1498.974          51.000
R07  19522439.250 8 104505146.823 8        54.230          49.000    19522441.258 7  81281806.092 7        42.179          45.000
R09  19791612.305 8 105686093.691 8      1815.590          51.000    19791612.484 8  82200297.959 8      1412.125          51.000
R10  21779917.664 6 116099224.097 6      4174.980          37.000
C05                                                                  39785764.117 6 160200779.394 6        -7.727          40.000
C23  22540482.977 8 117374172.314 8      -445.434          50.000
C25  25559451.180 6 133094732.305 6     -2874.031          37.000
E12  24598183.883 7 129264309.789 7     -2276.297          42.000    24598182.680 7  99046678.080 7     -1744.208          44.000
E19  23912437.078 7 125660699.736 7       364.102          46.000    23912437.586 7  96285476.116 7       278.909          45.000
E21  25247610.227 8 132677112.771 8      2317.992          50.000    25247614.320 8 101661712.882 8      1776.172          51.000
> 2020 05 07 02 03  0.0000000  0 14        .000000000000
G02  22785288.406 6 119737493.307 6     -1512.617          39.000    22785282.938 6  93301943.590 6     -1178.666          39.000
G06  23366997.031 6 122794314.852 6     -3295.387          36.000    23367001.203 6  95683884.456 6     -2567.837          36.000
G07  20794783.586 8 109277311.611 8      -292.773          51.000    20794780.766 8  85151151.611 8      -228.135          51.000
G09  21869304.367 6 114923960.603 6     -2229.633          38.000    21869303.781 6  89551136.908 6     -1737.373          39.000
G30  21021176.266 8 110467034.534 8      1904.516          51.000    21021177.234 8  86078228.004 8      1484.035          51.000
R07  19522177.195 8 104503743.357 8        35.855          50.000    19522178.828 7  81280714.501 7        27.885          45.000
R09  19781484.195 8 105632011.263 8      1786.352          51.000    19781484.664 8  82158233.878 8      1389.385          51.000
C05  39785827.227 5 207175241.710 5       -14.926          35.000    39785826.430 6 160201030.558 6       -11.312          40.000
C20  22989416.312 5 119711914.834 5      1930.668          32.000
C23  22543098.820 8 117387795.545 8      -466.168          50.000
C25  25576034.125 6 133181077.028 6     -2885.391          38.000
E12  24611206.430 6 129332745.700 6     -2289.500          40.000    24611204.734 7  99099116.007 7     -1754.128          43.000
E19  23910378.773 7 125649881.945 7       354.031          45.000    23910378.695 7  96277187.163 7       271.106          45.000
E21  25234407.805 8 132607735.980 8      2303.723          49.000    25234411.695 8 101608554.015 8      1765.175          51.000
> 2020 05 07 02 03 30.0000000  0 15        .000000000000
G02  22793946.602 6 119782994.740 6     -1523.406          41.000    22793942.641 6  93337399.272 6     -1187.076          41.000
G06  23385814.305 5 122893196.193 5     -3298.297          35.000    23385820.430 5  95760934.832 5     -2570.101          35.000
G07  20796481.312 8 109286234.050 8      -304.441          51.000    20796478.883 8  85158104.171 8      -237.227          51.000
G09  21882033.359 6 114990854.731 6     -2232.543          36.000    21882033.000 6  89603262.165 6     -1739.641          36.000
G30  21010328.234 8 110410028.474 8      1893.348          51.000    21010329.250 8  86033807.652 8      1475.336          51.000
R07  19521997.297 8 104502779.539 8        25.992          50.000    19521998.734 7  81279964.871 7        20.216          46.000
R09  19771499.375 8 105578695.521 8      1765.582          50.000    19771500.539 8  82116766.067 8      1373.227          51.000
R10  21733050.500 6 115849382.629 6      4152.102          36.000
C05  39785893.836 5 207175588.583 5       -10.910          34.000    39785893.031 6 160201298.794 6        -8.282          40.000
C20  22978290.797 4 119653993.066 4      1928.508          29.000
C23  22545813.508 8 117401931.668 8      -478.672          51.000
C25  25592662.242 6 133267657.145 6     -2888.879          38.000
E12  24624281.336 6 129401462.058 6     -2294.047          38.000    24624281.008 7  99151768.834 7     -1757.938          44.000
E19  23908357.492 7 125639259.309 7       351.910          46.000    23908357.078 7  96269047.723 7       269.681          46.000
E21  25221266.578 8 132538681.899 8      2297.453          49.000    25221270.914 8 101555642.460 8      1760.386          51.000
> 2020 05 07 02 04  0.0000000  0 16        .000000000000
G02  22802680.969 7 119828892.527 7     -1536.316          45.000    22802678.016 7  93373163.794 7     -1197.130          42.000
G06  23404657.648 6 122992316.867 6     -3303.887          36.000
G07  20798259.773 8 109295581.447 8      -318.562          51.000    20798257.719 8  85165387.859 8      -248.231          51.000
G09  21894791.656 5 115057904.401 5     -2237.812          32.000    21894791.688 5  89655508.665 5     -1743.747          33.000
G30  20999556.945 8 110353426.322 8      1879.977          51.000    20999558.250 8  85989702.075 8      1464.917          51.000
R06  21767318.469 5 116154535.101 5     -2800.457          31.000
R07  19521886.906 8 104502190.003 8        13.477          50.000    19521888.531 7  81279506.338 7        10.482          45.000
R09  19761645.562 8 105526081.723 8      1742.082          48.000    19761647.609 8  82075844.192 8      1354.953          50.000
R10  21709715.391 6 115724964.724 6      4142.242          41.000
C05  39785952.367 5 207175894.095 5        -9.254          34.000    39785951.461 6 160201533.885 6        -7.280          40.000
C20  22967196.852 5 119596232.679 5      1923.293          30.000
C23  22548614.008 8 117416514.980 8      -493.402          51.000
C25  25609322.664 6 133354405.659 6     -2894.484          38.000
E12  24637397.211 6 129470391.373 6     -2301.281          39.000    24637398.641 7  99204584.785 7     -1763.275          45.000
E19  23906360.750 7 125628766.507 7       347.562          46.000    23906360.383 7  96261007.794 7       266.191          46.000
E21  25208174.773 8 132469886.762 8      2288.805          48.000    25208178.758 8 101502929.291 8      1753.700          50.000
> 2020 05 07 02 04 30.0000000  0 13        .000000000000
G02  22811498.992 7 119875227.848 7     -1554.953          45.000    22811496.422 7  93409269.263 7     -1211.652          42.000
G07  20800127.133 8 109305396.504 8      -338.039          50.000    20800125.430 8  85173035.941 8      -263.407          50.000
G09  21907587.555 5 115125152.345 5     -2248.016          34.000    21907589.453 5  89707909.667 5     -1751.704          33.000
G30  20988871.117 8 110297272.535 8      1861.086          51.000    20988872.516 8  85945945.883 8      1450.197          51.000
R07  19521854.602 8 104502019.865 8        -4.496          50.000    19521856.383 7  81279374.007 7        -3.497          46.000
R09  19751932.359 8 105474216.256 8      1713.176          49.000    19751934.562 8  82035504.357 8      1332.470          48.000
R10  21686440.852 7 115600889.849 7      4127.004          44.000
C05  39786010.766 5 207176198.216 5       -13.418          34.000    39786009.836 6 160201769.041 6       -10.004          40.000
C23  22551508.789 8 117431587.674 8      -513.691          51.000
C25  25626023.047 6 133441363.461 6     -2905.066          37.000
E12  24650562.156 6 129539574.905 6     -2313.391          40.000    24650564.602 7  99257595.568 7     -1772.595          45.000
E19  23904396.945 7 125618447.423 7       337.961          46.000    23904396.984 7  96253100.954 7       258.948          47.000
E21  25195140.836 8 132401395.550 8      2274.891          48.000    25195145.180 8 101450449.047 8      1743.170          50.000
> 2020 05 07 02 05  0.0000000  0 15        .000000000000
G02  22820405.633 7 119922029.168 7     -1565.434          44.000    22820403.250 7  93445737.868 7     -1219.815          43.000
G07  20802089.070 8 109315708.575 8      -349.598          50.000    20802088.039 8  85181071.331 8      -272.414          50.000
G09  21920427.250 5 115192628.256 5     -2251.082          33.000    21920429.828 5  89760488.270 5     -1754.096          34.000
G30  20978276.719 8 110241598.462 8      1850.152          51.000    20978278.086 8  85902563.493 8      1441.677          51.000
R06  21798927.562 5 116323246.361 5     -2819.426          32.000
R07  19521907.227 8 104502301.254 8       -14.484          51.000    19521908.898 7  81279592.853 7       -11.266          45.000
R09  19742365.672 8 105423131.935 8      1692.301          51.000    19742367.797 7  81995772.159 7      1316.237          47.000
R10  21663235.555 7 115477192.688 7      4119.387          43.000
C05  39786074.906 5 207176532.020 5        -9.059          34.000    39786073.984 6 160202027.576 6        -7.370          40.000
C23  22554502.961 8 117447179.036 8      -525.965          51.000
C25  25642768.562 5 133528558.526 5     -2908.191          34.000
E12  24663781.391 6 129609041.109 6     -2318.051          40.000    24663784.484 7  99310822.916 7     -1776.112          46.000
E19  23902471.891 7 125608332.635 7       336.086          46.000    23902472.422 7  96245350.661 7       257.484          47.000
E21  25182171.586 8 132333240.334 8      2268.523          49.000    25182175.141 8 101398226.245 8      1738.258          49.000
E27  25133565.586 6 132077782.919 6      -452.340          39.000    25133569.188 6 101202463.098 6      -346.368          40.000
> 2020 05 07 02 05 30.0000000  0 15        .000000000000
G02  22829386.789 7 119969224.452 7     -1580.109          44.000    22829384.672 7  93482513.420 7     -1231.251          42.000
G07  20804132.234 8 109326446.678 8      -365.465          50.000    20804131.641 8  85189438.662 8      -284.778          50.000
G09  21933297.547 6 115260261.124 6     -2257.703          39.000    21933299.758 6  89813189.237 6     -1759.249          39.000
G30  20967760.391 8 110186334.869 8      1834.836          51.000    20967761.758 8  85859500.969 8      1429.742          51.000
R06  21814810.938 5 116407983.629 5     -2829.367          31.000
R07  19522031.352 8 104502963.761 8       -28.828          51.000    19522032.711 7  81280108.127 7       -22.422          46.000
R09  19732932.469 8 105372759.230 8      1666.820          51.000    19732934.305 7  81956593.477 7      1296.419          47.000
R10  21640086.656 6 115353806.156 6      4107.309          40.000
C05  39786131.383 5 207176825.968 5        -9.906          34.000    39786130.609 6 160202255.631 6        -7.313          40.000
C23  22557583.117 8 117463218.678 8      -542.520          51.000
C25  25659545.047 5 133615919.229 5     -2914.738          32.000
E12  24677040.664 6 129678717.757 6     -2326.531          41.000    24677044.219 7  99364211.503 7     -1782.679          46.000
E19  23900572.477 7 125598352.219 7       329.887          46.000    23900573.109 7  96237703.314 7       252.863          47.000
E21  25169254.000 8 132265352.511 8      2258.035          51.000    25169256.336 8 101346208.331 8      1730.168          50.000
E27                                                                  25136197.055 6 101213037.881 6      -358.095          40.000
> 2020 05 07 02 06  0.0000000  0 14        .000000000000
G02  22838453.633 7 120016871.484 7     -1594.953          43.000    22838451.305 7  93519640.961 7     -1242.821          43.000
G07  20806267.633 8 109337669.237 8      -381.477          50.000    20806267.141 8  85198183.499 8      -297.254          50.000
G09  21946209.031 5 115328109.972 5     -2264.664          35.000    21946211.430 5  89866058.481 5     -1764.676          35.000
G30  20957333.594 8 110131542.352 8      1819.234          51.000    20957335.125 8  85816805.511 8      1417.585          51.000
R07  19522238.242 8 104504069.156 8       -43.508          51.000    19522239.242 7  81280967.875 7       -33.839          46.000
R09  19723644.469 8 105323160.821 8      1641.039          51.000    19723646.078 8  81918016.982 8      1276.364          48.000
R10  21617007.180 6 115230794.256 6      4094.945          40.000
C05  39786191.820 5 207177141.036 5       -10.023          34.000    39786191.070 6 160202498.876 6        -7.775          40.000
C23  22560760.773 8 117479764.849 8      -559.258          51.000
C25  25676364.484 5 133703502.589 5     -2922.801          31.000
E12  24690350.992 6 129748662.374 6     -2335.258          41.000    24690354.086 7  99417805.425 7     -1789.311          46.000
E19  23898710.164 7 125588566.448 7       323.629          46.000    23898710.703 7  96230205.133 7       247.954          47.000
E21  25156399.297 8 132197793.347 8      2247.164          51.000    25156401.398 8 101294442.265 8      1721.847          51.000
E27  25138926.953 6 132105935.206 6      -482.793          39.000    25138907.844 6 101223981.181 6      -369.878          38.000
> 2020 05 07 02 06 30.0000000  0 15        .000000000000
G02  22847600.992 6 120064944.333 6     -1608.812          41.000    22847599.102 7  93557100.314 7     -1253.620          42.000
G07  20808490.852 8 109349352.092 8      -396.582          51.000    20808490.266 8  85207287.014 8      -309.025          51.000
G09  21959156.930 6 115396150.696 6     -2270.715          38.000    21959159.117 6  89919077.175 6     -1769.388          37.000
G30  20946992.219 8 110077198.465 8      1804.539          51.000    20946993.922 8  85774459.641 8      1406.137          51.000
R07  19522523.438 8 104505594.770 8       -57.277          51.000    19522524.086 7  81282154.482 7       -44.549          47.000
R09  19714497.195 8 105274314.553 8      1616.254          51.000    19714499.320 8  81880025.472 8      1257.086          50.000
R10  21593996.039 7 115108137.641 7      4083.277          42.000
C05  39786251.484 5 207177451.486 5        -9.676          34.000    39786250.805 6 160202739.326 6        -7.418          40.000
C20  22912368.430 4 119310714.418 4      1886.805          29.000
C23  22564030.938 8 117496793.408 8      -575.043          51.000
C25  25693222.062 4 133791348.725 4     -2928.980          28.000
E12  24703707.469 7 129818849.490 7     -2342.965          42.000    24703709.602 7  99471585.173 7     -1795.250          46.000
E19  23896880.398 7 125578951.857 7       318.301          45.000    23896880.891 7  96222838.102 7       243.893          47.000
E21  25143602.875 8 132130541.045 8      2237.293          51.000    25143604.188 8 101242911.296 8      1714.346          51.000
E27  25141726.195 6 132120645.616 6      -496.941          38.000    25141705.305 6 101235252.650 6      -380.806          38.000
> 2020 05 07 02 07  0.0000000  0 13        .000000000000
G02  22856828.781 7 120113439.820 7     -1623.371          42.000    22856827.578 7  93594888.993 7     -1264.964          42.000
G07  20810801.203 8 109361492.737 8      -412.094          50.000    20810800.539 8  85216747.272 8      -321.109          50.000
G09  21972140.984 6 115464381.161 6     -2277.465          36.000    21972142.344 6  89972243.779 6     -1774.645          36.000
G30  20936736.492 8 110023302.936 8      1789.289          51.000    20936738.008 8  85732463.123 8      1394.251          51.000
R07  19522886.867 8 104507540.494 8       -71.621          51.000    19522887.891 7  81283667.811 7       -55.705          47.000
R09  19705491.312 8 105226221.177 8      1590.711          51.000    19705493.508 8  81842619.499 8      1237.217          51.000
R10  21571053.180 7 114985838.861 7      4070.961          45.000
C05  39786310.336 5 207177758.084 5       -10.492          34.000    39786309.633 6 160202976.020 6        -7.594          40.000
C23  22567393.344 8 117514302.294 8      -591.414          51.000
E12  24717109.539 7 129889275.872 7     -2351.273          42.000    24717110.484 7  99525548.219 7     -1801.724          46.000
E19  23895082.938 7 125569507.571 7       311.988          45.000    23895083.539 7  96215601.556 7       239.089          47.000
E21  25130864.398 8 132063595.960 8      2226.539          51.000    25130865.758 8 101191615.757 8      1706.067          51.000
E27                                                                  25144591.078 6 101246861.969 6      -392.455          38.000
> 2020 05 07 02 07 30.0000000  0 14        .000000000000
G02  22866137.938 7 120162362.065 7     -1638.008          42.000    22866136.727 7  93633010.225 7     -1276.367          42.000
G07  20813199.727 8 109374096.586 8      -427.789          51.000    20813198.719 8  85226568.450 8      -333.342          51.000
G09  21985161.484 5 115532806.813 5     -2284.746          32.000    21985164.586 5  90025562.459 5     -1780.319          31.000
G30  20926567.445 8 109969862.644 8      1773.684          51.000    20926568.570 8  85690821.350 8      1382.094          51.000
R07  19523330.000 8 104509913.577 8       -86.332          51.000    19523331.633 7  81285513.526 7       -67.147          47.000
R09  19696628.148 8 105178888.688 8      1564.949          51.000    19696630.086 8  81805805.313 8      1217.183          51.000
R10  21548179.648 7 114863907.832 7      4058.211          46.000
R16  21754376.039 4 116207971.303 4     -3311.566          26.000
C05  39786369.375 5 207178065.266 5       -10.273          34.000    39786368.625 6 160203213.583 6        -7.956          40.000
C23  22570849.047 8 117532296.609 8      -607.992          51.000
E12  24730557.984 7 129959945.468 7     -2359.648          44.000    24730557.625 7  99579697.664 7     -1808.063          46.000
E19  23893319.266 7 125560240.221 7       305.746          46.000    23893319.914 7  96208500.602 7       234.348          47.000
E21  25118185.227 8 131996965.788 8      2215.680          51.000    25118186.508 8 101140561.500 8      1697.690          51.000
E27  25147589.328 6 132151447.085 6      -527.133          37.000
> 2020 05 07 02 08  0.0000000  0 13        .000000000000
G02  22875515.500 7 120211641.999 7     -1642.363          43.000    22875513.391 7  93671410.162 7     -1279.764          42.000
G07  20815673.484 8 109387095.378 8      -433.750          51.000    20815672.156 8  85236697.373 8      -337.987          51.000
G30  20916472.188 8 109916811.539 8      1767.957          51.000    20916473.141 8  85649482.841 8      1377.632          51.000
R07  19523840.695 8 104512646.915 8       -90.879          51.000    19523842.109 7  81287639.447 7       -70.684          47.000
R09  19687895.062 8 105132250.322 8      1549.234          51.000    19687896.141 8  81769531.034 8      1204.960          51.000
R10  21525363.086 7 114742279.852 7      4055.359          46.000
C05  39786415.891 5 207178306.718 5        -1.191          35.000    39786415.141 6 160203400.671 6         -.843          40.000
C20  22879929.688 4 119141822.445 4      1874.988          29.000
C23  22574384.906 8 117550709.047 8      -614.656          51.000
E12  24744039.258 7 130030789.281 7     -2358.172          44.000    24744038.211 7  99633980.593 7     -1806.941          46.000
E19  23891576.750 7 125551082.854 7       309.441          46.000    23891577.328 7  96201483.921 7       237.152          47.000
E21  25105553.438 8 131930585.165 8      2214.586          51.000    25105554.734 8 101089698.453 8      1696.908          51.000
E27  25150624.383 5 132167428.695 5      -532.520          34.000
> 2020 05 07 02 08 30.0000000  0 12        .000000000000
G02  22884968.469 7 120261316.867 7     -1670.258          45.000    22884965.703 7  93710117.827 7     -1301.500          43.000
G07  20818229.680 8 109400527.741 8      -462.707          51.000    20818228.477 8  85247164.168 8      -360.548          51.000
G30  20906458.539 8 109864189.838 8      1739.113          51.000    20906459.594 8  85608478.907 8      1355.153          51.000
R07  19524426.562 8 104515781.560 8      -119.160          51.000    19524427.516 7  81290077.507 7       -92.680          47.000
R09  19679299.875 8 105086347.979 8      1509.695          51.000    19679300.133 8  81733829.238 8      1174.211          51.000
R10  21502611.555 7 114620999.641 7      4028.969          46.000
C05  39786457.289 5 207178523.211 5       -14.559          34.000    39786456.516 6 160203567.303 6       -11.158          40.000
C23  22578008.336 8 117569577.628 8      -644.379          50.000
E12  24757560.344 7 130101844.502 7     -2379.828          44.000    24757559.484 7  99688425.507 7     -1823.469          46.000
E19  23889862.781 7 125542075.223 7       290.055          46.000    23889863.328 7  96194581.966 7       222.253          47.000
E21  25092976.742 8 131864494.996 8      2190.379          51.000    25092977.688 8 101039057.905 8      1678.471          51.000
E27  25153743.031 5 132183810.919 5      -560.711          33.000
> 2020 05 07 02 09  0.0000000  0 12        .000000000000
G02  22894541.023 7 120311619.619 7     -1677.953          45.000    22894538.336 7  93749314.748 7     -1307.496          42.000
G06  23595066.039 5 123992899.812 5     -3362.668          34.000    23595067.922 5  96617858.267 5     -2620.258          34.000
G07  20820912.945 8 109414627.566 8      -471.801          51.000    20820911.531 8  85258151.052 8      -367.637          51.000
G30  20896571.422 8 109812233.534 8      1730.047          51.000    20896572.797 8  85567993.461 8      1348.088          51.000
R07  19525132.102 8 104519557.916 8      -127.129          51.000    19525133.016 8  81293014.675 8       -98.878          48.000
R09  19670887.141 8 105041422.291 8      1490.641          51.000    19670886.969 8  81698887.072 8      1159.387          51.000
R10  21479970.336 7 114500308.762 7      4022.695          46.000
C05  39786538.320 5 207178945.723 5        -8.027          34.000    39786537.562 6 160203893.657 6        -6.385          40.000
C23  22581763.867 8 117589134.402 8      -654.223          49.000
E12  24771165.703 7 130173344.204 7     -2381.523          43.000    24771165.602 7  99743211.018 7     -1824.759          45.000
E19  23888222.117 7 125533452.606 7       290.211          46.000    23888222.688 8  96187975.013 8       222.420          48.000
E21  25080499.180 8 131798932.001 8      2185.859          48.000    25080501.320 8 100988821.285 8      1674.906          51.000
> 2020 05 07 02 09 30.0000000  0 12        .000000000000
G02  22904160.312 7 120362167.602 7     -1692.148          46.000    22904158.359 7  93788702.797 7     -1318.557          43.000
G06  23614281.812 5 124093863.300 5     -3368.848          32.000    23614280.602 5  96696531.149 5     -2625.073          31.000
G07  20823650.570 8 109429013.387 8      -487.496          51.000    20823648.875 8  85269360.787 8      -379.867          51.000
G30  20886738.578 8 109760562.979 8      1714.336          51.000    20886740.188 8  85527730.701 8      1335.849          51.000
R07  19525885.188 8 104523589.741 8      -141.914          51.000    19525886.328 8  81296150.545 8      -110.378          48.000
R09  19662584.859 8 104997088.473 8      1464.707          51.000    19662584.703 8  81664405.242 8      1139.217          51.000
R10  21457368.117 7 114379825.629 7      4009.234          46.000
C05                                                                  39786585.836 6 160204088.248 6        -6.802          40.000
C23  22585579.164 8 117609001.398 8      -670.559          49.000
E12  24784782.844 7 130244905.845 7     -2389.547          43.000    24784783.758 7  99798044.001 7     -1830.877          45.000
E19  23886582.430 7 125524835.140 7       284.023          46.000    23886583.000 8  96181372.016 8       217.652          48.000
E21  25068050.227 8 131733517.250 8      2174.840          49.000    25068053.156 8 100938698.250 8      1666.418          51.000
> 2020 05 07 02 10  0.0000000  0 12        .000000000000
G02  22913867.617 7 120413178.965 7     -1709.770          45.000    22913865.938 7  93828451.919 7     -1332.288          44.000
G07  20826484.227 8 109443904.131 8      -506.594          51.000    20826482.680 8  85280963.976 8      -394.748          51.000
G09  22050798.875 6 115877731.481 6     -2318.027          36.000    22050800.367 6  90294336.305 6     -1806.258          36.000
G30  20877002.336 8 109709399.335 8      1695.227          51.000    20877003.766 8  85487862.938 8      1320.956          51.000
R07  19526728.273 8 104528102.676 8      -160.254          51.000    19526729.664 8  81299660.585 8      -124.645          48.000
R09  19654435.133 8 104953571.599 8      1435.148          51.000    19654435.359 8  81630558.785 8      1116.227          51.000
R10  21434847.172 7 114259777.057 7      3992.570          46.000
C05  39786644.219 5 207179496.737 5       -12.426          35.000    39786643.320 6 160204319.744 6        -9.808          40.000
C23  22589495.898 8 117629395.982 8      -690.363          48.000
E12  24798453.672 7 130316747.735 7     -2401.312          44.000    24798455.203 7  99853091.681 7     -1839.922          45.000
E19  23884985.609 7 125516443.367 7       274.219          46.000    23884986.172 8  96174941.954 8       210.143          48.000
E21  25055672.430 8 131668472.517 8      2160.172          50.000    25055675.383 8 100888858.792 8      1655.161          51.000
> 2020 05 07 02 10 30.0000000  0 14        .000000000000
G02  22923653.555 7 120464602.656 7     -1720.145          46.000    22923651.328 7  93868522.338 7     -1340.372          44.000
G06  23652814.984 5 124296380.643 5     -3378.730          34.000
G07  20829404.594 8 109459250.022 8      -518.293          51.000    20829402.906 8  85292921.843 8      -403.862          51.000
G09  22064037.453 5 115947299.083 5     -2322.199          33.000    22064036.898 5  90348544.852 5     -1809.509          34.000
G30  20867353.461 8 109658694.530 8      1683.441          51.000    20867354.750 8  85448352.736 8      1311.776          51.000
R07  19527652.352 8 104533047.747 8      -171.129          51.000    19527653.047 8  81303506.747 8      -133.100          48.000
R09  19646429.219 8 104910823.875 8      1413.031          51.000    19646429.930 8  81597310.535 8      1099.024          51.000
R10  21412399.453 7 114140117.886 7      3983.012          46.000
C05  39786701.570 5 207179794.952 5        -8.992          34.000    39786700.711 6 160204550.714 6        -7.056          40.000
C23  22593504.180 7 117650268.657 7      -702.719          47.000
E12  24812168.625 7 130388818.835 7     -2405.227          44.000    24812169.602 7  99908314.976 7     -1843.047          44.000
E19  23883422.469 7 125508228.723 7       271.793          46.000    23883422.969 8  96168647.628 8       208.236          48.000
E21  25043356.734 8 131603750.546 8      2152.891          51.000    25043358.875 8 100839266.634 8      1649.638          51.000
E27  25167148.391 6 132254251.218 6      -614.500          36.000
> 2020 05 07 02 11  0.0000000  0 15        .000000000000
G02  22933512.156 7 120516409.280 7     -1733.816          47.000    22933509.320 7  93908891.100 7     -1351.026          44.000
G06  23672119.289 6 124397837.668 6     -3385.094          36.000    23672117.359 6  96933368.900 6     -2637.745          36.000
G07  20832406.148 8 109475022.839 8      -533.461          51.000    20832404.234 8  85305212.358 8      -415.684          51.000
G09  22077305.945 6 116017026.766 6     -2327.906          36.000    22077303.297 6  90402878.763 6     -1813.956          36.000
G30  20857786.844 8 109608421.753 8      1667.918          51.000    20857788.055 8  85409179.186 8      1299.676          51.000
R07  19528652.070 8 104538397.882 8      -185.727          51.000    19528652.234 8  81307667.957 8      -144.454          48.000
R09  19638562.781 8 104868818.615 8      1387.113          51.000    19638563.695 8  81564639.732 8      1078.866          51.000
R10  21390020.453 7 114020823.771 7      3969.699          47.000
C05  39786753.477 5 207180065.422 5        -9.203          35.000    39786752.664 6 160204759.852 6        -7.147          40.000
C20  22816246.602 4 118810208.912 4      1820.102          27.000
C23  22597599.148 7 117671591.034 7      -718.879          46.000
E12  24825921.602 7 130461089.406 7     -2413.035          45.000    24825921.398 7  99963691.114 7     -1848.922          44.000
E19  23881887.820 7 125500163.880 7       265.656          46.000    23881888.219 8  96162468.068 8       203.474          48.000
E21  25031097.500 8 131539325.253 8      2141.848          51.000    25031099.102 8 100789901.817 8      1641.093          51.000
E27  25170697.234 6 132272888.471 6      -629.652          40.000
> 2020 05 07 02 11 30.0000000  0 13        .000000000000
G02  22943452.344 7 120568644.812 7     -1747.402          47.000    22943449.086 7  93949594.080 7     -1361.612          44.000
G06  23691457.273 6 124499467.206 6     -3389.902          36.000    23691455.359 6  97012560.742 6     -2641.482          36.000
G07  20835498.000 8 109491270.057 8      -548.410          51.000    20835496.148 8  85317872.532 8      -427.333          51.000
G09  22090614.797 6 116086964.170 6     -2333.250          37.000    22090611.867 6  90457375.446 6     -1818.117          36.000
G30  20848311.906 8 109558630.295 8      1652.703          51.000    20848313.000 8  85370380.665 8      1287.821          51.000
R07  19529736.359 8 104544203.361 8      -200.148          51.000    19529736.844 8  81312183.319 8      -155.671          48.000
R09  19630844.734 8 104827606.260 8      1361.562          51.000    19630845.578 8  81532585.679 8      1058.993          50.000
R10  21367719.828 7 113901947.795 7      3956.535          47.000
C05  39786809.289 5 207180355.737 5        -8.965          35.000    39786808.414 6 160204984.368 6        -6.956          40.000
C23  22601789.750 7 117693410.173 7      -734.434          44.000
E12  24839721.359 7 130533605.829 7     -2420.258          45.000    24839720.086 7 100019255.642 7     -1854.483          44.000
E19  23880390.922 7 125492297.503 7       259.770          47.000    23880391.250 8  96156440.584 8       199.101          49.000
E21  25018903.875 8 131475246.608 8      2131.188          51.000    25018905.664 8 100740802.627 8      1632.940          51.000
> 2020 05 07 02 12  0.0000000  0 14        .000000000000
G02  22953467.578 7 120621276.866 7     -1760.930          46.000    22953464.633 7  93990606.090 7     -1372.153          45.000
G06  23710822.188 6 124601235.825 6     -3394.539          37.000    23710822.180 5  97091860.876 5     -2645.098          33.000
G07  20838674.094 8 109507959.860 8      -563.633          51.000    20838672.328 8  85330877.579 8      -439.194          51.000
G09  22103957.703 5 116157080.876 5     -2340.262          33.000    22103956.633 5  90512003.989 5     -1823.578          32.000
G30  20838922.891 8 109509290.933 8      1637.176          51.000    20838924.031 8  85331934.427 8      1275.721          51.000
R07  19530900.312 8 104550434.861 8      -214.723          51.000    19530901.141 8  81317030.032 8      -167.010          48.000
R09  19623270.258 8 104787158.123 8      1335.602          51.000    19623270.664 8  81501125.998 8      1038.801          50.000
R10  21345492.609 7 113783462.829 7      3943.180          47.000
C05  39786863.164 5 207180636.253 5        -9.004          35.000    39786862.289 6 160205201.285 6        -7.277          40.000
C20  22795369.828 4 118701464.949 4      1804.852          29.000
C23  22606069.719 7 117715695.232 7      -750.336          42.000
E12  24853561.828 7 130606336.041 7     -2427.852          45.000    24853559.828 7 100074983.945 7     -1860.284          45.000
E19  23878926.242 7 125484600.084 7       253.816          46.000    23878926.492 8  96150542.550 8       194.540          49.000
E21  25006770.594 8 131411486.223 8      2120.137          50.000    25006772.891 8 100691947.267 8      1624.484          51.000
> 2020 05 07 02 12 30.0000000  0 15        .000000000000
G02  22963561.672 7 120674325.207 7     -1774.195          45.000    22963559.641 7  94031942.456 7     -1382.490          45.000
G06  23730217.219 6 124703161.982 6     -3399.324          37.000    23730208.812 5  97171237.167 5     -2648.824          31.000
G07  20841938.078 8 109525112.929 8      -578.496          51.000    20841936.469 8  85344243.625 8      -450.776          51.000
G09  22117338.094 5 116227395.660 5     -2346.129          33.000    22117336.414 5  90566794.667 5     -1828.146          31.000
G30  20829624.188 8 109460426.019 8      1621.910          51.000    20829625.438 8  85293857.895 8      1263.826          51.000
R07  19532148.078 8 104557115.508 8      -229.184          51.000    19532149.117 8  81322226.087 8      -178.254          48.000
R09  19615843.133 8 104747497.721 8      1309.750          51.000    19615843.367 8  81470279.047 8      1018.694          48.000
R10  21323343.734 7 113665395.162 7      3929.648          47.000
C05  39786919.297 5 207180928.249 5        -8.762          34.000    39786918.352 6 160205427.060 6        -6.814          40.000
C20  22785001.633 5 118647457.110 5      1797.535          31.000
C23  22610443.195 6 117738466.682 6      -766.070          41.000
E12  24867446.836 7 130679299.548 7     -2434.934          45.000    24867444.438 7 100130891.035 7     -1865.836          45.000
E19  23877497.781 7 125477093.579 7       247.977          47.000    23877498.055 8  96144790.800 8       190.047          49.000
E21  24994701.961 8 131348067.157 8      2109.277          50.000    24994705.461 8 100643353.468 8      1616.170          51.000
E27  25181835.047 6 132331439.956 6      -673.492          38.000    25181834.094 5 101396815.106 5      -516.331          35.000
> 2020 05 07 02 13  0.0000000  0 15        .000000000000
G02  22973728.789 7 120727755.054 7     -1787.824          47.000    22973727.031 7  94073576.101 7     -1393.110          44.000
G06  23749635.391 5 124805175.681 5     -3405.312          35.000
G07  20845283.961 8 109542695.924 8      -593.812          51.000    20845282.406 8  85357944.630 8      -462.711          51.000
G09  22130750.578 5 116297876.468 5     -2352.809          33.000    22130748.445 5  90621714.805 5     -1833.354          32.000
G30  20820409.891 8 109412003.933 8      1606.090          51.000    20820411.203 8  85256126.421 8      1251.499          51.000
R07  19533473.984 8 104564213.259 8      -244.191          51.000    19533475.117 8  81327746.547 8      -189.927          48.000
R09  19608557.398 8 104708593.359 8      1283.609          51.000    19608556.602 7  81440020.146 7       998.363          45.000
R10  21301267.742 7 113547715.845 7      3915.562          47.000
C05  39786971.352 5 207181199.657 5        -9.430          34.000    39786970.430 6 160205636.940 6        -7.243          40.000
C20  22774671.648 5 118593662.509 5      1789.184          31.000
C23  22614903.750 7 117761691.386 7      -782.312          42.000
E12  24881369.539 7 130752461.883 7     -2442.566          44.000    24881367.305 7 100186950.503 7     -1871.694          45.000
E19  23876099.523 8 125469746.029 8       241.664          48.000    23876099.812 8  96139160.865 8       185.093          49.000
E21  24982692.695 8 131284958.615 8      2097.785          50.000    24982696.812 8 100594997.580 8      1607.433          51.000
E27  25185721.172 6 132351861.806 6      -688.441          39.000    25185721.547 5 101412462.984 5      -527.411          35.000
> 2020 05 07 02 13 30.0000000  0 13        .000000000000
G02  22983978.383 8 120781615.288 8     -1800.535          49.000    22983976.055 7  94115545.088 7     -1403.014          44.000
G06  23769085.586 5 124907391.102 5     -3408.035          34.000    23769104.852 5  97330506.952 5     -2655.609          31.000
G07  20848721.055 8 109560758.661 8      -608.008          51.000    20848719.914 8  85372019.490 8      -473.772          51.000
G30  20811289.578 8 109364076.311 8      1591.281          51.000    20811290.766 8  85218780.244 8      1239.959          51.000
R07  19534887.781 8 104571780.949 8      -258.004          51.000    19534888.914 8  81333632.522 8      -200.670          48.000
R09  19601423.266 8 104670497.840 8      1258.395          51.000    19601421.062 7  81410390.336 7       978.754          45.000
R10  21279274.781 8 113430479.637 8      3902.559          48.000
C05                                                                  39787028.289 6 160205869.800 6        -6.491          40.000
C23  22619460.594 7 117785418.656 7      -797.230          42.000
E12  24895339.008 7 130825871.817 7     -2448.957          43.000    24895337.289 7 100243199.659 7     -1876.477          45.000
E19  23874741.250 7 125462608.490 7       236.523          47.000    23874741.445 8  96133691.832 8       181.286          49.000
E21  24970752.633 8 131222212.950 8      2087.652          51.000    24970756.453 8 100546919.731 8      1599.585          51.000
E27  25189695.750 6 132372751.727 6      -702.293          36.000    25189698.219 5 101428469.554 5      -537.728          35.000
> 2020 05 07 02 14  0.0000000  0 13        .000000000000
G02  22994294.742 8 120835826.101 8     -1814.133          48.000    22994291.562 7  94157787.246 7     -1413.613          43.000
G06  23788552.797 5 125009691.857 5     -3413.227          33.000    23788571.484 5  97410227.335 5     -2659.657          33.000
G07  20852234.555 8 109579222.923 8      -623.504          51.000    20852233.734 8  85386407.229 8      -485.847          51.000
G30  20802248.609 8 109316566.949 8      1575.355          51.000    20802249.688 8  85181759.978 8      1227.550          51.000
R07  19536374.719 8 104579741.175 8      -273.168          51.000    19536375.961 8  81339823.807 8      -212.464          48.000
R09  19594425.977 8 104633134.425 8      1231.930          51.000    19594424.484 7  81381329.973 7       958.171          47.000
R10  21257350.906 7 113313612.835 7      3888.051          47.000
C05                                                                  39787077.164 6 160206066.684 6        -7.011          40.000
C23  22624098.242 7 117809571.154 7      -813.496          42.000
E12  24909340.266 7 130899450.329 7     -2456.902          44.000    24909339.227 7 100299577.984 7     -1882.502          46.000
E19  23873408.273 7 125455604.431 7       229.988          47.000    23873408.453 8  96128325.087 8       176.141          49.000
E21  24958867.391 8 131159754.744 8      2075.801          51.000    24958870.531 8 100499062.151 8      1590.558          51.000
E27  25193745.508 5 132394032.111 5      -717.367          35.000    25193748.148 5 101444775.315 5      -549.650          35.000
> 2020 05 07 02 14 30.0000000  0 13        .000000000000
G02  23004688.539 7 120890445.215 7     -1827.980          47.000    23004684.961 7  94200347.611 7     -1424.400          44.000
G06  23808048.281 5 125112145.420 5     -3417.348          34.000    23808068.547 5  97490061.306 5     -2662.880          34.000
G07  20855835.625 8 109598146.919 8      -638.973          51.000    20855834.734 8  85401153.186 8      -497.901          51.000
G30  20793298.383 8 109269535.821 8      1559.211          51.000    20793299.711 8  85145112.368 8      1214.970          51.000
R07  19537946.727 8 104588155.422 8      -288.625          51.000    19537948.008 7  81346368.209 7      -224.486          47.000
R09  19587577.586 8 104596564.516 8      1205.230          51.000    19587577.039 8  81352886.721 8       937.405          49.000
R10  21235508.055 7 113197179.387 7      3873.297          47.000
C05  39787129.234 5 207182022.242 5        -9.824          34.000    39787128.352 6 160206273.035 6        -7.491          40.000
C23  22628827.641 7 117834206.456 7      -829.812          43.000
E12  24923384.461 7 130973254.531 7     -2464.516          43.000    24923383.930 7 100356129.234 7     -1888.183          45.000
E19  23872112.016 7 125448793.543 7       223.402          47.000    23872112.211 8  96123106.339 8       171.083          49.000
E21  24947048.508 8 131097644.749 8      2064.039          51.000    24947050.445 8 100451471.363 8      1581.521          51.000
E27                                                                  25197881.852 5 101461425.073 5      -561.236          34.000
> 2020 05 07 02 15  0.0000000  0 13        .000000000000
G02  23015158.547 8 120945466.319 8     -1840.363          48.000    23015155.336 7  94243221.182 7     -1434.049          44.000
G06  23827570.547 5 125214738.056 5     -3421.250          33.000    23827590.375 4  97570003.755 4     -2665.900          27.000
G07  20859523.344 8 109617526.069 8      -653.191          51.000    20859522.570 8  85416253.820 8      -508.980          51.000
G30  20784438.773 8 109222979.981 8      1544.219          51.000    20784440.375 8  85108835.102 8      1203.287          51.000
R07  19539602.859 8 104597020.634 8      -302.715          51.000    19539604.031 7  81353263.372 7      -235.445          47.000
R09  19580877.188 8 104560785.695 8      1179.773          51.000    19580877.266 8  81325058.743 8       917.602          50.000
R10  21213746.367 8 113081179.031 8      3859.719          48.000
C05                                                                  39787181.234 6 160206485.974 6        -7.095          40.000
C23  22633649.711 7 117859319.870 7      -844.617          45.000
E12  24937470.523 7 131047278.695 7     -2470.809          43.000    24937470.297 7 100412849.054 7     -1893.289          45.000
E19  23870851.828 7 125442172.409 7       217.730          47.000    23870852.117 8  96118032.991 8       166.874          49.000
E21  24935295.289 8 131035880.777 8      2053.254          51.000    24935296.219 8 100404145.725 8      1573.255          51.000
E27  25202097.797 6 132437927.268 6      -746.523          38.000    25202100.625 5 101478415.442 5      -571.841          35.000
> 2020 05 07 02 15 30.0000000  0 13        .000000000000
G02  23025698.211 8 121000851.888 8     -1853.188          49.000    23025695.102 7  94286378.743 7     -1444.042          44.000
G06  23847112.016 5 125317418.852 5     -3425.352          32.000    23847130.055 5  97650025.013 5     -2669.099          34.000
G07  20863290.727 8 109637323.517 8      -667.758          51.000    20863289.922 8  85431680.412 8      -520.331          51.000
G30  20775663.531 8 109176864.672 8      1528.855          51.000    20775665.062 8  85072901.101 8      1191.316          51.000
R07  19541336.602 8 104606302.245 8      -317.238          51.000    19541337.875 7  81360482.413 7      -246.741          47.000
R09  19574318.664 8 104525763.202 8      1153.867          51.000    19574319.211 8  81297819.022 8       897.452          51.000
R10  21192060.453 8 112965579.942 8      3845.602          49.000
C05                                                                  39787228.992 6 160206678.320 6        -6.950          40.000
C23  22638557.445 7 117884875.186 7      -860.211          47.000
E12  24951591.500 7 131121485.297 7     -2477.504          44.000    24951591.586 7 100469708.631 7     -1898.443          46.000
E19  23869621.133 7 125435705.990 7       212.004          47.000    23869621.531 8  96113078.193 8       162.421          49.000
E21  24923601.344 8 130974428.890 8      2042.195          51.000    24923601.672 8 100357059.204 8      1564.793          51.000
E27  25206396.336 6 132460509.618 6      -760.461          38.000    25206400.484 6 101495718.805 6      -582.760          36.000
> 2020 05 07 02 16  0.0000000  0 15        .000000000000
G02  23036315.922 8 121056646.794 8     -1865.738          51.000    23036312.508 7  94329855.260 7     -1453.822          44.000
G06  23866680.758 5 125420254.425 5     -3429.152          30.000    23866697.039 5  97730142.068 5     -2672.064          32.000
G07  20867146.500 8 109657585.155 8      -682.312          51.000    20867145.320 8  85447468.690 8      -531.672          51.000
G09  22211957.086 5 116724617.866 5     -2388.336          35.000    22211960.961 5  90954250.417 5     -1861.041          35.000
G30  20766981.312 8 109131237.857 8      1513.590          51.000    20766982.664 8  85037347.755 8      1179.421          51.000
R07  19543157.180 8 104616049.210 8      -331.750          50.000    19543158.469 7  81368063.392 7      -258.028          47.000
R09  19567910.922 8 104491546.159 8      1127.977          51.000    19567912.086 8  81271205.764 8       877.312          51.000
R10  21170459.398 8 112850432.989 8      3831.445          49.000
C05  39787281.586 5 207182815.309 5        -8.488          34.000    39787280.648 6 160206886.269 6        -6.506          40.000
C20  22713640.680 4 118275894.458 4      1742.664          28.000
C23  22643558.906 8 117910918.107 8      -875.312          48.000
E12  24965755.922 7 131195919.513 7     -2484.191          44.000    24965756.312 7 100526742.629 7     -1903.468          46.000
E19  23868429.070 7 125429442.044 7       206.160          47.000    23868429.688 8  96108278.534 8       157.979          50.000
E21  24911975.977 8 130913337.879 8      2031.168          51.000    24911976.719 8 100310249.211 8      1556.308          51.000
E27  25210781.859 5 132483546.896 5      -774.789          35.000    25210786.156 6 101513370.763 6      -593.634          36.000
> 2020 05 07 02 16 30.0000000  0 15        .000000000000
G02  23047006.055 8 121112822.784 8     -1878.949          51.000    23047002.141 7  94373628.767 7     -1464.116          43.000
G06  23886272.117 5 125523207.054 5     -3433.363          30.000    23886284.547 4  97810365.736 4     -2675.345          29.000
G07  20871085.383 8 109678284.014 8      -697.305          51.000    20871084.250 8  85463597.685 8      -543.354          51.000
G09  22225613.219 4 116796385.891 4     -2395.164          29.000    22225621.242 5  91010169.592 5     -1866.371          31.000
G30  20758387.211 8 109086074.099 8      1497.738          51.000    20758388.398 8  85002155.232 8      1167.069          51.000
R07  19545060.203 8 104626235.838 8      -346.930          50.000    19545061.508 7  81375986.308 7      -269.834          46.000
R09  19561649.305 8 104458109.191 8      1101.555          51.000    19561650.602 8  81245199.205 8       856.765          51.000
R10  21148939.141 8 112735716.835 8      3816.645          48.000
C05  39787332.148 5 207183078.675 5        -8.883          34.000    39787331.297 6 160207089.938 6        -6.727          40.000
C20  22703635.406 4 118223786.934 4      1733.086          29.000
C23  22648648.688 8 117937421.671 8      -891.191          48.000
E12  24979958.398 7 131270553.172 7     -2491.230          44.000    24979958.969 7 100583929.442 7     -1908.715          46.000
E19  23867270.734 8 125423354.845 8       199.930          48.000    23867271.602 8  96103614.299 8       153.274          50.000
E21  24900414.336 8 130852583.128 8      2019.426          50.000    24900415.766 8 100263696.863 8      1547.424          51.000
E27  25215247.930 5 132507012.215 5      -789.477          34.000    25215249.711 5 101531350.651 5      -604.675          35.000
> 2020 05 07 02 17  0.0000000  0 14        .000000000000
G02  23057767.805 8 121169376.391 8     -1891.676          50.000    23057764.062 7  94417696.509 7     -1474.033          45.000
G07  20875107.008 8 109699417.678 8      -711.953          51.000    20875105.961 8  85480065.481 8      -554.769          51.000
G09  22239302.984 5 116868323.880 5     -2400.723          35.000    22239309.172 5  91066225.127 5     -1870.693          35.000
G30  20749881.359 8 109041373.074 8      1482.035          51.000    20749882.328 8  84967323.238 8      1154.830          51.000
