     3.02           OBSERVATION DATA    M (MIXED)           RINEX VERSION / TYPE
SAVERINEX           SC600               20200501 075931 LCL PGM / RUN BY / DATE
       G = GPS       R = GLONASS       C = COMPASS          COMMENT
       S = SBAS      J = QZSS          E = GALILEO          COMMENT
BEAN                                                        MARKER NAME
1                                                           MARKER NUMBER
GEODETIC                                                    MARKER TYPE
Unige DICCA         GTER                                    OBSERVER / AGENCY
SC60291900056       SC600               2.12(191226)        REC # / TYPE / VERS
                    HEMA45          NONE                    ANT # / TYPE
  4509407.8091   693652.4678  4442337.6214                  APPROX POSITION XYZ
        0.0000        0.0000        0.0000                  ANTENNA: DELTA H/E/N
G    8 C1C L1C D1C S1C C2Y L2Y D2Y S2Y                      SYS / # / OBS TYPES
R    8 C1C L1C D1C S1C C2P L2P D2P S2P                      SYS / # / OBS TYPES
C    8 C1I L1I D1I S1I C7I L7I D7I S7I                      SYS / # / OBS TYPES
E    8 C1C L1C D1C S1C C7Q L7Q D7Q S7Q                      SYS / # / OBS TYPES
DBHZ                                                        COMMENT
     30.000                                                 INTERVAL
  2020    05    01    05    00    0.0000000     GPS         TIME OF FIRST OBS
  2020    05    01    05    59   30.0000000     GPS         TIME OF LAST OBS
     0                                                      RCV CLOCK OFFS APPL
G L1C  0.00000                                              SYS / PHASE SHIFT
G L2Y  0.00000                                              SYS / PHASE SHIFT
R L1C  0.00000                                              SYS / PHASE SHIFT
R L2P  0.25000                                              SYS / PHASE SHIFT
C L1I  0.00000                                              SYS / PHASE SHIFT
C L7I  0.00000                                              SYS / PHASE SHIFT
E L1C  0.50000                                              SYS / PHASE SHIFT
E L7Q -0.25000                                              SYS / PHASE SHIFT
 13 R01  1 R02 -4 R03  5 R07  5 R08  6 R10 -5 R11  0 R12 -1 GLONASS SLOT / FRQ #
    R13 -2 R14 -7 R21  4 R22 -3 R23  3                      GLONASS SLOT / FRQ #
 C1C   71.950 C2C   71.950 C2P   71.950                     GLONASS COD/PHS/BIS
    18                                                      LEAP SECONDS
*** Above antenna height is from mark to ANTENNA BOTTOM.    COMMENT
    17     4        0.0000        ANT MEASURE TYPE/HEIGT    COMMENT
    0.0000    0.0000    0.0458    0.0405    0.0000          COMMENT
                    BASE STATION                            COMMENT
                                                            END OF HEADER
> 2020 05 01 05 00  0.0000000  0 13        .000000000000
G05  21863872.703 8 114895423.667 8     -2743.285          50.000    21863871.852 8  89528901.462 8     -2137.625          50.000
G13  20359446.242 6 106989596.894 6       968.367          38.000    20359439.891 5  83368498.504 5       754.578          35.000
G28  20897804.250 8 109818713.734 8       364.457          51.000    20897802.078 7  85573062.466 7       283.992          47.000
G30  21610220.094 5 113562473.964 5     -2160.352          35.000    21610222.906 6  88490232.714 6     -1683.388          36.000
R02  19498577.547 8 104048136.285 8     -1849.199          51.000    19498582.867 8  80926359.205 8     -1438.266          51.000
R12  19767572.352 7 105594847.755 7     -2121.270          44.000    19767576.625 6  82129361.807 6     -1649.873          39.000
R13  19845971.297 6 105976383.707 6      1964.672          40.000    19845973.703 7  82426048.160 7      1528.078          44.000
C05  39776848.695 5 207128488.261 5         8.016          35.000    39776848.328 6 160164875.321 6         6.135          40.000
C23  22124832.750 8 115209835.346 8     -1092.492          51.000
E07  25903338.602 8 136122921.953 8     -2399.754          51.000    25903340.688 7 104302003.560 7     -1838.787          45.000
E21  25407161.594 8 133515609.117 8      2541.156          49.000    25407162.250 8 102304117.067 8      1947.141          51.000
E27  23317562.797 8 122534639.301 8        22.402          51.000    23317565.234 8  93890163.387 8        17.174          51.000
E30  24877686.250 5 130733118.200 5     -2453.523          35.000
> 2020 05 01 05 00 30.0000000  0 13        .000000000000
G05  21879565.469 8 114977893.979 8     -2754.004          50.000    21879566.430 8  89593164.067 8     -2145.977          50.000
G13  20353948.242 6 106960703.624 6       958.805          40.000    20353942.320 5  83345984.315 5       747.124          32.000
G28  20895773.453 8 109808041.817 8       347.809          51.000    20895771.320 8  85564746.696 8       271.020          48.000
G30  21622567.469 5 113627362.649 5     -2164.859          35.000    21622572.031 6  88540795.362 6     -1686.900          36.000
R02  19509031.133 8 104103914.529 8     -1868.578          51.000    19509035.898 8  80969742.258 8     -1453.339          51.000
R12  19779528.078 7 105658712.067 7     -2135.277          43.000    19779531.141 6  82179034.006 6     -1660.774          37.000
R13  19834984.078 6 105917711.221 6      1947.555          39.000    19834986.508 7  82380413.968 7      1514.765          45.000
C05  39776797.586 5 207128221.841 5        10.605          35.000    39776797.422 6 160164670.065 6         7.905          40.000
C23  22131154.500 8 115242753.375 8     -1101.156          51.000
E07  25917052.531 8 136194985.694 8     -2403.793          51.000    25917052.227 7 104357221.167 7     -1841.787          45.000
E21  25392672.750 8 133439471.492 8      2535.418          49.000    25392673.469 8 102245777.824 8      1942.774          51.000
E27  23317467.547 8 122534140.799 8        11.641          51.000    23317470.250 8  93889781.400 8         8.895          51.000
E30  24891707.750 6 130806796.274 6     -2457.480          37.000
> 2020 05 01 05 01  0.0000000  0 14        .000000000000
G05  21895284.617 8 115060499.854 8     -2766.004          51.000    21895286.656 8  89657532.302 8     -2155.328          51.000
G07  24220714.469 5 127280704.788 5     -2861.320          30.000    24220714.938 4  99179767.048 4     -2229.591          26.000
G13  20348470.539 6 106931917.402 6       947.332          37.000    20348466.070 6  83323553.479 6       738.178          36.000
G28  20893802.117 8 109797682.820 8       329.773          51.000    20893800.320 8  85556674.769 8       256.969          48.000
G30  21634911.289 4 113692225.739 4     -2173.121          29.000    21634915.750 4  88591341.351 4     -1693.335          26.000
R02  19519558.703 8 104160087.842 8     -1889.426          51.000    19519562.984 8  81013432.598 8     -1469.553          51.000
R12  19791527.250 7 105722810.303 7     -2151.074          44.000    19791530.398 6  82228888.179 6     -1673.058          39.000
R13  19824057.227 6 105859364.676 6      1928.770          37.000    19824059.961 7  82335033.292 7      1500.154          44.000
C05  39776698.727 5 207127706.994 5        10.949          35.000    39776698.820 6 160164272.729 6         8.482          40.000
C23  22137490.625 8 115275746.867 8     -1111.195          51.000
E07  25930753.961 8 136266984.391 8     -2409.098          51.000    25930752.562 7 104412388.899 7     -1845.917          45.000
E21  25378181.656 8 133363320.878 8      2528.266          50.000    25378182.477 8 102187428.635 8      1937.284          51.000
E27  23317398.625 8 122533780.713 8         -.484          51.000    23317401.773 8  93889505.470 8         -.389          51.000
E30  24905716.312 6 130880403.938 6     -2462.078          37.000
> 2020 05 01 05 01 30.0000000  0 13        .000000000000
G05  21911148.945 8 115143865.414 8     -2793.137          51.000    21911150.961 8  89722492.482 8     -2176.470          51.000
G13  20343132.156 6 106903866.294 6       921.367          38.000    20343128.352 6  83301695.431 6       717.948          36.000
G28  20892009.641 8 109788263.885 8       296.660          51.000    20892008.461 8  85549335.359 8       231.164          48.000
G30  21647371.398 5 113757695.178 5     -2193.898          34.000    21647372.414 5  88642370.396 5     -1709.531          35.000
R02  19530278.977 8 104217291.662 8     -1925.574          51.000    19530283.039 8  81057924.408 8     -1497.672          51.000
R12  19803689.430 7 105787776.651 7     -2181.590          44.000    19803692.852 6  82279417.538 6     -1696.795          38.000
R13  19813310.711 6 105801982.003 6      1895.199          38.000    19813313.336 7  82290402.331 7      1474.044          43.000
C05                                                                  39776671.664 6 160164163.643 6        -2.404          40.000
C23  22143960.172 8 115309435.658 8     -1136.172          51.000
E07  25944562.234 8 136339544.343 8     -2429.621          51.000    25944560.531 7 104467986.718 7     -1861.724          47.000
E21  25363807.781 8 133287785.129 8      2505.945          50.000    25363809.023 8 102129550.574 8      1920.140          51.000
E27  23317475.062 8 122534185.323 8       -27.824          50.000    23317478.797 8  93889815.496 8       -21.374          51.000
E30  24919830.281 5 130954566.527 5     -2483.039          34.000
> 2020 05 01 05 02  0.0000000  0 14        .000000000000
G05  21927017.914 8 115227254.203 8     -2785.898          51.000    21927019.281 8  89787470.747 8     -2170.830          51.000
G13  20337794.219 6 106875817.802 6       928.824          40.000    20337790.680 5  83279839.423 5       723.756          34.000
G28  20890256.289 8 109779051.392 8       297.781          51.000    20890255.617 8  85542156.779 8       232.037          49.000
G30  21659805.195 6 113823033.569 6     -2181.445          38.000    21659805.883 6  88693283.408 6     -1699.828          38.000
R02  19541052.125 8 104274780.218 8     -1926.941          51.000    19541056.203 8  81102637.679 8     -1498.732          49.000
R12  19815873.539 7 105852862.125 7     -2177.516          43.000    19815877.102 6  82330039.559 6     -1693.623          39.000
R13  19802605.406 6 105744818.202 6      1895.848          38.000    19802607.727 7  82245941.630 7      1474.551          43.000
C05  39776576.523 5 207127071.166 5        16.492          35.000    39776576.562 6 160163780.638 6        12.819          41.000
C23  22150423.484 8 115343091.408 8     -1127.082          51.000
C25  25541943.672 5 133003613.392 5     -2932.250          32.000
E07  25958337.438 8 136411931.189 8     -2415.855          51.000    25958336.906 8 104523451.908 8     -1851.137          49.000
E21  25349411.297 8 133212131.529 8      2517.914          50.000    25349413.430 8 102071582.214 8      1929.287          51.000
E27  23317557.391 8 122534620.305 8       -20.887          51.000    23317561.258 8  93890148.780 8       -15.977          51.000
E30  24933908.594 5 131028574.667 5     -2469.031          33.000
> 2020 05 01 05 02 30.0000000  0 14        .000000000000
G05  21943011.297 8 115311297.079 8     -2805.219          51.000    21943011.898 8  89852958.677 8     -2185.885          51.000
G13  20332577.898 6 106848406.441 6       910.039          41.000    20332574.789 6  83258479.939 6       709.121          36.000
G28  20888662.508 8 109770678.204 8       272.137          50.000    20888662.273 8  85535632.211 8       212.055          49.000
G30  21672333.414 6 113888872.336 6     -2195.906          39.000    21672335.055 6  88744586.351 6     -1711.096          39.000
R02  19551998.648 8 104333195.195 8     -1955.449          50.000    19552002.633 8  81148071.543 8     -1520.905          48.000
R12  19828200.328 7 105918707.238 7     -2200.285          43.000    19828203.484 6  82381252.403 6     -1711.333          38.000
R13  19792061.797 6 105688517.536 6      1869.672          37.000    19792064.836 7  82202152.222 7      1454.186          45.000
C05  39776533.977 5 207126850.129 5         9.766          35.000    39776533.875 6 160163608.957 6         7.391          40.000
C23  22157000.828 8 115377340.399 8     -1144.578          51.000
C25  25558890.469 5 133091870.029 5     -2940.418          31.000
E07  25972199.055 7 136484777.804 7     -2429.008          47.000    25972201.086 8 104579269.396 8     -1861.191          51.000
E21  25335112.625 8 133136994.481 8      2502.801          49.000    25335116.250 8 102014009.632 8      1917.739          51.000
E27  23317766.102 8 122535718.469 8       -40.770          51.000    23317770.070 8  93890990.205 8       -31.242          51.000
E30  24948067.430 5 131102978.027 5     -2481.578          31.000
> 2020 05 01 05 03  0.0000000  0 13        .000000000000
G05  21959059.766 8 115395630.260 8     -2818.184          51.000    21959059.531 8  89918672.798 8     -2195.987          51.000
G13  20327414.414 7 106821272.127 7       897.520          42.000    20327411.414 6  83237336.308 6       699.366          36.000
G28  20887159.930 8 109762783.391 8       252.988          49.000    20887160.039 8  85529480.390 8       197.134          48.000
G30  21684888.039 6 113954848.811 6     -2203.469          38.000    21684889.352 6  88795996.597 6     -1716.989          38.000
R02  19563049.844 8 104392168.841 8     -1977.277          51.000    19563053.828 8  81193939.918 8     -1537.882          49.000
R12  19840599.148 6 105984941.696 6     -2216.473          41.000    19840601.461 6  82432768.070 6     -1723.923          39.000
R13  19781611.320 6 105632713.716 6      1849.504          38.000    19781615.430 7  82158749.243 7      1438.503          46.000
C05  39776475.172 5 207126542.954 5         9.906          35.000    39776475.023 6 160163371.790 6         7.367          40.000
C23  22163623.008 8 115411823.303 8     -1155.562          51.000
C25  25575830.609 4 133180088.139 4     -2941.188          29.000
E07  25986077.586 7 136557722.187 7     -2435.352          43.000    25986083.273 8 104635161.906 8     -1866.031          51.000
E21  25320843.539 8 133062013.677 8      2494.477          49.000    25320848.625 8 101956556.748 8      1911.403          51.000
E27  23318032.383 8 122537117.833 8       -53.848          50.000    23318036.578 8  93892062.449 8       -41.308          51.000
> 2020 05 01 05 03 30.0000000  0 13        .000000000000
G05  21975177.562 8 115480328.805 8     -2827.750          51.000    21975176.258 8  89984671.596 8     -2203.442          51.000
G13  20322318.500 7 106794493.108 7       888.379          42.000    20322315.672 6  83216469.525 6       692.246          38.000
G28  20885762.961 8 109755443.923 8       237.008          49.000    20885763.102 8  85523761.304 8       184.681          48.000
G30  21697483.430 6 114021039.085 6     -2208.559          37.000    21697482.211 6  88847573.406 6     -1720.955          37.000
R02  19574220.812 8 104451778.706 8     -1995.980          51.000    19574224.273 8  81240303.106 8     -1552.429          48.000
R12  19853085.398 7 106051640.875 7     -2229.488          44.000    19853088.172 6  82484645.179 6     -1734.049          40.000
R13  19771269.352 6 105577485.416 6      1833.066          39.000    19771273.109 7  82115793.870 7      1425.715          44.000
C05  39776414.766 5 207126229.123 5        11.773          35.000    39776414.531 6 160163128.317 6         9.246          40.000
C23  22170304.562 8 115446615.296 8     -1163.344          51.000
C25  25592779.133 5 133268315.032 5     -2941.203          30.000
E07  25999989.977 7 136630841.097 7     -2438.691          45.000    25999998.234 8 104691188.134 8     -1868.620          51.000
E21  25306619.766 8 132987267.258 8      2489.043          51.000    25306625.195 8 101899283.484 8      1907.231          51.000
E27  23318370.867 8 122538895.012 8       -64.031          51.000    23318374.828 8  93893424.193 8       -49.069          51.000
> 2020 05 01 05 04  0.0000000  0 13        .000000000000
G05  21991364.602 8 115565392.716 8     -2841.605          50.000    21991362.430 8  90050955.107 8     -2214.238          50.000
G13  20317291.016 7 106768073.820 7       874.535          43.000    20317288.562 6  83195883.029 6       681.453          38.000
G28  20884472.539 8 109748662.956 8       216.844          50.000    20884472.625 8  85518477.430 8       168.969          49.000
G30  21710119.930 5 114087444.977 5     -2217.395          35.000    21710118.023 5  88899318.263 5     -1727.840          34.000
R02  19585511.945 8 104512026.518 8     -2018.871          51.000    19585513.914 7  81287162.500 7     -1570.233          47.000
R12  19865659.141 6 106118804.935 6     -2246.551          40.000    19865660.922 6  82536883.825 6     -1747.317          40.000
R13  19761035.812 6 105522837.144 6      1812.008          39.000    19761038.273 7  82073289.661 7      1409.339          43.000
C05  39776353.312 5 207125909.275 5        11.227          35.000    39776353.180 6 160162880.985 6         8.340          41.000
C23  22177045.922 8 115481718.345 8     -1175.242          51.000
C25  25609735.492 4 133356610.851 4     -2943.867          29.000
E07  26013938.422 8 136704137.282 8     -2446.156          48.000    26013946.742 8 104747350.133 8     -1874.345          51.000
E21  25292442.086 8 132912759.454 8      2479.652          51.000    25292446.875 8 101842193.085 8      1899.936          51.000
E27  23318782.141 8 122541052.672 8       -78.152          51.000    23318785.109 8  93895077.455 8       -59.928          51.000
> 2020 05 01 05 04 30.0000000  0 13        .000000000000
G05  22007626.188 8 115650850.716 8     -2855.293          48.000    22007624.086 8  90117545.725 8     -2224.904          48.000
G13  20312337.938 7 106742046.196 7       860.801          43.000    20312336.188 6  83175601.790 6       670.751          38.000
G28  20883294.461 8 109742471.244 8       196.355          50.000    20883294.562 8  85513652.732 8       153.004          49.000
G30  21722803.109 6 114154096.175 6     -2226.250          39.000    21722801.875 6  88951254.228 6     -1734.737          38.000
R02  19596927.914 8 104572942.481 8     -2041.859          51.000    19596929.383 8  81334541.547 8     -1588.116          48.000
R12  19878324.094 6 106186461.885 6     -2263.812          40.000    19878327.148 6  82589505.971 6     -1760.743          41.000
R13  19750916.875 6 105468800.755 6      1790.699          40.000    19750918.234 7  82031261.364 7      1392.766          43.000
C05  39776296.867 5 207125614.160 5         9.809          35.000    39776296.688 6 160162653.573 6         6.902          40.000
C23  22183852.562 8 115517161.749 8     -1187.332          51.000
C25  25626704.547 4 133444974.911 4     -2946.723          27.000
E07  26027926.875 8 136777641.015 8     -2453.734          51.000    26027934.547 8 104803671.140 8     -1880.125          51.000
E21  25278316.180 8 132838522.199 8      2469.859          51.000    25278319.750 8 101785309.993 8      1892.457          51.000
E27  23319271.430 8 122543621.050 8       -92.656          51.000    23319273.586 8  93897045.437 8       -70.987          51.000
> 2020 05 01 05 05  0.0000000  0 12        .000000000000
G05  22023970.109 7 115736744.568 7     -2865.512          47.000    22023969.117 7  90184476.013 7     -2232.866          47.000
G13  20307468.227 7 106716456.313 7       850.301          43.000    20307466.812 6  83155661.610 6       662.572          38.000
G28  20882236.891 8 109736913.367 8       179.395          50.000    20882236.758 8  85509321.930 8       139.788          49.000
G30  21735541.109 6 114221036.025 6     -2231.156          37.000    21735541.148 6  89003415.152 6     -1738.563          38.000
R02  19608476.641 8 104634570.567 8     -2061.156          50.000    19608478.633 8  81382474.472 8     -1603.122          48.000
R12  19891089.977 6 106254654.460 6     -2276.762          41.000    19891093.219 6  82642544.612 6     -1770.818          41.000
R13  19740921.125 6 105415422.112 6      1773.008          41.000    19740922.258 7  81989744.642 7      1379.006          44.000
C05  39776253.922 5 207125391.114 5        10.840          35.000    39776253.656 6 160162480.283 6         8.557          40.000
C23  22190732.820 8 115552988.544 8     -1195.875          51.000
E07  26041963.195 8 136851396.454 8     -2457.828          51.000    26041969.758 8 104860185.024 8     -1883.259          51.000
E21  25264250.352 8 132764601.203 8      2463.688          51.000    25264252.273 8 101728669.242 8      1887.749          51.000
E27  23319847.227 8 122546644.273 8      -103.410          51.000    23319848.867 8  93899361.944 8       -79.251          51.000
> 2020 05 01 05 05 30.0000000  0 13        .000000000000
G05  22040362.109 8 115822889.151 8     -2877.574          48.000    22040362.133 8  90251601.668 8     -2242.263          48.000
G13  20302647.289 7 106691122.724 7       838.031          43.000    20302646.242 6  83135921.166 6       653.011          39.000
G15  21561491.859 5 113306404.099 5      2421.480          30.000
G28  20881265.281 8 109731806.876 8       160.809          50.000    20881264.703 8  85505342.844 8       125.305          49.000
G30  21748299.430 6 114288080.799 6     -2238.477          37.000    21748300.023 6  89055657.839 6     -1744.264          37.000
R02  19620122.930 7 104696724.630 7     -2082.441          47.000    19620126.297 7  81430816.523 7     -1619.674          47.000
R12  19903920.562 7 106323193.658 7     -2292.395          42.000    19903923.836 7  82695852.887 7     -1782.974          42.000
R13  19731013.648 6 105362516.729 6      1753.504          40.000    19731015.109 7  81948595.991 7      1363.836          45.000
C05  39776189.586 5 207125056.225 5        11.371          35.000    39776189.422 6 160162221.331 6         8.657          40.000
C23  22197651.602 8 115589016.524 8     -1206.152          51.000
E07  26056012.477 8 136925220.432 8     -2463.805          51.000    26056017.594 8 104916751.423 8     -1887.826          51.000
E21  25250209.766 8 132690814.909 8      2455.422          51.000    25250210.117 8 101672131.724 8      1881.427          51.000
E27  23320474.836 8 122549939.180 8      -116.266          51.000    23320475.945 8  93901886.616 8       -89.063          51.000
> 2020 05 01 05 06  0.0000000  0 13        .000000000000
G05  22056800.820 8 115909275.527 8     -2886.250          49.000    22056801.312 8  90318915.731 8     -2249.026          49.000
G13  20297874.219 7 106666040.619 7       829.008          42.000    20297873.867 6  83116376.683 6       645.983          41.000
G28  20880378.164 8 109727145.482 8       145.242          49.000    20880377.781 8  85501710.597 8       113.176          49.000
G30  21761076.695 6 114355223.279 6     -2242.656          37.000    21761076.352 6  89107976.572 6     -1747.524          37.000
R02  19631867.492 8 104759396.819 8     -2100.457          51.000    19631870.805 7  81479561.584 7     -1633.689          46.000
R12  19916815.148 7 106392070.469 7     -2304.387          42.000    19916817.516 7  82749423.687 7     -1792.301          42.000
R13  19721193.148 6 105310078.060 6      1737.426          39.000    19721195.641 7  81907810.351 7      1351.331          45.000
C05  39776102.867 5 207124604.581 5        14.445          35.000    39776102.703 6 160161872.068 6        11.125          40.000
C23  22204607.617 8 115625238.412 8     -1213.297          51.000
E07  26070073.016 8 136999106.333 8     -2466.660          50.000    26070076.617 8 104973365.280 8     -1890.035          51.000
E21  25236193.641 8 132617158.256 8      2450.242          51.000    25236192.664 8 101615693.546 8      1877.479          51.000
E27  23321152.617 8 122553499.033 8      -125.852          51.000    23321153.367 8  93904614.297 8       -96.429          51.000
E30  25047996.484 5 131628114.022 5     -2516.184          34.000
> 2020 05 01 05 06 30.0000000  0 13        .000000000000
G05  22073337.555 8 115996174.734 8     -2901.848          51.000    22073338.023 8  90386629.395 8     -2261.180          51.000
G13  20293201.141 7 106641484.357 7       812.918          43.000    20293200.891 6  83097241.917 6       633.443          41.000
G28  20879627.875 8 109723202.348 8       122.730          49.000    20879627.547 8  85498638.005 8        95.634          49.000
G30  21773924.320 6 114422735.256 6     -2253.512          36.000    21773922.805 5  89160583.326 5     -1755.983          35.000
R02  19643762.102 8 104822863.888 8     -2125.637          51.000    19643764.688 7  81528924.829 7     -1653.273          47.000
R12  19929823.008 7 106461559.162 7     -2323.262          42.000    19929826.453 7  82803470.510 7     -1806.981          42.000
R13  19711512.547 6 105258384.808 6      1713.891          40.000    19711515.484 7  81867604.503 7      1333.026          45.000
C05  39776045.617 5 207124307.460 5        10.301          35.000    39776045.539 6 160161641.933 6         8.077          40.000
C23  22211652.711 8 115661923.711 8     -1227.387          51.000
E07  26084196.922 8 137073326.845 8     -2476.375          50.000    26084199.688 8 105030235.528 8     -1897.434          50.000
E21  25222253.875 8 132543905.494 8      2438.270          51.000    25222252.531 8 101559564.830 8      1868.255          51.000
E27  23321932.586 8 122557596.475 8      -142.355          51.000    23321933.133 8  93907753.895 8      -109.069          51.000
E30  25062399.305 5 131703802.857 5     -2525.480          35.000
> 2020 05 01 05 07  0.0000000  0 13        .000000000000
G05  22089935.352 8 116083394.045 8     -2913.766          51.000    22089935.258 8  90454592.483 8     -2270.470          51.000
G13  20288592.312 7 106617265.176 7       800.602          45.000    20288591.867 6  83078369.804 6       623.845          40.000
G28  20878978.047 8 109719786.916 8       103.809          48.000    20878977.648 8  85495976.624 8        80.887          48.000
G30  21786805.484 5 114490425.711 5     -2260.051          34.000    21786804.688 5  89213329.083 5     -1761.082          35.000
R02  19655769.344 8 104886931.505 8     -2146.836          51.000    19655771.523 8  81578755.157 8     -1669.761          49.000
R12  19942909.266 7 106531463.832 7     -2338.090          44.000    19942913.555 6  82857840.792 6     -1818.517          41.000
R13  19701936.242 6 105207244.893 6      1694.375          41.000    19701938.656 7  81827829.025 7      1317.847          45.000
C05  39775981.891 5 207123975.187 5        10.082          35.000    39775981.828 6 160161385.342 6         8.068          40.000
C23  22218750.305 8 115698882.818 8     -1237.746          51.000
E07  26098347.852 8 137147691.335 8     -2482.395          49.000    26098350.133 8 105087216.105 8     -1902.089          48.000
E21  25208354.133 8 132470867.596 8      2429.773          50.000    25208353.938 8 101503600.719 8      1861.795          51.000
E27  23322778.492 8 122562040.862 8      -155.148          51.000    23322778.961 8  93911159.327 8      -118.886          51.000
E30  25076827.570 5 131779623.227 5     -2530.809          34.000
> 2020 05 01 05 07 30.0000000  0 13        .000000000000
G05  22106601.164 8 116170971.313 8     -2923.812          51.000    22106600.438 8  90522834.481 8     -2278.295          51.000
G13  20284055.617 7 106593424.235 7       789.652          46.000    20284055.133 6  83059792.436 6       615.314          41.000
G28  20878436.188 8 109716939.108 8        86.719          50.000    20878435.688 8  85493757.544 8        67.573          49.000
G30  21799727.711 5 114558333.348 5     -2265.773          34.000    21799729.461 5  89266244.067 5     -1765.538          35.000
R02  19667896.094 8 104951638.789 8     -2166.230          51.000    19667898.195 8  81629083.027 8     -1684.849          50.000
R12  19956080.328 7 106601821.767 7     -2351.520          42.000    19956084.523 6  82912563.602 6     -1828.957          39.000
R13  19692471.086 6 105156699.546 6      1676.148          41.000    19692473.523 7  81788516.000 7      1303.671          46.000
C05  39775919.234 5 207123648.855 5        12.059          35.000    39775919.172 6 160161133.004 6         9.479          41.000
C23  22225907.914 8 115736154.114 8     -1246.320          51.000
E07  26112533.164 8 137222239.345 8     -2486.773          48.000    26112534.281 7 105144337.280 7     -1905.357          46.000
E21  25194502.891 8 132398085.547 8      2423.047          50.000    25194504.531 8 101447832.630 8      1856.662          51.000
E27  23323697.711 8 122566871.556 8      -166.117          51.000    23323698.305 8  93914860.766 8      -127.282          51.000
E30  25091288.195 5 131855608.636 5     -2534.645          33.000
> 2020 05 01 05 08  0.0000000  0 13        .000000000000
G05  22123331.891 8 116258890.386 8     -2943.305          50.000    22123330.391 8  90591342.822 8     -2293.484          50.000
G13  20279588.531 7 106569949.073 7       769.438          46.000    20279587.750 7  83041500.088 7       599.559          42.000
G28  20878000.125 8 109714645.770 8        60.379          49.000    20877999.047 8  85491970.496 8        47.045          49.000
G30  21812688.461 5 114626443.529 5     -2280.840          34.000    21812692.328 5  89319316.995 5     -1777.272          34.000
R02  19680139.531 8 105016970.812 8     -2195.180          51.000    19680141.734 8  81679896.821 8     -1707.365          51.000
R12  19969333.500 7 106672616.272 7     -2374.270          43.000    19969337.984 6  82967625.993 6     -1846.654          38.000
R13  19683114.461 6 105106735.240 6      1648.727          41.000    19683116.805 7  81749654.893 7      1282.343          45.000
C05  39775855.055 5 207123313.935 5         4.645          35.000    39775855.094 6 160160874.798 6         3.392          40.000
C23  22233122.680 8 115773723.159 8     -1264.141          51.000
E07  26126750.562 8 137296956.992 8     -2500.457          48.000    26126750.906 7 105201588.389 7     -1915.755          46.000
E21  25180698.766 8 132325547.016 8      2407.016          51.000    25180701.852 8 101392251.134 8      1844.298          51.000
E27  23324687.766 8 122572074.583 8      -186.547          51.000    23324688.438 8  93918847.503 8      -142.933          51.000
E30  25105778.375 5 131931755.188 5     -2547.508          32.000    25105784.914 5 101090584.847 5     -1952.394          33.000
> 2020 05 01 05 08 30.0000000  0 13        .000000000000
G05  22140147.766 8 116347258.211 8     -2936.410          50.000    22140145.711 8  90660200.837 8     -2288.112          50.000
G13  20275212.203 7 106546951.213 7       775.449          45.000    20275211.156 7  83023579.681 7       604.246          43.000
G28  20877690.117 8 109713016.357 8        59.961          49.000    20877689.070 8  85490700.836 8        46.723          49.000
G30  21825708.109 5 114694864.963 5     -2268.836          34.000    21825713.078 5  89372632.390 5     -1767.921          33.000
R02  19692520.836 8 105083037.833 8     -2197.480          51.000    19692523.031 8  81731282.302 8     -1709.151          51.000
R12  19982688.727 6 106743955.969 6     -2369.949          41.000    19982693.164 6  83023112.393 6     -1843.297          36.000
R13  19673887.531 6 105057463.893 6      1647.883          41.000    19673888.906 7  81711332.724 7      1281.687          44.000
C05  39775810.430 5 207123082.782 5        22.422          35.000    39775810.383 6 160160694.877 6        17.562          40.000
C23  22240415.266 8 115811697.489 8     -1255.957          51.000
E07  26141021.094 8 137371953.525 8     -2487.777          48.000    26141022.570 7 105259053.185 7     -1906.186          47.000
E21  25166962.906 8 132253362.745 8      2416.980          51.000    25166966.570 8 101336941.097 8      1851.939          51.000
E27  23325769.352 8 122577759.099 8      -180.785          51.000    23325769.977 8  93923203.155 8      -138.509          51.000
E30                                                                  25120321.719 5 101149127.408 5     -1941.843          32.000
> 2020 05 01 05 09  0.0000000  0 11        .000000000000
G05  22156980.898 8 116435717.593 8     -2960.082          50.000    22156978.961 8  90729130.208 8     -2306.557          50.000
G13  20270859.477 7 106524076.960 7       750.445          45.000    20270858.008 7  83005755.580 7       584.763          43.000
G28  20877438.914 8 109711695.837 8        28.832          50.000    20877437.938 8  85489671.839 8        22.467          49.000
R02  19704972.016 8 105149478.122 8     -2231.020          51.000    19704974.039 8  81782958.084 8     -1735.240          51.000
R12  19996077.516 7 106815477.341 7     -2397.047          43.000    19996080.859 5  83078740.080 5     -1864.373          34.000
R13  19664722.656 6 105008525.888 6      1615.547          39.000    19664724.164 7  81673269.844 7      1256.533          45.000
C05  39775717.812 5 207122599.508 5        10.312          35.000    39775717.719 6 160160321.575 6         8.086          40.000
C23  22247717.594 8 115849724.403 8     -1278.297          51.000
E07  26155277.664 8 137446873.662 8     -2506.062          48.000    26155281.422 8 105316459.475 8     -1920.131          48.000
E21  25153227.555 8 132181179.126 8      2396.191          51.000    25153231.188 8 101281631.559 8      1836.079          51.000
E27  23326874.719 8 122583569.809 8      -205.664          51.000    23326875.625 8  93927655.511 8      -157.599          51.000
> 2020 05 01 05 09 30.0000000  0 11        .000000000000
G05  22173925.938 8 116524766.386 8     -2978.379          49.000    22173924.680 8  90798518.870 8     -2320.815          49.000
G13  20266625.641 7 106501827.951 7       730.883          46.000    20266624.258 7  82988418.684 7       569.522          42.000
G28  20877341.523 8 109711184.208 8         3.270          50.000    20877340.500 8  85489273.167 8         2.548          48.000
R02  19717588.156 8 105216798.859 8     -2258.977          51.000    19717590.172 8  81835318.612 8     -1756.982          51.000
R12  20009594.891 7 106887685.926 7     -2418.449          42.000    20009598.742 6  83134902.259 6     -1881.016          36.000
R13  19655715.391 6 104960430.322 6      1589.129          39.000    19655717.711 7  81635862.171 7      1235.986          44.000
C05  39775672.273 5 207122362.585 5         3.746          35.000    39775672.203 6 160160138.379 6         2.637          40.000
C23  22255125.094 8 115888298.468 8     -1295.105          51.000
E07  26169615.148 8 137522217.302 8     -2518.836          48.000    26169620.953 8 105374190.284 8     -1930.059          49.000
E21  25139587.883 8 132109497.576 8      2380.664          51.000    25139591.117 8 101226706.737 8      1824.133          51.000
E27  23328099.227 8 122590006.501 8      -225.320          51.000    23328100.719 8  93932587.522 8      -172.660          51.000
> 2020 05 01 05 10  0.0000000  0 11        .000000000000
G05  22190920.758 8 116614077.228 8     -2980.824          49.000    22190920.305 8  90868111.742 8     -2322.720          49.000
G13  20262449.141 7 106479880.785 7       727.180          46.000    20262448.055 7  82971316.978 7       566.634          44.000
G28  20877336.352 8 109711157.060 8        -6.543          51.000    20877335.016 7  85489252.005 7        -5.098          47.000
R02  19730307.031 8 105284668.898 8     -2270.926          51.000    19730308.914 8  81888106.374 8     -1766.279          50.000
R12  20023178.773 7 106960248.707 7     -2423.906          43.000    20023183.711 6  83191340.014 6     -1885.260          37.000
R13  19646804.570 6 104912847.445 6      1577.863          39.000    19646806.375 7  81598853.245 7      1227.224          43.000
C05  39775612.250 5 207122050.007 5        12.402          35.000    39775612.125 6 160159896.650 6         9.611          40.000
C23  22262576.102 8 115927096.941 8     -1296.457          51.000
E07  26183971.414 7 137597659.356 7     -2515.750          47.000    26183978.148 8 105431996.488 8     -1927.587          48.000
E21  25125982.008 8 132037994.498 8      2381.121          51.000    25125984.781 8 101171918.660 8      1824.519          51.000
E27  23329380.992 8 122596743.972 8      -228.934          51.000    23329382.883 8  93937749.988 8      -175.390          51.000
> 2020 05 01 05 10 30.0000000  0 11        .000000000000
G05  22207972.727 8 116703686.103 8     -2993.258          50.000    22207972.016 8  90937936.841 8     -2332.409          50.000
G13  20258337.609 7 106458275.153 7       713.230          46.000    20258336.656 7  82954481.419 7       555.764          43.000
G28  20877430.688 8 109711652.375 8       -26.430          51.000    20877428.883 7  85489637.959 7       -20.595          46.000
R02  19743135.656 8 105353125.920 8     -2293.098          51.000    19743137.344 8  81941350.694 8     -1783.520          50.000
R12  20036835.562 6 107033201.814 6     -2439.727          41.000    20036839.758 6  83248081.293 6     -1897.565          36.000
R13  19637996.891 6 104865817.412 6      1556.754          38.000    19637998.766 7  81562274.346 7      1210.809          43.000
C05                                                                  39775544.945 6 160159625.998 6         8.452          40.000
C23  22270077.195 8 115966156.649 8     -1307.598          51.000
E07  26198353.852 8 137673237.766 8     -2522.945          48.000    26198359.695 8 105489907.188 8     -1933.178          48.000
E21  25112417.336 8 131966709.413 8      2371.141          51.000    25112419.789 8 101117297.615 8      1816.872          50.000
E27  23330727.234 8 122603820.052 8      -242.867          51.000    23330729.305 8  93943171.898 8      -186.090          51.000
> 2020 05 01 05 11  0.0000000  0 11        .000000000000
G05  22225090.938 8 116793640.191 8     -3004.008          51.000    22225088.828 8  91008030.896 8     -2340.785          51.000
G13  20254300.812 7 106437061.915 7       700.750          46.000    20254299.648 7  82937951.614 7       546.039          44.000
G28  20877633.828 8 109712719.676 8       -44.965          50.000    20877631.930 7  85490469.645 7       -35.038          46.000
R02  19756083.039 8 105422218.598 8     -2313.508          51.000    19756084.938 8  81995089.430 8     -1799.395          49.000
R12  20050574.078 7 107106592.419 7     -2453.539          44.000    20050577.531 6  83305162.872 6     -1908.311          37.000
R13  19629302.484 6 104819390.633 6      1537.660          40.000    19629305.344 7  81526164.640 7      1195.958          44.000
C05  39775480.148 5 207121361.837 5        11.445          35.000    39775480.031 6 160159364.525 6         8.953          40.000
C23  22277637.523 8 116005525.608 8     -1317.250          51.000
E07  26212771.578 8 137749001.673 8     -2528.320          48.000    26212775.289 8 105547960.027 8     -1937.222          48.000
E21  25098903.539 8 131895692.992 8      2363.047          51.000    25098905.305 8 101062882.423 8      1810.616          49.000
E27  23332147.289 8 122611283.762 8      -254.871          51.000    23332149.812 8  93948890.835 8      -195.339          51.000
> 2020 05 01 05 11 30.0000000  0 11        .000000000000
G05  22242269.875 8 116883912.186 8     -3014.367          51.000    22242266.203 8  91078372.650 8     -2348.858          51.000
G13  20250334.336 7 106416217.763 7       688.789          46.000    20250332.891 7  82921709.414 7       536.719          45.000
G28  20877941.078 8 109714333.978 8       -62.855          50.000    20877938.672 7  85491727.567 7       -48.978          46.000
R02  19769143.898 8 105491920.673 8     -2333.555          50.000    19769146.906 8  82049302.148 8     -1814.987          49.000
R12  20064390.117 7 107180392.713 7     -2466.980          42.000    20064392.992 6  83362563.013 6     -1918.763          37.000
R13  19620717.062 6 104773542.863 6      1518.633          39.000    19620720.242 7  81490505.216 7      1181.159          45.000
C05  39775412.844 5 207121011.766 5        11.723          35.000    39775412.648 6 160159093.425 6         9.164          40.000
C23  22285252.266 8 116045178.042 8     -1326.449          51.000
E07  26227219.656 8 137824925.722 8     -2533.523          48.000    26227221.680 8 105606135.603 8     -1941.193          49.000
E21  25085435.766 8 131824921.466 8      2355.012          51.000    25085436.648 7 101008654.881 7      1804.433          47.000
E27  23333636.250 8 122619109.703 8      -266.969          51.000    23333639.242 8  93954887.318 8      -204.516          51.000
> 2020 05 01 05 12  0.0000000  0 11        .000000000000
G05  22259509.523 8 116974503.907 8     -3026.441          51.000    22259505.000 8  91148963.559 8     -2358.266          51.000
G13  20246439.156 7 106395748.486 7       674.539          46.000    20246437.703 7  82905759.312 7       525.615          45.000
G28  20878353.227 8 109716499.466 8       -82.754          50.000    20878350.352 7  85493414.954 7       -64.484          46.000
R02  19782320.125 8 105562235.415 8     -2355.418          51.000    19782323.750 8  82103991.398 8     -1831.992          48.000
R12  20078282.141 6 107254603.821 6     -2481.836          40.000    20078285.016 6  83420282.807 6     -1930.317          36.000
R13  19612240.391 6 104728278.164 6      1497.609          39.000    19612244.156 7  81455299.331 7      1164.807          45.000
C05                                                                  39775343.891 6 160158816.322 6         8.340          40.000
C23  22292922.156 8 116085117.337 8     -1337.430          51.000
E07  26241698.609 8 137901014.045 8     -2540.289          48.000    26241700.461 8 105664437.069 8     -1946.425          50.000
E21  25072015.094 8 131754400.471 8      2345.168          51.000    25072015.227 7 100954619.299 7      1797.001          47.000
E27  23335194.938 8 122627301.824 8      -280.508          51.000    23335197.898 8  93961164.375 8      -214.875          51.000
> 2020 05 01 05 12 30.0000000  0 12        .000000000000
G05  22276812.273 8 117065429.078 8     -3035.172          51.000    22276808.078 8  91219814.306 8     -2365.069          51.000
G13  20242618.578 7 106375671.369 7       663.832          46.000    20242617.336 7  82890114.788 7       517.272          46.000
G28  20878873.062 8 109719231.694 8       -99.320          49.000    20878870.461 7  85495544.005 7       -77.389          47.000
G30  21931107.156 5 115248745.448 5     -2332.988          34.000
R02  19795614.406 8 105633177.547 8     -2373.922          51.000    19795618.172 7  82159168.596 7     -1846.384          46.000
R12  20092254.195 7 107329239.584 7     -2493.758          43.000    20092256.617 6  83478332.765 6     -1939.589          36.000
R13  19603876.586 6 104683614.104 6      1480.008          40.000    19603880.344 7  81420560.607 7      1151.117          45.000
C05  39775276.789 5 207120302.864 5        13.207          35.000    39775276.633 6 160158545.681 6         9.901          41.000
C23  22300650.047 8 116125358.355 8     -1345.180          51.000
E07  26256212.109 8 137977282.341 8     -2543.914          48.000    26256214.117 8 105722876.433 8     -1949.344          51.000
E21  25058645.281 8 131684147.208 8      2338.570          50.000    25058644.648 8 100900788.871 8      1791.862          48.000
E27  23336826.250 8 122635875.727 8      -290.867          51.000    23336829.203 8  93967733.970 8      -222.875          51.000
> 2020 05 01 05 13  0.0000000  0 11        .000000000000
G05  22294173.242 8 117156661.634 8     -3046.559          51.000    22294169.953 8  91290904.601 8     -2373.942          51.000
G13  20238868.406 8 106355964.011 8       650.309          48.000    20238867.281 7  82874758.383 7       506.734          46.000
G28  20879496.250 8 109722507.203 8      -118.625          50.000    20879493.727 7  85498096.352 7       -92.435          46.000
R02  19809021.727 8 105704722.077 8     -2395.246          51.000    19809024.484 7  82214814.295 7     -1862.972          43.000
R12  20106301.133 6 107404273.157 6     -2508.336          38.000    20106303.828 6  83536692.177 6     -1950.931          37.000
R13  19595620.695 6 104639527.206 6      1459.875          39.000    19595624.250 7  81386270.808 7      1135.458          45.000
C05  39775206.797 5 207119938.317 5        12.039          35.000    39775206.641 6 160158263.757 6         9.479          40.000
C23  22308431.148 8 116165876.697 8     -1355.555          51.000
E07  26270755.180 8 138053706.773 8     -2550.445          49.000    26270757.953 8 105781435.393 8     -1954.207          51.000
E21  25045322.648 8 131614139.279 8      2329.133          51.000    25045321.609 8 100847146.430 8      1784.681          48.000
E27  23338525.781 8 122644807.361 8      -304.047          51.000    23338528.984 8  93974577.679 8      -232.986          51.000
> 2020 05 01 05 13 30.0000000  0 12        .000000000000
G05  22311574.516 8 117248106.959 8     -3045.203          50.000    22311572.406 8  91362160.695 8     -2372.889          50.000
G13  20235171.422 8 106336536.075 8       649.375          48.000    20235170.438 7  82859619.730 7       506.006          45.000
G28  20880205.219 8 109726233.783 8      -125.215          49.000    20880203.125 7  85501000.172 7       -97.567          47.000
R02  19822524.328 8 105776773.843 8     -2403.566          51.000    19822526.398 7  82270854.444 7     -1869.444          44.000
R12  20120403.266 6 107479607.712 6     -2509.789          37.000    20120406.820 6  83595285.803 6     -1952.055          37.000
R13  19587455.055 6 104595924.359 6      1451.617          38.000    19587458.828 7  81352357.497 7      1129.036          45.000
C05  39775116.438 6 207119468.138 6        23.406          36.000    39775116.359 6 160157900.189 6        18.419          40.000
C23  22316247.688 8 116206580.097 8     -1353.422          51.000
E07  26285310.578 8 138130194.774 8     -2544.168          50.000    26285314.273 8 105840043.070 8     -1949.460          51.000
E21  25032029.867 8 131544285.755 8      2332.344          51.000    25032029.336 8 100793622.317 8      1787.127          50.000
E27  23340275.953 8 122654004.163 8      -304.516          51.000    23340279.273 8  93981624.568 8      -233.336          51.000
E30  25267034.359 5 132779159.271 5     -2582.555          34.000
> 2020 05 01 05 14  0.0000000  0 13        .000000000000
G05  22329049.094 8 117339938.465 8     -3069.441          49.000    22329048.047 8  91433717.693 8     -2391.773          49.000
G13  20231561.305 8 106317564.638 8       622.988          48.000    20231560.281 7  82844836.773 7       485.445          46.000
G28  20881033.492 8 109730586.879 8      -157.457          51.000    20881031.883 8  85504392.191 8      -122.694          48.000
R02  19836155.391 8 105849509.952 8     -2437.887          51.000    19836157.820 7  82327426.932 7     -1896.134          47.000
R12  20134595.719 6 107555419.202 6     -2536.891          40.000    20134598.820 6  83654250.268 6     -1973.137          38.000
R13  19579413.422 6 104552984.358 6      1418.246          39.000    19579417.359 7  81318959.698 7      1103.080          45.000
R14  23277397.453 6 124081624.023 6      3807.801          38.000    23277403.227 6  96507949.920 6      2961.620          38.000
C05                                                                  39775039.289 6 160157589.818 6         7.899          40.000
C23  22324133.094 8 116247641.512 8     -1376.652          51.000
E07  26299911.492 8 138206921.597 8     -2563.355          50.000    26299915.820 8 105898833.740 8     -1964.198          51.000
E21  25018800.422 8 131474763.347 8      2310.000          51.000    25018801.055 8 100740351.930 8      1769.931          51.000
E27  23342109.984 8 122663641.174 8      -330.480          51.000    23342113.055 8  93989008.761 8      -253.243          51.000
E30  25281848.641 5 132857011.040 5     -2600.375          35.000
> 2020 05 01 05 14 30.0000000  0 14        .000000000000
G05  22346597.258 8 117432157.589 8     -3077.801          49.000    22346596.883 8  91505576.728 8     -2398.286          48.000
G07  24664924.430 4 129615051.935 4     -2898.801          28.000
G13  20228039.117 8 106299055.202 8       611.812          49.000    20228037.789 7  82830413.840 7       476.737          46.000
G28  20881981.945 8 109735570.156 8      -174.016          50.000    20881980.234 8  85508275.234 8      -135.597          49.000
R02  19849915.000 8 105922932.944 8     -2456.207          51.000    19849917.898 8  82384533.700 8     -1910.383          49.000
R12  20148877.359 6 107631709.040 6     -2548.309          40.000    20148882.008 6  83713586.838 6     -1982.015          40.000
R13  19571497.008 6 104510711.925 6      1400.418          39.000    19571500.688 7  81286081.149 7      1089.214          45.000
R14  23255984.086 6 123967478.132 6      3802.684          39.000    23255988.516 6  96419169.749 6      2957.643          39.000
C05  39774976.375 5 207118738.519 5        12.207          35.000    39774976.258 6 160157336.011 6         9.542          40.000
C23  22332087.875 8 116289064.014 8     -1384.160          51.000
E07  26314558.469 8 138283891.044 8     -2566.969          50.000    26314563.320 8 105957810.283 8     -1966.958          50.000
E21  25005635.141 8 131405577.444 8      2303.125          51.000    25005637.102 8 100687339.371 8      1764.816          51.000
E27  23344028.609 8 122673722.074 8      -340.785          51.000    23344031.211 8  93996733.072 8      -261.133          51.000
E30  25296702.914 6 132935071.298 6     -2603.039          36.000
> 2020 05 01 05 15  0.0000000  0 13        .000000000000
G05  22364198.383 8 117524653.739 8     -3087.203          50.000    22364197.922 8  91577651.605 8     -2405.616          50.000
G13  20224584.453 8 106280900.651 8       599.711          49.000    20224582.758 7  82816267.435 7       467.307          46.000
G28  20883029.617 8 109741075.114 8      -191.582          51.000    20883028.000 8  85512564.800 8      -149.285          50.000
R02  19863782.617 8 105996932.063 8     -2475.691          51.000    19863785.891 8  82442088.611 8     -1925.535          50.000
R12  20163227.961 6 107708364.183 6     -2560.445          39.000    20163232.562 6  83773207.508 6     -1991.461          39.000
R13  19563685.352 6 104468997.598 6      1381.391          39.000    19563688.750 7  81253636.684 7      1074.415          46.000
R14  23234603.773 6 123853517.005 6      3795.957          38.000    23234608.141 6  96330533.274 6      2952.408          38.000
C05  39774906.844 5 207118376.927 5        13.184          35.000    39774906.773 6 160157056.004 6        10.324          40.000
C23  22340091.094 8 116330739.227 8     -1392.855          51.000
E07  26329231.180 8 138360994.341 8     -2571.742          50.000    26329236.180 8 106016889.399 8     -1970.565          49.000
E21  24992513.297 8 131336620.810 8      2295.332          51.000    24992516.445 8 100634502.475 8      1758.752          51.000
E27  23346011.070 8 122684138.032 8      -352.273          51.000    23346013.469 8  94004714.114 8      -269.870          51.000
E30  25311576.344 5 133013233.405 5     -2606.523          35.000
> 2020 05 01 05 15 30.0000000  0 13        .000000000000
G05  22381863.047 8 117617481.662 8     -3102.512          51.000    22381861.828 8  91649984.979 8     -2417.545          51.000
G13  20221208.555 8 106263159.974 8       581.777          49.000    20221206.664 7  82802443.513 7       453.333          47.000
G28  20884187.320 8 109747158.402 8      -215.273          51.000    20884185.945 8  85517305.012 8      -167.746          51.000
R02  19877768.734 8 106071563.158 8     -2501.035          51.000    19877771.961 8  82500135.059 8     -1945.250          50.000
R12  20177657.211 6 107785439.996 6     -2578.918          41.000    20177660.227 6  83833155.322 6     -2005.825          39.000
R13  19555989.102 6 104427899.831 6      1356.566          38.000    19555992.453 7  81221671.724 7      1055.107          45.000
R14  23213269.086 6 123739800.957 6      3783.500          41.000    23213273.945 6  96242087.390 6      2942.722          38.000
C05  39774841.977 5 207118038.579 5         8.086          35.000    39774841.742 6 160156793.977 6         6.373          40.000
C23  22348153.508 8 116372722.821 8     -1407.305          51.000
E07  26343939.766 8 138438288.379 8     -2582.348          49.000    26343944.953 8 106076114.646 8     -1978.577          49.000
E21  24979445.812 8 131267951.875 8      2281.531          51.000    24979449.875 8 100581886.001 8      1748.249          51.000
E27  23348067.875 8 122694945.739 8      -369.258          51.000    23348070.453 8  94012995.348 8      -283.022          51.000
E30  25326479.422 5 133091547.422 5     -2616.320          32.000
> 2020 05 01 05 16  0.0000000  0 12        .000000000000
G05  22399606.180 8 117710721.146 8     -3107.934          51.000    22399604.406 8  91722639.048 8     -2421.766          51.000
G13  20217927.242 8 106245916.314 8       573.211          50.000    20217925.203 7  82789006.907 7       446.658          47.000
G28  20885470.734 8 109753902.632 8      -229.000          51.000    20885469.383 8  85522560.247 8      -178.442          51.000
R02  19891888.562 8 106146908.331 8     -2516.461          51.000    19891891.688 8  82558736.827 8     -1957.250          49.000
R12  20192179.688 6 107863017.093 6     -2587.074          39.000    20192182.961 6  83893493.054 6     -2012.166          40.000
R13  19548424.219 6 104387502.519 6      1341.777          38.000    19548426.867 7  81190251.548 7      1043.602          45.000
R14  23191997.461 6 123626415.455 6      3780.938          41.000    23192002.539 6  96153898.642 6      2940.726          38.000
C05  39774797.094 5 207117804.827 5        13.219          35.000    39774796.836 6 160156613.245 6         9.756          40.000
C23  22356290.781 8 116415095.404 8     -1412.094          51.000
E07  26358699.461 8 138515855.186 8     -2583.258          48.000    26358704.969 8 106135548.888 8     -1979.415          48.000
E21  24966448.695 8 131199654.124 8      2277.234          50.000    24966453.406 8 100529553.935 8      1744.885          51.000
E27  23350214.766 8 122706227.076 8      -377.090          51.000    23350217.188 8  94021639.490 8      -288.969          51.000
> 2020 05 01 05 16 30.0000000  0 12        .000000000000
G05  22417376.023 8 117804101.928 8     -3118.465          49.000    22417374.328 8  91795403.228 8     -2429.973          49.000
G13  20214689.789 8 106228903.496 8       559.852          50.000    20214687.750 7  82775750.159 7       436.248          47.000
G28  20886828.883 8 109761039.484 8      -247.840          51.000    20886827.422 8  85528121.411 8      -193.122          51.000
R02  19906091.180 8 106222694.939 8     -2536.980          51.000    19906093.609 7  82617681.906 7     -1973.210          47.000
R12  20206744.500 6 107940820.552 6     -2600.242          40.000    20206748.047 6  83954006.876 6     -2022.414          39.000
R13  19540939.719 6 104347534.434 6      1321.582          39.000    19540941.688 7  81159165.262 7      1027.897          45.000
R14  23170737.883 7 123513091.232 7      3772.809          43.000    23170743.094 6  96065757.602 6      2934.407          39.000
C05  39774721.453 5 207117411.231 5        12.074          35.000    39774721.211 6 160156308.842 6         9.394          40.000
C23  22364451.578 8 116457590.563 8     -1421.922          51.000
E07  26373459.844 7 138593426.574 7     -2589.379          47.000    26373465.633 8 106194986.647 8     -1984.099          49.000
E21  24953471.656 8 131131460.840 8      2267.824          50.000    24953476.391 8 100477301.926 8      1737.683          51.000
E27  23352400.648 8 122717713.678 8      -389.805          51.000    23352402.789 8  94030440.920 8      -298.744          51.000
> 2020 05 01 05 17  0.0000000  0 13        .000000000000
G05  22435208.125 7 117897813.469 7     -3128.500          46.000    22435207.477 7  91868425.196 7     -2437.792          46.000
G13  20211532.953 8 106212314.581 8       546.738          50.000    20211531.078 8  82762823.724 8       426.030          48.000
G28  20888298.211 8 109768760.555 8      -266.266          51.000    20888296.789 8  85534137.813 8      -207.480          51.000
G30  22052509.719 5 115886723.512 5     -2391.242          35.000    22052511.398 6  90301341.611 6     -1863.306          36.000
R02  19920412.750 8 106299115.474 8     -2557.105          51.000    19920414.523 7  82677120.045 7     -1988.863          47.000
R12  20221387.438 6 108019042.627 6     -2613.605          40.000    20221390.930 6  84014846.237 6     -2032.807          39.000
R13  19533571.977 6 104308190.051 6      1301.695          39.000    19533573.422 7  81128564.055 7      1012.430          44.000
R14  23149527.344 7 123400024.773 7      3765.406          42.000    23149532.672 6  95977817.012 6      2928.649          39.000
C05  39774651.688 5 207117047.849 5        12.559          35.000    39774651.445 6 160156027.874 6         9.578          41.000
C23  22372672.094 8 116500397.156 8     -1431.238          51.000
E07  26388257.742 7 138671193.763 7     -2594.895          46.000    26388263.922 8 106254574.454 8     -1988.260          50.000
E21  24940551.406 8 131063564.853 8      2259.059          50.000    24940555.500 8 100425277.720 8      1730.871          51.000
E27  23354661.984 8 122729596.680 8      -401.902          51.000    23354664.156 8  94039546.091 8      -307.975          51.000
> 2020 05 01 05 17 30.0000000  0 12        .000000000000
G05  22453092.867 7 117991806.234 7     -3138.129          43.000    22453094.172 7  91941666.354 7     -2445.295          43.000
G13  20208448.164 8 106196104.154 8       533.465          50.000    20208446.492 8  82750192.212 8       415.684          48.000
G28  20889869.539 8 109777018.076 8      -284.727          51.000    20889868.172 8  85540572.245 8      -221.865          50.000
R02  19934843.953 8 106376120.792 8     -2577.113          51.000    19934845.641 8  82737013.019 8     -2004.424          49.000
R12  20236099.672 7 108097632.414 7     -2626.434          43.000    20236103.250 6  84075971.586 6     -2042.782          38.000
R13  19526312.188 6 104269422.166 6      1282.133          39.000    19526313.758 7  81098411.235 7       997.214          45.000
R14  23128356.977 6 123287170.706 6      3757.457          41.000    23128362.422 6  95890041.594 6      2922.467          40.000
C05  39774578.891 5 207116669.077 5        12.543          35.000    39774578.648 6 160155734.572 6         9.506          40.000
C23  22380943.422 8 116543467.641 8     -1440.605          51.000
E07  26403083.914 7 138749109.414 7     -2600.293          45.000    26403090.977 8 106314275.998 8     -1992.399          51.000
E21  24927679.023 8 130995920.253 8      2249.977          50.000    24927682.266 8 100373446.112 8      1724.080          51.000
E27  23356989.625 8 122741828.512 8      -414.098          51.000    23356991.906 8  94048918.544 8      -317.290          51.000
> 2020 05 01 05 18  0.0000000  0 13        .000000000000
G05  22471037.367 7 118086107.543 7     -3146.965          46.000    22471039.367 7  92015147.931 7     -2452.177          46.000
G13  20205441.281 8 106180303.083 8       521.328          50.000    20205439.859 8  82737879.678 8       406.230          49.000
