     3.02           OBSERVATION DATA    M (MIXED)           RINEX VERSION / TYPE
SAVERINEX           SC600               20200518 175932 LCL PGM / RUN BY / DATE
       G = GPS       R = GLONASS       C = COMPASS          COMMENT
       S = SBAS      J = QZSS          E = GALILEO          COMMENT
BEAN                                                        MARKER NAME
1                                                           MARKER NUMBER
GEODETIC                                                    MARKER TYPE
Unige DICCA         GTER                                    OBSERVER / AGENCY
SC60291900056       SC600               2.12(191202)        REC # / TYPE / VERS
                    HEMA45          NONE                    ANT # / TYPE
  4509407.8091   693652.4678  4442337.6214                  APPROX POSITION XYZ
        0.0000        0.0000        0.0000                  ANTENNA: DELTA H/E/N
G    8 C1C L1C D1C S1C C2Y L2Y D2Y S2Y                      SYS / # / OBS TYPES
R    8 C1C L1C D1C S1C C2P L2P D2P S2P                      SYS / # / OBS TYPES
C    4 C1I L1I D1I S1I                                      SYS / # / OBS TYPES
E    8 C1C L1C D1C S1C C7Q L7Q D7Q S7Q                      SYS / # / OBS TYPES
DBHZ                                                        COMMENT
     30.000                                                 INTERVAL
  2020    05    18    15    00    0.0000000     GPS         TIME OF FIRST OBS
  2020    05    18    15    59   30.0000000     GPS         TIME OF LAST OBS
     0                                                      RCV CLOCK OFFS APPL
G L1C  0.00000                                              SYS / PHASE SHIFT
G L2Y  0.00000                                              SYS / PHASE SHIFT
R L1C  0.00000                                              SYS / PHASE SHIFT
R L2P  0.25000                                              SYS / PHASE SHIFT
C L1I  0.00000                                              SYS / PHASE SHIFT
E L1C  0.50000                                              SYS / PHASE SHIFT
E L7Q -0.25000                                              SYS / PHASE SHIFT
 14 R03  5 R04  6 R05  1 R06 -4 R07  5 R09 -2 R10 -5 R11  0 GLONASS SLOT / FRQ #
    R12 -1 R16 -1 R19  3 R20  2 R21  4 R22 -3               GLONASS SLOT / FRQ #
 C1C   71.950 C2C   71.950 C2P   71.950                     GLONASS COD/PHS/BIS
    18                                                      LEAP SECONDS
*** Above antenna height is from mark to ANTENNA BOTTOM.    COMMENT
    17     4        0.0000        ANT MEASURE TYPE/HEIGT    COMMENT
    0.0000    0.0000    0.0458    0.0405    0.0000          COMMENT
                    BASE STATION                            COMMENT
                                                            END OF HEADER
> 2020 05 18 15 00  0.0000000  0 13        .000000000000
G10  21735264.789 8 114219576.749 8      2214.582          51.000    21735268.125 8  89002284.580 8      1725.648          51.000
G16  20607850.008 8 108294993.129 8      -986.211          50.000    20607849.469 8  84385687.980 8      -768.476          50.000
G20  20968802.984 7 110191833.261 7       -91.055          47.000    20968802.477 7  85863815.921 7       -70.952          42.000
G26  21862990.125 8 114890789.485 8     -2897.867          50.000    21862993.461 8  89525280.346 8     -2258.081          51.000
R05  21724550.438 5 116130096.919 5      -297.707          33.000
R06  21946083.094 7 117108514.325 7      3434.750          43.000
R11  20813005.023 8 111218466.787 8     -2733.082          50.000    20813005.922 7  86503234.065 7     -2125.734          45.000
R21  19743656.367 5 105652271.912 5      -339.164          33.000
C27  22265498.938 5 115942312.877 5      1377.340          32.000
C28  22282005.797 8 116028245.181 8     -1189.770          51.000
E26  26218393.945 5 137778590.545 5     -2370.281          35.000    26218395.656 5 105570613.810 5     -1816.276          30.000
E31  24800110.453 8 130325438.707 8     -2212.031          51.000    24800109.766 8  99859750.598 8     -1694.984          49.000
E33  23852568.359 8 125346124.293 8     -1009.988          51.000    23852569.250 8  96044453.261 8      -773.884          51.000
> 2020 05 18 15 00 30.0000000  0 15        .000000000000
G10  21722663.297 8 114153355.874 8      2198.309          51.000    21722666.469 8  88950683.912 8      1712.968          51.000
G16  20613532.766 8 108324853.714 8     -1006.559          51.000    20613531.844 8  84408955.960 8      -784.331          51.000
G20  20969376.484 8 110194845.456 8      -111.621          48.000    20969375.711 7  85866163.062 7       -86.981          43.000
G26  21879564.953 8 114977890.248 8     -2910.621          49.000    21879568.195 8  89593151.005 8     -2268.019          49.000
G27  20825595.000 5 109439254.415 5      1487.262          32.000
R05  21726296.719 5 116139432.414 5      -326.012          32.000    21726292.992 4  90330718.405 4      -253.571          25.000
R06  21926810.477 6 117005667.747 6      3419.707          40.000
R11  20828404.336 8 111300757.618 8     -2755.023          50.000    20828406.594 7  86567238.013 7     -2142.796          46.000
R21  19745574.117 4 105662548.098 4      -351.105          29.000
R22  21628687.758 5 115455423.276 5      2438.461          34.000    21628689.859 4  89798655.888 4      1896.581          28.000
C27  22257579.164 5 115901084.268 5      1368.520          31.000
C28  22288877.656 8 116064028.804 8     -1197.770          49.000
E26  26231921.125 5 137849676.041 5     -2371.246          33.000
E31  24812767.625 8 130391948.271 8     -2223.773          51.000    24812767.258 8  99910712.393 8     -1703.912          50.000
E33  23858346.914 8 125376490.587 8     -1016.316          51.000    23858347.688 8  96067720.939 8      -778.751          51.000
> 2020 05 18 15 01  0.0000000  0 12        .000000000000
G10  21710189.398 8 114087805.416 8      2181.754          51.000    21710192.758 8  88899605.649 8      1700.068          51.000
G16  20619365.758 8 108355503.590 8     -1026.871          51.000    20619364.492 8  84432838.970 8      -800.159          51.000
G20  20970102.586 7 110198660.801 7      -132.566          47.000    20970101.969 7  85869136.091 7      -103.295          43.000
G26  21896246.719 8 115065554.016 8     -2923.598          48.000    21896250.109 8  89661460.387 8     -2278.128          48.000
R05  21728237.852 4 116149855.851 4      -355.086          28.000
R06  21907655.906 6 116903457.411 6      3404.371          36.000
R11  20843960.688 8 111383888.650 8     -2776.867          50.000    20843964.281 7  86631895.471 7     -2159.786          46.000
R21  19747602.570 5 105673434.591 5      -363.348          30.000    19747618.625 4  82190478.230 4      -282.604          25.000
C27  22249740.109 5 115860262.753 5      1361.113          30.000
C28  22295829.906 8 116100230.916 8     -1205.801          49.000
E31  24825525.953 8 130458992.224 8     -2235.699          51.000    24825527.039 8  99962083.690 8     -1713.116          51.000
E33  23864196.750 8 125407231.411 8     -1023.027          51.000    23864197.242 8  96091275.588 8      -783.881          51.000
> 2020 05 18 15 01 30.0000000  0 10        .000000000000
G10  21697767.648 8 114022529.955 8      2163.078          51.000    21697771.508 8  88848741.665 8      1685.515          51.000
G16  20625272.961 8 108386544.394 8     -1049.348          51.000    20625271.461 8  84457026.594 8      -817.673          51.000
G20  20970905.742 8 110202881.765 8      -155.586          49.000    20970905.102 7  85872425.147 7      -121.236          43.000
G26  21912959.312 7 115153380.931 7     -2938.270          47.000    21912963.086 7  89729896.924 7     -2289.561          47.000
R06  21888544.562 5 116801483.422 5      3386.848          31.000
R11  20859597.984 8 111467451.779 8     -2800.805          50.000    20859602.164 7  86696888.991 7     -2178.407          46.000
R21  19749657.398 5 105684414.440 5      -376.270          31.000
C28  22302786.742 8 116136457.378 8     -1215.969          48.000
E31  24838309.297 8 130526171.504 8     -2249.609          49.000    24838312.438 8 100013558.700 8     -1723.715          51.000
E33  23870042.086 8 125437948.504 8     -1031.605          51.000    23870042.367 8  96114812.060 8      -790.409          51.000
> 2020 05 18 15 02  0.0000000  0 11        .000000000000
G10  21685348.758 8 113957269.858 8      2161.703          51.000    21685353.141 8  88797889.650 8      1684.444          51.000
G16  20631204.531 8 108417714.037 8     -1054.434          51.000    20631202.891 8  84481314.625 8      -821.637          51.000
G20  20971736.312 7 110207246.493 7      -161.152          47.000    20971735.891 7  85875826.242 7      -125.570          42.000
G26  21929652.445 7 115241107.020 7     -2935.855          46.000    21929656.969 7  89798254.917 7     -2287.680          46.000
R05  21732419.727 6 116172156.515 6      -397.562          36.000
R06  21869426.305 4 116699449.823 4      3386.965          28.000
R11  20875266.281 8 111551177.298 8     -2806.977          51.000    20875270.117 7  86762008.780 7     -2183.207          46.000
R21  19751702.805 5 105695350.376 5      -371.707          30.000
C28  22309698.086 8 116172448.671 8     -1209.031          48.000
E31  24851067.844 8 130593222.954 8     -2246.266          49.000    24851073.219 8 100064935.805 8     -1721.162          51.000
E33  23875832.938 8 125468379.514 8     -1022.934          51.000    23875833.281 8  96138129.330 8      -783.809          51.000
> 2020 05 18 15 02 30.0000000  0 11        .000000000000
G10  21673135.141 8 113893088.870 8      2135.777          51.000    21673139.758 8  88747878.523 8      1664.242          51.000
G16  20637362.453 8 108450073.734 8     -1084.102          51.000    20637360.891 8  84506529.962 8      -844.754          51.000
G20  20972796.156 8 110212815.986 8      -191.344          48.000    20972796.023 7  85880166.121 7      -149.099          43.000
G26  21946528.062 7 115329791.740 7     -2957.684          47.000    21946533.281 7  89867359.892 7     -2304.689          46.000
R05  21734806.844 5 116184939.508 5      -435.551          33.000    21734809.828 4  90366124.342 4      -338.777          27.000
R06  21850508.469 5 116598509.047 5      3361.469          33.000
R11  20891166.312 8 111636140.660 8     -2838.066          51.000    20891169.156 7  86828091.343 7     -2207.388          46.000
R22  21574142.672 5 115164266.994 5      2409.559          32.000    21574143.992 4  89572208.250 4      1874.101          29.000
C28  22316766.367 7 116209256.602 7     -1226.387          47.000
E31  24864004.195 8 130661206.750 8     -2267.227          50.000    24864010.586 8 100117027.328 8     -1737.241          51.000
E33  23881771.227 8 125499585.485 8     -1038.711          51.000    23881771.695 8  96162040.396 8      -795.889          51.000
> 2020 05 18 15 03  0.0000000  0 10        .000000000000
G10  21660965.148 8 113829136.195 8      2129.941          51.000    21660969.594 8  88698045.299 8      1659.698          51.000
G16  20643583.953 8 108482769.344 8     -1093.418          51.000    20643582.664 8  84532007.050 8      -852.014          50.000
G20  20973922.898 7 110218736.895 7      -201.250          47.000    20973922.234 6  85884779.816 6      -156.818          41.000
G26  21963423.695 7 115418579.875 7     -2959.223          47.000    21963429.008 7  89936545.440 7     -2305.888          47.000
R06  21831629.438 5 116497765.327 5      3356.352          35.000
R11  20907135.305 8 111721470.723 8     -2848.375          51.000    20907136.930 7  86894459.125 7     -2215.406          46.000
C28  22323829.328 7 116246035.792 7     -1223.645          46.000
E26  26299580.648 5 138205228.418 5     -2363.578          31.000
E31  24876955.766 8 130729268.435 8     -2267.996          51.000    24876962.258 8 100169178.501 8     -1737.815          51.000
E33  23887694.562 8 125530712.813 8     -1034.207          51.000    23887694.922 8  96185891.218 8      -792.465          51.000
> 2020 05 18 15 03 30.0000000  0 10        .000000000000
G10  21648920.195 8 113765840.647 8      2099.246          49.000    21648924.297 8  88648724.121 8      1635.779          49.000
G16  20649950.383 8 108516227.023 8     -1127.719          51.000    20649949.336 8  84558077.963 8      -878.742          49.000
G18  22780506.031 5 119712352.907 5     -2977.430          35.000
G20  20975197.578 7 110225435.749 7      -235.980          47.000    20975196.320 6  85889999.690 6      -183.881          40.000
G26  21980420.023 8 115507895.797 8     -2985.664          48.000    21980425.094 8  90006142.236 8     -2326.491          48.000
R06  21812869.984 6 116397655.595 6      3326.598          37.000
R11  20923253.781 8 111807597.590 8     -2883.816          51.000    20923254.898 7  86961446.651 7     -2242.971          47.000
C28  22330967.906 7 116283208.877 7     -1245.273          44.000
E31  24890003.133 8 130797833.200 8     -2293.500          51.000    24890009.250 8 100221715.121 8     -1757.297          51.000
E33  23893684.008 8 125562187.583 8     -1054.520          51.000    23893684.117 8  96210008.252 8      -808.005          51.000
> 2020 05 18 15 04  0.0000000  0 12        .000000000000
G10  21636872.344 8 113702530.325 8      2092.977          49.000    21636876.266 8  88599391.432 8      1630.894          49.000
G16  20656333.445 8 108549771.883 8     -1137.289          51.000    20656332.594 8  84584216.805 8      -886.199          49.000
G18  22797413.875 5 119801220.368 5     -2972.762          33.000
G20  20976492.031 7 110232238.451 7      -246.195          45.000    20976491.250 6  85895300.521 6      -191.837          39.000
G26  21997388.312 8 115597063.368 8     -2987.418          48.000    21997392.953 8  90075623.430 8     -2327.858          48.000
R05  21742735.797 5 116227322.853 5      -512.625          33.000
R06  21794102.797 6 116297499.770 6      3321.516          38.000
R11  20939391.875 8 111893831.995 8     -2894.113          50.000    20939393.094 7  87028517.809 7     -2250.980          47.000
C27  22203178.625 5 115617765.159 5      1326.785          30.000
C28  22338053.852 7 116320107.879 7     -1242.957          43.000
E31  24903017.867 8 130866225.652 8     -2294.484          51.000    24903022.953 8 100274119.694 8     -1758.075          51.000
E33  23899611.172 8 125593335.295 8     -1050.383          51.000    23899611.148 8  96233874.670 8      -804.827          51.000
> 2020 05 18 15 04 30.0000000  0 11        .000000000000
G10  21624968.883 8 113639977.929 8      2085.848          51.000    21624972.516 8  88550649.368 8      1625.336          51.000
G16  20662879.453 8 108584174.039 8     -1147.348          50.000    20662878.938 8  84611023.642 8      -894.040          49.000
G20  20977952.695 7 110239915.129 7      -256.934          44.000    20977951.961 6  85901282.348 6      -200.208          36.000
G21  22627217.758 6 118906794.638 6     -2345.426          37.000
G26  22014474.836 8 115686850.906 8     -2989.754          49.000    22014478.875 8  90145587.738 8     -2329.678          49.000
R06  21775474.031 6 116198085.020 6      3314.977          40.000
R11  20955695.594 8 111980953.611 8     -2905.156          50.000    20955697.383 7  87096279.037 7     -2259.566          47.000
C27  22195552.312 5 115578072.250 5      1328.754          31.000
C28  22345233.938 7 116357496.331 7     -1240.973          43.000
E31  24916146.398 8 130935214.946 8     -2296.105          51.000    24916149.820 8 100326981.575 8     -1759.318          50.000
E33  23905622.602 8 125624926.005 8     -1047.012          51.000    23905622.711 8  96258080.533 8      -802.229          51.000
> 2020 05 18 15 05  0.0000000  0  9        .000000000000
G10  21613203.367 8 113578148.116 8      2047.742          51.000    21613206.453 8  88502470.326 8      1595.646          51.000
G16  20669581.562 8 108619395.293 8     -1188.836          50.000    20669580.789 8  84638468.755 8      -926.366          48.000
G20  20979572.562 6 110248427.909 6      -298.844          41.000    20979572.383 5  85907915.693 5      -232.862          35.000
G26  22031671.812 8 115777218.680 8     -3023.086          49.000    22031675.242 8  90216004.157 8     -2355.651          49.000
R06  21756977.586 6 116099377.815 6      3277.191          40.000
R11  20972157.828 8 112068920.483 8     -2947.438          50.000    20972159.922 8  87164697.673 8     -2292.451          48.000
C28  22352501.164 6 116395336.904 6     -1270.043          41.000
E31  24929381.148 8 131004762.120 8     -2328.723          51.000    24929382.695 8 100380270.897 8     -1784.370          50.000
E33  23911711.102 8 125656921.619 8     -1074.469          51.000    23911711.438 8  96282596.649 8      -823.294          51.000
> 2020 05 18 15 05 30.0000000  0 10        .000000000000
G10  21601461.906 8 113516443.731 8      2042.582          51.000    21601464.320 8  88454388.991 8      1591.622          51.000
G16  20676325.344 8 108654835.481 8     -1197.105          48.000    20676324.352 8  84666084.463 8      -932.809          48.000
G20  20981237.109 6 110257177.258 6      -307.797          41.000    20981237.797 5  85914733.520 5      -239.833          32.000
G26  22048864.633 8 115867565.238 8     -3023.207          50.000    22048867.289 8  90286404.022 8     -2355.746          50.000
R05  21752062.375 5 116277209.939 5      -596.258          32.000    21752066.797 4  90437870.084 4      -463.756          26.000
R06  21738500.023 6 116000774.355 6      3272.691          38.000
R11  20988663.195 8 112157119.391 8     -2956.172          49.000    20988665.844 7  87233296.801 7     -2299.245          47.000
C28  22359741.320 7 116433035.720 7     -1266.438          42.000
E31  24942607.523 8 131074266.492 8     -2328.242          51.000    24942607.867 8 100433527.417 8     -1783.984          50.000
E33  23917762.547 8 125688722.359 8     -1068.906          51.000    23917763.117 8  96306963.447 8      -819.005          51.000
> 2020 05 18 15 06  0.0000000  0  9        .000000000000
G10  21589874.945 8 113455551.879 8      2029.934          51.000    21589877.086 8  88406940.829 8      1581.766          51.000
G16  20683241.023 7 108691178.990 7     -1212.812          47.000    20683240.367 7  84694404.039 7      -945.052          47.000
G20  20983077.469 6 110266848.076 6      -324.035          41.000    20983077.141 6  85922269.204 6      -252.495          38.000
G26  22066183.227 8 115958573.400 8     -3030.895          51.000    22066185.031 8  90357319.407 8     -2361.739          50.000
R06  21720172.188 5 115902974.634 5      3260.477          34.000
R11  21005340.445 8 112246242.965 8     -2972.188          49.000    21005344.016 7  87302615.185 7     -2311.698          47.000
C28  22367084.531 7 116471271.577 7     -1269.742          43.000
E31  24955955.414 8 131144411.634 8     -2335.148          51.000    24955956.133 8 100487274.923 8     -1789.294          50.000
E33  23923907.273 8 125721012.794 8     -1070.855          51.000    23923908.000 8  96331705.461 8      -820.526          51.000
> 2020 05 18 15 06 30.0000000  0 10        .000000000000
G10  21578266.156 8 113394546.119 8      2012.492          51.000    21578268.328 8  88359403.923 8      1568.179          51.000
G16  20690152.266 8 108727496.659 8     -1233.188          48.000    20690151.539 8  84722703.505 8      -960.925          48.000
G18  22882603.258 5 120248894.643 5     -2997.055          34.000    22882601.281 5  93700426.703 5     -2335.367          31.000
G20  20984916.312 6 110276511.309 6      -344.922          41.000    20984915.719 6  85929799.000 6      -268.770          39.000
G26  22083450.469 8 116049312.395 8     -3043.047          50.000    22083451.625 8  90428025.043 8     -2371.205          50.000
R06  21701817.664 5 115805040.575 5      3243.066          35.000
R11  21022014.055 8 112335343.314 8     -2992.988          51.000    21022017.102 7  87371915.418 7     -2327.880          46.000
C28  22374354.055 7 116509124.299 7     -1278.094          45.000
E31  24969248.039 8 131214267.619 8     -2346.609          49.000    24969250.148 8 100540800.892 8     -1798.054          51.000
E33  23929968.453 8 125752863.902 8     -1077.324          51.000    23929969.266 8  96356110.838 8      -825.455          51.000
> 2020 05 18 15 07  0.0000000  0  9        .000000000000
G10  21566842.117 8 113334511.229 8      1983.578          51.000    21566844.336 8  88312623.511 8      1545.648          51.000
G16  20697264.469 7 108764870.124 7     -1264.852          47.000    20697263.750 8  84751825.688 8      -985.599          48.000
G20  20986959.781 7 110287249.158 7      -377.094          42.000    20986959.844 6  85938166.131 6      -293.842          40.000
G26  22100871.820 8 116140862.626 8     -3066.691          48.000    22100872.977 8  90499362.838 8     -2389.633          49.000
R06  21683645.297 6 115708075.876 6      3214.496          37.000
R11  21038888.859 8 112425517.329 8     -3025.098          49.000    21038891.281 7  87442050.686 7     -2352.857          45.000
C28  22381756.102 7 116547666.566 7     -1297.715          46.000
E31  24982691.445 8 131284915.584 8     -2369.602          49.000    24982695.086 8 100594933.721 8     -1815.645          51.000
E33  23936151.812 8 125785357.747 8     -1095.301          51.000    23936152.742 8  96381008.712 8      -839.224          51.000
> 2020 05 18 15 07 30.0000000  0 11        .000000000000
G10  21555508.047 8 113274950.020 8      1989.316          51.000    21555509.953 8  88266212.156 8      1550.117          51.000
G16  20704482.305 8 108802799.428 8     -1261.633          48.000    20704481.820 8  84781380.984 8      -983.091          49.000
G20  20989112.672 7 110298562.030 7      -374.688          42.000    20989112.555 7  85946981.378 7      -291.964          42.000
G26  22118351.703 7 116232722.570 7     -3055.172          47.000    22118353.836 8  90570941.979 8     -2380.653          48.000
R05  21766609.188 5 116354943.801 5      -692.266          31.000
R06  21665561.758 6 115611577.503 6      3221.105          38.000
R11  21055867.883 7 112516253.322 7     -3021.582          46.000    21055871.367 7  87512623.096 7     -2350.119          46.000
R21  19778727.383 4 105839947.842 4      -485.961          27.000
C28  22389195.430 7 116586403.590 7     -1282.605          46.000
E31  24996190.602 8 131355854.801 8     -2357.590          50.000    24996195.523 8 100649289.731 8     -1806.483          51.000
E33  23942362.258 8 125817994.617 8     -1078.336          51.000    23942363.312 8  96406016.173 8      -826.293          51.000
> 2020 05 18 15 08  0.0000000  0  9        .000000000000
G10  21544258.070 8 113215833.255 8      1965.445          51.000    21544260.117 8  88220147.174 8      1531.516          51.000
G16  20711799.961 8 108841252.609 8     -1288.215          50.000    20711799.547 8  84811344.485 8     -1003.804          49.000
G20  20991368.898 7 110310418.183 7      -402.043          44.000    20991368.422 7  85956219.891 7      -313.283          42.000
G26  22135883.969 7 116324858.848 7     -3073.504          46.000    22135887.445 7  90642736.451 7     -2394.938          47.000
R06  21647560.688 6 115515519.144 6      3196.945          36.000
R11  21072945.570 8 112607515.710 8     -3048.391          49.000    21072950.344 7  87583604.950 7     -2370.970          46.000
C28  22396665.969 7 116625304.434 7     -1297.125          47.000
E31  25009739.477 8 131427052.680 8     -2375.258          51.000    25009745.070 8 100703843.932 8     -1819.997          51.000
E33  23948593.891 8 125850742.828 8     -1091.137          51.000    23948594.992 8  96431108.947 8      -836.063          51.000
> 2020 05 18 15 08 30.0000000  0 10        .000000000000
G10  21533045.977 8 113156915.257 8      1957.004          51.000    21533048.258 8  88174237.074 8      1524.938          51.000
G16  20719170.172 8 108879980.963 8     -1299.246          51.000    20719169.359 8  84841522.434 8     -1012.400          50.000
G20  20993681.578 7 110322569.429 7      -413.590          43.000    20993681.312 7  85965688.384 7      -322.275          43.000
G26  22153421.359 7 116417021.450 7     -3076.066          47.000    22153426.062 7  90714551.458 7     -2396.935          46.000
R05  21774757.305 5 116398456.179 5      -745.922          31.000
R06  21629595.906 6 115419653.360 6      3188.566          40.000
R11  21090075.047 8 112699048.673 8     -3059.234          50.000    21090079.602 7  87654797.165 7     -2379.408          46.000
C28  22404120.617 7 116664123.492 7     -1296.086          46.000
E31  25023290.547 8 131498259.999 8     -2377.391          51.000    25023296.008 8 100758405.369 8     -1821.526          51.000
E33  23954799.477 8 125883354.126 8     -1088.340          51.000    23954800.609 8  96456096.816 8      -833.899          51.000
> 2020 05 18 15 09  0.0000000  0 12        .000000000000
G10  21521948.023 8 113098595.856 8      1933.250          50.000    21521950.203 8  88128793.369 8      1506.432          50.000
G16  20726668.047 8 108919381.236 8     -1325.230          51.000    20726667.125 8  84872223.937 8     -1032.647          50.000
G18  22968410.312 5 120699810.746 5     -3015.531          32.000
G20  20996125.594 7 110335413.056 7      -440.340          45.000    20996125.289 7  85975696.403 7      -343.122          42.000
G26  22171039.648 8 116509605.881 8     -3093.953          48.000    22171044.484 8  90786695.146 8     -2410.873          48.000
R05  21779040.055 5 116421385.010 5      -779.906          33.000    21779058.445 4  90550066.861 4      -606.588          26.000
R06  21611743.539 6 115324388.501 6      3164.598          39.000
R11  21107330.391 8 112791252.439 8     -3085.324          49.000    21107333.695 7  87726511.116 7     -2399.700          46.000
C27  22128666.414 5 115229748.021 5      1261.000          30.000
C28  22411634.961 7 116703254.861 7     -1310.348          45.000
E31  25036918.859 8 131569873.008 8     -2394.512          51.000    25036923.656 8 100813277.644 8     -1834.759          51.000
E33  23961054.680 8 125916225.776 8     -1100.738          51.000    23961055.891 8  96481284.177 8      -843.405          51.000
> 2020 05 18 15 09 30.0000000  0 12        .000000000000
G10  21510997.602 8 113041051.612 8      1907.797          51.000    21511000.070 8  88083953.708 8      1486.592          51.000
G16  20734326.609 8 108959627.600 8     -1353.102          51.000    20734325.992 8  84903584.702 8     -1054.368          51.000
G20  20998734.930 7 110349123.372 7      -469.070          44.000    20998733.852 7  85986379.732 7      -365.509          42.000
G26  22188771.570 8 116602784.521 8     -3113.289          50.000    22188775.750 8  90859301.859 8     -2425.943          50.000
R06  21594037.508 6 115229906.156 6      3138.941          38.000
R11  21124743.594 8 112884300.912 8     -3113.027          49.000    21124746.352 7  87798882.099 7     -2421.247          45.000
R21  19790250.383 5 105901588.152 5      -544.727          31.000    19790245.797 4  82367915.347 4      -423.682          24.000
C27  22121459.344 5 115192228.584 5      1244.914          34.000
C28  22419242.320 7 116742871.556 7     -1326.043          44.000
E12  22343573.500 5 117416271.507 5      1130.438          34.000    22343572.531 5  89968308.397 5       866.278          33.000
E31  25050657.070 8 131642064.925 8     -2413.492          51.000    25050661.180 8 100868593.494 8     -1849.233          51.000
E33  23967392.664 8 125949532.001 8     -1114.852          51.000    23967394.016 8  96506804.525 8      -854.249          51.000
> 2020 05 18 15 10  0.0000000  0 12        .000000000000
G10  21500103.266 8 112983801.975 8      1903.473          51.000    21500105.719 8  88039343.647 8      1483.225          51.000
G16  20742054.211 8 109000236.271 8     -1359.566          51.000    20742053.703 8  84935227.794 8     -1059.402          51.000
G20  21001417.047 7 110363217.180 7      -476.016          44.000    21001416.312 7  85997361.932 7      -370.924          42.000
G26  22206524.492 8 116696072.637 8     -3111.164          51.000    22206527.602 8  90931993.851 8     -2424.287          51.000
R06  21576387.820 6 115135720.998 6      3134.734          39.000
R11  21142221.945 8 112977699.205 8     -3118.918          50.000    21142224.141 7  87871525.184 7     -2425.825          44.000
R21  19793279.945 5 105917795.398 5      -541.992          31.000
C27  22114251.977 4 115154713.043 4      1250.297          26.000
C28  22426851.273 7 116782495.451 7     -1320.898          46.000
E12                                                                  22337088.180 5  89942195.352 5       870.528          35.000
E31  25064412.961 8 131714351.692 8     -2411.062          51.000    25064416.273 8 100923982.018 8     -1847.452          50.000
E33  23973721.445 8 125982789.766 8     -1107.723          51.000    23973722.930 8  96532287.738 8      -848.786          51.000
> 2020 05 18 15 10 30.0000000  0 12        .000000000000
G10  21489260.617 8 112926822.757 8      1884.461          51.000    21489262.844 8  87994944.287 8      1468.414          51.000
G16  20749845.508 8 109041180.320 8     -1380.832          51.000    20749845.164 8  84967132.235 8     -1075.976          50.000
G20  21004167.102 7 110377667.922 7      -497.980          45.000    21004165.891 6  86008622.238 6      -388.037          39.000
G26  22224292.688 8 116789441.733 8     -3124.113          51.000    22224294.602 8  91004748.927 8     -2434.377          51.000
R05  21792858.367 5 116495262.164 5      -859.816          34.000    21792860.727 4  90607459.904 4      -668.743          28.000
R06  21558789.453 6 115041810.717 6      3115.270          39.000
R11  21159760.039 8 113071416.754 8     -3139.727          51.000    21159760.961 7  87944416.558 7     -2442.013          42.000
R21  19796323.812 5 105934082.939 5      -554.836          34.000    19796323.633 4  82393189.055 4      -431.536          28.000
C28  22434457.047 7 116822100.417 7     -1330.043          47.000
E12  22330592.273 5 117348055.075 5      1128.121          31.000    22330596.820 6  89916050.242 6       864.105          36.000
E31  25078181.203 8 131786705.609 8     -2423.305          51.000    25078183.477 8 100979421.985 8     -1856.800          50.000
E33  23980035.914 8 126015972.410 8     -1115.270          51.000    23980037.391 8  96557713.385 8      -854.539          51.000
> 2020 05 18 15 11  0.0000000  0 12        .000000000000
G10  21478554.039 8 112870557.757 8      1870.531          51.000    21478555.891 8  87951101.439 8      1457.560          51.000
G16  20757784.375 8 109082900.699 8     -1396.758          51.000    20757784.266 8  84999641.588 8     -1088.383          50.000
G20  21007068.922 6 110392916.577 6      -514.754          41.000    21007067.227 6  86020504.256 6      -401.110          39.000
G26  22242159.680 8 116883331.307 8     -3131.352          50.000    22242160.195 8  91077909.554 8     -2440.017          50.000
R06  21541327.039 5 114948628.578 5      3101.230          34.000
R11  21177440.742 8 113165898.594 8     -3155.078          51.000    21177440.844 7  88017902.361 7     -2453.953          42.000
R21  19799464.414 5 105950900.160 5      -562.047          31.000    19799469.188 5  82406269.103 5      -437.148          30.000
C28  22442143.633 7 116862124.270 7     -1334.203          47.000
E12                                                                  22324179.211 5  89890211.565 5       861.459          35.000
E26  26516035.461 5 139342671.944 5     -2365.824          35.000
E31  25092045.609 8 131859567.002 8     -2430.215          51.000    25092047.250 8 101035250.803 8     -1862.047          50.000
E33  23986420.039 8 126049521.260 8     -1117.426          51.000    23986421.469 8  96583419.644 8      -856.170          51.000
> 2020 05 18 15 11 30.0000000  0 14        .000000000000
G10  21467931.297 8 112814733.543 8      1852.480          51.000    21467933.484 8  87907602.084 8      1443.491          51.000
G16  20765818.523 8 109125120.660 8     -1416.613          51.000    20765818.383 8  85032540.235 8     -1103.855          50.000
G20  21010069.773 7 110408687.347 7      -535.500          42.000    21010068.648 6  86032793.195 6      -417.273          37.000
G26  22260072.625 8 116977463.795 8     -3142.816          50.000    22260072.273 8  91151259.443 8     -2448.951          50.000
G27  20652955.773 5 108532026.487 5      1258.691          33.000    20652954.766 5  84570393.465 5       980.802          32.000
R06  21523947.555 5 114855899.515 5      3082.309          31.000
R11  21195211.656 8 113260860.846 8     -3174.316          51.000    21195212.492 7  88091761.841 7     -2468.913          44.000
R21  19802652.922 5 105967995.432 5      -574.062          30.000    19802660.680 5  82419542.837 5      -446.496          30.000
R22  21336234.898 5 113894250.428 5      2290.520          33.000
C28  22449858.117 7 116902294.155 7     -1342.434          47.000
E12                                                                  22317783.062 5  89864468.371 5       855.455          34.000
E26  26529553.117 5 139413734.988 5     -2367.945          35.000
E31  25105953.477 8 131932659.041 8     -2441.266          49.000    25105955.156 8 101091256.368 8     -1870.589          51.000
E33  23992821.414 8 126083160.551 8     -1123.879          51.000    23992822.766 8  96609195.203 8      -861.193          51.000
> 2020 05 18 15 12  0.0000000  0 13        .000000000000
G10  21457418.500 8 112759486.883 8      1833.289          51.000    21457420.875 8  87864552.769 8      1428.537          51.000
G16  20773973.289 8 109167974.342 8     -1437.637          51.000    20773972.719 8  85065932.681 8     -1120.236          49.000
G18  23072097.211 5 121244689.588 5     -3040.637          31.000
G20  21013195.688 6 110425114.726 6      -557.422          40.000    21013194.133 5  86045593.658 5      -434.361          34.000
G26  22278056.875 8 117071971.772 8     -3155.156          48.000    22278056.656 8  91224901.946 8     -2458.566          48.000
R06  21506680.539 6 114763764.239 6      3062.441          37.000
R11  21213097.930 8 113356436.699 8     -3194.719          51.000    21213099.555 7  88166098.600 7     -2484.784          44.000
R21  19805915.289 4 105985447.821 4      -588.320          27.000    19805920.016 4  82433116.915 4      -457.586          27.000
C28  22457626.234 7 116942743.651 7     -1351.527          47.000
E12                                                                  22311437.031 5  89838923.829 5       849.197          34.000
E26  26543084.031 5 139484840.421 5     -2369.852          35.000    26543088.672 5 106878002.162 5     -1815.986          34.000
E31  25119930.617 8 132006115.097 8     -2453.184          49.000    25119933.148 8 101147540.857 8     -1879.787          51.000
E33  23999265.578 8 126117024.697 8     -1131.238          51.000    23999266.977 8  96635143.043 8      -866.787          51.000
> 2020 05 18 15 12 30.0000000  0 13        .000000000000
G10  21446982.625 8 112704644.902 8      1819.480          51.000    21446984.969 8  87821818.773 8      1417.780          51.000
G16  20782215.406 8 109211286.170 8     -1453.250          51.000    20782214.039 8  85099682.137 8     -1132.403          49.000
G18  23089452.766 5 121335827.725 5     -3040.090          35.000
G20  21016412.836 6 110442023.139 6      -573.508          39.000    21016412.820 5  86058768.995 5      -446.895          35.000
G26  22296078.516 7 117166678.149 7     -3162.027          46.000    22296079.594 7  91298699.062 7     -2463.917          46.000
R06  21489493.883 6 114672049.765 6      3048.031          41.000
R11  21231064.758 8 113452444.303 8     -3209.328          50.000    21231066.742 7  88240771.148 7     -2496.144          43.000
R21  19809216.703 4 106003107.812 4      -594.457          27.000    19809216.711 4  82446876.438 4      -462.355          27.000
C28  22465414.594 7 116983299.509 7     -1355.457          47.000
E12  22305112.977 5 117214159.963 5      1105.355          31.000    22305109.789 5  89813443.940 5       846.458          34.000
E26  26556595.125 5 139555849.465 5     -2367.023          32.000    26556601.555 5 106932410.186 5     -1814.008          31.000
E31  25133944.078 8 132079758.851 8     -2459.734          49.000    25133947.820 8 101203969.172 8     -1884.815          51.000
E33  24005719.148 8 126150938.443 8     -1133.141          51.000    24005720.695 8  96661128.901 8      -868.251          51.000
> 2020 05 18 15 13  0.0000000  0 14        .000000000000
G10  21436647.453 8 112650333.623 8      1801.688          51.000    21436650.219 8  87779498.290 8      1403.912          51.000
G16  20790568.039 8 109255179.013 8     -1472.531          49.000    20790566.359 8  85133884.356 8     -1147.427          49.000
G18  23106827.219 6 121427119.274 6     -3045.105          36.000
G20  21019745.141 5 110459535.801 5      -593.059          33.000    21019746.922 4  86072415.115 4      -462.124          28.000
G26  22314160.312 7 117261704.686 7     -3172.797          43.000    22314163.836 7  91372745.710 7     -2472.309          44.000
G27  20631691.422 5 108420286.474 5      1225.656          34.000
R06  21472411.031 6 114580886.947 6      3029.664          39.000
R11  21249134.742 8 113549005.471 8     -3227.680          50.000    21249136.719 7  88315874.224 7     -2510.421          44.000
R22  21297785.852 5 113689053.304 5      2269.039          30.000    21297793.609 5  88424823.579 5      1764.808          30.000
C28  22473246.727 7 117024084.596 7     -1363.188          46.000
E12  22298824.734 5 117181114.889 5      1098.605          31.000    22298823.273 5  89788123.680 5       841.456          35.000
E26                                                                  26570116.789 5 106986850.608 5     -1814.507          31.000
E31  25148017.258 8 132153712.891 8     -2470.113          50.000    25148021.883 8 101260635.221 8     -1892.726          51.000
E33  24012205.742 8 126185025.431 8     -1139.031          51.000    24012207.336 8  96687247.490 8      -872.758          51.000
> 2020 05 18 15 13 30.0000000  0 15        .000000000000
G10  21426413.406 8 112596554.714 8      1784.480          51.000    21426416.516 8  87737592.651 8      1390.504          51.000
G16  20799030.781 8 109299651.626 8     -1491.301          49.000    20799029.133 8  85168538.343 8     -1162.053          48.000
G18  23124225.594 5 121518547.025 5     -3049.137          31.000
G20  21023191.883 6 110477652.236 6      -613.121          38.000    21023194.469 6  86086531.775 6      -477.760          36.000
G26  22332302.250 7 117357048.994 7     -3182.699          44.000    22332308.469 7  91447039.979 7     -2480.025          44.000
R05  21824485.164 5 116664286.873 5     -1018.383          33.000
R06  21455431.602 6 114490279.886 6      3011.652          36.000
R11  21267308.031 8 113646116.160 8     -3245.426          50.000    21267309.648 7  88391404.697 7     -2524.220          44.000
R21  19816003.516 4 106039436.537 4      -615.137          28.000    19816000.992 5  82475109.409 5      -478.440          30.000
C27  22064829.102 4 114897369.069 4      1201.309          29.000
C28  22481122.547 7 117065098.816 7     -1370.105          46.000
E12  22292575.422 5 117148273.986 5      1092.098          34.000    22292576.664 5  89762964.960 5       836.476          33.000
E26                                                                  26583637.188 5 107041295.431 5     -1814.558          33.000
E31  25162149.602 8 132227975.553 8     -2479.820          50.000    25162154.602 8 101317537.744 8     -1900.092          51.000
E33  24018725.195 8 126219285.068 8     -1144.117          51.000    24018726.695 8  96713498.376 8      -876.673          51.000
> 2020 05 18 15 14  0.0000000  0 13        .000000000000
G10  21416302.758 8 112543423.619 8      1769.645          51.000    21416306.258 8  87696191.807 8      1378.944          51.000
G16  20807625.438 8 109344816.801 8     -1507.520          49.000    20807623.805 8  85203731.990 8     -1174.691          49.000
G20  21026775.625 6 110496485.449 6      -630.523          39.000    21026778.344 6  86101206.882 6      -491.320          38.000
G26  22350526.961 7 117452822.359 7     -3190.137          46.000    22350533.703 7  91521668.580 7     -2485.821          46.000
R06  21438579.219 6 114400348.324 6      2996.094          38.000
R11  21285605.055 8 113743887.682 8     -3260.473          49.000    21285606.109 7  88467449.182 7     -2535.926          45.000
R21  19819511.688 5 106058226.384 5      -623.672          30.000    19819509.461 5  82489713.331 5      -485.084          31.000
R22  21272387.672 4 113553461.771 4      2257.297          29.000
C28  22489064.203 7 117106454.627 7     -1374.715          46.000
E12  22286388.305 5 117115759.742 5      1088.145          34.000    22286390.977 5  89738060.714 5       833.372          30.000
E26                                                                  26597185.766 5 107095848.519 5     -1812.568          32.000
E31  25176362.000 8 132302658.850 8     -2487.031          50.000    25176366.984 8 101374762.574 8     -1905.617          51.000
E33  24025299.062 8 126253830.503 8     -1146.785          51.000    24025300.312 8  96739968.244 8      -878.747          51.000
> 2020 05 18 15 14 30.0000000  0 14        .000000000000
G10  21406241.609 8 112490551.465 8      1747.852          51.000    21406244.930 8  87654992.744 8      1361.965          51.000
G16  20816277.484 8 109390282.585 8     -1530.645          50.000    20816276.047 8  85239159.879 8     -1192.710          49.000
G20  21030421.539 5 110515643.702 5      -654.461          34.000    21030423.086 5  86116135.291 5      -509.960          33.000
G21  22899787.375 5 120339191.081 5     -2420.602          33.000    22899773.930 4  93770745.340 4     -1886.183          29.000
G26  22368759.219 7 117548631.807 7     -3204.363          47.000    22368765.469 7  91596325.258 7     -2496.909          47.000
R05  21836215.852 5 116727010.040 5     -1073.992          34.000    21836224.195 4  90787735.973 4      -835.336          26.000
R06  21421779.648 6 114310698.950 6      2973.434          40.000
R11  21303949.453 7 113841918.562 7     -3282.273          46.000    21303951.734 7  88543695.387 7     -2552.879          46.000
R21  19823025.961 5 106077052.725 5      -638.367          33.000    19823032.203 5  82504356.053 5      -496.511          34.000
R22  21259721.438 5 113485834.073 5      2245.410          31.000
C28  22496997.062 7 117147764.910 7     -1386.398          45.000
E26                                                                  26610686.852 5 107150206.523 5     -1816.659          34.000
E31  25190579.570 8 132377370.574 8     -2500.875          49.000    25190584.414 8 101432009.192 8     -1916.288          51.000
E33  24031852.945 8 126288270.623 8     -1156.312          51.000    24031853.859 8  96766357.407 8      -886.003          51.000
> 2020 05 18 15 15  0.0000000  0 12        .000000000000
G10  21396282.344 8 112438214.568 8      1738.289          51.000    21396285.539 8  87614210.775 8      1354.511          51.000
G16  20825038.734 8 109436322.305 8     -1541.582          50.000    20825037.328 8  85275035.002 8     -1201.233          50.000
G20  21034181.016 6 110535400.793 6      -665.824          38.000    21034182.414 6  86131530.407 6      -518.830          38.000
G26  22387050.398 8 117644749.505 8     -3206.457          48.000    22387055.531 8  91671222.128 8     -2498.538          48.000
R05  21842294.695 4 116759472.228 4     -1093.000          28.000    21842308.266 4  90813047.933 4      -850.108          26.000
R06  21405084.992 5 114221615.971 5      2962.785          34.000
R11  21322392.703 7 113940483.874 7     -3291.598          46.000    21322397.023 7  88620357.256 7     -2560.132          47.000
R21  19826607.445 6 106096209.012 6      -641.211          36.000    19826613.594 5  82519255.359 5      -498.723          32.000
C28  22504973.805 7 117189301.592 7     -1385.738          46.000
E26                                                                  26624191.633 5 107204583.519 5     -1810.811          35.000
E31  25204854.016 8 132452383.671 8     -2502.898          48.000    25204858.805 8 101489486.724 8     -1917.739          51.000
E33  24038438.859 8 126322879.491 8     -1153.852          51.000    24038439.562 8  96792875.872 8      -884.081          51.000
> 2020 05 18 15 15 30.0000000  0 13        .000000000000
G10  21386418.812 8 112386381.264 8      1716.238          51.000    21386422.109 8  87573821.247 8      1337.332          51.000
G16  20833902.438 8 109482901.533 8     -1564.684          49.000    20833901.258 8  85311330.488 8     -1219.234          49.000
G18  23193989.148 5 121885251.606 5     -3062.516          30.000
G20  21038048.562 6 110555722.497 6      -690.031          38.000    21038049.102 6  86147365.430 6      -537.690          37.000
G26  22405393.500 8 117741139.680 8     -3220.473          48.000    22405397.375 8  91746331.307 8     -2509.459          48.000
R05  21848509.711 5 116792723.989 5     -1124.496          33.000    21848516.375 4  90838840.138 4      -874.617          28.000
R06  21388491.180 6 114133069.200 6      2939.277          38.000
R11  21340930.773 8 114039545.474 8     -3313.414          49.000    21340935.625 8  88697405.133 8     -2577.103          48.000
R21  19830244.820 6 106115660.707 6      -656.418          40.000    19830246.242 5  82534384.478 5      -510.544          30.000
C28  22512988.062 7 117231031.538 7     -1397.273          46.000
E26                                                                  26637693.906 5 107258951.911 5     -1814.759          34.000
E31  25219178.633 7 132527663.113 7     -2516.906          47.000    25219183.492 8 101547168.363 8     -1928.580          51.000
E33  24045050.398 8 126357623.209 8     -1163.500          51.000    24045051.016 8  96819497.675 8      -891.558          51.000
> 2020 05 18 15 16  0.0000000  0 13        .000000000000
G10  21376665.172 8 112335124.464 8      1699.441          51.000    21376668.312 8  87533880.933 8      1324.243          51.000
G16  20842881.750 8 109530090.028 8     -1582.645          49.000    20842881.102 8  85348100.708 8     -1233.233          49.000
G18  23211482.555 5 121977172.660 5     -3066.715          34.000
G20  21042036.820 6 110576679.276 6      -708.605          38.000    21042036.453 6  86163695.433 6      -552.157          38.000
G26  22423801.445 8 117837871.124 8     -3229.551          48.000    22423804.555 7  91821706.401 7     -2516.533          47.000
R05  21854889.141 5 116826817.859 5     -1149.836          34.000    21854894.891 5  90865357.643 5      -894.314          31.000
R06  21372012.969 6 114045135.378 6      2921.234          37.000
R11  21359575.445 8 114139171.502 8     -3329.762          51.000    21359579.602 7  88774891.970 7     -2589.815          47.000
R21  19833949.359 5 106135480.109 5      -666.465          35.000    19833945.594 4  82549794.040 4      -518.368          26.000
C28  22521052.914 7 117273025.140 7     -1403.742          46.000
E26  26651202.930 5 140053013.484 5     -2367.637          33.000    26651207.336 5 107313365.954 5     -1813.870          33.000
E31  25233567.180 8 132603278.447 8     -2525.559          48.000    25233572.148 8 101605107.383 8     -1935.174          51.000
E33  24051701.039 8 126392572.461 8     -1167.848          51.000    24051701.719 8  96846276.956 8      -894.865          51.000
> 2020 05 18 15 16 30.0000000  0 14        .000000000000
G10  21367006.445 8 112284367.131 8      1683.750          51.000    21367009.391 8  87494329.791 8      1312.013          51.000
G16  20851961.852 8 109577808.141 8     -1599.168          50.000    20851961.391 8  85385283.611 8     -1246.105          49.000
G18  23228991.414 5 122069178.314 5     -3067.527          34.000
G20  21046130.906 6 110598191.764 6      -726.285          41.000    21046130.117 6  86180458.357 6      -565.943          39.000
G21  22955092.406 5 120629848.211 5     -2427.383          32.000
G26  22442258.570 7 117934862.647 7     -3237.125          47.000    22442261.461 7  91897284.162 7     -2522.438          47.000
R05  21861411.188 5 116861681.653 5     -1175.051          30.000    21861418.000 4  90892474.091 4      -913.922          29.000
R06  21355633.047 4 113957738.140 4      2904.176          29.000
R11  21378309.906 8 114239277.367 8     -3344.500          51.000    21378312.695 7  88852752.041 7     -2601.278          46.000
R21  19837706.719 5 106155586.492 5      -674.891          34.000    19837700.062 4  82565424.303 4      -524.918          26.000
C28  22529153.289 7 117315204.308 7     -1408.895          45.000
E26  26664713.305 5 140124013.424 5     -2366.359          34.000    26664716.992 5 107367765.330 5     -1812.735          34.000
E31  25248005.234 8 132679149.369 8     -2533.082          50.000    25248009.500 8 101663242.222 8     -1940.912          51.000
E33  24058375.695 8 126427648.042 8     -1171.066          51.000    24058376.617 8  96873153.029 8      -897.305          51.000
> 2020 05 18 15 17  0.0000000  0 13        .000000000000
G10  21357446.148 8 112234128.884 8      1666.457          50.000    21357449.211 8  87455183.127 8      1298.538          50.000
G16  20861146.211 8 109626072.481 8     -1617.379          50.000    20861145.617 8  85422892.183 8     -1260.295          49.000
G18  23246517.812 5 122161285.012 5     -3071.840          33.000    23246525.289 5  95190634.999 5     -2393.641          32.000
G20  21050333.648 6 110620276.741 6      -745.164          40.000    21050332.641 6  86197667.432 6      -580.644          40.000
G26  22460767.586 7 118032129.830 7     -3246.418          46.000    22460770.992 7  91973076.729 7     -2529.679          46.000
R05  21868078.906 5 116897414.355 5     -1200.117          30.000    21868083.391 5  90920202.476 5      -933.421          31.000
R06  21339359.586 5 113870900.697 5      2885.551          32.000
R11  21397136.195 8 114339877.292 8     -3360.988          51.000    21397138.211 7  88930996.380 7     -2614.102          46.000
R21  19841519.930 5 106175997.895 5      -684.984          35.000    19841514.492 4  82581299.361 4      -532.772          27.000
C28  22537293.000 7 117357586.721 7     -1415.641          44.000
E26  26678223.016 5 140195007.857 5     -2365.801          32.000    26678226.891 5 107422163.649 5     -1812.712          34.000
E31  25262495.578 8 132755292.188 8     -2542.105          51.000    25262498.609 8 101721585.385 8     -1947.880          51.000
E33  24065077.672 8 126462867.380 8     -1175.875          51.000    24065078.938 8  96900139.251 8      -900.992          51.000
> 2020 05 18 15 17 30.0000000  0 12        .000000000000
G10  21347982.734 8 112184403.080 8      1649.297          49.000    21347986.367 8  87416435.731 8      1285.166          48.000
G16  20870432.695 8 109674873.211 8     -1635.281          50.000    20870431.914 8  85460918.693 8     -1274.245          49.000
G18  23264061.766 5 122253482.625 5     -3074.371          34.000    23264065.773 5  95262445.140 5     -2395.614          34.000
G20  21054643.734 6 110642924.943 6      -764.074          41.000    21054641.242 6  86215315.346 6      -595.386          40.000
G26  22479327.039 7 118129661.916 7     -3255.098          47.000    22479331.031 7  92049075.705 7     -2536.443          47.000
R11  21416052.141 8 114440958.569 8     -3377.137          51.000    21416054.172 7  89009615.111 7     -2626.662          47.000
R21  19845388.938 5 106196705.369 5      -694.777          35.000    19845386.102 5  82597405.217 5      -540.379          30.000
C28  22545469.883 6 117400163.978 6     -1422.137          41.000
E19  28491282.492 7 149722699.977 7      2855.188          43.000    28491285.188 6 114722589.997 6      2187.819          39.000
E26                                                                  26691735.453 5 107476554.374 5     -1812.673          34.000
E31  25277036.086 8 132831696.862 8     -2550.887          51.000    25277037.688 8 101780129.176 8     -1954.564          50.000
E33  24071805.328 8 126498221.657 8     -1180.461          51.000    24071806.945 8  96927228.872 8      -904.473          51.000
> 2020 05 18 15 18  0.0000000  0 13        .000000000000
G10  21338615.695 8 112135181.731 8      1631.973          51.000    21338619.578 8  87378081.432 8      1271.667          51.000
G16  20879819.367 8 109724199.478 8     -1653.254          51.000    20879818.352 8  85499354.703 8     -1288.250          48.000
G18  23281621.156 6 122345760.358 6     -3077.168          36.000    23281625.742 5  95334383.751 5     -2397.790          32.000
G20  21059058.914 6 110666125.994 6      -782.789          38.000    21059056.711 6  86233394.065 6      -609.969          38.000
G21  22996737.906 4 120848732.132 4     -2435.719          29.000
G26  22497934.867 8 118227446.975 8     -3263.969          48.000    22497939.492 8  92125271.800 8     -2543.355          48.000
R06  21307123.461 5 113698881.043 5      2847.934          31.000
R11  21435055.883 8 114542507.292 8     -3393.016          51.000    21435057.914 7  89088597.400 7     -2639.012          47.000
C28  22553681.641 6 117442926.599 6     -1428.797          41.000
E19  28474980.883 7 149637033.531 7      2855.621          43.000    28474982.070 6 114656949.564 6      2188.172          39.000
E26                                                                  26705240.062 5 107530929.992 5     -1812.607          34.000
E31  25291624.172 8 132908352.185 8     -2559.609          51.000    25291624.719 8 101838865.029 8     -1961.259          50.000
E33  24078556.812 8 126533700.824 8     -1185.004          51.000    24078558.570 8  96954414.200 8      -907.978          51.000
> 2020 05 18 15 18 30.0000000  0 13        .000000000000
G10  21329350.266 8 112086490.402 8      1615.129          51.000    21329353.766 8  87340140.186 8      1258.545          51.000
G16  20889310.586 8 109774074.101 8     -1670.598          51.000    20889309.133 8  85538218.026 8     -1301.764          48.000
G18  23299200.422 6 122438140.838 6     -3080.062          36.000    23299204.906 5  95406348.395 5     -2400.055          32.000
G20  21063583.602 6 110689903.049 6      -801.316          36.000    21063581.273 5  86251921.674 5      -624.402          35.000
G26  22516595.195 8 118325506.570 8     -3272.371          49.000    22516600.234 8  92201681.831 8     -2549.900          49.000
R06  21291164.750 5 113613726.287 5      2829.758          34.000
R11  21454150.523 8 114644543.090 8     -3408.316          50.000    21454152.875 8  89167958.519 8     -2650.916          48.000
R21  19853292.305 5 106238992.877 5      -714.457          35.000    19853296.438 5  82630328.324 5      -555.683          30.000
C28  22561933.922 6 117485898.236 6     -1434.918          39.000
E19  28458679.188 7 149551368.473 7      2856.273          42.000    28458679.758 6 114591310.231 6      2188.400          38.000
E26                                                                  26718745.125 5 107585308.842 5     -1812.275          32.000
E31  25306263.773 8 132985280.531 8     -2567.922          51.000    25306264.211 8 101897810.094 8     -1967.658          50.000
E33  24085336.570 8 126569328.438 8     -1189.121          51.000    24085338.203 8  96981713.269 8      -911.184          51.000
> 2020 05 18 15 19  0.0000000  0 12        .000000000000
G10  21320183.734 8 112038317.394 8      1596.754          51.000    21320186.812 8  87302602.854 8      1244.227          51.000
G16  20898903.359 8 109824482.405 8     -1689.500          51.000    20898901.641 8  85577497.214 8     -1316.494          48.000
G18  23316796.828 6 122530609.325 6     -3084.250          37.000
G26  22535304.859 8 118423824.976 8     -3281.836          49.000    22535310.195 8  92278293.524 8     -2557.275          49.000
R06  21275313.758 6 113529139.909 6      2809.746          36.000
R11  21473332.398 8 114747048.301 8     -3424.832          48.000    21473335.664 7  89247684.756 7     -2663.758          47.000
R21  19857323.531 5 106260593.116 5      -725.512          35.000    19857331.664 4  82647128.546 4      -564.293          28.000
C28  22570224.039 6 117529065.513 6     -1442.680          39.000
E19  28442375.531 6 149465693.605 6      2855.832          41.000    28442376.578 6 114525663.378 6      2188.139          39.000
E26                                                                  26732248.141 5 107639685.563 5     -1812.786          31.000
E31  25320951.945 8 133062466.875 8     -2577.500          51.000    25320952.945 8 101956952.845 8     -1974.985          50.000
E33  24092141.898 8 126605090.666 8     -1194.668          51.000    24092143.297 8  97009115.484 8      -915.401          51.000
> 2020 05 18 15 19 30.0000000  0 13        .000000000000
G10  21311116.734 8 111990667.232 8      1578.461          51.000    21311119.570 8  87265472.917 8      1229.970          51.000
G16  20908597.852 8 109875426.102 8     -1708.176          51.000    20908596.227 8  85617193.591 8     -1331.046          48.000
G18  23334410.594 6 122623167.366 6     -3087.949          36.000    23334413.570 5  95550522.187 5     -2406.194          32.000
G26  22554063.922 8 118522402.691 8     -3291.395          50.000    22554069.141 8  92355107.277 8     -2564.726          50.000
R05  21903596.805 5 117087277.382 5     -1327.781          32.000
R06  21259571.156 6 113445129.157 6      2789.500          37.000
R11  21492602.195 8 114850021.670 8     -3441.305          50.000    21492606.039 7  89327775.119 7     -2676.570          47.000
R21  19861416.398 6 106282492.401 6      -736.195          37.000    19861422.367 4  82664158.228 4      -572.596          27.000
C27  21984572.812 4 114479442.621 4      1118.051          28.000
C28  22578552.617 5 117572431.279 5     -1449.621          33.000
E19  28426070.602 6 149380013.854 6      2854.945          40.000    28426073.297 6 114460012.794 6      2187.570          40.000
E31  25335688.875 8 133139912.439 8     -2586.836          50.000    25335690.891 8 102016294.248 8     -1982.181          50.000
E33  24098973.336 8 126640989.986 8     -1199.949          51.000    24098974.352 8  97036622.742 8      -919.433          51.000
> 2020 05 18 15 20  0.0000000  0 13        .000000000000
G10  21302145.930 8 111943523.501 8      1563.164          51.000    21302148.531 8  87228737.584 8      1218.053          51.000
G16  20918390.383 8 109926885.799 8     -1723.672          51.000    20918389.086 8  85657292.047 8     -1343.121          49.000
G18  23352038.031 5 122715795.692 5     -3088.160          33.000
G20  21077795.773 6 110764576.708 6      -857.297          38.000    21077795.703 6  86310052.164 6      -668.020          37.000
G21  23052480.211 5 121141600.405 5     -2445.438          32.000
G26  22572868.336 8 118621219.265 8     -3297.664          50.000    22572873.297 8  92432107.135 8     -2569.611          50.000
R06  21243934.008 6 113361679.659 6      2772.551          39.000
R11  21511955.875 8 114953440.739 8     -3454.406          51.000    21511959.938 7  89408212.120 7     -2686.763          46.000
R21  19865563.148 6 106304671.929 6      -743.781          36.000    19865566.430 4  82681400.997 4      -578.497          28.000
