     3.02           OBSERVATION DATA    M (MIXED)           RINEX VERSION / TYPE
SAVERINEX           SC600               20200514 155931 LCL PGM / RUN BY / DATE
       G = GPS       R = GLONASS       C = COMPASS          COMMENT
       S = SBAS      J = QZSS          E = GALILEO          COMMENT
BEAN                                                        MARKER NAME
1                                                           MARKER NUMBER
GEODETIC                                                    MARKER TYPE
Unige DICCA         GTER                                    OBSERVER / AGENCY
SC60291900056       SC600               2.12(191226)        REC # / TYPE / VERS
                    HEMA45          NONE                    ANT # / TYPE
  4509407.8091   693652.4678  4442337.6214                  APPROX POSITION XYZ
        0.0000        0.0000        0.0000                  ANTENNA: DELTA H/E/N
G    8 C1C L1C D1C S1C C2Y L2Y D2Y S2Y                      SYS / # / OBS TYPES
R    8 C1C L1C D1C S1C C2P L2P D2P S2P                      SYS / # / OBS TYPES
C    8 C1I L1I D1I S1I C7I L7I D7I S7I                      SYS / # / OBS TYPES
E    8 C1C L1C D1C S1C C7Q L7Q D7Q S7Q                      SYS / # / OBS TYPES
DBHZ                                                        COMMENT
     30.000                                                 INTERVAL
  2020    05    14    13    00    0.0000000     GPS         TIME OF FIRST OBS
  2020    05    14    13    59   30.0000000     GPS         TIME OF LAST OBS
     0                                                      RCV CLOCK OFFS APPL
G L1C  0.00000                                              SYS / PHASE SHIFT
G L2Y  0.00000                                              SYS / PHASE SHIFT
R L1C  0.00000                                              SYS / PHASE SHIFT
R L2P  0.25000                                              SYS / PHASE SHIFT
C L1I  0.00000                                              SYS / PHASE SHIFT
C L7I  0.00000                                              SYS / PHASE SHIFT
E L1C  0.50000                                              SYS / PHASE SHIFT
E L7Q -0.25000                                              SYS / PHASE SHIFT
 13 R01  1 R02 -4 R07  5 R08  6 R10 -5 R11  0 R12 -1 R13 -2 GLONASS SLOT / FRQ #
    R14 -7 R17  4 R18 -3 R22 -3 R23  3                      GLONASS SLOT / FRQ #
 C1C   71.950 C2C   71.950 C2P   71.950                     GLONASS COD/PHS/BIS
    18                                                      LEAP SECONDS
*** Above antenna height is from mark to ANTENNA BOTTOM.    COMMENT
    17     4        0.0000        ANT MEASURE TYPE/HEIGT    COMMENT
    0.0000    0.0000    0.0458    0.0405    0.0000          COMMENT
                    BASE STATION                            COMMENT
                                                            END OF HEADER
> 2020 05 14 13 00  0.0000000  0 18        .000000000000
G18  20381186.117 8 107103915.018 8       687.957          50.000    20381185.859 8  83457611.743 8       536.070          49.000
G21  20686229.203 8 108706895.095 8       450.141          49.000    20686228.617 8  84706687.202 8       350.759          49.000
G25  24123328.094 7 126768936.388 7     -3442.402          42.000    24123332.055 7  98781000.338 7     -2682.391          42.000
G29  21901827.438 6 115094879.646 6     -2336.469          36.000
G31  22222392.336 8 116779460.037 8     -2487.547          51.000    22222393.875 8  90996969.925 8     -1938.351          50.000
R13  21523595.312 6 114934767.772 6     -3920.383          38.000    21523596.562 6  89393707.545 6     -3049.190          37.000
R14  19251839.016 8 102623131.210 8      -257.730          51.000    19251841.609 8  79817983.830 8      -200.457          49.000
R17  21390660.891 7 114465772.544 7      2918.352          47.000    21390665.992 7  89028934.863 7      2269.829          43.000
R23  20621449.719 5 110310866.547 5     -2890.484          30.000
R24  19283110.711 7 103115517.107 7      -312.824          47.000    19283112.883 7  80200941.030 7      -243.308          42.000
C05  39627065.055 5 206348525.927 5        13.605          34.000    39627066.188 5 159561774.192 5        10.119          35.000
C12  25349444.562 6 132001246.935 6      2707.453          41.000    25349444.656 7 102071740.218 7      2093.858          45.000
C26  22089846.297 8 115027629.737 8     -1316.375          51.000
C29  24330337.375 5 126694567.877 5     -2621.305          33.000
E11  24090137.516 7 126594532.422 7      2188.914          47.000    24090137.648 8  97000983.393 8      1677.223          48.000
E12  21564142.008 8 113320344.561 8      -415.398          48.000    21564142.180 8  86829880.503 8      -318.337          51.000
E24  21684157.031 8 113951016.148 8      -522.961          51.000    21684170.086 8  87313158.412 8      -400.707          51.000
E31  26045863.773 8 136871901.698 8     -2680.227          51.000    26045864.828 7 104875875.010 7     -2053.692          45.000
> 2020 05 14 13 00 30.0000000  0 15        .000000000000
G18  20377305.367 8 107083521.729 8       667.809          51.000    20377305.102 8  83441720.883 8       520.373          48.000
G21  20683699.008 8 108693599.096 8       432.484          50.000    20683698.422 8  84696326.709 8       337.001          50.000
G25  24142984.992 7 126872233.234 7     -3448.172          44.000    24142989.211 7  98861491.319 7     -2686.890          44.000
G31  22236622.844 8 116854239.872 8     -2501.500          51.000    22236622.625 8  91055239.866 8     -1949.224          51.000
R13  21545651.094 6 115052543.274 6     -3934.566          38.000    21545650.773 6  89485310.677 6     -3060.218          37.000
R14  19253355.773 8 102631215.792 8      -285.059          51.000    19253358.344 8  79824271.836 8      -221.712          49.000
R17  21374327.031 7 114378365.989 7      2904.871          47.000    21374331.961 6  88960952.030 6      2259.347          41.000
R24  19284909.047 7 103125132.354 7      -331.957          47.000    19284911.039 6  80208419.568 6      -258.186          41.000
C05  39626983.672 5 206348101.965 5        11.680          34.000    39626984.789 5 159561446.359 5         9.028          35.000
C12  25333850.086 6 131920044.829 6      2701.906          40.000    25333850.945 7 102008949.675 7      2089.412          46.000
C26  22097468.031 8 115067316.476 8     -1333.137          51.000
E11  24077656.305 7 126528948.078 7      2179.316          45.000    24077657.203 8  96950730.468 8      1669.914          48.000
E12  21566537.453 8 113332932.783 8      -427.566          49.000    21566537.430 8  86839526.006 8      -327.571          51.000
E24  21687170.422 8 113966850.899 8      -536.430          51.000    21687183.406 8  87325291.525 8      -411.057          51.000
E31  26061176.422 8 136952367.406 8     -2687.906          50.000    26061177.641 7 104937530.516 7     -2059.538          45.000
> 2020 05 14 13 01  0.0000000  0 17        .000000000000
G18  20373520.891 8 107063634.476 8       650.652          51.000    20373520.750 8  83426224.360 8       507.005          49.000
G21  20681250.953 8 108680733.317 8       417.996          51.000    20681250.250 8  84686301.439 8       325.714          50.000
G25  24162656.812 7 126975606.725 7     -3450.605          45.000    24162660.531 7  98942042.015 7     -2688.787          45.000
G31  22250913.852 8 116929337.249 8     -2512.227          50.000    22250911.000 8  91113757.226 8     -1957.582          50.000
R13  21567765.047 6 115170633.150 6     -3945.543          37.000    21567764.594 6  89577158.320 6     -3068.756          36.000
R14  19255007.008 8 102640019.974 8      -309.227          50.000    19255010.133 8  79831119.533 8      -240.510          49.000
R17  21358049.711 7 114291263.027 7      2894.645          47.000    21358052.242 6  88893205.365 6      2251.396          38.000
R24  19286795.844 7 103135220.819 7      -347.879          47.000    19286797.695 6  80216266.176 6      -270.572          41.000
C05  39626890.672 5 206347618.440 5        13.766          34.000    39626891.781 5 159561071.108 5        10.424          35.000
C12  25318268.797 6 131838911.936 6      2699.328          40.000    25318270.812 7 101946212.624 7      2087.539          47.000
C26  22105166.961 8 115107406.864 8     -1346.699          51.000
C29  24360565.930 5 126851857.070 5     -2624.840          33.000
E11  24065209.719 7 126463547.268 7      2173.176          45.000    24065211.602 8  96900618.161 8      1665.209          48.000
E12  21568982.836 8 113345783.598 8      -436.383          48.000    21568982.906 8  86849372.736 8      -334.371          51.000
E24  21690241.781 8 113982989.893 8      -546.750          51.000    21690254.523 8  87337657.766 8      -418.974          51.000
E31  26076513.070 8 137032960.516 8     -2692.227          50.000    26076515.164 7 104999283.635 7     -2062.845          46.000
E33  26339634.336 5 138415712.654 5     -2541.371          33.000
> 2020 05 14 13 01 30.0000000  0 18        .000000000000
G18  20369844.688 8 107044315.890 8       635.766          51.000    20369844.633 8  83411170.935 8       495.405          50.000
G21  20678896.594 8 108668359.971 8       405.629          51.000    20678895.773 8  84676659.893 8       316.074          50.000
G25  24182354.875 7 127079118.030 7     -3451.480          45.000    24182357.047 7  99022700.097 7     -2689.468          45.000
G29  21941936.438 6 115305664.477 6     -2348.559          36.000    21941938.656 6  89848564.278 6     -1830.049          36.000
G31  22265276.438 8 117004812.316 8     -2520.789          49.000    22265272.523 8  91172568.895 8     -1964.254          49.000
R13  21589948.625 6 115289096.555 6     -3953.648          37.000    21589948.391 5  89669296.439 5     -3075.063          35.000
R14  19256805.266 8 102649607.798 8      -331.289          51.000    19256808.992 8  79838576.699 8      -257.669          49.000
R17  21341841.492 8 114204528.430 8      2886.230          48.000    21341843.648 6  88825745.233 6      2244.846          39.000
R24  19288782.727 7 103145844.464 7      -361.699          47.000    19288784.078 7  80224529.017 7      -281.322          42.000
C05  39626798.062 5 206347135.840 5        17.355          34.000    39626799.125 5 159560698.311 5        13.414          35.000
C12  25302713.078 6 131757910.480 6      2699.188          40.000    25302715.875 7 101883577.258 7      2087.056          46.000
C26  22112954.703 8 115147961.817 8     -1358.316          51.000
C29  24375679.680 6 126930570.883 6     -2623.180          36.000
E11  24052811.227 8 126398393.044 8      2168.977          48.000    24052812.516 7  96850694.803 7      1661.982          47.000
E12  21571489.852 8 113358958.552 8      -443.207          49.000    21571489.977 8  86859467.844 8      -339.639          51.000
E24  21693383.078 8 113999495.895 8      -554.977          51.000    21693395.516 8  87350305.214 8      -425.266          51.000
E31  26091885.266 8 137113742.548 8     -2694.586          48.000    26091888.664 7 105061181.508 7     -2064.665          47.000
E33  26354137.047 5 138491925.815 5     -2540.609          34.000    26354143.594 5 106117201.249 5     -1946.560          35.000
> 2020 05 14 13 02  0.0000000  0 19        .000000000000
G18  20366275.039 8 107025557.197 8       614.695          51.000    20366275.055 8  83396553.781 8       478.983          51.000
G21  20676634.180 8 108656469.951 8       387.062          51.000    20676633.086 8  84667394.962 8       301.607          50.000
G25  24202076.992 7 127182756.852 7     -3457.875          44.000    24202077.281 7  99103457.527 7     -2694.451          45.000
G29  21955370.742 5 115376256.353 5     -2356.922          35.000    21955373.430 5  89903570.957 5     -1836.562          34.000
G31  22279708.336 8 117080653.614 8     -2535.289          48.000    22279705.070 7  91231665.956 7     -1975.553          47.000
R13  21612200.391 6 115407922.100 6     -3968.035          37.000    21612200.438 6  89761716.181 6     -3086.256          37.000
R14  19258749.375 8 102659970.308 8      -359.551          51.000    19258752.984 8  79846636.441 8      -279.651          49.000
R17  21325701.539 8 114118153.835 8      2871.781          50.000    21325704.141 6  88758564.998 6      2233.608          41.000
R23  20686584.641 4 110659277.883 4     -2921.484          29.000
R24  19290867.227 7 103156992.560 7      -381.547          47.000    19290868.922 7  80233199.770 7      -296.759          42.000
C05  39626704.234 5 206346646.792 5        15.559          34.000    39626705.156 5 159560320.174 5        11.699          35.000
C12  25287181.312 6 131677032.190 6      2692.715          41.000    25287184.211 7 101821037.113 7      2081.957          46.000
C26  22120829.359 8 115188971.513 8     -1375.824          49.000
C29  24390803.539 5 127009347.045 5     -2628.129          32.000
E11  24040458.906 8 126333476.952 8      2158.688          49.000    24040458.633 7  96800953.923 7      1654.083          47.000
E12  21574057.039 8 113372447.812 8      -456.234          49.000    21574056.648 8  86869803.771 8      -349.588          51.000
E24  21696592.508 8 114016360.279 8      -569.484          51.000    21696604.773 8  87363227.265 8      -436.379          51.000
E31  26107291.336 7 137194703.636 7     -2703.082          47.000    26107295.914 8 105123216.563 8     -2071.235          48.000
E33  26368656.102 5 138568220.783 5     -2546.340          35.000    26368664.844 5 106175665.619 5     -1951.349          35.000
> 2020 05 14 13 02 30.0000000  0 18        .000000000000
G18  20362824.797 8 107007426.385 8       596.672          51.000    20362824.867 8  83382425.886 8       464.939          51.000
G21  20674476.531 8 108645130.385 8       371.723          51.000    20674475.016 8  84658558.952 8       289.657          50.000
G25  24221835.789 7 127286589.892 7     -3461.367          44.000    24221835.711 7  99184366.309 7     -2697.172          44.000
G31  22294221.969 7 117156926.374 7     -2546.582          46.000    22294219.625 7  91291099.258 7     -1984.350          47.000
R13  21634531.500 5 115527174.959 5     -3978.469          35.000    21634533.984 6  89854468.315 6     -3094.365          40.000
R14  19260851.789 8 102671177.220 8      -384.609          51.000    19260855.719 8  79855352.893 8      -299.141          50.000
R17  21309641.789 8 114032209.478 8      2860.648          51.000    21309644.352 6  88691719.416 6      2224.949          41.000
R23  20703005.539 5 110747118.658 5     -2929.812          30.000
R24  19293062.969 7 103168732.498 7      -398.258          47.000    19293064.438 7  80242330.817 7      -309.756          42.000
C05  39626621.883 5 206346218.189 5        16.180          35.000    39626622.875 5 159559988.790 5        12.233          35.000
C12  25271686.609 6 131596344.870 6      2689.344          41.000    25271688.773 7 101758644.630 7      2079.505          45.000
C26  22128804.062 8 115230502.268 8     -1390.168          49.000
C29  24405951.344 5 127088198.960 5     -2630.598          32.000
E11  24028165.078 8 126268867.505 8      2151.672          49.000    24028163.523 7  96751448.010 7      1648.603          47.000
E12  21576696.641 8 113386318.378 8      -465.797          49.000    21576695.938 8  86880431.873 8      -356.927          51.000
E24  21699883.016 8 114033651.278 8      -580.535          51.000    21699895.242 8  87376476.200 8      -444.850          51.000
E31  26122743.977 7 137275910.793 7     -2708.016          45.000    26122749.820 8 105185440.143 8     -2075.015          48.000
E33  26383205.250 5 138644679.238 5     -2548.859          34.000    26383215.500 5 106234249.795 5     -1952.079          33.000
> 2020 05 14 13 03  0.0000000  0 19        .000000000000
G18  20359490.492 8 106989904.470 8       571.051          50.000    20359490.586 8  83368772.440 8       444.975          50.000
G21  20672419.828 8 108634321.813 8       348.469          51.000    20672417.961 8  84650136.705 8       271.534          49.000
G25  24241627.336 7 127390596.763 7     -3472.762          43.000    24241628.844 7  99265410.524 7     -2706.051          43.000
G29  21982363.953 5 115518108.387 5     -2374.691          33.000    21982367.875 5  90014117.243 5     -1850.409          33.000
G31  22308813.914 7 117233609.160 7     -2565.809          47.000    22308812.023 7  91350852.046 7     -1999.331          47.000
R13  21656937.461 5 115646832.249 5     -3998.328          34.000    21656943.609 7  89947535.111 7     -3109.808          43.000
R14  19263108.773 8 102683209.229 8      -417.824          51.000    19263112.719 8  79864711.103 8      -324.974          49.000
R17  21293658.547 8 113946677.057 8      2841.297          50.000    21293660.531 6  88625194.207 6      2209.898          41.000
R23  20719464.859 4 110835236.314 4     -2944.742          29.000
R24  19295364.828 7 103181043.162 7      -422.840          47.000    19295366.938 7  80251905.813 7      -328.875          42.000
C05  39626547.516 5 206345831.555 5         9.777          34.000    39626548.508 5 159559689.421 5         7.415          35.000
C12  25256224.844 6 131515829.915 6      2678.098          41.000    25256226.328 7 101696385.455 7      2070.947          46.000
C26  22136875.953 8 115272534.177 8     -1412.344          50.000
C29  24421123.461 5 127167212.332 5     -2638.895          32.000
E11  24015925.602 8 126204546.199 8      2136.316          49.000    24015923.547 7  96702162.869 7      1636.948          47.000
E12  21579404.836 8 113400550.194 8      -483.230          49.000    21579404.219 8  86891336.789 8      -370.288          51.000
E24  21703251.078 8 114051350.075 8      -599.652          51.000    21703263.367 8  87390037.607 8      -459.462          51.000
E31  26138239.484 7 137357343.992 7     -2721.082          44.000    26138246.133 8 105247836.938 8     -2084.994          48.000
E33                                                                  26397791.719 5 106292938.313 5     -1960.762          32.000
> 2020 05 14 13 03 30.0000000  0 15        .000000000000
G18  20356255.406 8 106972904.464 8       553.266          50.000    20356255.539 8  83355525.674 8       431.116          50.000
G21  20670447.305 8 108623956.720 8       333.422          51.000    20670445.367 8  84642060.027 8       259.809          49.000
G25  24261435.359 7 127494689.117 7     -3475.867          44.000    24261438.469 7  99346521.397 7     -2708.468          44.000
G31  22323467.141 8 117310612.129 8     -2576.828          49.000    22323465.688 8  91410854.325 8     -2007.918          49.000
R13  21679404.258 6 115766802.361 6     -4008.891          37.000    21679411.273 7  90040845.194 7     -3118.026          45.000
R14  19265503.891 8 102695978.321 8      -442.688          51.000    19265508.141 8  79874642.611 8      -344.312          50.000
R17  21277735.586 8 113861468.772 8      2830.082          49.000    21277737.062 7  88558921.130 7      2201.175          42.000
R24  19297756.797 7 103193834.282 7      -439.254          46.000    19297758.984 7  80261854.454 7      -341.642          42.000
C05  39626464.539 5 206345398.259 5        10.543          35.000    39626465.602 5 159559355.551 5         7.893          35.000
C12  25240779.742 7 131435401.575 7      2675.098          42.000    25240780.594 7 101634193.271 7      2068.280          46.000
C26  22145027.930 8 115314979.971 8     -1426.430          51.000
E11  24003724.211 8 126140426.461 8      2129.098          49.000    24003721.648 7  96653032.166 7      1631.363          47.000
E12  21582165.148 8 113415055.352 8      -492.832          49.000    21582164.562 8  86902451.136 8      -377.598          51.000
E24  21706680.164 8 114069369.926 8      -610.703          51.000    21706692.641 8  87403845.014 8      -467.986          51.000
E31  26153761.539 7 137438915.183 7     -2726.188          44.000    26153768.359 8 105310339.495 8     -2088.870          48.000
> 2020 05 14 13 04  0.0000000  0 16        .000000000000
G18  20353118.203 8 106956419.346 8       542.902          49.000    20353118.195 8  83342680.101 8       423.041          49.000
G21  20668557.594 8 108614027.549 8       325.727          50.000    20668555.648 8  84634323.007 8       253.813          49.000
G25  24281258.297 7 127598858.571 7     -3471.555          44.000    24281262.633 7  99427692.337 7     -2705.108          45.000
G31  22338179.773 8 117387925.684 8     -2580.148          51.000    22338178.891 8  91471098.614 8     -2010.505          51.000
R13  21701928.945 6 115887074.686 6     -4011.941          40.000    21701935.352 7  90134390.272 7     -3120.402          46.000
R14  19268035.875 8 102709477.714 8      -460.012          51.000    19268040.617 8  79885142.130 8      -357.787          49.000
R17  21261871.180 8 113776578.477 8      2826.727          48.000    21261872.906 6  88492895.357 6      2198.565          41.000
R24  19300236.383 7 103207096.863 7      -447.836          45.000    19300238.734 7  80272169.808 7      -348.317          42.000
C05  39626371.727 5 206344916.262 5        19.195          34.000    39626372.750 5 159558981.656 5        14.879          35.000
C12  25225350.281 7 131355053.338 7      2679.027          43.000    25225350.398 7 101572062.961 7      2071.751          46.000
C26  22153257.898 8 115357831.597 8     -1433.047          51.000
E11  23991559.812 8 126076501.790 8      2129.652          50.000    23991556.523 7  96604050.954 7      1631.859          46.000
E12  21584975.852 8 113429825.784 8      -494.570          49.000    21584975.289 8  86913768.744 8      -378.858          51.000
E24  21710169.000 8 114087703.980 8      -614.125          51.000    21710181.852 8  87417893.174 8      -470.566          51.000
E31  26169308.219 7 137520616.341 7     -2723.383          43.000    26169315.242 8 105372941.647 8     -2086.607          49.000
E33  26426958.359 5 138874603.443 5     -2554.324          33.000
> 2020 05 14 13 04 30.0000000  0 17        .000000000000
G18  20350099.062 8 106940554.468 8       517.762          49.000    20350099.055 8  83330317.851 8       403.451          48.000
G21  20666770.633 8 108604638.987 8       303.473          48.000    20666768.844 8  84627007.240 8       236.472          48.000
G25  24301116.000 7 127703209.183 7     -3482.141          46.000    24301120.562 7  99509004.422 7     -2713.359          46.000
G29  22023076.898 5 115732023.802 5     -2387.020          34.000    22023076.242 5  90180818.776 5     -1860.009          34.000
G31  22352971.141 8 117465652.480 8     -2598.348          51.000    22352970.719 8  91531664.922 8     -2024.686          51.000
R13  21724529.586 6 116007753.342 6     -4029.984          40.000    21724535.164 7  90228251.399 7     -3134.435          45.000
R14  19270725.367 8 102723814.296 8      -492.492          51.000    19270729.891 8  79896292.809 8      -383.049          49.000
R17  21246085.680 7 113692114.318 7      2807.633          46.000    21246088.328 6  88427201.009 6      2183.717          40.000
R24  19302824.516 7 103220936.477 7      -471.625          46.000    19302827.219 7  80282933.936 7      -366.819          42.000
C05  39626288.867 5 206344484.443 5        12.891          35.000    39626290.016 5 159558648.572 5         9.167          35.000
C12  25209955.922 7 131274889.989 7      2668.523          42.000    25209956.008 7 101510075.651 7      2063.375          46.000
C26  22161585.391 8 115401192.341 8     -1454.438          51.000
E11  23979452.625 8 126012877.974 8      2114.945          49.000    23979448.695 7  96555300.280 7      1620.554          45.000
E12  21587856.875 8 113444965.852 8      -511.457          49.000    21587856.352 8  86925369.591 8      -391.967          51.000
E24  21713737.523 8 114106457.846 8      -632.777          51.000    21713751.016 8  87432263.000 8      -484.882          51.000
E31  26184899.672 7 137602551.809 7     -2735.699          43.000    26184907.375 8 105435723.372 8     -2096.248          49.000
E33  26441578.320 5 138951432.236 5     -2563.781          33.000
> 2020 05 14 13 05  0.0000000  0 15        .000000000000
G18  20347201.781 8 106925329.348 8       501.855          50.000    20347201.805 8  83318454.130 8       391.056          50.000
G21  20665090.242 8 108595810.330 8       290.047          48.000    20665088.750 8  84620127.791 8       226.011          48.000
G25  24321011.781 7 127807759.179 7     -3483.105          46.000    24321015.711 7  99590471.867 7     -2714.111          46.000
G31  22367844.266 8 117543809.449 8     -2607.262          51.000    22367844.164 8  91592566.441 8     -2031.633          51.000
R13  21747208.984 6 116128854.377 6     -4038.465          39.000    21747213.727 7  90322441.036 7     -3141.028          43.000
R14  19273575.812 8 102739008.316 8      -515.613          51.000    19273579.930 8  79908110.350 8      -401.033          49.000
R17  21230385.016 8 113608097.136 8      2798.320          48.000    21230386.203 6  88361854.349 6      2176.474          39.000
R24  19305523.656 7 103235371.272 7      -485.828          45.000    19305527.023 7  80294161.011 7      -377.866          42.000
C05  39626219.969 5 206344125.241 5        16.109          34.000    39626221.070 5 159558371.182 5        12.109          35.000
C12  25194600.688 7 131194931.402 7      2666.797          42.000    25194600.898 7 101448246.656 7      2062.309          45.000
C26  22170013.680 8 115445080.527 8     -1466.688          51.000
E11  23967406.344 8 125949575.204 8      2109.918          49.000    23967402.648 7  96506795.597 7      1616.708          46.000
E12  21590811.750 8 113460494.227 8      -518.918          49.000    21590811.445 8  86937267.945 8      -397.627          51.000
E24  21717389.656 8 114125651.355 8      -641.945          51.000    21717403.594 8  87446969.697 8      -491.934          51.000
E31  26200538.602 6 137684740.233 6     -2738.766          41.000    26200547.180 7 105498698.931 7     -2098.445          47.000
> 2020 05 14 13 05 30.0000000  0 18        .000000000000
G18  20344381.219 8 106910507.235 8       477.543          50.000    20344381.188 8  83306904.436 8       372.111          50.000
G21  20663471.414 8 108587304.085 8       268.465          49.000    20663469.664 8  84613499.570 8       209.193          48.000
G25  24340900.000 7 127912270.485 7     -3492.766          44.000    24340903.273 7  99671909.162 7     -2721.639          44.000
G29  22050376.453 5 115875546.380 5     -2401.969          31.000    22050373.398 5  90292585.656 5     -1871.664          30.000
G31  22382753.516 8 117622157.533 8     -2624.480          51.000    22382753.898 8  91653616.888 8     -2045.050          51.000
R13  21769921.266 6 116250134.197 6     -4055.074          37.000    21769925.086 6  90416769.720 6     -3153.950          39.000
R14  19276542.445 8 102754819.564 8      -547.191          51.000    19276545.945 8  79920407.971 8      -425.593          48.000
R17  21214723.531 8 113524286.770 8      2780.309          49.000    21214723.805 6  88296668.606 6      2162.465          40.000
R23  20802477.570 5 111279141.877 5     -2983.109          31.000
R24  19308289.125 7 103250158.614 7      -508.695          46.000    19308292.344 7  80305662.249 7      -395.655          42.000
C05  39626119.898 5 206343604.655 5        10.574          35.000    39626120.875 5 159557967.240 5         7.968          35.000
C12  25179239.586 7 131114943.346 7      2657.125          42.000    25179239.758 7 101386394.866 7      2054.606          45.000
C26  22178497.789 8 115489260.485 8     -1487.137          51.000
C29  24497128.281 4 127562981.691 4     -2649.309          28.000
E11  23955375.797 7 125886357.199 7      2096.344          47.000    23955373.219 7  96458355.845 7      1606.358          47.000
E12  21593795.344 8 113476173.147 8      -534.809          49.000    21593795.086 8  86949281.666 8      -409.806          51.000
E24  21721080.477 8 114145047.933 8      -659.641          51.000    21721094.305 8  87461832.008 8      -505.406          51.000
E31  26216180.469 6 137766943.878 6     -2750.008          41.000    26216188.758 7 105561686.167 7     -2107.119          44.000
> 2020 05 14 13 06  0.0000000  0 16        .000000000000
G18  20341682.742 8 106896326.347 8       462.785          51.000    20341682.781 8  83295854.414 8       360.612          51.000
G21  20661959.367 8 108579358.281 8       256.336          48.000    20661957.469 8  84607308.045 8       199.745          48.000
G25  24360825.742 7 128016980.077 7     -3493.023          42.000    24360828.602 7  99753500.968 7     -2721.839          42.000
G31  22397743.609 8 117700932.262 8     -2632.176          50.000    22397744.078 8  91714999.778 8     -2051.046          50.000
R13  21792711.109 6 116371831.353 6     -4062.684          36.000    21792713.523 6  90511422.956 6     -3159.868          37.000
R14  19279669.930 8 102771489.870 8      -569.320          50.000    19279673.172 8  79933373.765 8      -442.802          49.000
R17  21199145.695 8 113440926.584 8      2771.945          49.000    21199146.422 6  88231832.989 6      2155.961          40.000
R24  19311165.344 7 103265539.090 7      -521.730          45.000    19311168.594 7  80317624.850 7      -405.790          42.000
C05  39626033.922 5 206343157.288 5        14.180          35.000    39626034.992 5 159557621.272 5        11.246          35.000
C12  25163918.141 7 131035162.359 7      2656.566          42.000    25163918.828 7 101324703.218 7      2054.138          45.000
C26  22187082.891 8 115533967.228 8     -1498.234          51.000
C29  24512363.359 5 127642307.982 5     -2645.957          32.000
E11  23943406.641 7 125823462.666 7      2091.891          47.000    23943405.953 7  96410163.966 7      1602.865          47.000
E12  21596852.766 8 113492239.945 8      -541.320          49.000    21596852.414 8  86961592.594 8      -414.844          51.000
E24  21724855.141 8 114164886.133 8      -667.980          50.000    21724869.008 8  87477032.714 8      -511.799          51.000
E31  26231872.000 7 137849400.108 7     -2752.094          43.000    26231876.766 6 105624866.898 6     -2108.786          41.000
> 2020 05 14 13 06 30.0000000  0 18        .000000000000
G18  20339090.672 8 106882704.885 8       447.207          51.000    20339090.992 8  83285240.309 8       348.473          50.000
G21  20660538.172 8 108571890.324 8       243.301          48.000    20660536.766 8  84601488.889 8       189.588          48.000
G25  24380773.047 7 128121804.904 7     -3493.660          42.000    24380776.500 7  99835182.576 7     -2722.333          43.000
G29  22077821.891 5 116019745.007 5     -2405.402          30.000
G31  22412798.797 8 117780049.058 8     -2640.504          50.000    22412798.812 8  91776649.209 8     -2057.536          50.000
R13  21815562.781 6 116493859.714 6     -4070.348          36.000    21815564.617 6  90606333.832 6     -3165.826          38.000
R14  19282942.922 8 102788936.542 8      -592.035          50.000    19282946.445 8  79946943.404 8      -460.472          50.000
R17  21183636.719 8 113357934.549 8      2762.758          49.000    21183637.602 6  88167283.671 6      2148.815          40.000
R23  20835974.344 5 111458322.919 5     -2991.430          34.000
R24  19314136.945 7 103281427.707 7      -535.609          47.000    19314139.578 7  80329982.657 7      -416.585          42.000
C05  39625946.773 5 206342702.046 5        17.555          35.000    39625947.695 5 159557269.634 5        13.653          34.000
C12  25148621.008 7 130955507.893 7      2655.250          42.000    25148622.594 7 101263109.383 7      2053.329          45.000
C26  22195753.406 8 115579118.594 8     -1510.000          50.000
C29  24527611.383 5 127721697.465 5     -2645.191          32.000
E11  23931483.930 8 125760810.463 8      2086.809          48.000    23931484.953 8  96362157.732 8      1599.070          48.000
E12  21599968.219 8 113508611.875 8      -548.344          49.000    21599967.844 8  86974137.329 8      -420.162          51.000
E24  21728698.289 8 114185084.390 8      -676.824          50.000    21728712.602 8  87492509.286 8      -518.621          51.000
E31  26247596.773 7 137932026.152 7     -2754.625          46.000    26247594.781 6 105688177.654 6     -2110.591          38.000
> 2020 05 14 13 07  0.0000000  0 18        .000000000000
G18  20336613.789 8 106869688.547 8       425.172          51.000    20336614.078 8  83275097.724 8       331.303          50.000
G20  23939694.328 6 125803933.984 6      3308.734          37.000    23939700.922 5  98029073.497 5      2578.235          34.000
G21  20659216.641 8 108564945.135 8       224.191          48.000    20659215.141 8  84596077.064 8       174.695          48.000
G25  24400750.883 7 128226789.413 7     -3500.820          44.000    24400755.242 7  99916988.620 7     -2727.912          43.000
G31  22427927.453 8 117859551.333 8     -2655.039          49.000    22427927.203 8  91838599.014 8     -2068.862          49.000
R13  21838484.570 5 116616262.145 5     -4084.473          34.000    21838487.430 6  90701535.701 6     -3176.812          40.000
R14  19286370.539 8 102807205.877 8      -621.297          51.000    19286374.156 8  79961152.885 8      -483.231          50.000
R17  21168205.562 8 113275357.844 8      2747.129          48.000    21168207.086 6  88103057.408 6      2136.659          41.000
R23  20852797.570 5 111548296.843 5     -3000.953          30.000
R24  19317212.062 7 103297869.336 7      -555.934          46.000    19317213.992 7  80342770.604 7      -432.393          42.000
C05  39625866.750 5 206342285.880 5        14.441          34.000    39625867.703 5 159556948.437 5        11.282          35.000
C12  25133357.312 7 130876025.717 7      2647.996          42.000    25133359.422 7 101201648.766 7      2047.571          46.000
C26  22204517.930 8 115624758.861 8     -1528.059          50.000
C29  24542876.266 5 127801184.760 5     -2649.832          30.000
E11  23919616.320 8 125698446.771 8      2075.164          48.000    23919618.695 8  96314372.565 8      1590.100          48.000
E12  21603150.586 8 113525333.821 8      -561.836          50.000    21603149.836 8  86986950.245 8      -430.570          51.000
E24  21732618.898 8 114205688.715 8      -692.215          50.000    21732633.297 8  87508297.003 8      -530.425          51.000
E31  26263362.328 8 138014866.816 8     -2763.582          49.000    26263355.938 6 105751652.894 6     -2117.505          39.000
> 2020 05 14 13 07 30.0000000  0 18        .000000000000
G18  20334238.172 8 106857204.589 8       397.363          51.000    20334238.617 8  83265369.993 8       309.637          50.000
G20  23920809.594 6 125704690.046 6      3297.922          37.000    23920813.773 4  97951756.751 4      2569.821          29.000
G21  20657980.766 7 108558450.068 7       199.047          47.000    20657978.984 7  84591015.951 7       155.101          47.000
G25  24420745.148 7 128331859.698 7     -3513.680          43.000    24420750.219 7  99998861.504 7     -2737.935          43.000
G31  22443114.938 7 117939363.780 7     -2675.559          46.000    22443115.039 7  91900790.499 7     -2084.854          46.000
R13  21861461.953 5 116738961.550 5     -4105.344          34.000    21861465.961 6  90796968.533 6     -3193.045          39.000
R14  19289938.836 8 102826224.187 8      -656.461          51.000    19289942.164 8  79975944.912 8      -510.581          50.000
R17  21152837.969 7 113193123.775 7      2725.137          47.000    21152841.062 7  88039097.583 7      2119.551          42.000
R23  20869656.844 5 111638460.780 5     -3018.703          34.000
R24  19320376.227 7 103314788.305 7      -582.137          46.000    19320377.711 6  80355929.811 6      -452.773          41.000
C05  39625780.250 5 206341834.864 5         5.613          35.000    39625781.148 5 159556599.107 5         4.235          34.000
C12  25118112.969 7 130796644.386 7      2634.512          42.000    25118115.664 7 101140266.126 7      2037.108          47.000
C26  22213362.664 8 115670814.946 8     -1551.969          50.000
C29  24558144.930 4 127880704.958 4     -2660.348          28.000
E11  23907790.125 8 125636299.554 8      2057.758          49.000    23907792.672 7  96266753.289 7      1576.730          47.000
E12  21606385.367 8 113542332.124 8      -581.098          48.000    21606384.508 8  86999974.924 8      -445.302          51.000
E24  21736603.367 8 114226626.698 8      -713.391          51.000    21736617.070 8  87524340.398 8      -546.636          51.000
E31  26279154.336 8 138097848.476 8     -2778.449          49.000    26279148.250 7 105815236.170 7     -2128.867          42.000
> 2020 05 14 13 08  0.0000000  0 19        .000000000000
G18  20331970.086 8 106845285.563 8       386.340          51.000    20331971.023 8  83256082.474 8       301.047          50.000
G20  23901938.703 6 125605511.497 6      3303.402          36.000    23901940.117 5  97874474.871 5      2574.089          33.000
G21  20656836.289 7 108552436.881 7       190.926          47.000    20656834.930 7  84586330.346 7       148.773          47.000
G25  24440761.945 7 128437047.113 7     -3509.750          43.000    24440767.250 7 100080825.669 7     -2734.873          43.000
G29  22119203.961 4 116237201.233 4     -2423.008          26.000
G31  22458366.969 7 118019516.557 7     -2678.980          44.000    22458367.625 7  91963247.215 7     -2087.514          44.000
R13  21884500.047 4 116861988.258 4     -4107.340          29.000    21884505.102 5  90892655.989 5     -3194.595          35.000
R14  19293653.578 8 102846024.779 8      -674.664          51.000    19293656.859 8  79991345.358 8      -524.739          49.000
R17  21137540.812 8 113111266.127 8      2720.750          48.000    21137545.148 7  87975430.521 7      2116.136          42.000
R23  20886550.320 5 111728845.320 5     -3018.086          34.000
R24  19323635.352 7 103332216.043 7      -590.996          47.000    19323636.742 6  80369484.746 6      -459.664          41.000
C05  39625693.391 5 206341383.050 5        13.703          35.000    39625694.234 5 159556249.716 5        10.424          35.000
C12  25102894.109 7 130717396.534 7      2637.848          43.000    25102897.008 7 101078986.690 7      2039.824          46.000
C26  22222293.742 8 115717318.055 8     -1559.082          51.000
C29  24573423.891 5 127960273.677 5     -2654.566          31.000
E11  23896011.828 8 125574401.869 8      2057.453          50.000    23896012.828 7  96219325.216 7      1576.391          47.000
E12  21609678.547 8 113559638.506 8      -583.535          49.000    21609678.008 8  87013235.678 8      -447.199          51.000
E24  21740657.773 8 114247931.212 8      -717.816          51.000    21740670.688 8  87540664.637 8      -550.051          51.000
E31  26294978.602 8 138181002.828 8     -2776.242          49.000    26294975.586 7 105878951.786 7     -2127.230          45.000
> 2020 05 14 13 08 30.0000000  0 16        .000000000000
G18  20329831.133 8 106834045.125 8       365.688          51.000    20329832.156 8  83247323.709 8       284.951          50.000
G21  20655805.328 8 108547018.896 8       173.090          49.000    20655804.086 8  84582108.525 8       134.875          48.000
G25  24460822.398 6 128542464.063 6     -3515.305          41.000    24460827.547 6 100162968.690 6     -2739.202          41.000
G31  22473704.938 7 118100120.347 7     -2691.805          44.000    22473705.531 7  92026055.402 7     -2097.510          44.000
R14  19297536.219 8 102866722.747 8      -702.516          51.000    19297539.336 8  80007443.790 8      -546.398          49.000
R17  21122336.500 7 113029901.812 7      2706.391          47.000    21122340.039 7  87912147.168 7      2104.974          42.000
R23  20903508.898 5 111819563.683 5     -3027.617          33.000
R24  19327011.266 7 103350266.781 7      -609.715          47.000    19327012.188 6  80383524.193 6      -474.223          40.000
C05  39625628.047 5 206341043.091 5        11.965          35.000
C12  25087722.859 7 130638395.449 7      2631.457          44.000    25087725.141 7 101017898.083 7      2034.855          45.000
C26  22231332.492 8 115764379.759 8     -1575.715          51.000
C29  24588735.938 5 128040010.686 5     -2658.867          31.000
E11  23884302.867 8 125512868.024 8      2047.480          50.000    23884301.602 7  96172175.943 7      1568.804          47.000
E12  21613052.094 8 113577365.806 8      -595.621          49.000    21613051.336 8  87026818.918 8      -456.379          51.000
E24  21744803.445 8 114269716.213 8      -731.828          51.000    21744816.195 8  87557357.028 8      -560.716          51.000
E31  26310857.070 8 138264442.656 8     -2783.715          49.000    26310857.156 8 105942886.166 8     -2133.003          48.000
> 2020 05 14 13 09  0.0000000  0 15        .000000000000
G18  20327799.422 8 106823368.204 8       343.621          51.000    20327800.336 8  83239004.034 8       267.757          50.000
G21  20654865.875 8 108542080.502 8       153.762          49.000    20654864.266 8  84578260.414 8       119.814          49.000
G25  24480904.273 6 128647994.349 6     -3522.223          36.000    24480908.938 5 100245200.015 5     -2744.592          35.000
G31  22489107.383 7 118181058.064 7     -2706.121          46.000    22489106.734 7  92089123.723 7     -2108.666          46.000
R13  21930804.750 5 117109322.391 5     -4134.641          34.000    21930807.281 4  91084983.358 4     -3215.832          28.000
R14  19301565.695 8 102888201.555 8      -731.930          51.000    19301568.523 8  80024149.529 8      -569.279          49.000
R17  21107201.641 7 112948914.599 7      2690.391          46.000    21107204.438 6  87849157.169 6      2092.529          41.000
R24  19330481.281 7 103368821.652 7      -629.656          46.000    19330481.859 6  80397955.774 6      -489.733          40.000
C05  39625562.023 5 206340698.715 5         8.367          34.000    39625563.023 5 159555721.264 5         6.872          34.000
C12  25072577.125 7 130559527.656 7      2623.977          43.000    25072579.031 7 100956912.575 7      2029.067          46.000
C26  22240456.219 8 115811885.037 8     -1593.730          51.000
E11  23872641.055 8 125451583.571 8      2035.992          50.000    23872638.711 8  96125217.770 8      1560.067          48.000
E12  21616483.430 7 113595398.083 7      -608.914          47.000    21616482.523 8  87040635.846 8      -466.547          51.000
E24  21749018.641 8 114291867.003 8      -747.270          51.000    21749031.445 8  87574329.686 8      -572.580          51.000
E31  26326767.633 8 138348052.053 8     -2792.602          49.000    26326770.094 8 106006950.490 8     -2139.762          49.000
> 2020 05 14 13 09 30.0000000  0 17        .000000000000
G18  20325863.422 8 106813194.445 8       333.348          51.000    20325864.570 8  83231076.434 8       259.751          51.000
G20  23845446.078 5 125308661.918 5      3299.031          33.000    23845452.875 5  97643150.450 5      2570.674          32.000
G21  20654006.055 8 108537560.686 8       146.262          50.000    20654004.344 8  84574738.500 8       113.970          50.000
G29  22160861.703 5 116456095.900 5     -2437.426          34.000
G31  22504561.664 7 118262266.937 7     -2708.633          47.000    22504559.820 7  92152403.293 7     -2110.626          47.000
R13  21954036.531 6 117233361.554 6     -4135.930          37.000    21954037.383 5  91181458.246 5     -3216.834          35.000
R14  19305730.000 8 102910399.962 8      -749.254          51.000    19305732.320 7  80041414.917 7      -582.753          47.000
R17  21092125.008 7 112868243.962 7      2686.348          44.000    21092128.453 7  87786413.320 7      2089.382          42.000
R24  19334033.805 7 103387817.286 7      -637.789          45.000    19334034.398 6  80412730.182 6      -496.058          40.000
C05                                                                  39625485.273 5 159555408.121 5        13.312          34.000
C12  25057445.562 7 130480733.968 7      2627.930          43.000    25057447.727 7 100895984.380 7      2031.988          47.000
C26  22249652.922 8 115859773.087 8     -1600.062          51.000
C29  24619357.734 4 128199504.359 4     -2656.969          29.000
E11  23861014.797 8 125390488.855 8      2036.105          48.000    23861012.797 8  96078404.983 8      1560.088          48.000
E12  21619961.031 8 113613674.198 8      -610.512          48.000    21619960.508 8  87054639.628 8      -467.849          51.000
E24  21753292.258 8 114314323.540 8      -751.008          51.000    21753304.797 8  87591536.631 8      -575.403          51.000
E31  26342698.602 8 138431769.880 8     -2789.723          48.000    26342703.000 8 106071097.890 8     -2137.541          50.000
> 2020 05 14 13 10  0.0000000  0 16        .000000000000
G18  20324027.664 8 106803547.906 8       310.602          50.000    20324028.945 8  83223559.666 8       242.030          50.000
G20  23826632.758 6 125209788.869 6      3293.316          39.000    23826636.398 6  97566094.740 6      2566.221          36.000
G21  20653230.461 8 108533483.194 8       126.375          51.000    20653228.883 8  84571561.248 8        98.474          50.000
G29  22174800.969 5 116529353.950 5     -2446.016          33.000    22174812.578 5  90802104.358 5     -1905.989          33.000
G31  22520071.258 8 118343768.149 8     -2723.770          48.000    22520069.336 8  92215910.679 8     -2122.421          48.000
R13  21977316.266 6 117357676.722 6     -4150.574          37.000    21977318.656 6  91278147.801 6     -3228.224          39.000
R14  19310033.773 8 102933342.379 8      -779.340          51.000    19310035.391 7  80059258.992 7      -606.156          47.000
R17  21077114.133 7 112787915.545 7      2669.703          47.000    21077117.883 6  87723935.695 6      2076.439          41.000
R24  19337672.633 7 103407276.665 7      -658.617          44.000    19337673.195 6  80427865.269 6      -512.258          40.000
C05  39625399.234 5 206339851.363 5        13.656          35.000    39625400.312 5 159555065.715 5        10.521          34.000
C12  25042332.914 7 130402038.909 7      2619.457          43.000    25042335.508 7 100835132.380 7      2025.509          47.000
C26  22258926.922 8 115908066.751 8     -1618.660          51.000
E11  23849428.742 7 125329608.620 7      2023.602          47.000    23849427.789 8  96031756.520 8      1550.540          48.000
E12  21623489.727 8 113632217.509 8      -624.617          48.000    21623489.398 8  87068848.128 8      -478.606          51.000
E24  21757628.641 8 114337110.285 8      -767.129          51.000    21757641.109 8  87608996.607 8      -587.821          51.000
E31  26358654.500 8 138515619.413 8     -2799.230          48.000    26358660.258 8 106135346.212 8     -2144.835          51.000
> 2020 05 14 13 10 30.0000000  0 16        .000000000000
G18  20322306.719 8 106794504.534 8       291.895          50.000    20322307.812 8  83216512.875 8       227.450          50.000
G20  23807841.305 6 125111033.910 6      3290.648          40.000    23807844.500 5  97489142.931 5      2564.148          35.000
G21  20652553.266 8 108529923.365 8       110.688          51.000    20652551.633 8  84568787.370 8        86.250          50.000
G29  22188777.195 5 116602806.231 5     -2450.977          35.000    22188789.227 6  90859339.746 6     -1909.855          36.000
G31  22535650.133 8 118425635.444 8     -2734.359          48.000    22535649.000 8  92279703.308 8     -2130.670          48.000
R13  22000661.727 6 117482341.780 6     -4160.812          38.000    22000664.703 6  91375109.492 6     -3236.187          39.000
R14  19314491.344 8 102957105.934 8      -805.242          51.000    19314493.289 7  80077741.715 7      -626.303          47.000
R17  21062181.867 7 112708007.802 7      2657.141          45.000    21062185.352 6  87661785.297 6      2066.668          40.000
R24  19341412.125 7 103427275.517 7      -675.047          44.000    19341413.547 6  80443419.946 6      -525.036          40.000
C05  39625321.414 5 206339446.048 5        13.531          34.000    39625322.570 5 159554753.262 5        10.575          34.000
C12  25027253.766 7 130323518.236 7      2615.012          42.000    25027256.992 7 100774415.222 7      2022.229          47.000
C26  22268292.664 8 115956840.224 8     -1633.164          51.000
E11  23837898.070 7 125269019.429 7      2015.191          46.000    23837898.273 8  95985331.052 8      1544.087          48.000
E12  21627083.445 8 113651103.093 8      -634.668          48.000    21627083.117 8  87083318.896 8      -486.274          51.000
E24  21762042.273 8 114360303.561 8      -779.242          51.000    21762055.047 8  87626768.052 8      -597.079          51.000
E31  26374649.641 7 138599675.755 7     -2804.664          47.000    26374656.242 8 106199752.970 8     -2149.019          51.000
> 2020 05 14 13 11  0.0000000  0 18        .000000000000
G18  20320688.891 8 106786003.157 8       274.309          50.000    20320689.828 8  83209888.417 8       213.747          50.000
G20  23789060.500 6 125012339.959 6      3288.668          40.000    23789063.625 5  97412238.566 5      2562.598          32.000
G21  20651962.703 8 108526819.820 8        95.840          51.000    20651961.094 8  84566369.032 8        74.680          50.000
G25  24561385.031 6 129070948.860 6     -3531.199          37.000    24561387.102 6 100574769.100 6     -2751.587          37.000
G29  22202780.008 5 116676390.073 5     -2454.945          35.000    22202784.727 5  90916677.795 5     -1912.941          34.000
G31  22551286.469 8 118507805.257 8     -2743.840          50.000    22551286.148 8  92343731.698 8     -2138.060          50.000
R13  22024061.242 6 117607291.085 6     -4169.805          39.000    22024063.727 6  91472292.274 6     -3243.181          40.000
R14  19319091.250 8 102981628.276 8      -830.098          51.000    19319093.703 7  80096814.622 7      -645.632          47.000
R17  21047315.211 7 112628459.226 7      2645.711          43.000    21047319.320 6  87599914.268 6      2057.778          40.000
R24  19345240.781 7 103447750.058 7      -690.285          42.000    19345241.961 6  80459344.528 6      -536.888          39.000
C05                                                                  39625240.250 5 159554421.245 5        11.200          34.000
C12  25012196.641 7 130245112.086 7      2611.566          43.000    25012200.461 7 100713786.646 7      2019.489          46.000
C26  22277738.555 8 116006031.961 8     -1646.680          50.000
C29  24665391.328 5 128439158.269 5     -2665.000          33.000
E11  23826411.945 7 125208660.858 7      2008.000          47.000    23826412.688 8  95939082.293 8      1538.505          48.000
E12  21630730.547 8 113670269.080 8      -643.441          48.000    21630730.336 8  87098004.522 8      -493.086          51.000
E24  21766521.781 8 114383842.556 8      -790.324          51.000    21766534.852 8  87644804.415 8      -605.615          51.000
E31  26390672.555 7 138683877.022 7     -2809.023          47.000    26390679.469 8 106264270.761 8     -2152.419          51.000
> 2020 05 14 13 11 30.0000000  0 20        .000000000000
G18  20319180.961 8 106778078.745 8       255.199          50.000    20319181.820 8  83203713.553 8       198.857          51.000
G20  23770298.484 6 124913745.168 6      3285.922          41.000    23770301.812 4  97335411.480 4      2560.456          28.000
G21  20651465.344 8 108524206.907 8        79.707          50.000    20651463.977 8  84564333.028 8        62.109          50.000
G25  24581561.133 6 129176964.189 6     -3535.297          40.000    24581560.258 6 100657378.334 6     -2754.780          41.000
G26  20496498.586 6 107709822.714 6      1118.555          37.000    20496499.570 6  83929738.491 6       871.601          38.000
G29  22216814.719 5 116750140.229 5     -2460.082          33.000    22216814.461 5  90974145.424 5     -1916.941          33.000
G31  22566986.617 8 118590310.183 8     -2755.023          50.000    22566986.547 8  92408021.203 8     -2146.772          50.000
R13  22047519.711 6 117732557.512 6     -4180.234          38.000    22047522.555 6  91569721.693 6     -3251.296          39.000
R14  19323840.469 8 103006945.040 8      -856.352          51.000    19323843.297 8  80116505.444 8      -666.048          48.000
R17  21032522.891 7 112549306.734 7      2632.551          45.000    21032528.086 6  87538351.230 6      2047.539          41.000
R23  21006020.305 5 112367999.978 5     -3065.730          31.000
R24  19349164.359 7 103468734.128 7      -707.031          43.000    19349166.859 6  80475665.518 6      -549.910          40.000
C05  39625159.320 5 206338602.149 5        14.008          34.000    39625160.281 5 159554099.630 5        11.977          35.000
C12  24997168.789 7 130166855.760 7      2606.840          43.000    24997172.281 7 100653273.925 7      2015.656          46.000
C26  22287271.039 8 116055675.585 8     -1661.469          49.000
C29  24680748.109 5 128519142.826 5     -2666.930          32.000
E11  23814977.227 8 125148568.561 8      1999.270          48.000    23814977.844 8  95893037.567 8      1531.917          49.000
E12  21634437.617 8 113689749.699 8      -653.852          49.000    21634437.586 8  87112931.215 8      -501.012          51.000
E24  21771073.773 8 114407762.659 8      -802.957          51.000    21771087.023 8  87663132.796 8      -615.241          51.000
E31  26406729.570 8 138768257.429 8     -2814.938          48.000    26406736.305 8 106328925.804 8     -2156.903          51.000
> 2020 05 14 13 12  0.0000000  0 19        .000000000000
G18  20317777.938 8 106770705.548 8       236.898          50.000    20317778.508 8  83197968.197 8       184.596          50.000
G20  23751550.820 6 124815226.953 6      3283.012          40.000    23751554.594 4  97258644.187 4      2558.200          29.000
G21  20651056.312 8 108522058.557 8        64.227          49.000    20651055.102 8  84562658.991 8        50.047          49.000
G25  24601753.852 6 129283073.932 6     -3538.133          41.000    24601752.477 7 100740061.177 7     -2756.990          42.000
G26  20490157.664 6 107676497.527 6      1104.027          39.000    20490157.922 6  83903770.819 6       860.284          40.000
G31  22582745.055 8 118673121.834 8     -2765.191          50.000    22582744.781 8  92472549.704 8     -2154.695          50.000
R13  22071032.086 6 117858111.349 6     -4189.375          38.000    22071035.039 6  91667374.649 6     -3258.403          38.000
R14  19328733.914 8 103033029.961 8      -882.035          50.000    19328737.078 8  80136793.706 8      -686.024          48.000
R17  21017801.094 7 112470525.092 7      2620.172          47.000    21017806.062 6  87477076.642 6      2037.911          41.000
R23  21023234.594 5 112460090.001 5     -3072.848          31.000
R24  19353178.625 7 103490200.189 7      -723.195          44.000    19353181.086 6  80492361.309 6      -562.488          37.000
C05  39625076.867 5 206338172.776 5        15.125          35.000    39625077.867 5 159553768.048 5        11.520          35.000
C12  24982164.961 7 130088724.296 7      2602.652          43.000    24982167.555 7 100592857.802 7      2012.412          45.000
C26  22296885.047 8 116105744.593 8     -1675.723          49.000
C29  24696111.703 5 128599165.121 5     -2667.391          33.000
E11  23803588.469 8 125088717.463 8      1991.480          48.000    23803588.898 8  95847177.651 8      1525.874          49.000
E12  21638199.500 8 113709518.473 8      -663.477          48.000    21638199.484 8  87128078.713 8      -508.351          51.000
E24  21775693.344 8 114432038.513 8      -814.801          51.000    21775706.859 8  87681733.771 8      -624.340          51.000
E31  26422815.672 8 138852790.440 8     -2820.047          49.000    26422821.867 8 106393697.818 8     -2160.767          50.000
> 2020 05 14 13 12 30.0000000  0 19        .000000000000
G18  20316484.430 8 106763907.975 8       218.293          50.000    20316484.625 8  83192671.383 8       170.098          50.000
G20  23732822.930 6 124716812.914 6      3280.203          41.000    23732824.828 4  97181958.026 4      2555.981          25.000
G21  20650740.023 8 108520398.510 8        48.566          49.000    20650739.156 8  84561365.458 8        37.844          49.000
G25  24621968.523 7 129389301.557 7     -3541.734          42.000    24621967.695 7 100822835.853 7     -2759.793          43.000
G26  20483903.367 6 107643626.341 6      1089.484          40.000    20483902.031 6  83878156.940 6       848.952          41.000
G31  22598566.039 8 118756262.371 8     -2775.504          50.000    22598565.484 8  92537334.504 8     -2162.730          50.000
R13  22094602.008 5 117983973.938 5     -4198.871          35.000    22094605.375 5  91765267.740 5     -3265.789          34.000
R14  19333776.164 8 103059907.809 8      -907.734          50.000    19333779.609 8  80157698.706 8      -706.016          49.000
R17  21003154.047 7 112392140.097 7      2607.617          47.000    21003157.117 6  87416110.547 6      2028.150          40.000
R23  21040482.719 5 112552390.879 5     -3078.535          34.000
R24  19357287.125 7 103512171.384 7      -739.590          42.000    19357289.055 6  80509449.999 6      -575.234          38.000
C05  39624996.758 5 206337755.513 5        15.176          34.000    39624997.648 5 159553444.395 5        11.484          34.000
C12  24967189.828 7 130010742.808 7      2598.215          43.000    24967191.172 7 100532557.636 7      2009.111          44.000
C26  22306585.930 8 116156262.211 8     -1690.023          49.000
C29  24711491.867 5 128679248.841 5     -2669.289          34.000
E11  23792250.227 8 125029132.830 8      1983.211          48.000    23792250.656 8  95801521.903 8      1519.582          49.000
E12  21642020.641 8 113729599.118 8      -673.238          48.000    21642020.578 8  87143465.179 8      -515.834          51.000
E24  21780385.391 8 114456694.950 8      -826.855          51.000    21780399.164 8  87700626.360 8      -633.606          51.000
E31  26438935.195 8 138937499.803 8     -2825.340          48.000    26438941.023 8 106458604.947 8     -2164.829          50.000
> 2020 05 14 13 13  0.0000000  0 19        .000000000000
G18  20315303.164 8 106757699.733 8       195.453          51.000    20315303.055 8  83187833.799 8       152.301          51.000
G20  23714118.164 6 124618519.713 6      3272.633          40.000    23714119.281 4  97105366.195 4      2550.113          27.000
G21  20650519.445 8 108519240.085 8        28.516          49.000    20650518.602 8  84560462.783 8        22.220          49.000
G25  24642207.250 6 129495659.757 6     -3549.121          40.000    24642208.148 6 100905712.298 6     -2765.552          40.000
G26  20477737.820 6 107611224.816 6      1070.344          39.000    20477736.859 6  83852909.032 6       834.034          39.000
G29  22259115.195 5 116972439.684 5     -2479.648          30.000
G31  22614451.828 8 118839743.208 8     -2790.301          49.000    22614451.281 8  92602384.495 8     -2174.260          48.000
R13  22118231.570 5 118110157.026 5     -4213.129          33.000    22118236.375 5  91863410.188 5     -3276.878          30.000
R14  19338969.742 8 103087592.344 8      -938.031          50.000    19338973.562 8  80179231.155 8      -729.580          49.000
R17  20988583.805 7 112314166.990 7      2590.574          46.000    20988585.141 6  87355464.847 6      2014.891          39.000
