     3.02           OBSERVATION DATA    M (MIXED)           RINEX VERSION / TYPE
SAVERINEX           SC600               20200510 075931 LCL PGM / RUN BY / DATE
       G = GPS       R = GLONASS       C = COMPASS          COMMENT
       S = SBAS      J = QZSS          E = GALILEO          COMMENT
BEAN                                                        MARKER NAME
1                                                           MARKER NUMBER
GEODETIC                                                    MARKER TYPE
Unige DICCA         GTER                                    OBSERVER / AGENCY
SC60291900056       SC600               2.12(191226)        REC # / TYPE / VERS
                    HEMA45          NONE                    ANT # / TYPE
  4509407.8091   693652.4678  4442337.6214                  APPROX POSITION XYZ
        0.0000        0.0000        0.0000                  ANTENNA: DELTA H/E/N
G    8 C1C L1C D1C S1C C2Y L2Y D2Y S2Y                      SYS / # / OBS TYPES
R    8 C1C L1C D1C S1C C2P L2P D2P S2P                      SYS / # / OBS TYPES
C    8 C1I L1I D1I S1I C7I L7I D7I S7I                      SYS / # / OBS TYPES
E    8 C1C L1C D1C S1C C7Q L7Q D7Q S7Q                      SYS / # / OBS TYPES
DBHZ                                                        COMMENT
     30.000                                                 INTERVAL
  2020    05    10    05    00    0.0000000     GPS         TIME OF FIRST OBS
  2020    05    10    05    59   30.0000000     GPS         TIME OF LAST OBS
     0                                                      RCV CLOCK OFFS APPL
G L1C  0.00000                                              SYS / PHASE SHIFT
G L2Y  0.00000                                              SYS / PHASE SHIFT
R L1C  0.00000                                              SYS / PHASE SHIFT
R L2P  0.25000                                              SYS / PHASE SHIFT
C L1I  0.00000                                              SYS / PHASE SHIFT
C L7I  0.00000                                              SYS / PHASE SHIFT
E L1C  0.50000                                              SYS / PHASE SHIFT
E L7Q -0.25000                                              SYS / PHASE SHIFT
 12 R01  1 R02 -4 R03  5 R04  6 R10 -5 R12 -1 R13 -2 R14 -7 GLONASS SLOT / FRQ #
    R15  0 R17  4 R22 -3 R23  3                             GLONASS SLOT / FRQ #
 C1C   71.950 C2C   71.950 C2P   71.950                     GLONASS COD/PHS/BIS
    18                                                      LEAP SECONDS
*** Above antenna height is from mark to ANTENNA BOTTOM.    COMMENT
    17     4        0.0000        ANT MEASURE TYPE/HEIGT    COMMENT
    0.0000    0.0000    0.0458    0.0405    0.0000          COMMENT
                    BASE STATION                            COMMENT
                                                            END OF HEADER
> 2020 05 10 05 00  0.0000000  0 18        .000000000000
G05  23190528.312 6 121866989.272 6     -3447.969          37.000    23190521.477 6  94961286.615 6     -2686.729          37.000
G13  20147965.766 8 105878276.948 8         -.785          51.000    20147963.898 8  82502531.968 8         -.612          49.000
G17  24254482.148 6 127458147.086 6      2739.840          37.000    24254482.461 6  99318019.557 6      2134.940          36.000
G24  23593185.180 5 123983024.264 5      3043.398          33.000
G28  21030738.250 8 110517346.318 8      -971.074          48.000    21030737.164 7  86117409.778 7      -756.681          45.000
R03  20722275.109 8 110927938.988 8     -3317.605          50.000    20722274.414 7  86277289.254 7     -2580.363          44.000
R04  19288713.406 8 103290203.933 8       580.984          49.000    19288715.344 7  80336814.409 7       451.877          45.000
R14  19318343.047 8 102977666.367 8       538.801          51.000    19318344.953 7  80093775.334 7       419.067          47.000
R15  22259578.398 8 118948439.536 8      3403.777          49.000    22259580.664 7  92515461.717 7      2647.385          45.000
C05  39784479.508 5 207168224.738 5        18.223          35.000    39784479.406 6 160195590.894 6        13.925          40.000
C14  23504480.258 8 122393988.572 8     -2902.793          48.000    23504479.008 8  94642778.458 8     -2244.539          51.000
C24  22093960.047 8 115049070.407 8     -1085.871          51.000
C25  22946064.461 6 119486177.145 6      1845.980          41.000
C26  24891942.078 5 129618884.475 5     -2812.387          32.000
E01  24862543.914 8 130653560.628 8     -1851.762          51.000    24862545.586 7 100111193.883 7     -1418.855          47.000
E04  24638419.984 8 129475756.690 8     -1983.969          51.000    24638424.383 8  99208679.801 8     -1520.118          51.000
E09  21697064.094 7 114018846.729 7       696.227          46.000    21697065.477 7  87365081.210 7       533.448          46.000
E31  23572024.078 8 123871831.508 8       881.195          51.000    23572028.266 8  94914791.309 8       675.235          51.000
> 2020 05 10 05 00 30.0000000  0 18        .000000000000
G05  23210228.203 6 121970517.445 6     -3453.305          37.000    23210222.945 6  95041957.881 6     -2690.884          37.000
G13  20148011.188 8 105878516.180 8       -14.539          51.000    20148009.727 8  82502718.359 8       -11.332          49.000
G17  24238854.570 5 127376021.692 5      2735.945          35.000    24238848.852 5  99254025.779 5      2131.915          34.000
G24  23575822.375 5 123891782.563 5      3038.285          33.000
G28  21036330.594 7 110546734.991 7      -987.434          47.000    21036329.484 7  86140310.015 7      -769.429          45.000
R03  20740912.938 7 111027717.374 7     -3333.730          46.000    20740913.664 7  86354894.621 7     -2592.901          44.000
R04  19285528.781 8 103273150.280 8       556.555          49.000    19285530.555 7  80323550.437 7       432.876          46.000
R14  19315364.281 8 102961786.883 8       520.395          51.000    19315365.734 7  80081424.618 7       404.751          47.000
R15  22240498.008 8 118846477.383 8      3394.371          48.000    22240499.586 7  92436157.849 7      2640.066          45.000
C05  39784376.031 5 207167685.718 5        18.672          35.000    39784375.875 6 160195174.076 6        14.363          40.000
C14  23521227.953 7 122481201.202 7     -2910.824          47.000    23521227.781 8  94710216.807 8     -2250.831          51.000
C24  22100243.211 8 115081789.302 8     -1094.793          51.000
C25  22935453.250 7 119430924.724 7      1837.961          44.000
C26  24908150.180 5 129703298.552 5     -2814.234          32.000
E01  24873138.078 8 130709232.812 8     -1859.117          50.000    24873139.344 7 100153851.759 7     -1424.509          47.000
E04  24649771.875 8 129535409.384 8     -1992.285          51.000    24649774.664 8  99254387.704 8     -1526.535          51.000
E09  21693120.367 7 113998122.558 7       685.980          46.000    21693122.133 7  87349201.623 7       525.612          46.000
E31  23567026.617 8 123845570.130 8       870.156          51.000    23567031.016 8  94894668.967 8       666.734          51.000
> 2020 05 10 05 01  0.0000000  0 17        .000000000000
G05  23229963.500 5 122074229.360 5     -3459.688          34.000    23229958.438 5  95122772.362 5     -2695.860          34.000
G13  20148139.414 8 105879190.441 8       -29.375          51.000    20148138.086 8  82503243.737 8       -22.890          50.000
G15  20801054.352 5 109310270.177 5      1642.543          32.000
G17  24223257.430 5 127294055.409 5      2729.926          35.000    24223249.398 5  99190156.166 5      2127.212          34.000
G28  21042020.516 7 110576635.822 7     -1004.879          47.000    21042019.391 7  86163609.348 7      -783.026          45.000
R03  20759645.875 7 111128001.342 7     -3350.828          47.000    20759648.094 7  86432893.271 7     -2606.200          45.000
R04  19282485.180 8 103256851.148 8       531.051          49.000    19282486.820 7  80310873.327 7       413.039          46.000
R14  19312493.117 8 102946483.666 8       500.891          51.000    19312495.039 8  80069522.127 8       389.582          48.000
R15  22221474.859 7 118744824.312 7      3383.656          46.000    22221476.445 7  92357094.381 7      2631.736          43.000
C05  39784273.320 5 207167151.330 5        17.816          35.000    39784273.031 6 160194760.061 6        13.952          40.000
C14  23538026.344 7 122568677.881 7     -2920.031          47.000    23538026.648 8  94777859.342 8     -2257.857          51.000
C24  22106582.227 8 115114798.298 8     -1104.742          51.000
C25  22924896.602 7 119375945.423 7      1828.465          47.000
E01  24883777.758 8 130765145.047 8     -1867.316          48.000    24883779.148 7 100196693.592 7     -1430.888          47.000
E04  24661175.805 8 129595335.106 8     -2001.738          51.000    24661176.719 8  99300304.794 8     -1533.767          50.000
E09  21689239.445 7 113977727.200 7       674.766          47.000    21689240.961 7  87333574.008 7       516.986          46.000
E31  23562097.133 8 123819663.483 8       858.020          51.000    23562100.844 8  94874818.409 8       657.423          51.000
> 2020 05 10 05 01 30.0000000  0 18        .000000000000
G05  23249728.555 5 122178095.896 5     -3465.391          30.000    23249723.180 5  95203707.259 5     -2700.307          30.000
G13  20148345.656 8 105880274.061 8       -44.543          51.000    20148344.219 8  82504088.104 8       -34.709          50.000
G17  24207685.844 6 127212224.525 6      2723.973          38.000    24207682.352 6  99126391.945 6      2122.579          37.000
G28  21047802.672 7 110607020.878 7     -1022.332          47.000    21047801.695 7  86187286.003 7      -796.622          44.000
G30  22673473.234 5 119149879.924 5     -2621.660          34.000    22673486.602 5  92844090.766 5     -2042.852          31.000
R03  20778469.102 8 111228761.151 8     -3368.129          50.000    20778471.281 7  86511261.991 7     -2619.656          45.000
R04  19279577.281 8 103241280.859 8       505.320          49.000    19279579.125 7  80298763.080 7       393.027          46.000
R14  19309725.008 8 102931729.131 8       481.234          50.000    19309727.312 8  80058046.375 8       374.293          48.000
R15  22202504.289 7 118643454.869 7      3372.789          46.000    22202507.055 7  92278251.479 7      2623.280          44.000
C05  39784166.164 5 207166593.235 5        17.914          35.000    39784165.875 6 160194328.489 6        13.698          40.000
C14  23554870.156 7 122656390.344 7     -2929.031          46.000    23554870.344 8  94845684.212 8     -2265.031          49.000
C24  22112971.805 8 115148069.827 8     -1114.898          51.000
C25  22914387.758 7 119321213.095 7      1818.758          47.000
E01  24894457.719 8 130821269.257 8     -1875.746          48.000    24894459.422 7 100239697.845 7     -1437.287          46.000
E04  24672626.438 8 129655506.733 8     -2011.281          51.000    24672625.477 8  99346410.295 8     -1541.049          50.000
E09  21685416.367 7 113957635.044 7       663.223          46.000    21685417.477 7  87318178.715 7       508.160          47.000
E24  24875001.438 5 130719013.654 5      2777.055          35.000
E31  23557229.977 8 123794084.798 8       845.754          51.000    23557232.547 8  94855219.139 8       648.000          51.000
> 2020 05 10 05 02  0.0000000  0 18        .000000000000
G05  23269532.461 5 122282217.475 5     -3469.809          32.000    23269526.719 5  95284800.412 5     -2703.750          32.000
G13  20148639.945 8 105881820.163 8       -56.773          51.000    20148638.305 8  82505292.849 8       -44.239          50.000
G17  24192150.734 6 127130584.826 6      2720.359          40.000    24192151.016 6  99062776.512 6      2119.754          38.000
G28  21053686.578 7 110637940.642 7     -1037.176          47.000    21053685.438 7  86211379.326 7      -808.186          44.000
G30  22688454.445 6 119228609.818 6     -2624.090          36.000    22688461.672 6  92905438.538 6     -2044.742          36.000
R03  20797391.062 8 111330046.910 8     -3382.289          51.000    20797392.680 7  86590039.779 7     -2630.669          46.000
R04  19276815.828 8 103226494.085 8       482.414          50.000    19276817.672 7  80287262.256 7       375.208          47.000
R14  19307069.219 8 102917575.178 8       464.355          50.000    19307072.445 8  80047037.734 8       361.165          49.000
R15  22183597.094 8 118542423.266 8      3364.645          48.000    22183601.617 7  92199671.340 7      2616.946          46.000
C05  39784064.547 5 207166064.019 5        19.387          35.000    39784064.312 6 160193919.246 6        15.094          40.000
C14  23571769.125 7 122744388.334 7     -2935.461          46.000    23571768.203 7  94913729.826 7     -2269.993          47.000
C24  22119421.305 8 115181654.280 8     -1122.184          51.000
C25  22903935.969 7 119266779.415 7      1811.996          46.000
E01  24905187.688 8 130877655.996 8     -1881.480          48.000    24905189.180 7 100282903.270 7     -1441.684          46.000
E04  24684133.727 8 129715975.697 8     -2018.016          51.000    24684130.828 8  99392743.616 8     -1546.314          49.000
E09  21681660.719 7 113937899.156 7       654.363          47.000    21681661.742 7  87303056.378 7       501.428          47.000
E24  24859162.969 6 130635778.919 6      2773.500          38.000
E31  23552435.133 8 123768885.971 8       836.145          51.000    23552437.039 8  94835910.961 8       640.655          51.000
> 2020 05 10 05 02 30.0000000  0 18        .000000000000
G05  23289376.227 5 122386495.905 5     -3470.492          35.000    23289369.586 5  95366056.276 5     -2704.283          34.000
G13  20149023.891 8 105883837.299 8       -66.301          51.000    20149022.141 8  82506864.637 8       -51.663          50.000
G17  24176654.070 6 127049147.216 6      2719.785          37.000    24176652.102 6  98999318.548 6      2119.310          38.000
G28  21059673.406 8 110669401.549 8     -1048.969          48.000    21059672.250 7  86235894.300 7      -817.381          42.000
G30  22703474.273 5 119307555.962 5     -2624.691          34.000
R03  20816411.969 8 111431864.168 8     -3393.809          50.000    20816413.805 7  86669230.947 7     -2639.629          46.000
R04  19274202.648 8 103212500.611 8       462.117          49.000    19274204.484 7  80276378.427 7       359.424          47.000
R14  19304527.805 8 102904029.154 8       450.285          50.000    19304531.812 8  80036501.925 8       350.222          49.000
R15  22164755.297 7 118441739.214 7      3359.227          47.000    22164761.297 7  92121361.514 7      2612.732          46.000
C05  39783970.023 5 207165571.686 5        24.332          35.000    39783969.789 6 160193538.517 6        18.930          40.000
C14  23588724.117 7 122832678.023 7     -2939.105          46.000    23588720.664 7  94982000.967 7     -2272.860          42.000
C24  22125932.109 8 115215558.465 8     -1126.828          51.000
C25  22893542.195 7 119212652.594 7      1807.703          44.000
E01  24915969.008 8 130934311.873 8     -1884.254          48.000    24915969.797 7 100326314.890 7     -1443.869          46.000
E04  24695698.992 8 129776749.502 8     -2022.047          51.000    24695695.008 8  99439310.522 8     -1549.394          49.000
E09  21677974.469 8 113918528.543 8       648.262          48.000    21677974.719 7  87288213.948 7       496.795          46.000
E24  24843361.578 6 130552741.374 6      2773.262          39.000    24843360.422 5 100033910.278 5      2125.075          33.000
E31  23547714.414 8 123744074.950 8       829.305          51.000    23547715.742 8  94816899.927 8       635.420          51.000
> 2020 05 10 05 03  0.0000000  0 18        .000000000000
G05  23309224.461 6 122490799.121 6     -3484.656          36.000    23309217.633 6  95447331.397 6     -2715.317          36.000
G13  20149463.133 8 105886145.291 8       -89.293          51.000    20149461.438 8  82508663.064 8       -69.579          50.000
G17  24161160.930 6 126967733.256 6      2705.383          36.000    24161157.406 6  98935879.100 6      2108.091          36.000
G28  21065728.555 7 110701221.243 7     -1074.102          47.000    21065727.008 7  86260688.841 7      -836.965          42.000
R03  20835496.102 7 111534025.464 7     -3418.566          46.000    20835498.594 7  86748689.747 7     -2658.882          44.000
R04  19271703.812 8 103199117.926 8       428.281          50.000    19271705.406 7  80265969.666 7       333.108          47.000
R14  19302065.844 8 102890906.412 8       422.820          50.000    19302069.805 8  80026295.344 8       328.860          48.000
R15  22145944.539 7 118341220.176 7      3340.180          47.000    22145951.109 7  92043179.991 7      2597.918          44.000
C05  39783848.062 5 207164936.848 5        16.129          35.000    39783847.836 6 160193047.643 6        12.520          40.000
C14  23605700.375 7 122921078.135 7     -2955.816          46.000    23605695.094 7  95050357.478 7     -2285.592          43.000
C24  22132469.742 8 115249601.927 8     -1144.543          51.000
C25  22883171.656 6 119158653.586 6      1790.352          41.000
C26  24989314.117 5 130125847.724 5     -2822.961          32.000
E01  24926766.812 7 130991054.429 7     -1900.289          47.000    24926767.328 7 100369792.927 7     -1456.087          45.000
E04  24707287.594 8 129837646.616 8     -2039.457          51.000    24707283.531 8  99485971.925 8     -1562.638          49.000
E09  21674323.609 8 113899343.225 8       629.004          48.000    21674322.867 7  87273513.537 7       481.835          46.000
E24  24827563.273 6 130469720.969 6      2759.492          38.000    24827566.305 5  99970297.280 5      2114.452          35.000
E31  23543032.797 8 123719470.574 8       809.223          51.000    23543033.297 8  94798047.225 8       620.054          51.000
> 2020 05 10 05 03 30.0000000  0 18        .000000000000
G05  23329133.523 6 122595422.467 6     -3487.254          39.000    23329127.047 6  95528855.968 6     -2717.344          39.000
G13  20150014.633 8 105889043.094 8      -101.016          51.000    20150013.094 8  82510921.087 8       -78.713          50.000
G17  24145729.453 6 126886644.268 6      2703.223          38.000    24145724.719 6  98872692.834 6      2106.404          38.000
G28  21071908.508 8 110733696.410 8     -1087.770          48.000    21071906.742 6  86285994.150 6      -847.613          41.000
R03  20854700.172 7 111636831.908 7     -3431.895          47.000    20854702.984 7  86828650.280 7     -2669.251          42.000
R04  19269375.898 8 103186651.110 8       405.926          50.000    19269377.227 7  80256273.250 7       315.720          47.000
R14  19299740.289 8 102878508.525 8       406.797          50.000    19299744.062 8  80016652.549 8       316.398          48.000
R15  22127222.344 8 118241170.675 8      3332.656          48.000    22127226.898 7  91965363.710 7      2592.066          43.000
C05  39783755.625 5 207164455.100 5        19.059          35.000    39783755.289 6 160192675.106 6        14.568          40.000
C14  23622754.445 7 123009882.432 7     -2961.285          45.000    23622749.305 7  95119026.537 7     -2289.941          46.000
C24  22139090.602 8 115284079.003 8     -1150.953          51.000
C25  22872881.234 7 119105078.099 7      1784.430          43.000
C26  25005585.648 5 130210573.563 5     -2821.574          33.000
E01  24937637.445 8 131048180.475 8     -1905.031          48.000    24937638.508 7 100413564.821 7     -1459.720          45.000
E04  24718955.922 8 129898964.767 8     -2045.461          51.000    24718953.078 8  99532955.943 8     -1567.286          50.000
E09  21670765.023 8 113880642.455 8       620.867          48.000    21670764.109 7  87259184.378 7       475.661          47.000
E24  24811825.625 6 130387016.861 6      2757.109          39.000    24811831.102 5  99906926.661 5      2112.306          34.000
E31  23538446.953 8 123695370.920 8       800.426          51.000    23538446.688 8  94779581.244 8       613.289          51.000
> 2020 05 10 05 04  0.0000000  0 18        .000000000000
G05  23349057.312 6 122700123.270 6     -3493.426          41.000    23349051.438 6  95610440.932 6     -2722.150          41.000
G13  20150632.812 8 105892291.773 8      -116.316          50.000    20150631.289 8  82513452.525 8       -90.636          50.000
G17  24130314.930 6 126805643.737 6      2696.199          38.000    24130309.156 6  98809575.533 6      2100.938          37.000
G28  21078167.297 8 110766585.812 8     -1105.336          48.000    21078165.656 6  86311622.255 6      -861.301          40.000
R03  20873979.672 8 111740036.505 8     -3449.000          48.000    20873981.312 7  86908920.400 7     -2682.556          42.000
R04  19267173.781 8 103174857.602 8       379.625          50.000    19267174.898 7  80247100.523 7       295.264          47.000
R14  19297504.930 8 102866591.404 8       386.980          49.000    19297508.406 8  80007383.673 8       300.985          48.000
R15  22108543.000 7 118141348.439 7      3321.441          46.000    22108544.188 7  91887724.294 7      2583.346          42.000
C05  39783646.891 5 207163888.899 5        17.844          35.000    39783646.484 6 160192237.254 6        13.916          40.000
C14  23639840.062 7 123098851.452 7     -2970.484          45.000    23639836.305 8  95187822.982 8     -2296.943          48.000
C24  22145748.953 8 115318750.996 8     -1161.145          51.000
C25  22862628.461 7 119051688.717 7      1774.402          46.000
C26  25021847.211 5 130295253.912 5     -2823.996          31.000
E01  24948535.172 8 131105448.833 8     -1913.430          48.000    24948536.945 7 100457445.753 7     -1466.206          45.000
E04  24730658.156 8 129960463.654 8     -2055.145          50.000    24730657.727 8  99580078.428 8     -1574.784          51.000
E09  21667253.172 8 113862187.499 8       608.793          48.000    21667252.500 8  87245043.548 8       466.597          48.000
E24  24796103.531 6 130304390.242 6      2750.914          40.000    24796109.734 5  99843615.387 5      2108.092          31.000
E31  23533911.414 8 123671536.134 8       787.879          51.000    23533911.422 8  94761318.217 8       603.711          51.000
> 2020 05 10 05 04 30.0000000  0 17        .000000000000
G05  23369016.898 7 122805012.693 7     -3499.242          42.000    23369011.734 7  95692172.897 7     -2726.685          42.000
G13  20151339.445 8 105896005.685 8      -131.168          49.000    20151337.961 8  82516346.478 8      -102.209          49.000
G17  24114939.828 6 126724848.411 6      2690.016          40.000    24114934.516 6  98746618.182 6      2096.122          40.000
G28  21084526.250 8 110800001.872 8     -1122.305          50.000    21084524.258 6  86337660.729 6      -874.523          39.000
R03  20893354.906 7 111843752.308 7     -3465.363          46.000    20893356.242 7  86989588.202 7     -2695.283          45.000
R04  19265119.195 8 103163854.763 8       353.844          51.000    19265120.195 7  80238542.747 7       275.212          47.000
R14  19295381.180 8 102855269.559 8       367.746          50.000    19295384.430 8  79998577.786 8       286.025          48.000
R15  22089927.422 7 118041870.542 7      3310.422          45.000    22089927.469 7  91810352.688 7      2574.776          43.000
C05  39783543.648 5 207163351.000 5        17.535          35.000    39783543.219 6 160191821.298 6        13.671          40.000
C14  23656978.484 7 123188096.038 7     -2979.059          45.000    23656976.438 8  95256832.562 8     -2303.591          50.000
C24  22152466.398 8 115353729.456 8     -1170.746          51.000
C25  22852433.609 7 118998598.368 7      1765.090          45.000
E01  24959481.477 7 131162971.778 7     -1921.410          47.000    24959483.445 7 100501521.760 7     -1472.207          45.000
E04  24742416.305 8 130022256.415 8     -2064.281          50.000    24742418.211 8  99627426.106 8     -1581.701          51.000
E09  21663809.867 8 113844093.052 8       597.520          48.000    21663809.484 8  87231178.971 8       457.765          48.000
E24  24780417.734 6 130221955.840 6      2745.020          41.000
E31  23529447.766 8 123648079.788 8       775.926          51.000    23529448.461 8  94743345.178 8       594.561          51.000
> 2020 05 10 05 05  0.0000000  0 17        .000000000000
G05  23389004.336 7 122910047.881 7     -3503.590          43.000    23388999.047 6  95774018.467 6     -2730.070          41.000
G13  20152127.258 8 105900146.096 8      -145.387          49.000    20152125.781 8  82519572.773 8      -113.288          49.000
G17  24099597.039 6 126644221.569 6      2684.434          41.000    24099593.711 6  98683792.124 6      2091.769          41.000
G28  21090977.656 8 110833903.304 8     -1138.359          49.000    21090975.734 6  86364077.411 6      -887.033          38.000
R03  20912816.734 7 111947935.863 7     -3480.793          43.000    20912819.273 7  87070619.884 7     -2707.280          47.000
R04  19263204.859 8 103153603.638 8       328.945          51.000    19263205.648 7  80230569.654 7       255.846          47.000
R14  19293361.344 8 102844501.804 8       349.504          50.000    19293364.203 8  79990202.854 8       271.836          48.000
R15  22071368.453 7 117942698.219 7      3300.453          43.000    22071369.422 7  91733218.663 7      2567.019          43.000
C05  39783438.219 5 207162802.137 5        18.809          34.000    39783437.906 6 160191396.873 6        14.281          40.000
C14  23674162.023 7 123277575.090 7     -2986.660          45.000    23674161.492 8  95326023.447 8     -2309.548          51.000
C24  22159235.039 8 115388974.016 8     -1179.410          51.000
C25  22842287.750 7 118945768.038 7      1756.504          43.000
E01  24970468.352 7 131220708.234 7     -1928.359          47.000    24970470.125 7 100545761.372 7     -1477.583          45.000
E04  24754223.000 8 130084302.888 8     -2072.648          51.000    24754226.422 8  99674968.207 8     -1588.139          51.000
E09  21660427.695 8 113826320.502 8       586.918          48.000    21660427.867 8  87217561.020 8       449.695          49.000
E24  24764760.805 6 130139674.940 6      2739.707          41.000
E31  23525048.398 8 123624962.086 8       764.730          51.000    23525049.258 8  94725631.609 8       586.007          51.000
> 2020 05 10 05 05 30.0000000  0 18        .000000000000
G05  23409021.930 7 123015241.208 7     -3509.070          44.000    23409015.508 6  95855987.225 6     -2734.344          38.000
G13  20152999.188 8 105904728.479 8      -160.133          48.000    20152997.891 8  82523143.475 8      -124.779          48.000
G17  24084289.867 6 126563781.632 6      2678.352          41.000    24084288.727 6  98621111.670 6      2087.027          41.000
G24  23403733.328 5 122987433.425 5      2990.230          34.000
G28  21097523.727 8 110868303.218 8     -1155.004          49.000    21097522.242 6  86390882.551 6      -900.003          37.000
R03  20932365.547 6 112052599.537 6     -3496.719          41.000    20932372.273 7  87152025.080 7     -2719.670          47.000
R04  19261434.039 8 103144120.748 8       303.152          51.000    19261434.789 7  80223194.071 7       235.785          47.000
R14  19291448.031 8 102834302.132 8       330.453          51.000    19291450.422 7  79982269.787 7       257.019          47.000
R15  22052868.219 7 117843847.883 7      3289.547          44.000    22052871.805 7  91656334.963 7      2558.533          43.000
C05  39783333.594 5 207162257.050 5        18.441          35.000    39783333.297 6 160190975.381 6        13.934          39.000
C14  23691393.539 7 123367301.439 7     -2995.184          46.000    23691393.523 8  95395405.521 8     -2315.987          51.000
C24  22166057.219 8 115424498.186 8     -1188.875          51.000
C25  22832194.094 7 118893212.634 7      1747.059          44.000
E01  24981498.414 7 131278671.591 7     -1936.023          46.000    24981499.859 7 100590174.832 7     -1483.405          45.000
E04  24766081.141 8 130146617.309 8     -2081.777          51.000    24766084.969 8  99722715.621 8     -1595.134          51.000
E09  21657109.742 8 113808885.656 8       575.414          48.000    21657110.727 8  87204201.833 8       440.911          49.000
E24  24749136.594 6 130057563.174 6      2733.879          38.000
E31  23520716.203 8 123602197.683 8       752.797          51.000    23520717.180 8  94708188.743 8       576.830          51.000
> 2020 05 10 05 06  0.0000000  0 17        .000000000000
G05  23429065.938 7 123120573.056 7     -3513.742          44.000    23429054.977 6  95938063.856 6     -2737.987          37.000
G13  20153952.180 8 105909736.669 8      -174.461          49.000    20153951.125 8  82527045.969 8      -135.944          49.000
G17  24069015.531 6 126483514.248 6      2672.238          41.000    24069015.602 6  98558565.609 6      2082.261          41.000
G28  21104161.320 8 110903184.049 8     -1171.133          49.000    21104159.375 5  86418062.412 5      -912.571          35.000
R03  20952003.492 7 112157723.759 7     -3512.234          46.000    20952010.883 7  87233788.366 7     -2731.738          46.000
R04  19259803.602 8 103135390.572 8       278.059          51.000    19259804.727 8  80216403.922 8       216.268          48.000
R14  19289637.984 8 102824652.624 8       312.160          51.000    19289640.078 8  79974764.608 8       242.791          48.000
R15  22034428.172 8 117745303.922 8      3279.379          48.000    22034431.266 7  91579689.636 7      2550.628          44.000
C05  39783226.477 5 207161699.418 5        18.324          35.000    39783226.258 6 160190544.143 6        14.215          39.000
C14  23708669.555 8 123457256.795 8     -3002.598          48.000    23708668.875 8  95464964.687 8     -2321.826          51.000
C24  22172929.648 8 115460284.431 8     -1197.594          51.000
C25  22822151.367 7 118840915.894 7      1738.531          46.000
E01  24992568.242 7 131336843.856 7     -1942.938          46.000    24992569.781 7 100634748.378 7     -1488.723          44.000
E04  24777987.414 8 130209182.553 8     -2090.074          51.000    24777990.883 8  99770655.219 8     -1601.470          51.000
E09  21653853.102 8 113791772.921 8       564.688          48.000    21653854.664 8  87191089.461 8       432.719          49.000
E24  24733542.336 6 129975604.956 6      2728.875          36.000    24733555.547 5  99591767.946 5      2090.905          32.000
E31  23516447.984 8 123579769.826 8       741.684          51.000    23516449.875 8  94691003.771 8       568.273          51.000
> 2020 05 10 05 06 30.0000000  0 17        .000000000000
G05  23449140.508 7 123226065.351 7     -3520.555          43.000    23449125.867 6  96020265.530 6     -2743.289          37.000
G13  20154991.023 8 105915196.299 8      -191.020          49.000    20154990.227 8  82531300.208 8      -148.849          50.000
G17  24053778.883 6 126403447.416 6      2664.094          40.000    24053779.695 6  98496175.843 6      2075.914          40.000
G28  21110894.547 8 110938567.956 8     -1189.359          48.000    21110892.188 5  86445634.305 5      -926.770          35.000
R03  20971733.266 8 112263330.440 8     -3529.688          50.000    20971738.930 7  87315926.827 7     -2745.316          43.000
R04  19258318.875 8 103127439.652 8       250.508          51.000    19258320.086 7  80210219.846 7       194.839          47.000
R14  19287935.445 8 102815577.380 8       291.430          51.000    19287937.711 8  79967706.079 8       226.668          48.000
R15  22016051.164 8 117647092.716 8      3266.602          49.000    22016052.766 7  91503303.171 7      2540.690          45.000
C05  39783121.633 5 207161153.591 5        16.246          35.000    39783121.406 6 160190122.052 6        12.883          39.000
C14  23725993.688 8 123547463.674 8     -3012.531          48.000    23725992.141 8  95534718.317 8     -2329.465          51.000
C24  22179856.953 8 115496355.987 8     -1208.566          51.000
C25  22812163.766 8 118788902.439 8      1727.523          48.000
E01  25003682.367 7 131395248.202 7     -1952.176          46.000    25003684.289 7 100679499.754 7     -1495.820          45.000
E04  24789946.188 8 130272022.678 8     -2100.652          51.000    24789948.859 8  99818805.425 8     -1609.624          51.000
E09  21650662.797 8 113775007.882 8       551.574          49.000    21650664.273 8  87178243.527 8       422.605          50.000
E24  24717980.539 5 129893863.839 5      2721.566          33.000
E31  23512248.641 8 123557702.962 8       728.082          51.000    23512251.203 8  94674095.395 8       557.860          51.000
> 2020 05 10 05 07  0.0000000  0 16        .000000000000
G05  23469244.695 7 123331713.728 7     -3523.102          43.000    23469229.711 6  96102588.845 6     -2745.277          36.000
G13  20156115.773 8 105921106.395 8      -203.633          50.000    20156114.812 8  82535905.469 8      -158.675          50.000
G17  24038580.172 6 126323582.401 6      2659.895          37.000    24038582.211 6  98433943.389 6      2072.645          36.000
G28  21117723.102 8 110974452.304 8     -1203.633          49.000    21117721.945 5  86473596.147 5      -937.896          33.000
R03  20991552.812 8 112369415.161 8     -3543.281          51.000    20991555.602 7  87398437.108 7     -2755.888          43.000
R04  19256979.734 8 103120267.490 8       226.957          50.000    19256980.602 7  80204641.504 7       176.522          47.000
R14  19286340.164 8 102807073.685 8       274.828          50.000    19286342.516 8  79961092.070 8       213.755          48.000
R15  21997735.648 7 117549214.314 7      3257.785          47.000    21997735.969 7  91427175.547 7      2533.833          45.000
C05  39783018.828 5 207160618.029 5        18.285          34.000    39783018.578 6 160189707.919 6        14.148          40.000
C14  23743364.984 8 123637918.631 8     -3018.395          48.000    23743362.766 8  95604663.791 8     -2334.120          51.000
C24  22186838.492 8 115532710.167 8     -1215.703          51.000
C25  22802229.969 7 118737170.832 7      1720.566          47.000
E01  25014839.984 7 131453881.638 7     -1957.410          46.000    25014842.289 7 100724426.670 7     -1499.927          44.000
E04  24801957.023 8 130335135.479 8     -2107.465          51.000    24801958.516 8  99867164.577 8     -1614.886          51.000
E09  21647538.812 8 113758589.943 8       542.145          49.000    21647539.852 8  87165663.545 8       415.436          50.000
E31  23508117.750 8 123535995.272 8       718.395          51.000    23508120.312 8  94657462.206 8       550.485          51.000
> 2020 05 10 05 07 30.0000000  0 18        .000000000000
G05  23489370.617 7 123437476.741 7     -3527.555          43.000    23489357.734 6  96185001.524 6     -2748.747          37.000
G13  20157319.133 8 105927429.183 8      -217.824          51.000    20157317.648 8  82540832.305 8      -169.733          51.000
G15  20686138.297 5 108706389.603 5      1454.137          30.000
G17  24023413.555 5 126243884.122 5      2653.977          35.000    24023416.086 6  98371840.772 6      2068.031          37.000
G24  23335676.047 5 122629804.327 5      2971.125          34.000
G28  21124639.445 8 111010797.015 8     -1219.180          48.000    21124638.922 5  86501916.776 5      -950.007          32.000
R03  21011453.547 8 112475935.786 8     -3557.996          51.000    21011453.805 7  87481286.431 7     -2767.333          44.000
R04  19255778.781 8 103113836.284 8       201.902          50.000    19255779.930 8  80199639.437 8       157.035          48.000
R14  19284844.281 8 102799101.501 8       256.758          50.000    19284847.141 8  79954891.470 8       199.701          48.000
R15  21979473.125 7 117451630.705 7      3247.668          44.000    21979474.000 7  91351277.189 7      2525.961          45.000
C05  39782910.672 5 207160054.678 5        18.938          35.000    39782910.422 6 160189272.267 6        14.943          39.000
C14  23760775.828 8 123728581.628 8     -3025.668          49.000    23760773.508 8  95674770.131 8     -2339.654          51.000
C24  22193866.656 8 115569307.651 8     -1224.051          51.000
C25  22792342.719 7 118685683.127 7      1712.031          46.000
E01  25026033.664 7 131512704.216 7     -1964.039          46.000    25026035.750 7 100769498.484 7     -1504.919          43.000
E04  24814011.836 8 130398481.883 8     -2115.586          51.000    24814012.547 8  99915702.709 8     -1620.982          51.000
E09  21644473.625 8 113742481.527 8       531.652          49.000    21644474.578 8  87153320.727 8       407.394          50.000
E31  23504047.789 8 123514608.066 8       707.461          51.000    23504050.719 8  94641074.603 8       542.083          51.000
> 2020 05 10 05 08  0.0000000  0 17        .000000000000
G05  23509525.008 6 123543390.200 6     -3532.535          40.000    23509514.875 6  96267531.442 6     -2752.628          40.000
G13  20158608.469 8 105934204.327 8      -233.219          51.000    20158606.531 8  82546111.630 8      -181.729          50.000
G17  24008286.938 6 126164394.005 6      2646.859          36.000    24008289.633 5  98309900.411 5      2062.488          35.000
G28  21131650.320 8 111047639.260 8     -1236.117          48.000    21131648.008 4  86530625.070 4      -963.208          28.000
R03  21031442.180 8 112582929.061 8     -3574.129          51.000    21031441.359 7  87564503.394 7     -2779.878          44.000
R04  19254723.836 8 103108186.903 8       175.395          50.000    19254725.062 7  80195245.466 7       136.418          47.000
R14  19283455.367 8 102791699.070 8       237.492          50.000    19283458.469 7  79949134.019 7       184.716          47.000
R15  21961272.430 7 117354383.016 7      3236.102          44.000    21961275.102 7  91275640.077 7      2516.968          45.000
C05  39782804.594 5 207159503.054 5        18.570          35.000    39782804.312 6 160188844.940 6        14.251          39.000
C14  23778233.891 8 123819489.316 8     -3034.043          50.000    23778231.641 8  95745065.695 8     -2346.118          51.000
C24  22200948.742 8 115606185.855 8     -1233.750          51.000
C25  22782509.789 7 118634478.033 7      1702.289          45.000
E01  25037270.461 7 131571753.364 7     -1971.918          46.000    25037271.898 7 100814743.911 7     -1510.974          44.000
E04  24826117.719 8 130462100.148 8     -2124.977          51.000    24826118.367 8  99964449.162 8     -1628.190          51.000
E09  21641474.664 8 113726722.502 8       519.699          49.000    21641475.836 8  87141245.626 8       398.142          51.000
E24  24671474.305 6 129649461.320 6      2706.406          40.000
E31  23500046.312 8 123493580.008 8       695.129          51.000    23500049.656 8  94624962.205 8       532.652          51.000
> 2020 05 10 05 08 30.0000000  0 17        .000000000000
G05  23529703.508 6 123649432.798 6     -3536.906          38.000    23529696.844 6  96350161.994 6     -2756.031          37.000
G13  20159980.469 8 105941413.841 8      -247.559          51.000    20159978.359 8  82551729.415 8      -192.903          50.000
G17  23993197.156 5 126085096.947 5      2639.797          35.000    23993200.141 5  98248110.516 5      2056.985          35.000
G28  21138752.094 7 111084958.982 7     -1251.961          47.000    21138748.836 4  86559705.391 4      -975.554          29.000
R03  21051514.070 8 112690372.907 8     -3588.969          51.000    21051513.414 7  87648070.791 7     -2791.423          43.000
R04  19253811.414 8 103103301.778 8       150.070          49.000    19253812.734 7  80191445.926 7       116.721          47.000
R14  19282169.594 8 102784846.491 8       219.387          49.000    19282173.070 8  79943804.230 8       170.634          48.000
R15  21943133.234 7 117257453.611 7      3225.684          47.000    21943136.609 7  91200250.536 7      2508.868          47.000
C05  39782697.062 5 207158942.826 5        18.719          35.000    39782696.773 6 160188411.710 6        14.426          39.000
C14  23795734.867 8 123910621.441 8     -3041.406          50.000    23795733.156 8  95815534.814 8     -2351.869          51.000
C24  22208081.055 8 115643325.243 8     -1242.262          51.000
C25  22772726.773 7 118583537.351 7      1693.801          44.000
E01  25048546.617 7 131631009.092 7     -1978.617          46.000    25048547.633 7 100860147.640 7     -1516.104          44.000
E04  24838271.141 8 130525971.094 8     -2133.312          49.000    24838272.430 8 100013389.237 8     -1634.613          51.000
E09  21638538.828 8 113711295.237 8       508.629          49.000    21638540.156 8  87129424.725 8       389.717          51.000
E24  24656039.969 7 129568344.936 7      2701.188          42.000
E31  23496109.555 8 123472892.316 8       683.859          51.000    23496112.750 8  94609110.614 8       523.975          51.000
> 2020 05 10 05 09  0.0000000  0 17        .000000000000
G05  23549905.766 5 123755603.371 5     -3541.156          35.000    23549902.398 5  96432892.221 5     -2759.343          35.000
G13  20161435.531 8 105949059.881 8      -262.461          51.000    20161433.500 8  82557687.343 8      -204.515          50.000
G17  23978145.297 6 126005997.483 6      2632.582          37.000    23978148.039 6  98186474.572 6      2051.363          36.000
G28  21145944.445 7 111122756.061 7     -1267.867          45.000    21145942.484 5  86589157.720 5      -987.948          35.000
R03  21071669.203 8 112798266.134 8     -3604.102          50.000    21071668.461 6  87731987.682 6     -2803.193          39.000
R04  19253041.883 8 103099183.358 8       124.281          49.000    19253043.789 7  80188242.706 7        96.663          47.000
R14  19280986.992 8 102778544.394 8       200.727          49.000    19280991.078 7  79938902.601 7       156.121          47.000
R15  21925054.734 7 117160845.280 7      3214.707          47.000    21925058.836 8  91125110.714 8      2500.328          48.000
C05  39782588.320 5 207158376.607 5        18.867          35.000    39782587.953 6 160187973.845 6        14.499          39.000
C14  23813278.750 8 124001977.604 8     -3049.117          51.000    23813277.625 8  95886177.177 8     -2357.762          51.000
C24  22215263.562 8 115680726.230 8     -1251.266          51.000
C25  22762993.500 6 118532862.838 6      1684.656          41.000
E01  25059862.195 7 131690471.515 7     -1985.688          46.000    25059863.352 7 100905709.760 7     -1521.456          44.000
E04  24850472.273 7 130590095.664 7     -2141.918          47.000    24850475.203 8 100062523.656 8     -1641.171          51.000
E09  21635666.625 8 113696202.221 8       497.410          50.000    21635668.102 8  87117859.942 8       381.052          51.000
E24  24640636.102 6 129487393.878 6      2695.340          41.000
E31  23492237.805 8 123452546.318 8       672.309          51.000    23492240.250 8  94593520.817 8       515.164          51.000
> 2020 05 10 05 09 30.0000000  0 18        .000000000000
G05  23570133.727 5 123861907.071 5     -3544.801          32.000    23570133.328 5  96515726.260 5     -2762.182          31.000
G13  20162975.195 8 105957150.722 8      -276.828          51.000    20162973.312 8  82563991.874 8      -215.710          50.000
G17  23963133.164 5 125927106.145 5      2626.418          35.000    23963135.086 6  98125000.758 6      2046.559          36.000
G28  21153228.914 7 111161036.842 7     -1283.754          45.000    21153226.914 6  86618986.921 6     -1000.328          36.000
R03  21091908.281 7 112906613.508 7     -3618.820          47.000    21091905.484 6  87816257.724 6     -2814.644          38.000
R04  19252417.273 8 103095840.789 8        98.855          48.000    19252419.594 7  80185642.930 7        76.888          47.000
R14  19279909.086 8 102772799.419 8       182.594          49.000    19279913.344 7  79934434.279 7       142.017          46.000
R15  21907037.008 7 117064567.258 7      3204.043          46.000    21907042.359 7  91050227.759 7      2492.030          47.000
C05  39782479.898 5 207157812.011 5        18.738          35.000    39782479.547 6 160187537.232 6        14.931          39.000
C14  23830866.633 8 124093563.597 8     -3056.312          50.000    23830866.086 8  95956997.257 8     -2363.374          51.000
C24  22222497.375 8 115718395.292 8     -1259.738          51.000
C25  22753312.789 6 118482462.185 6      1675.773          40.000
C26  25201199.289 5 131229249.994 5     -2835.242          32.000
E01  25071218.109 7 131750147.025 7     -1992.332          47.000    25071219.852 7 100951435.127 7     -1526.616          44.000
E04  24862723.375 8 130654481.013 8     -2150.090          48.000    24862728.008 8 100111857.880 8     -1647.507          51.000
E09  21632859.570 8 113681452.144 8       486.332          49.000    21632861.250 8  87106557.930 8       372.668          51.000
E24  24625265.820 6 129406616.727 6      2690.047          40.000    24625279.055 5  99155787.845 5      2061.342          34.000
E31  23488432.609 8 123432549.519 8       661.125          51.000    23488434.758 8  94578198.593 8       506.591          51.000
> 2020 05 10 05 10  0.0000000  0 18        .000000000000
G05  23590386.289 4 123968315.850 4     -3548.941          27.000    23590388.938 4  96598698.427 4     -2765.409          27.000
G13  20164599.820 8 105965688.151 8      -291.582          51.000    20164597.977 8  82570644.380 8      -227.207          49.000
G17  23948161.320 5 125848427.025 5      2619.742          33.000    23948162.312 5  98063692.391 5      2041.361          33.000
G28  21160605.070 7 111199799.985 7     -1299.598          43.000    21160602.578 6  86649191.982 6     -1012.673          36.000
R03  21112231.508 7 113015413.175 7     -3633.629          47.000    21112230.125 7  87900879.689 7     -2826.156          43.000
R04  19251938.367 8 103093276.312 8        72.988          49.000    19251941.031 7  80183648.335 7        56.769          47.000
R14  19278936.023 8 102767611.285 8       164.234          50.000    19278939.734 7  79930399.067 7       127.738          46.000
R15  21889081.469 8 116968622.011 8      3193.098          49.000    21889087.039 7  90975603.628 7      2483.520          47.000
C05  39782372.000 5 207157250.178 5        19.379          35.000    39782371.664 6 160187102.799 6        14.604          40.000
C14  23848498.250 8 124185378.559 8     -3063.844          49.000    23848498.266 8  96027994.382 8     -2369.152          51.000
C24  22229782.664 8 115756332.439 8     -1268.543          51.000
C25  22743686.055 6 118432336.703 6      1666.652          40.000
C26  25217539.656 5 131314327.178 5     -2836.043          32.000
E01  25082614.453 7 131810035.247 7     -1999.352          45.000    25082616.508 7 100997323.471 7     -1532.016          43.000
E04  24875024.891 8 130719127.595 8     -2158.762          49.000    24875030.594 8 100161392.270 8     -1654.149          51.000
E09  21630118.266 8 113667047.066 8       474.828          50.000    21630119.992 8  87095520.260 8       363.880          51.000
E24  24609929.789 6 129326015.526 6      2684.258          40.000    24609939.062 5  99094028.525 5      2056.625          33.000
E31  23484693.961 8 123412902.776 8       649.539          51.000    23484696.484 8  94563144.621 8       497.693          51.000
> 2020 05 10 05 10 30.0000000  0 18        .000000000000
G13  20166305.859 8 105974653.351 8      -305.172          51.000    20166303.719 8  82577630.224 8      -237.799          49.000
G17  23933226.953 5 125769943.863 5      2613.117          32.000    23933227.484 5  98002536.687 5      2036.198          32.000
G24  23234449.508 5 122097855.335 5      2940.375          32.000
G28  21168069.242 7 111239024.703 7     -1314.516          43.000    21168067.039 6  86679756.702 6     -1024.295          36.000
R03  21132636.180 8 113124642.231 8     -3647.398          49.000    21132636.984 7  87985835.660 7     -2836.865          46.000
R04  19251600.953 8 103091471.135 8        48.309          49.000    19251603.758 7  80182244.297 7        37.570          47.000
R14  19278063.586 8 102762959.226 8       147.004          48.000    19278066.781 7  79926780.818 7       114.336          45.000
R15  21871186.023 8 116872990.965 8      3183.152          49.000    21871189.953 7  90901223.946 7      2475.785          46.000
C05  39782261.047 5 207156671.908 5        20.172          35.000    39782260.609 6 160186655.582 6        15.861          39.000
C14  23866169.773 8 124277401.315 8     -3070.168          49.000    23866170.086 8  96099152.189 8     -2374.064          51.000
C24  22237115.531 8 115794517.197 8     -1276.211          51.000
C25  22734109.430 7 118382467.280 7      1658.652          43.000
C26  25233880.461 5 131399414.612 5     -2835.520          31.000
E01  25094047.211 7 131870115.161 7     -2005.160          42.000    25094049.008 7 101043358.734 7     -1536.371          42.000
E04  24887372.930 8 130784015.282 8     -2166.266          51.000    24887378.836 8 100211111.374 8     -1659.860          51.000
E09  21627439.070 8 113652968.369 8       464.547          50.000    21627440.867 8  87084732.682 8       355.984          51.000
E24  24594624.055 6 129245571.631 6      2679.648          40.000    24594623.812 5  99032378.607 5      2053.303          33.000
E31  23481018.180 8 123393586.351 8       639.090          51.000    23481020.680 8  94548343.724 8       489.692          51.000
> 2020 05 10 05 11  0.0000000  0 17        .000000000000
G13  20168099.812 8 105984080.603 8      -328.074          51.000    20168097.391 8  82584976.116 8      -255.642          48.000
G24  23217683.750 5 122009750.788 5      2927.211          31.000
G28  21175627.422 6 111278742.921 6     -1338.098          39.000    21175625.617 6  86710705.966 6     -1042.673          37.000
R03  21153127.539 8 113234332.017 8     -3670.230          51.000    21153129.484 8  88071149.934 8     -2854.624          48.000
R04  19251412.336 8 103090460.581 8        14.215          49.000    19251415.023 7  80181458.298 7        11.053          46.000
R14  19277298.023 8 102758876.260 8       120.438          49.000    19277300.734 7  79923605.163 7        93.674          45.000
R15  21853355.922 8 116777709.673 8      3163.895          50.000    21853358.539 7  90827116.323 7      2460.807          46.000
C05  39782153.367 6 207156111.532 6        11.977          36.000    39782152.820 6 160186221.476 6         9.427          40.000
C14  23883887.055 7 124369663.238 7     -3085.406          47.000    23883887.562 8  96170494.938 8     -2385.880          51.000
C24  22244502.086 8 115832981.732 8     -1292.809          51.000
C25  22724588.977 7 118332887.300 7      1641.562          44.000
C26  25250227.312 5 131484544.575 5     -2844.195          32.000
E01  25105522.328 7 131930419.031 7     -2019.910          43.000    25105523.586 7 101089565.625 7     -1547.822          42.000
E04  24899773.531 8 130849177.021 8     -2182.766          51.000    24899778.469 8 100261040.500 8     -1672.527          51.000
E09  21624828.398 8 113639250.602 8       445.031          51.000    21624830.453 8  87074221.663 8       341.031          51.000
E24  24579353.945 6 129165319.539 6      2665.883          39.000    24579346.320 5  98970886.748 5      2042.534          34.000
E31  23477411.539 8 123374633.568 8       619.551          51.000    23477413.477 8  94533821.434 8       474.724          51.000
> 2020 05 10 05 11 30.0000000  0 16        .000000000000
G13  20169988.812 8 105994007.401 8      -335.691          51.000    20169986.297 8  82592711.278 8      -261.578          48.000
G28  21183286.133 6 111318990.014 6     -1346.883          40.000    21183284.586 5  86742067.341 5     -1049.519          35.000
R03  21173711.547 8 113344517.018 8     -3677.586          51.000    21173713.750 8  88156849.360 8     -2860.345          48.000
R04  19251379.242 8 103090283.211 8        -4.414          48.000    19251381.719 7  80181320.307 7        -3.436          46.000
R14  19276645.570 8 102755398.440 8       109.320          48.000    19276648.594 7  79920900.200 7        85.027          45.000
R15  21835598.031 8 116682816.877 8      3160.031          48.000    21835600.516 7  90753310.807 7      2457.802          46.000
C05  39782055.758 5 207155603.615 5        19.477          35.000    39782055.297 6 160185828.736 6        14.846          39.000
C14  23901656.992 7 124462199.006 7     -3085.641          47.000    23901657.422 8  96242049.443 8     -2385.998          50.000
C24  22251949.430 8 115871761.512 8     -1294.488          51.000
C25  22715131.609 7 118283633.521 7      1639.707          45.000
C26  25266591.539 5 131569752.935 5     -2837.906          32.000
E01  25117047.141 7 131990982.445 7     -2019.668          43.000    25117047.602 6 101135971.299 6     -1547.565          41.000
E04  24912233.188 8 130914649.123 8     -2184.094          51.000    24912236.516 8 100311207.444 8     -1673.592          51.000
E09  21622293.883 8 113625931.607 8       440.723          51.000    21622295.961 8  87064016.188 8       337.730          51.000
E24  24564126.016 6 129085296.995 6      2667.008          39.000    24564116.250 5  98909570.826 5      2043.803          34.000
E31  23473881.023 8 123356081.094 8       615.191          51.000    23473882.891 8  94519605.880 8       471.371          51.000
> 2020 05 10 05 12  0.0000000  0 17        .000000000000
G05  23671627.828 5 124395224.912 5     -3565.062          32.000    23671630.070 5  96931358.605 5     -2777.980          30.000
G13  20171936.781 8 106004244.366 8      -350.129          50.000    20171934.586 8  82600688.124 8      -272.828          50.000
G28  21191008.977 6 111359574.406 6     -1361.719          36.000    21191007.672 5  86773691.421 5     -1061.083          35.000
R03  21194351.320 8 113455000.703 8     -3691.363          50.000    21194353.312 7  88242781.086 7     -2871.060          47.000
R04  19251466.148 8 103090746.614 8       -29.891          49.000    19251468.164 7  80181680.697 7       -23.248          46.000
R14  19276070.656 8 102752332.263 8        91.691          49.000    19276073.211 7  79918515.367 7        71.316          45.000
R15  21817876.500 8 116588120.787 8      3149.570          49.000    21817879.539 7  90679658.272 7      2449.666          47.000
C05  39781932.398 5 207154961.164 5        19.633          35.000    39781931.930 6 160185331.888 6        15.707          39.000
C14  23919443.484 7 124554818.562 7     -3092.250          47.000    23919443.539 8  96313668.741 8     -2391.106          49.000
C24  22259421.086 8 115910667.263 8     -1302.512          51.000
C25  22705700.922 7 118234517.976 7      1631.273          45.000
C26  25282934.852 5 131654850.717 5     -2838.508          31.000
E01  25128585.031 6 132051614.000 6     -2025.906          41.000    25128584.930 6 101182429.204 6     -1552.051          41.000
E04  24924715.492 8 130980241.047 8     -2191.945          51.000    24924717.078 8 100361466.169 8     -1679.486          50.000
E09  21619799.414 8 113612822.382 8       429.922          51.000    21619801.484 8  87053971.455 8       329.391          51.000
E24  24548904.898 6 129005315.045 6      2661.613          38.000    24548894.594 5  98848286.016 5      2039.265          33.000
E31  23470390.680 8 123337738.752 8       604.379          51.000    23470392.695 8  94505551.356 8       463.128          51.000
> 2020 05 10 05 12 30.0000000  0 16        .000000000000
G05  23691992.414 5 124502234.451 5     -3565.258          35.000    23691993.430 6  97014742.606 6     -2778.123          36.000
G13  20173980.781 8 106014985.310 8      -361.367          51.000    20173979.016 8  82609057.680 8      -281.585          50.000
G17  23873919.352 5 125458283.909 5      2587.297          32.000    23873908.320 5  97759673.915 5      2016.075          31.000
R03  21215082.969 8 113565976.812 8     -3702.109          48.000    21215084.867 7  88329095.815 7     -2879.421          46.000
R04  19251709.117 7 103092048.242 7       -52.215          47.000    19251711.102 7  80182693.070 7       -40.612          46.000
R14  19275609.117 8 102749872.015 8        77.039          48.000    19275611.836 7  79916601.866 7        59.919          45.000
R15  21800229.508 8 116493819.033 8      3141.988          50.000    21800232.406 7  90606312.474 7      2443.769          47.000
C05  39781819.953 6 207154375.421 6        23.926          36.000    39781819.492 6 160184878.983 6        18.344          39.000
C14  23937283.016 7 124647711.320 7     -3095.809          47.000    23937282.078 8  96385499.269 8     -2393.906          48.000
C24  22266953.172 8 115949889.238 8     -1307.555          51.000
C25  22696333.219 7 118185732.177 7      1625.672          46.000
E01  25140172.062 6 132112505.417 6     -2028.918          39.000    25140171.820 6 101229086.288 6     -1554.739          40.000
E04  24937257.039 8 131046145.293 8     -2196.910          51.000    24937257.219 8 100411964.180 8     -1683.344          50.000
E09  21617381.602 8 113600116.997 8       421.895          51.000    21617383.969 8  87044236.146 8       323.258          51.000
E24  24533726.703 6 128925567.639 6      2659.641          38.000    24533717.938 5  98787180.904 5      2037.700          33.000
E31  23466977.008 8 123319799.423 8       596.391          51.000    23466978.844 8  94491805.633 8       456.969          51.000
> 2020 05 10 05 13  0.0000000  0 16        .000000000000
G05  23712374.336 5 124609341.506 5     -3572.770          35.000    23712376.625 5  97098202.551 5     -2783.979          35.000
G13  20176107.352 8 106026160.027 8      -380.547          51.000    20176105.789 8  82617765.246 8      -296.530          50.000
G17  23859189.633 5 125380886.427 5      2575.449          34.000    23859181.633 5  97699364.165 5      2006.837          34.000
R03  21235892.484 8 113677370.116 8     -3720.816          49.000    21235893.727 7  88415735.013 7     -2893.971          43.000
R04  19252095.000 8 103094116.831 8       -82.480          48.000    19252097.586 7  80184301.962 7       -64.151          47.000
R14  19275247.797 8 102747944.715 8        54.598          48.000    19275250.055 7  79915102.842 7        42.465          44.000
R15  21782642.734 8 116399840.940 8      3126.391          49.000    21782645.172 7  90533218.418 7      2431.637          46.000
C05                                                                  39781704.445 6 160184415.576 6        15.320          39.000
C14  23955161.453 7 124740805.085 7     -3107.184          47.000    23955159.086 7  96457485.233 7     -2402.611          47.000
C24  22274532.117 8 115989355.939 8     -1320.395          51.000
C25  22687014.578 7 118137205.861 7      1612.594          46.000
E01  25151794.641 6 132173584.307 6     -2039.691          40.000    25151794.664 6 101275886.984 6     -1562.761          39.000
E04  24949844.305 8 131112290.184 8     -2209.625          51.000    24949843.375 8 100462646.564 8     -1693.041          50.000
E09  21615027.211 8 113587745.322 8       406.105          51.000    21615030.008 8  87034756.537 8       311.163          51.000
E24  24518578.352 6 128845984.684 6      2649.414          37.000    24518572.945 5  98726134.805 5      2029.657          33.000
E31  23463626.375 8 123302191.788 8       580.668          51.000    23463627.656 8  94478314.063 8       444.975          51.000
