     3.02           OBSERVATION DATA    M (MIXED)           RINEX VERSION / TYPE
SAVERINEX           SC600               20200508 215930 LCL PGM / RUN BY / DATE
       G = GPS       R = GLONASS       C = COMPASS          COMMENT
       S = SBAS      J = QZSS          E = GALILEO          COMMENT
BEAN                                                        MARKER NAME
1                                                           MARKER NUMBER
GEODETIC                                                    MARKER TYPE
Unige DICCA         GTER                                    OBSERVER / AGENCY
SC60291900056       SC600               2.12(191226)        REC # / TYPE / VERS
                    HEMA45          NONE                    ANT # / TYPE
  4509407.8091   693652.4678  4442337.6214                  APPROX POSITION XYZ
        0.0000        0.0000        0.0000                  ANTENNA: DELTA H/E/N
G    8 C1C L1C D1C S1C C2Y L2Y D2Y S2Y                      SYS / # / OBS TYPES
R    8 C1C L1C D1C S1C C2P L2P D2P S2P                      SYS / # / OBS TYPES
C    8 C1I L1I D1I S1I C7I L7I D7I S7I                      SYS / # / OBS TYPES
E    8 C1C L1C D1C S1C C7Q L7Q D7Q S7Q                      SYS / # / OBS TYPES
DBHZ                                                        COMMENT
     30.000                                                 INTERVAL
  2020    05    08    19    00    0.0000000     GPS         TIME OF FIRST OBS
  2020    05    08    19    59   30.0000000     GPS         TIME OF LAST OBS
     0                                                      RCV CLOCK OFFS APPL
G L1C  0.00000                                              SYS / PHASE SHIFT
G L2Y  0.00000                                              SYS / PHASE SHIFT
R L1C  0.00000                                              SYS / PHASE SHIFT
R L2P  0.25000                                              SYS / PHASE SHIFT
C L1I  0.00000                                              SYS / PHASE SHIFT
C L7I  0.00000                                              SYS / PHASE SHIFT
E L1C  0.50000                                              SYS / PHASE SHIFT
E L7Q -0.25000                                              SYS / PHASE SHIFT
 14 R03  5 R04  6 R05  1 R06 -4 R07  5 R09 -2 R10 -5 R15  0 GLONASS SLOT / FRQ #
    R16 -1 R17  4 R18 -3 R19  3 R20  2 R21  4               GLONASS SLOT / FRQ #
 C1C   71.950 C2C   71.950 C2P   71.950                     GLONASS COD/PHS/BIS
    18                                                      LEAP SECONDS
*** Above antenna height is from mark to ANTENNA BOTTOM.    COMMENT
    17     4        0.0000        ANT MEASURE TYPE/HEIGT    COMMENT
    0.0000    0.0000    0.0458    0.0405    0.0000          COMMENT
                    BASE STATION                            COMMENT
                                                            END OF HEADER
> 2020 05 08 19 00  0.0000000  0 19        .000000000000
G03  22750543.258 7 119554912.668 7      3062.066          47.000    22750543.578 7  93159728.559 7      2386.029          43.000
G08  21099142.789 8 110876737.503 8     -2113.660          51.000    21099146.344 8  86397464.871 8     -1647.008          51.000
G10  24083218.422 6 126558159.555 6     -3225.703          36.000    24083220.078 5  98616742.307 5     -2513.538          35.000
G11  19862297.289 8 104377098.506 8       195.613          49.000    19862297.023 8  81332774.665 8       152.426          49.000
G14  22165978.828 6 116483046.244 6      1270.016          39.000    22165979.875 5  90766022.928 5       989.626          35.000
G22  21214263.797 8 111481800.799 8      1646.574          51.000    21214261.320 8  86868857.342 8      1283.048          48.000
G27  23328663.609 7 122592909.018 7     -3520.039          47.000    23328665.906 7  95526949.364 7     -2742.888          47.000
G32  22015586.445 6 115692686.562 6      -224.145          36.000    22015583.055 6  90150156.261 6      -174.661          37.000
R05  20333511.188 7 108694329.349 7     -2484.531          42.000    20333510.594 4  84539985.995 4     -1932.416          29.000
R06  19685285.227 7 105044454.164 7      2218.867          46.000
R20  20759766.656 6 111011787.810 6     -2282.980          36.000    20759771.320 7  86342511.333 7     -1775.648          44.000
C05                                                                  39654800.250 6 159673448.723 6       -21.978          37.000
C12  21656541.109 7 112771292.738 7       900.152          42.000    21656539.812 7  87201908.177 7       696.013          43.000
C19  24914139.445 5 129734454.012 5     -2937.445          32.000
C21  23059495.188 8 120076961.219 8      2429.234          51.000
C22  22054751.203 8 114844964.929 8      -568.555          51.000
E04  24902434.953 8 130863208.782 8      2325.445          50.000    24902434.578 8 100271833.974 8      1781.859          50.000
E12  22162932.484 8 116466994.250 8     -1062.449          51.000    22162932.906 8  89240939.700 8      -814.111          51.000
E19  25049942.836 6 131638337.716 6      -640.977          40.000    25049945.961 7 100865772.507 7      -491.144          42.000
> 2020 05 08 19 00 30.0000000  0 19        .000000000000
G03  22733086.133 7 119463177.074 7      3053.586          47.000    22733087.688 7  93088246.335 7      2379.418          43.000
G08  21111252.102 8 110940371.326 8     -2128.484          51.000    21111255.273 8  86447049.653 8     -1658.559          51.000
G10  24101638.227 5 126654957.257 5     -3228.008          34.000    24101640.109 5  98692169.012 5     -2515.334          34.000
G11  19861228.734 8 104371482.761 8       178.891          50.000    19861228.516 8  81328398.764 8       139.395          50.000
G14  22158774.555 6 116445188.501 6      1253.941          38.000    22158775.852 6  90736523.383 6       977.097          39.000
G22  21204899.820 8 111432592.390 8      1634.043          51.000    21204896.742 8  86830513.175 8      1273.283          48.000
G27  23348777.727 8 122698605.624 8     -3526.391          49.000    23348779.766 8  95609310.324 8     -2747.837          49.000
G32  22016919.727 5 115699692.489 5      -242.570          31.000    22016917.539 5  90155615.411 5      -189.013          30.000
R05  20347507.977 7 108769152.552 7     -2503.531          43.000    20347509.398 5  84598181.879 5     -1947.191          31.000
R06  19672872.023 7 104978217.664 7      2196.902          46.000
R20  20772613.219 6 111080485.145 6     -2296.754          38.000    20772617.461 7  86395942.588 7     -1786.361          42.000
C05                                                                  39654963.508 6 159674106.126 6       -21.730          37.000
C12  21651390.500 6 112744469.163 6       888.133          41.000    21651387.695 7  87181166.545 7       686.764          42.000
C19  24931077.742 5 129822658.063 5     -2941.879          33.000
C21  23045529.391 8 120004240.505 8      2418.828          51.000
C22  22058068.688 8 114862239.371 8      -582.973          51.000
E04  24889185.008 8 130793582.308 8      2316.402          49.000    24889185.047 8 100218483.849 8      1774.870          50.000
E12  22169018.125 8 116498972.976 8     -1069.359          51.000    22169018.086 8  89265442.872 8      -819.373          51.000
E19  25053641.516 6 131657773.155 6      -654.594          39.000    25053644.258 7 100880664.574 7      -501.623          42.000
> 2020 05 08 19 01  0.0000000  0 19        .000000000000
G03  22715678.859 7 119371703.395 7      3045.070          45.000    22715682.625 7  93016968.220 7      2372.785          45.000
G08  21123447.633 8 111004459.008 8     -2143.520          51.000    21123450.539 8  86496988.077 8     -1670.278          51.000
G10  24120072.547 5 126751833.064 5     -3230.809          33.000    24120074.930 5  98767656.539 5     -2517.516          34.000
G11  19860256.984 8 104366375.501 8       161.953          50.000    19860256.734 8  81324419.072 8       126.197          50.000
G14  22151663.992 5 116407828.140 5      1237.785          34.000    22151665.867 5  90707411.457 5       964.508          33.000
G22  21195608.828 8 111383766.983 8      1621.340          51.000    21195605.805 8  86792467.426 8      1263.385          49.000
G27  23368929.422 8 122804500.304 8     -3532.867          49.000    23368931.156 8  95691825.604 8     -2752.887          49.000
R05  20361615.062 7 108844560.448 7     -2523.062          44.000    20361620.289 4  84656832.515 4     -1962.382          28.000
R06  19660584.344 7 104912649.546 7      2174.680          47.000
R20  20785541.406 6 111149617.329 6     -2311.375          37.000    20785545.141 7  86449712.038 7     -1797.736          42.000
R21  19629308.422 5 105040389.605 5      1591.277          33.000    19629315.562 5  81698103.012 5      1237.657          30.000
C05                                                                  39655126.672 6 159674763.369 6       -21.869          37.000
C12  21646310.234 6 112718015.199 6       875.859          41.000    21646306.656 7  87160710.662 7       677.149          42.000
C19  24948044.258 5 129911009.143 5     -2947.207          34.000
C21  23031625.984 8 119931842.397 8      2408.117          51.000
C22  22061470.688 8 114879954.498 8      -597.684          51.000
E04  24875989.000 8 130724237.622 8      2306.980          50.000    24875989.180 8 100165349.657 8      1767.695          49.000
E12  22175144.211 8 116531164.364 8     -1076.332          51.000    22175143.781 8  89290108.998 8      -824.752          51.000
E19  25057417.820 6 131677617.813 6      -668.363          37.000    25057420.648 6 100895870.298 6      -512.221          41.000
> 2020 05 08 19 01 30.0000000  0 19        .000000000000
G03  22698322.148 7 119280494.726 7      3036.074          46.000    22698327.727 7  92945896.556 7      2365.772          45.000
G08  21135729.406 8 111069000.676 8     -2158.527          51.000    21135731.875 8  86547280.242 8     -1681.972          51.000
G10  24138521.648 5 126848786.975 5     -3232.844          34.000    24138525.125 5  98843205.009 5     -2519.096          34.000
G11  19859382.469 8 104361779.200 8       145.062          51.000    19859382.000 8  81320837.539 8       113.036          51.000
G14  22144649.719 6 116370968.705 6      1220.363          41.000    22144651.883 5  90678689.799 5       950.929          33.000
G22  21186391.375 8 111335326.967 8      1608.629          51.000    21186388.688 8  86754721.976 8      1253.477          49.000
G27  23389118.469 8 122910592.819 8     -3539.387          50.000    23389120.070 8  95774495.031 8     -2757.967          50.000
R05  20375830.977 7 108920551.090 7     -2542.410          43.000
R06  19648423.078 8 104847754.051 8      2152.344          48.000
R20  20798551.023 6 111219186.003 6     -2325.508          37.000    20798554.219 6  86503820.946 6     -1808.731          40.000
R21  19620433.531 5 104992875.632 5      1577.195          35.000    19620436.672 5  81661147.582 5      1226.704          30.000
C05                                                                  39655290.133 6 159675421.738 6       -21.549          37.000
C12  21641301.320 6 112691933.883 6       863.625          41.000    21641297.641 7  87140542.932 7       667.701          43.000
C19  24965039.086 5 129999507.178 5     -2952.090          34.000
C21  23017785.422 8 119859769.845 8      2397.359          51.000
C22  22064957.383 8 114898111.027 8      -612.188          51.000
E04  24862847.547 8 130655177.929 8      2297.594          51.000    24862847.844 8 100112433.826 8      1760.554          49.000
E12  22181310.961 8 116563570.502 8     -1083.348          51.000    22181310.352 8  89314939.662 8      -830.136          51.000
E19  25061272.664 6 131697872.950 6      -681.273          39.000    25061274.961 6 100911390.527 6      -522.227          41.000
> 2020 05 08 19 02  0.0000000  0 19        .000000000000
G03  22681015.344 7 119189545.770 7      3027.000          47.000    22681021.852 7  92875027.244 7      2358.701          45.000
G08  21148096.039 8 111133988.486 8     -2174.047          51.000    21148097.758 8  86597920.062 8     -1694.062          51.000
G10  24156984.281 5 126945810.821 5     -3235.406          33.000    24156988.344 5  98918807.972 5     -2521.093          33.000
G11  19858604.164 8 104357688.427 8       127.652          51.000    19858603.492 8  81317649.926 8        99.469          51.000
G14  22137730.992 7 116334605.489 7      1203.723          42.000    22137732.992 5  90650354.898 5       937.969          35.000
G22  21177245.898 8 111287265.870 8      1595.477          51.000    21177243.133 8  86717271.787 8      1243.228          49.000
G27  23409343.164 8 123016874.602 8     -3546.160          49.000    23409345.062 8  95857311.955 8     -2763.245          49.000
R05  20390154.234 7 108997114.418 7     -2561.887          42.000
R06  19636387.000 8 104783526.241 8      2129.426          48.000
R20  20811640.992 5 111289183.836 5     -2340.535          35.000    20811643.695 6  86558263.619 6     -1820.419          40.000
R21  19611642.898 6 104945806.511 6      1561.133          38.000    19611639.445 4  81624538.234 4      1214.220          28.000
C05                                                                  39655452.797 6 159676076.341 6       -21.793          37.000
C12  21636362.547 6 112666220.223 6       850.730          41.000    21636359.445 7  87120659.510 7       657.742          43.000
C19  24982059.969 5 130088143.846 5     -2956.828          34.000
C21  23004006.531 8 119788017.576 8      2386.117          51.000
C22  22068527.375 8 114916701.514 8      -627.160          51.000
E04  24849759.422 8 130586398.170 8      2287.727          51.000    24849760.219 8 100059732.489 8      1752.948          50.000
E12  22187517.375 8 116596185.182 8     -1090.883          51.000    22187516.734 8  89339930.109 8      -835.877          51.000
E19  25065204.289 6 131718531.249 6      -695.648          40.000    25065206.289 6 100927219.619 6      -533.032          40.000
> 2020 05 08 19 02 30.0000000  0 21        .000000000000
G01  20864271.695 4 109642487.292 4      1516.512          29.000
G03  22663760.914 8 119098871.162 8      3018.215          49.000    22663767.344 7  92804371.785 7      2351.856          44.000
G08  21160549.680 8 111199434.185 8     -2188.953          50.000    21160550.859 8  86648916.688 8     -1705.678          50.000
G10  24175462.539 5 127042916.489 5     -3238.316          32.000    24175467.281 5  98994474.722 5     -2523.360          34.000
G11  19857924.688 8 104354117.014 8       110.598          51.000    19857923.891 8  81314867.013 8        86.180          51.000
G14  22130909.172 7 116298753.140 7      1187.020          42.000    22130910.008 5  90622418.047 5       924.953          35.000
G22  21168174.938 8 111239597.646 8      1582.582          51.000    21168171.812 8  86680127.744 8      1233.181          48.000
G27  23429605.602 7 123123356.976 7     -3552.508          47.000    23429608.414 7  95940285.205 7     -2768.188          47.000
G32  22023359.227 5 115733533.334 5      -320.562          30.000
R05  20404585.531 6 109074260.320 6     -2580.957          41.000
R06  19624478.672 8 104719981.301 8      2106.941          48.000
R20  20824813.992 5 111359624.140 5     -2355.230          35.000    20824816.062 7  86613050.496 7     -1831.846          42.000
R21  19602933.469 5 104899198.444 5      1545.941          35.000    19602924.867 3  81588277.591 3      1202.402          23.000
C05                                                                  39655617.008 6 159676736.449 6       -22.083          37.000
C12  21631497.828 7 112640888.737 7       838.098          43.000    21631494.969 7  87101071.589 7       648.100          44.000
C19  24999109.391 5 130176930.651 5     -2962.359          33.000
C21  22990291.992 8 119716600.007 8      2375.242          51.000
C22  22072182.898 8 114935738.085 8      -641.789          51.000
E04  24836727.320 8 130517913.085 8      2278.059          51.000    24836728.539 8 100007256.948 8      1745.570          49.000
E12  22193765.953 8 116629022.082 8     -1098.191          50.000    22193765.258 8  89365090.829 8      -841.456          51.000
E19  25069214.500 6 131739605.357 6      -709.156          40.000    25069216.742 6 100943367.346 6      -543.499          39.000
> 2020 05 08 19 03  0.0000000  0 20        .000000000000
G03  22646560.297 8 119008479.113 8      3009.801          48.000    22646564.406 7  92733936.468 7      2345.302          42.000
G08  21173091.406 8 111265343.474 8     -2203.309          49.000    21173092.398 8  86700274.566 8     -1716.864          49.000
G10  24193956.922 5 127140101.105 5     -3239.359          31.000    24193962.602 5  99070233.233 5     -2524.170          30.000
G11  19857345.508 8 104351072.976 8        94.043          51.000    19857344.781 8  81312495.023 8        73.280          51.000
G14  22124185.922 7 116263419.991 7      1170.340          42.000    22124186.617 5  90594885.752 5       911.956          35.000
G22  21159180.031 8 111192329.539 8      1570.348          51.000    21159177.047 8  86643295.487 8      1223.648          48.000
G27  23449906.719 7 123230044.826 7     -3558.012          45.000    23449910.883 7  96023418.569 7     -2772.477          45.000
G32  22025247.039 6 115743464.681 6      -340.043          38.000    22025252.742 6  90189714.836 6      -264.966          38.000
R05  20419126.578 6 109151992.412 6     -2599.418          41.000
R06  19612700.016 8 104657128.671 8      2084.984          48.000
R20  20838069.945 5 111430512.924 5     -2368.871          33.000    20838073.234 7  86668186.211 7     -1842.455          43.000
R21  19594309.570 5 104853061.263 5      1531.742          33.000    19594305.039 4  81552415.149 4      1191.346          27.000
C05                                                                  39655784.055 6 159677409.446 6       -21.564          37.000
C12  21626708.461 7 112615947.700 7       825.945          43.000    21626705.727 7  87081785.620 7       638.855          45.000
C19  25016188.844 5 130265859.996 5     -2966.312          33.000
C21  22976643.109 8 119645525.152 8      2364.828          51.000
C22  22075925.531 8 114955226.545 8      -655.781          51.000
E04  24823752.930 8 130449730.962 8      2269.043          51.000    24823754.141 8  99955013.560 8      1738.584          48.000
E12  22200058.172 8 116662088.366 8     -1104.586          49.000    22200057.516 8  89390427.333 8      -846.479          51.000
E19  25073305.445 6 131761101.624 6      -722.273          39.000    25073307.062 6 100959838.562 6      -553.505          38.000
> 2020 05 08 19 03 30.0000000  0 19        .000000000000
G03  22629411.812 8 118918362.503 8      3000.625          48.000    22629413.852 7  92663715.815 7      2338.152          43.000
G08  21185719.547 8 111331706.509 8     -2218.203          49.000    21185720.469 8  86751985.984 8     -1728.473          49.000
G11  19856865.312 8 104348548.963 8        76.758          51.000    19856864.539 8  81310528.256 8        59.811          51.000
G14  22117559.539 6 116228599.412 6      1153.414          39.000    22117560.594 6  90567752.918 6       898.767          37.000
G22  21150259.758 8 111145453.606 8      1557.340          51.000    21150257.227 8  86606768.796 8      1213.512          49.000
G27  23470244.695 7 123336927.750 7     -3564.566          43.000    23470250.164 7  96106703.966 7     -2777.584          43.000
G32  22027252.695 5 115753993.109 5      -359.512          33.000    22027250.680 5  90197918.758 5      -280.139          32.000
R05  20433775.758 6 109230298.261 6     -2618.152          40.000
R06  19601049.938 8 104594961.525 8      2062.145          48.000
R20  20851408.211 5 111501841.544 5     -2383.230          35.000    20851412.547 7  86723664.046 7     -1853.624          44.000
R21  19585771.945 5 104807388.945 5      1515.977          32.000    19585773.039 5  81516877.224 5      1179.093          30.000
C05                                                                  39655952.641 6 159678087.809 6       -21.923          37.000
C12  21621992.305 7 112591390.123 7       813.363          42.000    21621990.078 7  87062796.152 7       628.926          45.000
C19  25033296.820 5 130354946.327 5     -2970.961          33.000
C21  22963058.062 8 119574785.880 8      2353.734          50.000
C22  22079753.047 8 114975157.514 8      -670.336          51.000
E04  24810835.023 8 130381844.867 8      2259.215          51.000    24810835.531 8  99902996.983 8      1731.045          49.000
E12  22206392.094 8 116695376.014 8     -1112.027          48.000    22206392.086 8  89415933.430 8      -852.109          51.000
E19  25077475.195 6 131783010.734 6      -735.871          41.000    25077476.164 6 100976626.125 6      -564.011          37.000
> 2020 05 08 19 04  0.0000000  0 19        .000000000000
G03  22612309.266 7 118828488.051 7      2991.523          47.000    22612309.922 7  92593683.851 7      2331.060          44.000
G08  21198427.695 8 111398487.541 8     -2233.297          50.000    21198428.461 8  86804023.080 8     -1740.234          50.000
G11  19856477.594 8 104346511.143 8        59.555          51.000    19856476.641 8  81308940.352 8        46.406          50.000
G14  22111024.625 6 116194258.374 6      1136.516          41.000    22111024.688 5  90540993.687 5       885.597          32.000
G22  21141407.516 8 111098934.993 8      1544.359          51.000    21141405.062 8  86570520.512 8      1203.397          48.000
G27  23490613.320 7 123443969.137 7     -3571.285          43.000    23490619.508 7  96190112.857 7     -2782.817          43.000
G32  22029361.117 6 115765075.576 6      -378.742          39.000    22029360.031 6  90206554.524 6      -295.124          39.000
R05  20448524.453 6 109309139.323 6     -2637.539          37.000
R06  19589522.109 8 104533446.351 8      2039.289          48.000
R20  20864822.672 6 111573574.188 6     -2398.457          36.000    20864826.945 7  86779456.103 7     -1865.467          43.000
R21  19577315.273 5 104762148.861 5      1499.973          34.000    19577320.477 4  81481690.401 4      1166.639          28.000
C05                                                                  39656115.820 6 159678745.206 6       -21.669          37.000
C12  21617343.266 7 112567183.157 7       800.859          43.000    21617341.727 7  87044077.794 7       619.154          45.000
C19  25050426.305 5 130444142.064 5     -2975.328          33.000
C21  22949529.750 8 119504349.158 8      2342.410          48.000
C22  22083658.852 8 114995495.706 8      -685.047          51.000
E04  24797967.250 8 130314221.629 8      2249.410          51.000    24797966.852 8  99851181.812 8      1723.514          49.000
E12  22212761.695 8 116728850.751 8     -1119.242          48.000    22212762.281 8  89441582.893 8      -857.601          51.000
E19  25081716.383 6 131805297.422 6      -749.453          40.000    25081717.336 5 100993702.957 5      -574.125          35.000
> 2020 05 08 19 04 30.0000000  0 19        .000000000000
G03  22595258.367 7 118738885.971 7      2982.328          45.000    22595258.867 7  92523864.090 7      2323.892          45.000
G08  21211220.719 8 111465713.247 8     -2248.059          51.000    21211221.734 8  86856406.689 8     -1751.737          51.000
G11  19856187.945 8 104344989.374 8        42.250          50.000    19856186.914 8  81307754.558 8        32.922          50.000
G14  22104586.531 6 116160427.056 6      1119.227          40.000    22104585.781 4  90514631.636 4       872.122          28.000
G22  21132629.008 8 111052803.254 8      1531.457          51.000    21132626.164 8  86534573.702 8      1193.343          48.000
G27  23511018.328 7 123551195.950 7     -3577.172          44.000    23511024.047 7  96273666.214 7     -2787.407          44.000
G32  22031582.203 6 115776741.364 6      -398.266          38.000    22031581.891 6  90215644.711 6      -310.337          38.000
R05  20463378.172 6 109388541.657 6     -2655.961          38.000
R06  19578121.961 8 104472613.683 8      2016.578          48.000
R20  20878318.109 6 111645739.812 6     -2412.609          37.000    20878322.656 7  86835584.899 7     -1876.477          44.000
R21  19568947.992 5 104717373.233 5      1485.578          34.000    19568950.281 4  81446864.934 4      1155.450          28.000
C05                                                                  39656279.383 6 159679403.795 6       -21.799          37.000
C12  21612767.664 7 112543356.842 7       787.992          44.000    21612766.383 7  87025653.768 7       609.455          46.000
C19  25067582.031 5 130533473.599 5     -2979.711          30.000
C21  22936065.438 8 119434244.695 8      2331.484          48.000
C22  22087648.109 8 115016268.678 8      -699.449          51.000
E04  24785155.211 8 130246891.543 8      2239.684          51.000    24785154.508 8  99799591.272 8      1716.055          50.000
E12  22219172.539 7 116762541.787 7     -1126.379          47.000    22219173.508 8  89467398.128 8      -863.067          51.000
E19  25086034.805 6 131827989.619 6      -762.996          38.000    25086034.750 5 101011066.538 5      -584.942          32.000
> 2020 05 08 19 05  0.0000000  0 19        .000000000000
G03  22578261.719 7 118649569.412 7      2970.699          45.000    22578263.094 7  92454266.831 7      2314.834          45.000
G08  21224100.492 8 111533394.455 8     -2265.480          51.000    21224102.312 8  86909145.258 8     -1765.309          51.000
G11  19855998.797 8 104343996.380 8        22.406          49.000    19855997.914 8  81306980.799 8        17.459          49.000
G14  22098248.031 6 116127119.117 6      1099.797          41.000    22098246.391 5  90488677.427 5       856.978          35.000
G22  21123926.336 8 111007070.635 8      1515.895          51.000    21123923.547 8  86498937.928 8      1181.220          49.000
G27  23531461.078 7 123658618.076 7     -3585.758          46.000    23531465.586 7  96357371.723 7     -2794.100          46.000
G32  22033915.180 6 115789001.519 6      -420.434          37.000    22033913.492 6  90225198.266 6      -327.611          36.000
R05  20478338.758 5 109468513.312 5     -2676.711          33.000    20478344.891 4  85142148.741 4     -2081.880          27.000
R06  19566852.617 8 104412478.392 8      1990.898          48.000
R20  20891896.711 6 111718349.947 6     -2429.336          36.000    20891901.484 7  86892059.418 7     -1889.484          43.000
R21  19560669.133 5 104673076.484 5      1466.852          35.000    19560669.906 4  81412411.975 4      1140.885          28.000
C05                                                                  39656445.539 6 159680072.770 6       -24.035          37.000
C12  21608267.609 7 112519924.397 7       772.633          44.000    21608266.461 7  87007534.316 7       597.422          46.000
C19  25084766.242 4 130622959.560 4     -2985.930          28.000
C21  22922669.250 8 119364485.566 8      2317.730          51.000
C22  22091722.875 8 115037487.156 8      -716.555          51.000
E04  24772401.383 8 130179867.977 8      2227.137          51.000    24772400.742 8  99748235.593 8      1706.561          51.000
E12  22225626.836 7 116796461.455 7     -1136.297          47.000    22225628.414 8  89493388.531 8      -870.705          51.000
E19  25090432.172 6 131851098.643 6      -779.109          37.000    25090430.680 5 101028766.475 5      -596.390          30.000
> 2020 05 08 19 05 30.0000000  0 19        .000000000000
G03  22561314.266 7 118560510.771 7      2965.773          46.000    22561316.062 7  92384870.516 7      2310.992          45.000
G08  21237061.047 8 111601501.067 8     -2275.859          50.000    21237063.398 8  86962215.332 8     -1773.397          50.000
G11  19855904.984 8 104343504.034 8         9.344          48.000    19855904.227 8  81306597.146 8         7.281          48.000
G14  22092004.070 6 116094306.665 6      1086.965          39.000    22092002.547 5  90463109.321 5       846.992          33.000
G22  21115293.938 8 110961708.604 8      1507.215          51.000    21115291.867 8  86463590.927 8      1174.453          49.000
G27  23551935.211 7 123766204.587 7     -3587.676          47.000    23551938.094 7  96441205.299 7     -2795.592          47.000
G32  22036356.547 6 115801827.426 6      -435.324          40.000    22036356.758 6  90235192.487 6      -339.214          38.000
R05  20493399.859 6 109549021.658 6     -2691.121          36.000    20493403.102 4  85204766.365 4     -2093.091          27.000
R06  19555708.031 7 104353012.399 7      1972.258          45.000
R20  20905552.906 6 111791374.510 6     -2439.691          36.000    20905557.422 7  86948856.254 7     -1897.538          43.000
R21  19552473.711 5 104629232.106 5      1455.512          34.000    19552477.586 4  81378310.808 4      1132.062          29.000
C05                                                                  39656608.758 6 159680730.022 6       -20.899          37.000
C12  21603837.836 7 112496858.333 7       764.113          44.000    21603836.688 7  86989698.175 7       590.936          46.000
C19  25101973.125 4 130712556.960 4     -2987.531          29.000
C21  22909334.945 8 119295044.222 8      2310.730          51.000
C22  22095877.531 8 115059121.412 8      -726.758          51.000
E04  24759700.320 8 130113123.350 8      2221.488          51.000    24759700.117 8  99697093.656 8      1702.164          51.000
E12  22232119.445 8 116830581.122 8     -1139.312          48.000    22232121.562 8  89519532.164 8      -872.989          51.000
E19  25094903.773 5 131874606.685 5      -788.203          35.000
> 2020 05 08 19 06  0.0000000  0 19        .000000000000
G03  22544417.062 7 118471715.767 7      2955.070          46.000    22544419.578 7  92315679.667 7      2302.658          46.000
G08  21250102.781 8 111670035.744 8     -2292.090          50.000    21250105.523 8  87015618.964 8     -1786.044          50.000
G11  19855907.422 8 104343517.664 8        -9.285          48.000    19855906.797 8  81306607.775 8        -7.235          48.000
G14  22085855.281 6 116061995.980 6      1068.316          40.000    22085853.930 6  90437932.188 6       832.454          37.000
G22  21106733.039 8 110916721.752 8      1492.957          51.000    21106731.500 8  86428536.222 8      1163.340          49.000
G27  23572440.922 7 123873957.976 7     -3594.973          46.000    23572442.250 7  96525168.891 7     -2801.277          46.000
G32  22038905.375 5 115815222.904 5      -455.977          33.000    22038908.219 5  90245630.720 5      -355.297          34.000
R05  20508561.062 6 109630067.335 6     -2710.594          38.000    20508565.406 4  85267801.929 4     -2108.240          27.000
R06  19544690.477 7 104294221.687 7      1947.867          47.000
R20  20919287.023 5 111864817.487 5     -2455.641          35.000    20919291.883 7  87005978.553 7     -1909.943          43.000
R21  19544363.227 5 104585847.314 5      1437.988          31.000    19544368.883 4  81344567.105 4      1118.435          28.000
C05                                                                  39656769.883 6 159681378.051 6       -21.996          37.000
C12  21599479.602 7 112474164.648 7       749.785          44.000    21599478.602 7  86972150.001 7       579.757          47.000
C19  25119203.430 5 130802267.871 5     -2992.926          31.000
C21  22896062.836 8 119225926.346 8      2298.094          51.000
C22  22100112.523 8 115081174.835 8      -742.609          51.000
E04  24747053.086 8 130046663.622 8      2210.059          51.000    24747053.797 8  99646170.006 8      1693.413          51.000
E12  22238651.469 8 116864905.657 8     -1148.105          50.000    22238653.297 8  89545832.775 8      -879.699          51.000
E19  25099449.703 5 131898498.686 5      -803.289          34.000    25099454.633 5 101065102.153 5      -615.711          30.000
> 2020 05 08 19 06 30.0000000  0 19        .000000000000
G03  22527592.750 7 118383303.534 7      2943.184          47.000    22527595.703 7  92246787.116 7      2293.390          46.000
G08  21263248.031 8 111739115.263 8     -2309.102          50.000    21263251.148 8  87069447.161 8     -1799.300          50.000
G11  19856028.719 7 104344155.881 7       -29.273          47.000    19856028.109 7  81307105.103 7       -22.807          47.000
G14  22079825.016 6 116030306.315 6      1048.184          40.000    22079823.758 5  90413238.966 5       816.769          34.000
G22  21098266.383 8 110872228.142 8      1477.477          51.000    21098264.359 8  86393865.903 8      1151.283          48.000
G27  23593000.031 7 123981994.092 7     -3603.496          44.000    23593000.219 7  96609352.790 7     -2807.922          44.000
G32  22041585.562 6 115829305.878 6      -478.859          36.000    22041588.492 6  90256604.498 6      -373.140          36.000
R05  20523845.672 6 109711767.036 6     -2731.691          39.000    20523849.359 4  85331346.078 4     -2124.652          28.000
R06  19533822.914 7 104236228.423 7      1922.473          47.000
R20  20933121.953 6 111938798.447 6     -2472.402          37.000    20933126.891 7  87063519.271 7     -1922.980          43.000
R21  19536364.109 5 104543044.847 5      1419.824          32.000    19536370.195 5  81311276.224 5      1104.302          32.000
C05                                                                  39656951.367 6 159682109.283 6       -23.769          37.000
C12  21595215.547 7 112451961.456 7       734.543          45.000    21595214.875 7  86954981.088 7       567.968          47.000
C19  25136478.406 5 130892212.017 5     -2999.379          31.000
C21  22882874.867 8 119157249.862 8      2284.383          51.000
C22  22104450.297 8 115103763.158 8      -759.344          51.000
E04  24734482.336 8 129980608.075 8      2197.609          51.000    24734484.438 8  99595556.027 8      1683.891          51.000
E12  22245245.133 8 116899553.253 8     -1157.715          51.000    22245246.328 8  89572380.927 8      -887.089          51.000
E19                                                                  25104094.875 4 101083787.429 4      -627.920          29.000
> 2020 05 08 19 07  0.0000000  0 18        .000000000000
G03  22510804.492 7 118295080.803 7      2936.344          45.000    22510807.344 7  92178042.175 7      2288.063          46.000
G08  21276459.461 8 111808543.062 8     -2321.340          51.000    21276463.055 8  87123546.747 8     -1808.836          51.000
G11  19856232.055 8 104345224.953 8       -44.066          48.000    19856231.352 8  81307938.146 8       -34.337          48.000
G14  22073875.594 6 115999044.375 6      1033.301          38.000    22073875.008 6  90388879.009 6       805.169          36.000
G22  21089856.648 8 110828033.470 8      1466.855          51.000    21089853.836 8  86359428.560 8      1143.004          48.000
G27  23613575.148 7 124090116.323 7     -3606.652          43.000    23613574.625 7  96693603.781 7     -2810.381          43.000
G32  22044358.992 5 115843881.268 5      -495.367          31.000    22044360.273 5  90267961.893 5      -386.003          31.000
R05  20539213.297 5 109793918.589 5     -2747.035          34.000    20539218.273 4  85395249.909 4     -2136.577          27.000
R06  19523067.180 7 104178836.244 7      1901.523          45.000
R20  20947020.117 6 112013118.609 6     -2484.367          37.000    20947025.508 7  87121323.836 7     -1932.289          43.000
R21  19528439.344 6 104500628.913 6      1405.902          38.000    19528446.023 5  81278286.017 5      1093.477          34.000
C05                                                                  39657116.289 6 159682773.650 6       -21.981          37.000
C12  21591008.750 7 112430057.343 7       723.984          44.000    21591008.805 8  86938043.424 8       559.686          49.000
C19  25153760.016 5 130982194.717 5     -3001.465          31.000
C21  22869734.000 8 119088823.108 8      2275.469          51.000
C22  22108853.180 8 115126692.415 8      -771.379          51.000
E04  24721951.508 8 129914763.510 8      2189.980          51.000    24721955.102 8  99545103.684 8      1678.046          51.000
E12  22251863.383 8 116934329.656 8     -1162.699          51.000    22251864.203 8  89599027.772 8      -890.941          51.000
> 2020 05 08 19 07 30.0000000  0 18        .000000000000
G03  22494070.906 7 118207145.549 7      2924.383          46.000    22494074.047 7  92109521.235 7      2278.743          45.000
G08  21289755.289 8 111878414.181 8     -2338.211          51.000    21289759.164 8  87177991.782 8     -1821.983          51.000
G11  19856536.047 8 104346822.627 8       -63.805          48.000    19856535.359 8  81309183.093 8       -49.715          48.000
G14  22068026.250 6 115968308.797 6      1013.684          36.000    22068027.078 5  90364929.168 5       789.886          33.000
G22  21081522.281 8 110784235.005 8      1451.461          51.000    21081519.320 8  86325299.924 8      1131.012          49.000
G27  23634184.523 6 124198419.389 6     -3614.871          41.000    23634183.977 6  96777995.709 6     -2816.783          41.000
G32  22047244.148 5 115859037.247 5      -517.410          35.000    22047243.570 5  90279769.027 5      -403.174          33.000
R05  20554684.109 6 109876617.280 6     -2767.254          37.000
R06  19512443.359 7 104122144.870 7      1876.113          46.000
R20  20961000.148 6 112087875.866 6     -2501.297          37.000    20961005.172 7  87179468.352 7     -1945.453          42.000
R21  19520604.727 6 104458700.675 6      1387.703          36.000    19520611.062 5  81245675.177 5      1079.325          34.000
C05                                                                  39657283.078 6 159683445.339 6       -23.935          37.000
C12  21586878.164 7 112408549.356 7       708.598          46.000    21586878.891 8  86921412.084 8       547.794          49.000
C19  25171066.133 5 131072310.143 5     -3008.371          30.000
C21  22856659.211 8 119020743.052 8      2261.703          51.000
C22  22113340.180 8 115150057.351 8      -787.910          51.000
E04  24709479.930 8 129849227.970 8      2177.516          51.000    24709484.359 8  99494888.133 8      1668.498          51.000
E12  22258524.406 8 116969331.892 8     -1172.395          51.000    22258524.891 8  89625847.651 8      -898.364          51.000
> 2020 05 08 19 08  0.0000000  0 17        .000000000000
G03  22477391.430 7 118119495.085 7      2917.340          47.000    22477394.758 7  92041222.237 7      2273.255          45.000
G08  21303134.508 8 111948723.923 8     -2350.523          50.000    21303138.852 8  87232778.586 8     -1831.577          50.000
G11  19856940.039 8 104348945.246 8       -79.141          48.000    19856939.242 8  81310837.080 8       -61.668          48.000
G14  22062275.641 6 115938096.433 6       998.609          38.000    22062277.672 5  90341387.050 5       778.134          33.000
G22  21073262.352 8 110740829.146 8      1440.738          51.000    21073259.914 8  86291477.169 8      1122.653          49.000
G27  23654827.094 6 124306897.339 6     -3618.422          39.000    23654827.555 6  96862523.933 6     -2819.550          38.000
G32  22050238.367 5 115874785.895 5      -534.727          34.000    22050243.273 5  90292040.640 5      -416.667          34.000
R06  19501950.117 7 104066151.776 7      1855.195          45.000
R20  20975060.570 5 112163065.179 5     -2513.031          35.000    20975065.227 6  87237948.918 6     -1954.580          41.000
R21  19512860.492 6 104417258.753 6      1373.121          36.000    19512866.742 5  81213442.533 5      1067.980          34.000
C05                                                                  39657450.969 6 159684121.431 6       -22.712          36.000
C12  21582823.406 7 112387435.000 7       697.797          45.000    21582824.383 8  86905085.117 8       539.457          50.000
C19  25188395.961 5 131162552.621 5     -3009.117          30.000
C21  22843651.219 8 118953006.863 8      2252.504          51.000
C22  22117909.641 8 115173852.946 8      -799.980          49.000
E04  24697067.477 8 129783998.883 8      2169.617          51.000    24697071.883 8  99444907.421 8      1662.413          51.000
E12  22265227.492 8 117004556.377 8     -1177.453          51.000    22265227.617 8  89652837.814 8      -902.192          51.000
> 2020 05 08 19 08 30.0000000  0 18        .000000000000
G03  22460765.852 7 118032127.077 7      2908.086          47.000    22460769.391 7  91973143.340 7      2266.044          45.000
G08  21316596.297 8 112019466.692 8     -2364.656          49.000    21316600.812 8  87287902.806 8     -1842.589          49.000
G11  19857443.383 8 104351590.415 8       -96.320          48.000    19857442.500 8  81312898.242 8       -75.055          48.000
G14  22056625.719 6 115908405.465 6       981.402          41.000    22056626.742 5  90318251.267 5       764.726          35.000
G22  21065076.016 8 110697812.342 8      1427.941          50.000    21065074.125 8  86257957.591 8      1112.682          49.000
G27  23675500.391 5 124415544.635 5     -3623.594          33.000    23675503.883 5  96947184.196 5     -2823.573          32.000
G32  22053343.984 5 115891104.967 5      -553.234          35.000    22053348.938 5  90304764.655 5      -431.089          35.000
R05  20585921.359 6 110043526.959 6     -2800.605          37.000    20585932.805 4  85589438.869 4     -2178.252          27.000
R06  19491587.562 7 104010855.323 7      1832.207          47.000
R20  20989201.656 5 112238682.963 5     -2526.777          34.000    20989206.039 7  87296762.747 7     -1965.271          43.000
R21  19505207.500 6 104376302.260 6      1357.566          39.000    19505213.211 5  81181587.501 5      1055.885          34.000
C05                                                                  39657619.352 6 159684799.278 6       -22.168          37.000
C12  21578843.898 7 112366712.361 7       684.867          45.000    21578844.906 8  86889061.048 8       529.628          50.000
C19  25205749.328 4 131252950.664 4     -3012.941          29.000
C21  22830709.570 8 118885612.357 8      2241.328          51.000
C22  22122560.734 8 115198074.659 8      -813.930          49.000
E04  24684713.242 8 129719074.249 8      2159.652          51.000    24684717.000 8  99395159.990 8      1654.837          51.000
E12  22271972.328 8 117040000.005 8     -1184.434          51.000    22271972.031 8  89679995.905 8      -907.544          51.000
> 2020 05 08 19 09  0.0000000  0 18        .000000000000
G03  22444191.445 7 117945027.897 7      2898.949          47.000    22444194.922 7  91905273.919 7      2258.921          45.000
G08  21330137.344 8 112090626.025 8     -2378.816          48.000    21330141.875 8  87343351.635 8     -1853.623          48.000
G11  19858043.484 8 104354744.090 8      -113.488          48.000    19858042.805 8  81315355.636 8       -88.432          48.000
G14  22051073.148 6 115879221.925 6       964.359          41.000    22051073.727 5  90295510.896 5       751.452          34.000
G22  21056961.102 8 110655169.848 8      1415.273          51.000    21056958.648 8  86224729.702 8      1102.810          48.000
G27  23696200.797 5 124524344.328 5     -3629.270          32.000    23696209.203 5  97031963.297 5     -2827.999          30.000
G32  22056558.555 6 115907999.459 6      -572.031          37.000    22056564.547 6  90317929.174 6      -445.742          37.000
R05  20601697.203 6 110127810.396 6     -2818.121          38.000    20601696.375 4  85654992.499 4     -2191.878          26.000
R06  19481353.312 7 103956241.729 7      1809.219          46.000
R20  21003419.680 5 112314713.173 5     -2541.129          33.000    21003424.781 7  87355897.327 7     -1976.434          44.000
R21  19497642.383 5 104335818.596 5      1341.914          35.000    19497647.930 5  81150100.168 5      1043.711          34.000
C05                                                                  39657785.297 6 159685467.552 6       -21.857          37.000
C12  21574936.875 7 112346367.854 7       671.863          45.000    21574937.883 8  86873329.379 8       519.630          50.000
C19  25223122.641 4 131343418.140 4     -3016.859          28.000
C21  22817830.805 8 118818545.736 8      2230.172          51.000
C22  22127291.312 8 115222706.524 8      -827.734          50.000
E04  24672414.195 8 129654440.412 8      2149.742          51.000    24672417.336 8  99345635.403 8      1647.160          51.000
E12  22278756.000 8 117075648.118 8     -1191.543          50.000    22278755.500 8  89707310.673 8      -912.959          50.000
> 2020 05 08 19 09 30.0000000  0 16        .000000000000
G03  22427670.250 7 117858210.685 7      2888.113          43.000    22427674.039 7  91837624.141 7      2250.475          43.000
G08  21343759.656 8 112162212.476 8     -2394.309          49.000    21343764.398 8  87399133.269 8     -1865.698          49.000
G11  19858742.789 8 104358418.512 8      -132.273          49.000    19858742.117 8  81318218.798 8      -103.070          49.000
G14  22045619.609 6 115850559.130 6       945.383          40.000    22045619.383 6  90273176.299 6       736.668          39.000
G22  21048920.227 8 110612913.723 8      1400.980          51.000    21048916.961 8  86191802.846 8      1091.673          49.000
G27  23716935.016 6 124633306.436 6     -3635.984          36.000    23716945.211 5  97116868.854 5     -2833.238          35.000
R06  19471249.477 7 103902324.153 7      1784.562          46.000
R20  21017716.375 5 112391167.164 5     -2556.387          33.000    21017722.203 7  87415361.493 7     -1988.304          43.000
R21  19490168.508 6 104295822.306 6      1323.812          37.000    19490172.992 5  81118991.959 5      1029.632          33.000
C05                                                                  39657951.125 6 159686135.322 6       -23.189          37.000
C12  21571104.664 7 112326414.374 7       657.465          45.000    21571105.867 8  86857900.067 8       508.406          51.000
C21  22805016.648 8 118751819.797 8      2217.496          51.000
C22  22132102.219 8 115247759.042 8      -843.102          50.000
E04  24660172.656 8 129590110.511 8      2138.137          51.000    24660175.273 8  99296343.686 8      1638.378          51.000
E12  22285580.688 8 117111512.842 8     -1200.156          50.000    22285580.305 8  89734791.404 8      -919.612          50.000
E19  25133443.836 5 132077141.584 5      -897.387          34.000
> 2020 05 08 19 10  0.0000000  0 18        .000000000000
G03  22411206.094 7 117771693.526 7      2879.691          46.000    22411210.648 7  91770208.145 7      2243.915          46.000
G08  21357466.305 8 112234241.144 8     -2407.660          51.000    21357471.391 8  87455259.517 8     -1876.099          51.000
G11  19859544.680 8 104362631.465 8      -148.703          50.000    19859543.789 8  81321501.592 8      -115.873          49.000
G14  22040268.289 6 115822435.250 6       928.980          41.000    22040268.180 6  90251261.575 6       723.875          36.000
G22  21040956.328 8 110571061.287 8      1388.992          51.000    21040953.305 8  86159190.551 8      1082.332          50.000
G27  23737704.266 6 124742445.679 6     -3640.125          40.000    23737714.883 6  97201912.418 6     -2836.461          41.000
G32  22063322.797 5 115943538.571 5      -611.504          35.000    22063326.180 5  90345618.944 5      -476.500          35.000
R05  20633523.359 5 110297973.145 5     -2852.664          32.000    20633518.836 4  85787308.301 4     -2218.739          26.000
R06  19461279.859 7 103849121.799 7      1762.332          46.000
R20  21032095.547 5 112468061.246 5     -2569.965          33.000    21032101.750 7  87475167.975 7     -1998.865          43.000
R21  19482789.125 6 104256333.432 6      1308.465          39.000    19482792.742 5  81088278.385 5      1017.695          32.000
C05                                                                  39658120.039 6 159686815.660 6       -22.150          37.000
C12  21567351.523 7 112306870.135 7       645.441          46.000    21567352.359 8  86842787.239 8       499.042          51.000
C21  22792270.133 7 118685452.439 7      2206.938          47.000
C22  22136997.086 8 115273247.887 8      -856.254          51.000
E04  24647992.203 8 129526102.867 8      2128.941          51.000    24647994.383 8  99247298.914 8      1631.303          51.000
E12  22292450.031 8 117147611.467 8     -1206.488          51.000    22292449.656 8  89762451.366 8      -924.434          51.000
E19  25138601.578 5 132104243.616 5      -909.645          34.000
> 2020 05 08 19 10 30.0000000  0 17        .000000000000
G03  22394794.852 8 117685451.284 8      2870.602          48.000    22394799.664 7  91703006.456 7      2236.832          47.000
G08  21371251.875 8 112306684.158 8     -2421.254          50.000    21371257.180 8  87511708.621 8     -1886.691          50.000
G11  19860444.180 8 104367357.345 8      -165.594          51.000    19860443.086 8  81325184.078 8      -129.034          49.000
G14  22035014.516 6 115794825.586 6       912.031          40.000    22035015.633 6  90229747.557 6       710.674          36.000
G22  21033063.922 8 110529586.453 8      1376.504          51.000    21033061.656 8  86126872.525 8      1072.600          50.000
G27  23758502.398 6 124851733.895 6     -3645.035          41.000    23758512.750 6  97287072.069 6     -2840.287          41.000
G32  22066866.703 5 115962169.142 5      -629.320          35.000    22066873.211 6  90360136.334 6      -490.379          36.000
R06  19451439.070 7 103796609.018 7      1739.285          45.000
R20  21046552.227 5 112545368.411 5     -2583.809          33.000    21046558.734 7  87535295.735 7     -2009.632          43.000
R21  19475500.398 6 104217327.698 6      1292.551          40.000    19475502.672 5  81057940.603 5      1005.317          33.000
C05                                                                  39658287.039 6 159687488.567 6       -22.210          37.000
C12  21563672.289 7 112287710.456 7       632.523          47.000    21563672.750 8  86827971.748 8       489.213          51.000
C21  22779586.609 7 118619418.859 7      2195.957          46.000
C22  22141970.617 8 115299145.925 8      -869.676          51.000
E04  24635868.359 8 129462392.593 8      2119.141          51.000    24635870.227 8  99198482.009 8      1623.727          51.000
E12  22299358.938 8 117183918.081 8     -1213.320          51.000    22299358.852 8  89790270.700 8      -929.651          51.000
E19  25143833.359 6 132131734.528 6      -922.129          37.000
> 2020 05 08 19 11  0.0000000  0 16        .000000000000
G03  22378435.875 8 117599483.782 8      2861.250          48.000    22378440.234 7  91636018.856 7      2229.548          46.000
G08  21385115.734 8 112379538.807 8     -2435.078          49.000    21385120.891 8  87568478.458 8     -1897.463          49.000
G11  19861441.125 8 104372595.412 8      -182.809          51.000    19861439.711 8  81329265.681 8      -142.448          48.000
G14  22029858.312 6 115767729.787 6       894.922          40.000    22029859.297 6  90208633.971 6       697.342          39.000
G22  21025243.148 8 110488487.816 8      1363.914          51.000    21025240.875 8  86094847.625 8      1062.790          49.000
G27  23779328.531 6 124961167.573 6     -3649.852          41.000    23779338.156 6  97372345.055 6     -2844.040          41.000
R06  19441727.555 7 103744786.220 7      1716.160          45.000
R20  21061085.695 5 112623086.256 5     -2597.387          34.000    21061091.703 6  87595742.897 6     -2020.193          40.000
R21  19468302.641 6 104178806.109 6      1276.184          41.000    19468303.352 5  81027979.380 5       992.590          33.000
C05                                                                  39658451.961 6 159688152.893 6       -21.869          37.000
C12  21560066.828 7 112268935.101 7       619.762          47.000    21560067.211 8  86813453.463 8       479.221          51.000
C21  22766968.805 8 118553718.542 8      2184.680          48.000
C22  22147022.047 8 115325450.490 8      -883.359          51.000
E04  24623801.234 8 129398979.536 8      2109.043          51.000    24623802.805 8  99149892.835 8      1616.008          51.000
E12  22306307.164 8 117220431.525 8     -1220.258          51.000    22306307.445 8  89818248.512 8      -935.039          51.000
E19  25149137.609 6 132159607.663 6      -935.070          37.000
> 2020 05 08 19 11 30.0000000  0 16        .000000000000
G03  22362132.297 7 117513808.098 7      2850.410          47.000    22362135.336 7  91569258.635 7      2221.102          45.000
G08  21399060.742 8 112452818.853 8     -2450.172          50.000    21399064.727 8  87625579.766 8     -1909.225          50.000
G11  19862538.641 8 104378362.159 8      -201.496          51.000    19862536.961 8  81333759.244 8      -157.010          48.000
G14  22024803.336 6 115741164.841 6       876.387          41.000    22024803.773 5  90187934.022 5       682.899          34.000
G22  21017497.180 8 110447781.708 8      1349.785          51.000    21017493.875 7  86063128.604 7      1051.781          47.000
G27  23800184.773 6 125070760.465 6     -3656.246          40.000    23800193.633 6  97457742.118 6     -2849.023          40.000
R06  19432148.344 7 103693670.142 7      1691.414          45.000
R20  21075699.719 6 112701230.221 6     -2612.355          37.000    21075704.539 7  87656521.561 7     -2031.832          42.000
R21  19461198.031 6 104140787.394 6      1258.293          41.000    19461198.125 5  80998409.305 5       978.672          33.000
C05                                                                  39658618.039 6 159688820.935 6       -22.712          37.000
C12  21556538.531 8 112250561.131 8       605.270          48.000    21556538.961 8  86799245.544 8       468.123          51.000
C21  22754419.789 8 118488368.205 8      2171.980          51.000
C22  22152154.469 8 115352176.072 8      -898.273          51.000
E04  24611794.078 8 129335880.870 8      2097.539          51.000    24611795.539 8  99101544.554 8      1607.187          51.000
E12  22313298.094 8 117257167.946 8     -1228.672          51.000    22313298.430 8  89846397.184 8      -941.468          51.000
E19  25154517.516 6 132187876.931 6      -949.559          36.000
> 2020 05 08 19 12  0.0000000  0 16        .000000000000
G03  22345884.875 7 117428427.132 7      2840.953          47.000    22345886.008 7  91502728.044 7      2213.733          45.000
G08  21413086.750 8 112526524.572 8     -2464.023          51.000    21413089.602 8  87683012.720 8     -1920.021          51.000
G11  19863737.148 8 104384659.963 8      -218.848          51.000    19863735.445 8  81338666.613 8      -170.531          49.000
G14  22019849.734 7 115715133.761 7       858.859          42.000    22019849.672 4  90167650.111 4       669.241          26.000
G22  21009826.008 8 110407470.003 8      1337.008          51.000    21009822.102 7  86031716.938 7      1041.827          47.000
G27  23821071.094 6 125180512.215 6     -3660.914          39.000    23821079.664 6  97543263.029 6     -2852.657          39.000
R06  19422702.227 7 103643264.531 7      1668.262          44.000
R20  21090393.359 6 112779801.316 6     -2625.902          37.000    21090397.656 7  87717632.370 7     -2042.368          42.000
R21  19454187.945 7 104103275.764 7      1241.930          42.000    19454187.570 5  80969233.606 5       965.945          35.000
C05                                                                  39658785.352 6 159689494.033 6       -22.552          37.000
C12  21553087.766 7 112232591.504 7       592.152          47.000    21553088.273 8  86785350.294 8       457.805          51.000
C21  22741938.969 8 118423370.603 8      2160.543          51.000
C22  22157367.953 8 115379323.204 8      -911.949          51.000
E04  24599847.148 8 129273099.611 8      2087.227          51.000    24599848.852 8  99053439.466 8      1599.345          51.000
E12  22320331.758 8 117294129.356 8     -1235.977          51.000    22320332.070 8  89874718.255 8      -947.038          51.000
E19  25159972.680 6 132216543.267 6      -962.461          38.000
> 2020 05 08 19 12 30.0000000  0 16        .000000000000
G03  22329693.844 8 117343342.063 8      2832.074          48.000    22329694.328 8  91436428.052 8      2206.814          49.000
G08  21427193.633 8 112600654.411 8     -2477.023          51.000    21427195.445 8  87740776.169 8     -1930.148          51.000
G11  19865036.758 8 104391489.359 8      -235.602          49.000    19865035.195 8  81343988.212 8      -183.589          49.000
G14  22014998.102 6 115689637.869 6       842.273          41.000    22014996.773 4  90147783.304 4       656.320          28.000
G22  21002229.617 8 110367552.589 8      1325.047          50.000    21002226.492 8  86000612.493 8      1032.507          50.000
G27  23841986.781 5 125290420.925 5     -3665.258          34.000    23841996.484 5  97628906.248 5     -2856.039          35.000
R06  19413389.211 7 103593570.137 7      1645.629          46.000
R20  21105166.750 6 112858799.146 6     -2639.473          38.000    21105170.828 7  87779075.079 7     -2052.923          42.000
R21  19447272.766 7 104066273.892 7      1225.879          42.000    19447272.875 5  80940454.383 5       953.461          35.000
C05                                                                  39658953.812 6 159690172.332 6       -21.950          37.000
C12  21549714.766 8 112215027.500 8       579.406          48.000    21549715.055 8  86771768.676 8       448.272          51.000
C21  22729525.969 8 118358726.908 8      2149.867          51.000
C22  22162662.109 8 115406890.739 8      -924.934          51.000
E04  24587960.664 8 129210637.122 8      2077.840          51.000    24587962.922 8  99005578.626 8      1592.087          51.000
E12  22327408.055 8 117331316.155 8     -1242.340          49.000    22327408.617 8  89903212.006 8      -951.836          51.000
E19  25165503.344 6 132245605.977 6      -974.637          37.000
> 2020 05 08 19 13  0.0000000  0 16        .000000000000
G03  22313557.758 8 117258545.843 8      2821.695          48.000    22313559.203 8  91370353.148 8      2198.724          48.000
G08  21441379.273 8 112675198.180 8     -2491.648          51.000    21441380.406 8  87798862.175 8     -1941.544          51.000
G11  19866435.984 8 104398842.893 8      -253.789          50.000    19866434.641 8  81349718.241 8      -197.758          49.000
G14  22010246.602 6 115664669.894 6       823.672          39.000    22010245.320 5  90128327.815 5       641.819          35.000
G22  20994706.938 8 110328021.564 8      1311.383          51.000    20994704.648 8  85969809.111 8      1021.857          50.000
G27  23862930.633 6 125400476.332 6     -3670.914          38.000    23862941.766 6  97714663.864 6     -2860.449          37.000
R06  19404208.719 7 103544580.201 7      1621.242          46.000
R20  21120018.078 6 112938214.165 6     -2653.918          36.000    21120022.078 7  87840842.303 7     -2064.158          42.000
R21  19440451.844 6 104029776.016 6      1208.133          41.000    19440451.609 5  80912067.144 5       939.659          35.000
C05                                                                  39659121.875 6 159690849.547 6       -22.500          37.000
C12  21546418.383 8 112197862.273 8       565.613          48.000    21546418.266 8  86758495.451 8       437.362          51.000
C21  22717178.906 8 118294429.999 8      2137.504          51.000
