     3.02           OBSERVATION DATA    M (MIXED)           RINEX VERSION / TYPE
SAVERINEX           SC600               20200516 205931 LCL PGM / RUN BY / DATE
       G = GPS       R = GLONASS       C = COMPASS          COMMENT
       S = SBAS      J = QZSS          E = GALILEO          COMMENT
BEAN                                                        MARKER NAME
1                                                           MARKER NUMBER
GEODETIC                                                    MARKER TYPE
Unige DICCA         GTER                                    OBSERVER / AGENCY
SC60291900056       SC600               2.12(191202)        REC # / TYPE / VERS
                    HEMA45          NONE                    ANT # / TYPE
  4509407.8091   693652.4678  4442337.6214                  APPROX POSITION XYZ
        0.0000        0.0000        0.0000                  ANTENNA: DELTA H/E/N
G    8 C1C L1C D1C S1C C2Y L2Y D2Y S2Y                      SYS / # / OBS TYPES
R    8 C1C L1C D1C S1C C2P L2P D2P S2P                      SYS / # / OBS TYPES
C    8 C1I L1I D1I S1I C7I L7I D7I S7I                      SYS / # / OBS TYPES
E    8 C1C L1C D1C S1C C7Q L7Q D7Q S7Q                      SYS / # / OBS TYPES
DBHZ                                                        COMMENT
     30.000                                                 INTERVAL
  2020    05    16    18    00    0.0000000     GPS         TIME OF FIRST OBS
  2020    05    16    18    59   30.0000000     GPS         TIME OF LAST OBS
     0                                                      RCV CLOCK OFFS APPL
G L1C  0.00000                                              SYS / PHASE SHIFT
G L2Y  0.00000                                              SYS / PHASE SHIFT
R L1C  0.00000                                              SYS / PHASE SHIFT
R L2P  0.25000                                              SYS / PHASE SHIFT
C L1I  0.00000                                              SYS / PHASE SHIFT
C L7I  0.00000                                              SYS / PHASE SHIFT
E L1C  0.50000                                              SYS / PHASE SHIFT
E L7Q -0.25000                                              SYS / PHASE SHIFT
 14 R03  5 R04  6 R05  1 R06 -4 R07  5 R09 -2 R10 -5 R15  0 GLONASS SLOT / FRQ #
    R16 -1 R17  4 R18 -3 R19  3 R20  2 R21  4               GLONASS SLOT / FRQ #
 C1C   71.950 C2C   71.950 C2P   71.950                     GLONASS COD/PHS/BIS
    18                                                      LEAP SECONDS
*** Above antenna height is from mark to ANTENNA BOTTOM.    COMMENT
    17     4        0.0000        ANT MEASURE TYPE/HEIGT    COMMENT
    0.0000    0.0000    0.0458    0.0405    0.0000          COMMENT
                    BASE STATION                            COMMENT
                                                            END OF HEADER
> 2020 05 16 18 00  0.0000000  0 21        .000000000000
G03  23733316.094 5 124719399.903 5      3463.520          32.000    23733320.992 5  97183978.426 5      2698.852          32.000
G08  20577003.148 8 108132872.996 8     -1228.930          51.000    20577004.969 8  84259384.103 8      -957.608          51.000
G10  23115922.094 5 121474994.333 5     -2988.840          35.000    23115921.000 5  94655853.040 5     -2328.963          33.000
G11  20063463.945 6 105434211.430 6      1078.281          39.000    20063463.352 6  82156534.877 6       840.219          38.000
G14  22690924.492 6 119241669.361 6      2073.969          37.000    22690928.664 6  92915595.113 6      1616.086          37.000
G22  21789744.445 8 114505965.069 8      2289.734          51.000    21789742.734 8  89225354.778 8      1784.209          49.000
G27  22303092.547 8 117203515.135 8     -3057.027          48.000    22303095.188 8  91327415.114 8     -2382.099          48.000
G32  22108571.219 5 116181338.223 5       828.312          34.000    22108601.602 5  90530926.921 5       645.454          34.000
R05  19752333.898 8 105587548.643 8     -1243.156          49.000    19752337.242 7  82123755.939 7      -966.899          45.000
R06  20547742.625 6 109646684.288 6      3321.492          41.000
R20  20180814.781 5 107915889.209 5     -1470.762          35.000    20180819.773 7  83934581.788 7     -1143.926          47.000
C05  39655917.391 5 206498766.930 5       -27.520          35.000    39655915.852 6 159677940.573 6       -21.346          37.000
C19  21674383.289 8 112864227.864 8       746.551          51.000
C20  23767025.664 5 123761172.129 5     -2229.449          32.000
C22  24653049.094 7 128374865.329 7      3170.234          43.000
C29  23192493.828 8 120769374.162 8     -2325.965          49.000
E07  26342423.062 8 138430407.581 8      3011.215          48.000    26342429.680 7 106070056.929 7      2307.223          44.000
E08  22393537.609 8 117678893.426 8      1029.715          51.000    22393537.375 8  90169573.419 8       788.954          51.000
E13  23274319.836 8 122307375.726 8      -169.383          51.000    23274322.430 8  93716066.339 8      -129.769          51.000
E15  25821422.805 5 135692489.431 5     -2051.605          34.000
E21  27667593.461 7 145394185.044 7     -2777.637          43.000    27667593.094 6 111405950.072 6     -2128.286          39.000
> 2020 05 16 18 00 30.0000000  0 21        .000000000000
G03  23713565.156 5 124615613.309 5      3456.965          35.000    23713571.656 5  97103105.903 5      2693.742          35.000
G08  20584069.945 8 108170009.796 8     -1245.961          51.000    20584071.805 8  84288321.855 8      -970.879          51.000
G10  23133004.156 6 121564759.134 6     -2994.574          36.000    23133010.891 6  94725799.641 6     -2333.441          36.000
G11  20057352.070 6 105402093.828 6      1063.773          39.000    20057351.625 6  82131508.182 6       828.911          37.000
G14  22679125.984 6 119179666.409 6      2060.816          40.000    22679129.945 6  92867281.206 6      1605.831          37.000
G22  21776709.312 8 114437464.433 8      2277.801          51.000    21776707.469 8  89171977.694 8      1774.910          48.000
G27  22320575.680 8 117295390.559 8     -3067.207          50.000    22320578.508 8  91399006.273 8     -2390.031          50.000
G32  22103893.609 6 116156748.036 6       810.242          37.000    22103917.695 5  90511889.189 5       631.370          35.000
R05  19759383.633 8 105625231.357 8     -1268.316          48.000    19759386.258 7  82153064.689 7      -986.468          45.000
R06  20529120.023 7 109547315.372 7      3304.020          42.000
R20  20189111.219 5 107960254.368 5     -1485.758          33.000    20189116.773 7  83969087.995 7     -1155.586          46.000
C05  39656079.922 5 206499614.463 5       -28.305          35.000    39656078.336 6 159678594.762 6       -21.467          37.000
C19  21670130.172 8 112842080.162 8       730.859          51.000
C20  23779901.875 4 123828189.304 4     -2239.301          29.000
C22  24634806.633 7 128279873.876 7      3163.469          42.000
C29  23205923.250 8 120839304.788 8     -2335.105          50.000
E07  26325247.539 7 138340147.951 7      3007.020          47.000    26325253.359 7 106000897.055 7      2303.960          43.000
E08  22387701.391 8 117648221.988 8      1015.980          51.000    22387701.148 8  90146071.948 8       778.502          51.000
E13  23275308.086 8 122312569.785 8      -176.074          51.000    23275310.688 8  93720046.178 8      -134.815          51.000
E15  25833145.531 5 135754096.735 5     -2055.750          35.000
E21  27683461.211 7 145477566.246 7     -2780.070          42.000    27683459.688 6 111469839.406 6     -2130.283          38.000
> 2020 05 16 18 01  0.0000000  0 21        .000000000000
G03  23693847.938 5 124511995.698 5      3450.273          33.000    23693852.602 5  97022365.069 5      2688.531          32.000
G08  20591229.977 8 108207636.060 8     -1262.570          51.000    20591231.844 8  84317641.016 8      -983.821          51.000
G10  23150116.836 6 121654684.987 6     -2999.914          37.000    23150124.461 6  94795871.692 6     -2337.601          36.000
G11  20051320.914 6 105370400.902 6      1049.070          38.000    20051320.828 6  82106812.393 6       817.457          36.000
G14  22667398.492 7 119118033.813 7      2047.828          42.000    22667400.750 6  92819255.835 6      1595.710          37.000
G22  21763737.773 8 114369300.197 8      2266.395          50.000    21763735.812 7  89118862.753 7      1766.025          47.000
G27  22338113.195 8 117387550.457 8     -3076.824          50.000    22338115.766 8  91470819.099 8     -2397.528          50.000
G32  22099319.242 5 116132711.517 5       792.262          32.000    22099334.602 5  90493159.508 5       617.347          30.000
R05  19766569.547 7 105663647.459 7     -1292.980          47.000    19766572.656 7  82182943.936 7     -1005.648          46.000
R06  20510593.367 7 109448453.288 7      3286.695          44.000
R20  20197486.859 4 108005043.050 4     -1500.531          28.000    20197492.344 7  84003923.678 7     -1167.080          44.000
C05  39656238.883 5 206500441.414 5       -27.301          35.000    39656237.203 6 159679234.629 6       -21.111          37.000
C19  21665963.375 8 112820383.149 8       715.582          51.000
C20  23792839.336 5 123895547.481 5     -2250.207          33.000
C22  24616597.047 6 128185057.028 6      3157.660          41.000
C29  23219400.867 8 120909485.052 8     -2343.660          50.000
E07  26308092.414 7 138249996.040 7      3003.141          46.000    26308097.766 7 105931819.693 7      2301.114          43.000
E08  22381939.219 8 117617942.171 8      1002.668          51.000    22381939.742 8  90122870.549 8       768.296          51.000
E13  23276330.414 8 122317942.574 8      -182.172          51.000    23276332.859 8  93724162.977 8      -139.565          51.000
E15  25844891.719 5 135815821.696 5     -2060.270          32.000
E21  27699339.219 6 145561000.718 6     -2782.121          41.000    27699336.219 6 111533769.553 6     -2131.513          37.000
> 2020 05 16 18 01 30.0000000  0 19        .000000000000
G03  23674166.547 5 124408567.660 5      3444.652          33.000    23674169.438 5  96941771.947 5      2684.145          33.000
G08  20598486.703 8 108245770.118 8     -1279.516          51.000    20598488.570 8  84347355.862 8      -997.025          51.000
G10  23167263.508 6 121744789.067 6     -3006.668          36.000    23167270.984 5  94866082.643 5     -2342.858          35.000
G11  20045374.484 6 105339153.149 6      1034.082          40.000    20045374.727 6  82082463.500 6       805.775          39.000
G14  22655745.281 6 119056792.993 6      2035.094          41.000    22655746.344 6  92771535.785 6      1585.790          38.000
G22  21750834.039 8 114301492.617 8      2254.387          50.000    21750831.531 7  89066025.742 7      1756.668          46.000
G27  22355708.383 8 117480012.156 8     -3086.918          51.000    22355710.531 8  91542867.115 8     -2405.394          51.000
R05  19773896.680 8 105702814.573 8     -1317.902          48.000    19773899.695 7  82213407.208 7     -1025.038          47.000
R06  20492166.391 7 109350120.247 7      3268.852          47.000
R20  20205944.883 4 108050265.986 4     -1515.371          29.000    20205950.562 7  84039094.097 7     -1178.625          44.000
C05                                                                  39656396.164 6 159679874.795 6       -21.068          37.000
C19  21661886.641 8 112799155.841 8       699.863          51.000
C20  23805836.297 6 123963218.165 6     -2260.684          37.000
C22  24598423.156 6 128090435.454 6      3150.828          36.000
C29  23232930.266 8 120979933.159 8     -2352.594          51.000
E07  26290961.594 7 138159972.699 7      2998.758          44.000    26290967.547 7 105862840.829 7      2297.797          44.000
E08  22376255.102 8 117588073.686 8       988.832          50.000    22376256.234 8  90099984.313 8       757.706          51.000
E13  23277390.469 8 122323513.715 8      -188.957          51.000    23277392.852 8  93728431.753 8      -144.767          51.000
E21  27715230.562 6 145644505.459 6     -2784.316          40.000    27715226.750 6 111597753.595 6     -2133.614          36.000
> 2020 05 16 18 02  0.0000000  0 19        .000000000000
G08  20605837.609 8 108284399.704 8     -1296.629          51.000    20605839.586 8  84377456.808 8     -1010.360          51.000
G10  23184441.219 5 121835060.051 5     -3012.617          33.000    23184449.133 5  94936422.122 5     -2347.491          33.000
G11  20039511.023 6 105308340.390 6      1019.402          38.000    20039511.391 6  82058453.585 6       794.339          37.000
G14  22644164.289 6 118995934.945 6      2021.324          39.000    22644165.398 6  92724114.036 6      1575.064          39.000
G22  21737996.305 8 114234030.648 8      2242.242          51.000    21737993.477 7  89013458.021 7      1747.202          45.000
G27  22373358.656 8 117572762.252 8     -3096.965          51.000    22373360.570 8  91615139.887 8     -2413.219          51.000
G32  22090492.180 5 116086337.009 5       754.621          34.000    22090492.422 5  90456881.682 5       588.023          35.000
R05  19781361.219 7 105742718.109 7     -1343.105          45.000    19781364.414 8  82244443.314 8     -1044.635          48.000
R06  20473837.266 7 109252308.907 7      3250.859          47.000
R20  20214484.422 5 108095929.587 5     -1529.832          34.000    20214490.508 7  84074610.242 7     -1189.869          43.000
C05  39656554.438 5 206502085.113 5       -28.164          35.000    39656552.930 6 159680504.404 6       -21.207          37.000
C19  21657897.758 8 112778386.763 8       684.094          50.000
C20  23818889.883 6 124031187.308 6     -2270.953          37.000
C22  24580282.383 5 127995999.342 5      3144.176          34.000
C29  23246508.578 8 121050637.025 8     -2361.738          50.000
E07  26273852.703 6 138070068.008 6      2993.926          40.000    26273860.211 7 105793952.873 7      2294.173          44.000
E08  22370647.250 8 117558605.589 8       974.863          51.000    22370648.898 8  90077404.867 8       746.982          51.000
E13  23278486.195 8 122329272.035 8      -195.816          51.000    23278488.562 8  93732843.949 8      -149.969          51.000
E21  27731132.992 6 145728066.738 6     -2787.016          39.000    27731129.117 6 111661780.921 6     -2135.616          37.000
> 2020 05 16 18 02 30.0000000  0 17        .000000000000
G08  20613289.023 8 108323557.845 8     -1313.285          51.000    20613290.945 8  84407969.613 8     -1023.339          51.000
G11  20033737.203 6 105277998.036 6      1004.570          39.000    20033737.000 6  82034810.163 6       782.779          39.000
G14  22632663.156 6 118935495.723 6      2008.582          41.000    22632664.203 6  92677018.597 6      1565.132          39.000
G22  21725230.945 8 114166949.006 8      2230.527          51.000    21725228.695 7  88961186.648 7      1738.073          46.000
G27  22391069.906 8 117665832.897 8     -3106.746          51.000    22391071.742 8  91687662.438 8     -2420.841          51.000
R05  19788969.492 7 105783390.095 7     -1367.574          46.000    19788972.906 8  82276077.051 8     -1063.672          48.000
R06  20455612.656 7 109155055.671 7      3233.266          46.000
R20  20223111.469 6 108142059.349 6     -1544.496          36.000    20223115.781 7  84110488.850 7     -1201.278          42.000
C05  39656715.578 5 206502923.869 5       -27.766          35.000    39656714.055 6 159681153.421 6       -21.373          37.000
C19  21654003.477 8 112758109.602 8       668.551          50.000
C20  23832005.352 5 124099486.486 5     -2281.492          32.000
C22  24562186.250 6 127901783.682 6      3137.812          36.000
C29  23260142.195 8 121121629.480 8     -2370.363          51.000
E07  26256771.938 6 137980317.585 6      2990.059          38.000    26256782.336 7 105725183.099 7      2291.051          43.000
E08  22365122.211 8 117529572.350 8       961.324          51.000    22365124.398 8  90055158.630 8       736.608          51.000
E13  23279624.172 8 122335251.899 8      -202.176          51.000    23279626.445 8  93737425.909 8      -154.959          51.000
E21  27747052.430 6 145811716.310 6     -2789.012          40.000    27747048.945 6 111725875.901 6     -2136.849          39.000
> 2020 05 16 18 03  0.0000000  0 19        .000000000000
G03  23615343.406 5 124099475.126 5      3426.746          34.000    23615326.625 5  96700812.019 5      2670.198          34.000
G08  20620822.930 8 108363149.929 8     -1329.102          51.000    20620824.828 8  84438820.555 8     -1035.664          51.000
G11  20028035.305 7 105248032.497 7       990.715          42.000    20028033.992 6  82011460.408 6       771.986          38.000
G14  22621224.352 7 118875382.543 7      1996.215          43.000    22621224.719 6  92630177.177 6      1555.492          36.000
G22  21712520.102 8 114100153.775 8      2219.520          51.000    21712518.758 7  88909138.414 7      1729.496          47.000
G27  22408823.414 8 117759127.184 8     -3115.676          51.000    22408825.359 8  91760359.247 8     -2427.802          51.000
G32  22082073.711 6 116042092.035 6       718.605          38.000    22082075.383 6  90422408.132 6       559.946          37.000
R05  19796703.109 7 105824731.322 7     -1391.379          46.000    19796706.680 8  82308231.336 8     -1082.184          49.000
R06  20437474.516 7 109058267.549 7      3216.371          44.000
R20  20231807.461 5 108188559.043 5     -1558.492          35.000    20231810.180 6  84146655.192 6     -1212.164          40.000
C05  39656862.938 5 206503690.900 5       -26.973          35.000    39656861.453 6 159681746.914 6       -20.597          37.000
C19  21650185.883 8 112738230.105 8       653.910          51.000
C22  24544117.289 6 127807696.024 6      3131.977          40.000
C29  23273812.922 8 121192815.645 8     -2378.203          51.000
E07  26239701.195 6 137890628.099 6      2986.621          36.000    26239715.891 6 105656459.966 6      2288.330          40.000
E08  22359662.062 8 117500879.494 8       948.586          51.000    22359664.523 8  90033173.213 8       726.842          51.000
E13  23280786.469 8 122341358.686 8      -207.820          51.000    23280788.516 8  93742105.122 8      -159.281          51.000
E15  25892097.461 5 136063889.989 5     -2075.273          32.000
E21  27762970.250 6 145895356.917 6     -2790.273          39.000    27762967.438 6 111789964.046 6     -2137.963          38.000
> 2020 05 16 18 03 30.0000000  0 19        .000000000000
G03  23595808.867 6 123996823.001 6      3418.363          38.000    23595794.023 6  96620823.556 6      2663.669          38.000
G08  20628465.227 8 108403311.406 8     -1347.125          51.000    20628467.203 8  84470115.169 8     -1049.708          51.000
G11  20022431.258 7 105218581.936 7       974.000          42.000    20022429.414 6  81988511.927 6       758.961          40.000
G14  22609874.234 7 118815734.742 7      1981.434          44.000    22609872.992 5  92583698.397 5      1543.977          34.000
G22  21699890.117 8 114033782.369 8      2206.371          51.000    21699889.000 7  88857420.445 7      1719.253          47.000
G27  22426644.617 8 117852780.363 8     -3126.707          49.000    22426646.984 8  91833335.704 8     -2436.398          49.000
R05  19804587.695 8 105866878.924 8     -1417.301          48.000    19804591.414 8  82341012.798 8     -1102.345          49.000
R06  20419449.977 7 108962086.207 7      3196.910          46.000
R20  20240598.789 6 108235568.040 6     -1574.039          37.000    20240601.008 7  84183217.655 7     -1224.253          42.000
C05  39657022.555 5 206504522.931 5       -27.922          34.000    39657021.047 6 159682389.923 6       -21.500          37.000
C19  21646470.617 8 112718884.083 8       637.148          51.000
C20  23858401.258 5 124236947.863 5     -2301.742          35.000
C22  24526100.648 7 127713873.716 7      3123.918          42.000
C29  23287546.719 8 121264330.647 8     -2388.301          50.000
E07  26222670.273 6 137801138.178 6      2980.703          39.000    26222686.984 5 105587889.757 5      2284.116          33.000
E08  22354292.820 8 117472664.619 8       933.590          51.000    22354295.352 8  90011554.038 8       715.291          51.000
E13  23281999.109 8 122347729.911 8      -215.762          51.000    23282001.086 8  93746986.956 8      -165.309          51.000
E15  25903965.516 5 136126252.488 5     -2079.816          33.000
E21  27778912.312 6 145979123.509 6     -2793.031          38.000    27778909.586 6 111854148.735 6     -2140.435          40.000
> 2020 05 16 18 04  0.0000000  0 19        .000000000000
G03  23576313.281 6 123894373.827 6      3411.938          39.000    23576302.219 6  96540993.272 6      2658.659          40.000
G08  20636204.672 8 108443983.128 8     -1363.820          51.000    20636206.633 8  84501807.398 8     -1062.717          50.000
G11  20016914.203 7 105189589.292 7       959.281          43.000    20016912.406 6  81965920.247 6       747.492          40.000
G14  22598602.203 7 118756496.082 7      1968.238          44.000    22598599.578 6  92537538.416 6      1533.695          38.000
G22  21687330.023 8 113967777.455 8      2194.441          51.000    21687328.156 7  88805988.091 7      1709.957          46.000
G27  22444522.164 8 117946732.102 8     -3136.262          48.000    22444525.312 8  91906544.757 8     -2443.843          48.000
G32  22074092.711 6 116000136.186 6       680.406          36.000    22074101.719 5  90389715.393 5       530.196          33.000
R05  19812611.688 8 105909770.550 8     -1441.781          49.000    19812615.078 8  82374372.939 8     -1121.385          49.000
R06  20401528.875 7 108866456.005 7      3178.879          46.000
R20  20249474.273 5 108283026.755 5     -1589.141          35.000    20249476.586 7  84220129.929 7     -1235.998          44.000
C05  39657183.398 5 206505359.940 5       -27.578          35.000    39657181.891 6 159683037.556 6       -21.401          37.000
C19  21642846.992 8 112700013.543 8       621.375          51.000
C20  23871691.812 6 124306156.225 6     -2311.523          38.000
C22  24508124.117 7 127620260.359 7      3117.348          43.000
C29  23301332.391 8 121336115.754 8     -2396.953          50.000
E07  26205667.969 6 137711790.993 6      2976.062          41.000    26205665.641 5 105519359.234 5      2280.384          32.000
E08  22349003.484 8 117444869.776 8       919.875          51.000    22349006.086 8  89990256.705 8       704.857          51.000
E13  23283251.000 8 122354307.486 8      -222.305          51.000    23283253.000 8  93752026.914 8      -170.334          51.000
E21  27794866.547 5 146062955.355 5     -2795.094          34.000    27794863.781 6 111918383.369 6     -2141.561          40.000
> 2020 05 16 18 04 30.0000000  0 19        .000000000000
G03  23556854.523 6 123792124.221 6      3405.117          40.000    23556848.414 6  96461318.445 6      2653.341          40.000
G08  20644040.242 8 108485160.185 8     -1380.871          50.000    20644042.359 8  84533893.392 8     -1076.003          50.000
G11  20011483.531 7 105161051.040 7       943.793          42.000    20011481.883 7  81943682.627 7       735.423          42.000
G14  22587407.414 7 118697663.876 7      1954.273          45.000    22587405.383 6  92491695.229 6      1522.814          41.000
G22  21674838.727 8 113902134.231 8      2182.281          51.000    21674835.891 7  88754837.591 7      1700.479          45.000
G27  22462455.914 8 118040975.487 8     -3146.141          49.000    22462458.969 8  91979981.117 8     -2451.538          49.000
G32  22070264.953 5 115980014.896 5       660.938          35.000    22070270.781 5  90374036.326 5       515.016          34.000
R05  19820773.391 8 105953398.627 8     -1466.379          49.000    19820776.727 8  82408305.889 8     -1140.517          49.000
R06  20383711.031 7 108771374.969 7      3160.117          47.000
R20  20258431.828 5 108330930.447 5     -1603.688          31.000    20258435.008 7  84257388.346 7     -1247.312          45.000
C05  39657344.445 5 206506198.487 5       -28.008          35.000    39657342.969 6 159683685.978 6       -21.582          37.000
C19  21639313.766 8 112681613.486 8       605.652          51.000
C20  23885039.633 6 124375665.274 6     -2322.043          38.000
C22  24490186.438 7 127526852.654 7      3110.242          42.000
C29  23315168.422 8 121408165.354 8     -2405.848          50.000
E07  26188692.430 6 137622583.242 6      2971.297          41.000    26188694.195 5 105451008.376 5      2276.843          35.000
E08  22343793.289 8 117417490.526 8       905.758          51.000    22343795.836 8  89969277.827 8       694.037          51.000
E13  23284541.281 8 122361086.928 8      -229.297          51.000    23284543.219 8  93757221.537 8      -175.701          51.000
E21                                                                  27810828.492 6 111982662.640 6     -2143.329          37.000
> 2020 05 16 18 05  0.0000000  0 18        .000000000000
G03  23537434.266 7 123690080.271 7      3397.891          42.000    23537432.031 7  96381803.817 7      2647.710          42.000
G08  20651972.711 8 108526845.643 8     -1398.004          51.000    20651975.070 8  84566375.558 8     -1089.354          51.000
G11  20006140.531 7 105132972.808 7       928.457          43.000    20006138.781 7  81921803.487 7       723.473          42.000
G14  22576291.094 7 118639245.066 7      1940.648          46.000    22576290.031 6  92446174.156 6      1512.194          40.000
G22  21662417.227 8 113836858.141 8      2169.895          51.000    21662414.133 7  88703973.155 7      1690.827          45.000
G27  22480445.859 8 118135513.354 8     -3156.164          49.000    22480448.797 8  92053646.932 8     -2459.352          49.000
G32  22066544.414 5 115960461.217 5       643.211          34.000    22066545.945 4  90358799.657 4       501.197          29.000
R05  19829073.109 8 105997765.336 8     -1491.051          51.000    19829076.406 8  82442813.337 8     -1159.709          49.000
R06  20365997.570 7 108676850.476 7      3141.613          47.000
R20  20267473.805 5 108379283.706 5     -1619.508          32.000    20267477.594 7  84294996.495 7     -1259.614          46.000
C05  39657506.633 5 206507042.603 5       -28.461          35.000    39657505.055 6 159684338.706 6       -21.793          37.000
C19  21635871.867 8 112663688.482 8       589.715          51.000
C20  23898445.961 5 124445477.569 5     -2331.840          34.000
C22  24472289.430 7 127433656.743 7      3102.984          42.000
C29  23329055.852 8 121480483.283 8     -2414.984          50.000
E07  26171744.531 6 137533521.243 6      2966.344          40.000    26171752.898 6 105382766.180 6      2272.919          41.000
E08  22338663.383 8 117390532.007 8       891.699          51.000    22338665.375 8  89948621.316 8       683.280          51.000
E13  23285870.875 8 122368073.287 8      -236.168          51.000    23285872.844 8  93762574.722 8      -180.972          51.000
> 2020 05 16 18 05 30.0000000  0 17        .000000000000
G03  23518050.906 6 123588232.162 6      3393.699          40.000    23518051.562 6  96302441.784 6      2644.444          41.000
G08  20660000.156 8 108569027.944 8     -1412.461          51.000    20660002.469 8  84599244.879 8     -1100.619          51.000
G11  20000883.391 7 105105345.344 7       915.160          44.000    20000881.344 7  81900275.598 7       713.112          42.000
G14  22565251.422 7 118581230.686 7      1928.781          45.000    22565251.156 6  92400968.177 6      1502.946          40.000
G22  21650063.688 8 113771939.331 8      2159.871          51.000    21650061.180 7  88653387.098 7      1683.016          45.000
G27  22498489.609 8 118230332.553 8     -3163.375          50.000    22498491.961 8  92127531.960 8     -2464.968          50.000
G32  22062931.109 5 115941494.103 5       626.516          33.000
R05  19837508.547 8 106042856.462 8     -1513.273          51.000    19837511.406 8  82477884.200 8     -1176.990          49.000
R06  20348386.625 7 108582873.703 7      3125.176          46.000
R20  20276597.648 5 108428075.331 5     -1631.824          35.000    20276602.234 7  84332945.524 7     -1269.197          46.000
C05                                                                  39657666.008 6 159684987.084 6       -19.945          37.000
C19  21632518.734 8 112646227.214 8       576.098          51.000
C22  24454431.945 7 127340663.015 7      3098.375          42.000
C29  23342992.797 8 121553057.601 8     -2421.578          51.000
E07  26154822.125 6 137444595.448 6      2963.902          39.000    26154836.195 7 105314628.300 7      2270.913          44.000
E08  22333611.445 8 117363983.426 8       879.926          51.000    22333613.055 8  89928278.906 8       674.286          51.000
E13  23287237.648 8 122375255.723 8      -240.824          51.000    23287239.852 8  93768078.152 8      -184.552          51.000
> 2020 05 16 18 06  0.0000000  0 20        .000000000000
G01  21326462.891 5 112071318.445 5      1936.578          34.000
G03  23498703.688 6 123486572.382 6      3381.871          38.000    23498705.984 6  96223226.505 6      2635.230          39.000
G08  20668120.180 8 108611697.336 8     -1434.211          51.000    20668122.312 8  84632493.760 8     -1117.567          51.000
G10  23323047.852 5 122563443.462 5     -3060.297          33.000
G11  19995710.539 7 105078161.084 7       894.855          45.000    19995708.234 7  81879093.065 7       697.290          43.000
G14  22554287.172 7 118523613.953 7      1910.148          43.000    22554287.039 6  92356072.034 6      1488.430          39.000
G22  21637776.289 8 113707369.025 8      2142.734          51.000    21637774.227 7  88603072.565 7      1669.663          45.000
G27  22516584.719 8 118325422.228 8     -3177.820          48.000    22516586.852 8  92201627.746 8     -2476.224          48.000
G32  22059423.781 5 115923046.522 5       602.055          34.000    22059424.383 5  90329644.977 5       469.137          34.000
R05  19846077.398 8 106088660.268 8     -1542.520          51.000    19846080.281 8  82513509.383 8     -1199.737          49.000
R06  20330876.938 7 108489439.132 7      3101.469          45.000
R20  20285802.070 5 108477296.511 5     -1651.773          35.000    20285806.930 7  84371228.656 7     -1284.713          45.000
C05  39657825.781 5 206508704.983 5       -31.527          34.000    39657824.336 6 159685624.152 6       -23.941          37.000
C19  21629252.742 8 112629220.694 8       555.508          51.000
C20  23925421.594 4 124585941.103 4     -2354.543          29.000
C22  24436612.578 6 127247864.088 6      3086.340          41.000
C29  23356977.711 8 121625878.626 8     -2435.293          51.000
E07  26137923.766 6 137355798.499 6      2953.738          39.000    26137941.578 7 105246589.066 7      2263.434          45.000
E08  22328635.680 8 117337836.246 8       861.051          51.000    22328637.492 8  89908244.082 8       659.766          51.000
E13  23288640.078 8 122382625.679 8      -252.621          51.000    23288642.414 8  93773725.256 8      -193.600          51.000
> 2020 05 16 18 06 30.0000000  0 18        .000000000000
G01  21315424.438 5 112013304.059 5      1935.145          33.000
G03  23479411.406 6 123385198.342 6      3382.262          38.000    23479413.914 6  96144233.890 6      2635.535          38.000
G08  20676350.492 8 108654949.290 8     -1443.777          51.000    20676353.133 8  84666196.561 8     -1125.021          51.000
G11  19990640.383 7 105051516.528 7       886.652          46.000    19990637.930 7  81858331.073 7       690.898          43.000
G14  22543416.500 6 118466493.198 6      1903.164          41.000    22543416.859 6  92311562.355 6      1482.985          36.000
G22  21625573.500 8 113643243.677 8      2137.703          51.000    21625571.250 7  88553104.770 7      1665.743          45.000
G27  22534748.773 7 118420876.422 7     -3180.117          47.000    22534751.406 7  92276007.561 7     -2478.016          46.000
R05  19854796.984 8 106135271.630 8     -1559.449          51.000    19854799.539 8  82549762.669 8     -1212.905          49.000
R06  20313486.953 7 108396646.994 7      3090.008          42.000
R20  20295105.617 6 108527044.504 6     -1659.383          38.000    20295109.859 7  84409921.499 7     -1290.631          44.000
C05  39657999.391 5 206509609.793 5       -24.688          34.000    39657998.078 6 159686323.437 6       -18.664          37.000
C19  21626092.375 8 112612763.888 8       546.895          51.000
C20  23939007.227 4 124656691.859 4     -2357.688          29.000
C22  24418849.008 5 127155356.731 5      3086.402          35.000
C29  23371028.086 8 121699040.706 8     -2436.859          51.000
E07  26121069.133 6 137267227.916 6      2956.184          41.000    26121087.656 7 105178723.303 7      2265.131          46.000
E08  22323754.812 8 117312186.920 8       854.285          51.000    22323756.602 8  89888590.725 8       654.594          51.000
E13  23290096.477 8 122390279.530 8      -252.289          51.000    23290098.898 8  93779589.907 8      -193.351          51.000
> 2020 05 16 18 07  0.0000000  0 17        .000000000000
G03  23460140.422 6 123283933.383 6      3370.191          36.000    23460141.836 5  96065326.280 5      2626.129          35.000
G08  20684657.695 8 108698604.250 8     -1465.375          51.000    20684660.758 8  84700213.414 8     -1141.851          51.000
G11  19985639.172 7 105025234.948 7       866.539          46.000    19985636.641 7  81837851.924 7       675.228          43.000
G14  22532605.383 6 118409692.218 6      1884.574          39.000    22532607.062 6  92267301.863 6      1468.496          36.000
G22  21613421.750 8 113579385.854 8      2120.656          51.000    21613418.625 7  88503345.483 7      1652.462          45.000
G27  22552947.609 7 118516515.050 7     -3194.570          46.000    22552951.289 7  92350531.133 7     -2489.276          46.000
G32  22052733.188 6 115887880.859 6       566.473          41.000    22052737.969 6  90302244.333 6       441.401          38.000
R05  19863633.219 8 106182506.437 8     -1588.453          51.000    19863635.961 8  82586500.858 8     -1235.464          49.000
R06  20296183.914 7 108304319.514 7      3066.211          44.000
R20  20304473.477 6 108577137.880 6     -1679.117          37.000    20304477.672 7  84448882.926 7     -1305.983          42.000
C05  39658154.555 5 206510417.343 5       -28.797          35.000    39658153.258 6 159686948.293 6       -22.246          38.000
C19  21623003.391 8 112596680.114 8       526.328          51.000
C22  24401092.461 5 127062896.155 5      3074.305          32.000
C29  23385109.523 8 121772366.495 8     -2450.406          51.000
E07  26104224.617 6 137178707.183 6      2946.180          41.000    26104242.008 7 105110895.757 7      2257.534          47.000
E08  22318934.938 8 117286857.726 8       835.426          51.000    22318936.328 8  89869182.647 8       640.096          51.000
E13  23291573.070 8 122398039.537 8      -264.039          51.000    23291575.469 8  93785535.880 8      -202.271          51.000
> 2020 05 16 18 07 30.0000000  0 17        .000000000000
G08  20693042.070 8 108742665.080 8     -1477.246          51.000    20693045.516 8  84734546.511 8     -1151.104          51.000
G10  23375505.258 5 122839107.201 5     -3067.980          35.000    23375509.836 5  95718811.446 5     -2390.637          33.000
G11  19980708.023 7 104999321.370 7       855.922          47.000    19980705.750 7  81817659.518 7       666.952          43.000
G14  22521857.703 7 118353216.731 7      1875.520          42.000    22521858.352 5  92223295.058 5      1461.447          31.000
G22  21601321.656 8 113515799.894 8      2113.324          51.000    21601317.844 7  88453798.046 7      1646.749          45.000
G27  22571182.383 7 118612339.723 7     -3198.844          47.000    22571186.719 7  92425199.696 7     -2492.609          47.000
G32  22049523.102 5 115871021.697 5       551.688          31.000    22049531.469 4  90289107.332 4       429.892          29.000
R05  19872586.188 8 106230365.549 8     -1607.418          51.000    19872588.898 8  82623724.608 8     -1250.214          48.000
R06  20278969.500 7 108212462.538 7      3052.277          45.000
R20  20313906.844 6 108627580.796 6     -1689.121          36.000    20313910.023 6  84488116.238 6     -1313.764          40.000
C05  39658291.953 5 206511132.699 5       -23.809          35.000    39658290.719 6 159687501.467 6       -18.552          37.000
C19  21619986.789 8 112580972.679 8       515.582          51.000
C22  24383387.625 6 126970626.712 6      3071.930          41.000
C29  23399222.688 8 121845858.619 8     -2454.113          51.000
E07  26087390.766 7 137090241.432 7      2946.355          42.000    26087406.312 7 105043110.359 7      2257.582          47.000
E08  22314176.570 8 117261852.582 8       826.410          51.000    22314178.055 8  89850022.871 8       633.247          51.000
E13  23293070.703 8 122405909.620 8      -265.855          51.000    23293072.859 8  93791566.211 8      -203.707          51.000
> 2020 05 16 18 08  0.0000000  0 18        .000000000000
G08  20701547.266 8 108787361.476 8     -1499.582          50.000    20701551.141 8  84769374.828 8     -1168.509          50.000
G10  23393062.352 6 122931361.099 6     -3079.113          38.000    23393063.609 6  95790697.642 6     -2399.306          38.000
G11  19975890.914 8 104974006.918 8       834.609          48.000    19975888.945 7  81797933.964 7       650.345          43.000
G14  22511217.312 7 118297298.787 7      1855.656          44.000    22511216.844 5  92179722.724 5      1445.969          33.000
G22  21589317.023 8 113452716.549 8      2095.324          51.000    21589313.414 7  88404642.231 7      1632.723          45.000
G27  22589496.391 8 118708578.826 8     -3213.953          48.000    22589500.844 8  92500191.133 8     -2504.382          48.000
G32  22046449.039 5 115854874.369 5       527.500          33.000    22046456.578 5  90276536.929 5       411.048          32.000
R05  19881699.305 8 106279080.433 8     -1637.113          51.000    19881701.898 8  82661613.947 8     -1273.310          48.000
R06  20261888.547 7 108121313.277 7      3027.309          47.000
R20  20323448.688 5 108678607.066 5     -1709.496          34.000    20323452.125 7  84527803.236 7     -1329.611          42.000
C05  39658455.375 5 206511983.786 5       -29.422          34.000    39658454.062 6 159688159.214 6       -23.050          38.000
C19  21617086.172 8 112565869.493 8       494.242          51.000
C20  23980055.148 5 124870506.247 5     -2391.438          31.000
C22  24365741.094 7 126878708.311 7      3058.949          44.000
C29  23413411.227 8 121919744.384 8     -2468.559          49.000
E07  26070611.203 7 137002062.594 7      2935.422          43.000    26070624.938 8 104975544.773 8      2249.291          48.000
E08  22309523.758 8 117237402.100 8       806.691          51.000    22309525.734 8  89831288.114 8       618.135          51.000
E13  23294633.188 8 122414120.425 8      -278.426          51.000    23294635.180 8  93797857.607 8      -213.336          51.000
> 2020 05 16 18 08 30.0000000  0 18        .000000000000
G03  23402587.469 5 122981455.443 5      3360.086          35.000    23402573.312 5  95829662.122 5      2618.255          35.000
G08  20710157.727 8 108832610.500 8     -1504.027          50.000    20710161.766 8  84804633.756 8     -1171.969          50.000
G10  23410656.758 6 123023819.386 6     -3071.859          37.000    23410656.289 6  95862743.031 6     -2393.657          36.000
G11  19971172.414 8 104949211.189 8       831.254          48.000    19971170.586 7  81778612.622 7       647.730          45.000
G14  22500668.117 7 118241858.909 7      1853.422          46.000    22500667.945 6  92136522.897 6      1444.228          36.000
G22  21577392.781 8 113390054.413 8      2095.098          51.000    21577389.648 7  88355814.584 7      1632.544          47.000
G27  22607873.461 8 118805148.522 8     -3211.164          49.000    22607877.438 8  92575440.189 8     -2502.209          49.000
G32  22043498.406 6 115839342.103 6       520.793          40.000    22043494.891 5  90264434.006 5       405.813          33.000
R05  19890956.281 8 106328564.601 8     -1648.660          51.000    19890959.094 8  82700101.640 8     -1282.291          49.000
R06  20244925.367 7 108030790.860 7      3020.457          47.000
R20  20333084.570 5 108730133.353 5     -1711.789          33.000    20333088.703 7  84567879.220 7     -1331.391          44.000
C05  39658629.195 5 206512888.047 5       -17.457          35.000    39658627.836 6 159688858.833 6       -13.795          38.000
C19  21614285.914 8 112551289.270 8       490.582          51.000
C22  24348141.648 7 126787061.451 7      3063.520          45.000
C29  23427659.742 8 121993941.921 8     -2465.250          49.000
E07  26053870.867 7 136914090.403 7      2942.352          44.000    26053882.656 8 104908137.550 8      2254.520          48.000
E08  22304961.172 8 117213424.869 8       804.738          51.000    22304963.391 8  89812915.956 8       616.675          51.000
E13  23296245.047 8 122422590.516 8      -273.238          51.000    23296247.000 8  93804347.681 8      -209.397          51.000
> 2020 05 16 18 09  0.0000000  0 18        .000000000000
G03  23383472.602 5 122881014.905 5      3340.883          34.000    23383459.297 5  95751396.852 5      2603.291          35.000
G08  20718841.625 8 108878244.243 8     -1532.445          51.000    20718845.305 8  84840192.483 8     -1194.113          51.000
G10  23428258.133 5 123116313.047 5     -3088.609          31.000    23428255.578 5  95934816.016 5     -2406.706          30.000
G11  19966521.188 8 104924768.972 8       803.910          48.000    19966519.414 7  81759566.720 7       626.420          45.000
G14  22490178.602 7 118186732.592 7      1827.523          46.000    22490178.328 6  92093567.351 6      1424.044          36.000
G22  21565517.352 8 113327647.721 8      2071.004          49.000    21565514.703 7  88307186.007 7      1613.772          47.000
G27  22626281.344 8 118901879.871 8     -3231.969          49.000    22626284.727 8  92650815.214 8     -2518.417          49.000
G32  22040632.258 5 115824266.946 5       490.328          35.000    22040626.461 5  90252687.155 5       382.083          34.000
R05  19900324.969 8 106378645.673 8     -1684.316          51.000    19900327.773 8  82739053.585 8     -1310.024          48.000
R06  20228048.297 7 107940728.973 7      2989.289          45.000
R20  20342781.133 5 108781990.118 5     -1739.090          33.000    20342786.320 7  84608212.280 7     -1352.625          45.000
C05  39658781.414 5 206513681.834 5       -29.578          35.000    39658780.117 6 159689472.235 6       -22.790          38.000
C19  21611554.453 8 112537066.349 8       463.258          51.000
C22  24330560.664 7 126695522.138 7      3044.645          46.000
C29  23441936.477 8 122068284.979 8     -2485.516          49.000
E07  26037138.555 7 136826159.467 7      2925.281          45.000    26037148.180 7 104840761.941 7      2241.518          47.000
E08  22300456.820 8 117189754.270 8       778.953          51.000    22300458.797 8  89794778.743 8       596.848          51.000
E13  23297874.570 8 122431153.340 8      -291.934          51.000    23297876.523 8  93810908.800 8      -223.710          51.000
> 2020 05 16 18 09 30.0000000  0 16        .000000000000
G08  20727652.625 8 108924544.955 8     -1546.852          51.000    20727655.961 8  84876270.941 8     -1205.339          51.000
G11  19961991.359 8 104900964.480 8       790.406          49.000    19961989.695 7  81741017.761 7       615.901          46.000
G14  22479802.203 7 118132204.740 7      1815.156          42.000    22479802.484 6  92051078.150 6      1414.411          39.000
G22  21553744.312 8 113265779.829 8      2060.785          49.000    21553741.773 7  88258977.280 7      1605.807          47.000
G27  22644773.562 8 118999054.070 8     -3238.949          50.000    22644775.977 8  92726535.317 8     -2523.860          51.000
G32  22037903.562 6 115809963.239 6       472.547          41.000    22037900.688 5  90241517.496 5       368.215          33.000
R05  19909858.695 8 106429608.626 8     -1705.754          51.000    19909861.359 8  82778691.437 8     -1326.697          48.000
R06  20211311.508 7 107851417.838 7      2972.176          45.000
R20  20352593.875 5 108834464.866 5     -1751.668          34.000    20352599.758 7  84649025.963 7     -1362.408          46.000
C05  39658966.203 5 206514642.663 5       -27.391          35.000    39658964.875 6 159690216.373 6       -21.283          37.000
C19  21608945.398 8 112523481.014 8       449.770          51.000
C22  24313054.602 7 126604372.483 7      3039.219          47.000
C29  23456295.273 8 122143053.258 8     -2491.961          50.000
E07  26020468.320 7 136738554.562 7      2922.129          46.000    26020475.688 7 104773636.169 7      2239.046          46.000
E08  22296064.445 8 117166673.777 8       767.020          51.000    22296066.109 8  89777093.702 8       587.713          51.000
E13  23299575.578 8 122440092.445 8      -296.738          51.000    23299577.617 8  93817758.244 8      -227.437          51.000
> 2020 05 16 18 10  0.0000000  0 18        .000000000000
G08  20736526.062 8 108971173.287 8     -1571.578          51.000    20736528.797 8  84912604.689 8     -1224.606          51.000
G11  19957518.531 8 104877459.579 8       766.430          48.000    19957517.039 7  81722702.254 7       597.218          47.000
G14  22469475.062 6 118077938.780 6      1792.617          41.000    22469476.477 6  92008792.956 6      1396.845          40.000
G22  21542009.062 8 113204112.340 8      2040.332          48.000    21542006.352 7  88210924.713 7      1589.869          46.000
G27  22663285.328 8 119096330.248 8     -3256.133          51.000    22663286.688 8  92802334.890 8     -2537.249          51.000
G32  22035253.000 6 115796031.160 6       445.645          38.000    22035247.312 5  90230661.475 5       347.259          31.000
R05  19919492.258 8 106481105.901 8     -1737.539          51.000    19919495.070 7  82818744.892 7     -1351.419          47.000
R06  20194650.867 7 107762515.937 7      2944.414          45.000
R20  20362458.523 6 108887213.250 6     -1775.238          36.000    20362464.281 7  84690052.443 7     -1380.744          46.000
C05  39659118.969 5 206515439.601 5       -35.082          34.000    39659117.570 6 159690831.463 6       -27.403          37.000
C19  21606394.375 8 112510197.264 8       425.969          51.000
C20  24035598.539 5 125159670.930 5     -2435.566          32.000
C22  24295558.672 7 126513278.111 7      3023.859          46.000
C29  23470671.156 8 122217910.127 8     -2508.453          50.000
E07  26003796.203 8 136650938.410 8      2908.738          48.000    26003801.031 7 104706501.764 7      2228.845          45.000
E08  22291720.102 8 117143844.879 8       744.871          51.000    22291721.984 8  89759601.443 8       570.727          51.000
E13  23301283.789 8 122449069.354 8      -311.766          51.000    23301285.898 8  93824636.635 8      -238.882          51.000
E15  26060338.258 5 136948000.921 5     -2141.504          31.000
> 2020 05 16 18 10 30.0000000  0 18        .000000000000
G03  23326429.055 6 122581208.466 6      3320.906          38.000    23326435.641 6  95517842.000 6      2587.722          38.000
G08  20745525.602 8 109018464.283 8     -1580.840          51.000    20745527.633 8  84949454.799 8     -1231.826          51.000
G11  19953167.023 8 104854592.349 8       758.207          49.000    19953165.492 7  81704883.629 7       590.814          46.000
G14  22459262.617 7 118024273.345 7      1785.473          42.000    22459264.406 6  91966975.688 6      1391.274          40.000
G22  21530375.938 8 113142982.608 8      2035.254          49.000    21530373.250 7  88163291.172 7      1585.912          46.000
G27  22681880.203 8 119194043.188 8     -3257.719          51.000    22681880.453 8  92878474.771 8     -2538.485          51.000
G32  22032742.625 6 115782838.997 6       433.688          40.000    22032731.727 4  90220381.867 4       337.932          29.000
R05  19929289.297 8 106533476.862 8     -1753.609          51.000    19929291.930 7  82859477.859 7     -1363.918          47.000
R06  20178131.570 7 107674368.472 7      2932.371          45.000
R20  20372438.539 6 108940577.586 6     -1782.398          38.000    20372443.641 7  84731558.026 7     -1386.310          45.000
C05                                                                  39659302.375 6 159691575.518 6       -22.144          37.000
C19  21603965.281 8 112497548.432 8       417.520          51.000
C20  24049630.438 5 125232745.048 5     -2436.848          35.000
C22  24278137.492 7 126422574.221 7      3023.410          44.000
C29  23485127.906 8 122293188.377 8     -2509.789          51.000
E07  25987186.453 8 136563649.243 8      2910.586          49.000    25987188.805 7 104639617.934 7      2230.399          43.000
E08  22287487.961 8 117121604.568 8       738.078          51.000    22287490.188 8  89742560.188 8       565.531          51.000
E13  23303063.297 8 122458421.157 8      -311.469          51.000    23303065.570 8  93831802.287 8      -238.643          51.000
> 2020 05 16 18 11  0.0000000  0 19        .000000000000
G03  23307474.453 6 122481599.451 6      3313.855          40.000    23307481.828 6  95440224.685 6      2582.228          40.000
G08  20754580.547 8 109066046.999 8     -1597.102          51.000    20754581.906 8  84986532.203 8     -1244.495          51.000
G10  23498992.539 6 123488014.815 6     -3105.586          36.000    23498998.961 5  96224452.116 5     -2419.937          35.000
G11  19948866.602 8 104831993.764 8       742.820          49.000    19948865.008 7  81687274.332 7       578.821          47.000
G14  22449094.672 7 117970839.823 7      1771.152          43.000    22449096.195 6  91925339.236 6      1380.122          40.000
G22  21518775.227 8 113082020.897 8      2023.195          50.000    21518773.102 8  88115788.552 8      1576.516          48.000
G27  22700487.156 8 119291820.502 8     -3266.473          51.000    22700486.469 8  92954664.819 8     -2545.306          51.000
G32  22030300.984 6 115770016.831 6       414.602          37.000    22030292.547 5  90210390.717 5       323.072          33.000
R05  19939178.797 8 106586341.928 8     -1776.645          51.000    19939181.664 8  82900595.141 8     -1381.835          48.000
R06  20161683.625 7 107586601.262 7      2912.934          45.000
R20  20382462.680 6 108994180.871 6     -1796.691          37.000    20382468.039 7  84773249.433 7     -1397.427          44.000
C05  39659450.008 5 206517162.622 5       -27.969          34.000    39659448.609 6 159692164.580 6       -21.603          37.000
C19  21601587.562 8 112485167.192 8       402.148          51.000
C20  24063676.539 5 125305892.768 5     -2445.852          35.000
C22  24260721.430 7 126331895.190 7      3016.270          44.000
C29  23499594.945 8 122368520.058 8     -2517.945          51.000
E07  25970568.555 8 136476318.321 8      2905.750          50.000    25970568.727 7 104572702.150 7      2226.466          42.000
E08  22283297.352 8 117099582.803 8       724.320          51.000    22283299.406 8  89725686.368 8       555.115          51.000
E13  23304843.719 8 122467777.840 8      -318.023          51.000    23304846.219 8  93838971.673 8      -243.656          51.000
> 2020 05 16 18 11 30.0000000  0 19        .000000000000
G03  23288583.000 6 122382324.179 6      3305.863          41.000    23288585.750 6  95362867.553 6      2576.006          41.000
G08  20763750.992 8 109114237.391 8     -1614.426          51.000    20763751.867 8  85024083.114 8     -1257.994          51.000
G10  23516743.680 6 123581300.971 6     -3111.246          36.000    23516749.633 5  96297142.682 5     -2424.345          35.000
G11  19944677.828 8 104809981.480 8       726.004          49.000    19944676.305 8  81670121.889 8       565.717          48.000
G14  22439031.945 7 117917957.316 7      1755.547          44.000    22439032.250 6  91884132.123 6      1367.962          39.000
G22  21507267.242 8 113021544.245 8      2009.816          50.000    21507265.461 8  88068663.906 8      1566.094          49.000
G27  22719165.781 8 119389976.824 8     -3276.090          50.000    22719164.391 8  93031150.174 8     -2552.800          49.000
G32  22027990.578 7 115757882.153 7       395.051          42.000    22027985.258 6  90200935.162 6       307.829          39.000
R05  19949220.391 8 106640019.869 8     -1800.656          51.000    19949223.242 8  82942344.650 8     -1400.510          48.000
R06  20145368.141 7 107499538.855 7      2892.426          45.000
R20  20392591.445 5 109048344.797 5     -1812.668          35.000    20392596.672 7  84815376.906 7     -1409.853          43.000
C05  39659618.070 5 206518038.762 5       -29.297          35.000    39659616.641 6 159692841.284 6       -22.545          37.000
C19  21599321.422 8 112473366.996 8       385.672          51.000
C20  24077797.461 5 125379409.562 5     -2455.062          30.000
C22  24243371.742 7 126241556.212 7      3007.688          45.000
C29  23514132.258 8 122444218.057 8     -2527.336          51.000
E07  25954002.930 8 136389263.824 8      2899.230          49.000    25954000.758 6 104505998.205 6      2221.452          41.000
E08  22279208.836 8 117078096.454 8       709.301          51.000    22279210.430 8  89709222.819 8       543.523          51.000
E13  23306685.484 8 122477456.432 8      -325.996          51.000    23306688.062 8  93846387.720 8      -249.798          51.000
> 2020 05 16 18 12  0.0000000  0 18        .000000000000
G03  23269732.195 6 122283262.888 6      3298.746          40.000    23269732.867 6  95285677.116 6      2570.455          40.000
G08  20773013.586 8 109162912.825 8     -1630.438          51.000    20773014.195 8  85062011.987 8     -1270.471          51.000
G10  23534519.266 5 123674716.385 5     -3114.902          35.000    23534524.891 5  96369933.836 5     -2427.191          33.000
G11  19940577.672 8 104788435.427 8       710.551          49.000    19940576.242 8  81653332.753 8       553.676          48.000
G14  22429051.070 6 117865506.443 6      1741.188          41.000    22429050.453 6  91843261.411 6      1356.776          37.000
G22  21495828.562 8 112961432.102 8      1997.711          50.000    21495826.906 8  88021823.309 8      1556.661          49.000
G27  22737892.227 7 119488388.953 7     -3284.477          47.000    22737890.961 7  93107834.840 7     -2559.335          47.000
G32  22025789.055 6 115746314.345 6       376.016          36.000    22025785.102 6  90191921.241 6       293.002          36.000
R05  19959390.344 8 106694384.418 8     -1823.402          51.000    19959393.664 8  82984628.200 8     -1418.202          48.000
R06  20129162.367 7 107413061.026 7      2872.957          45.000
R20  20402801.711 5 109102946.219 5     -1827.141          34.000    20402807.344 7  84857844.636 7     -1421.109          42.000
C05  39659784.539 5 206518904.319 5       -28.547          34.000    39659783.320 6 159693512.552 6       -22.234          38.000
C19  21597143.445 8 112462027.331 8       370.461          51.000
C22  24226065.242 7 126151438.596 7      3000.441          44.000
C29  23528716.422 8 122520161.413 8     -2535.352          50.000
E07  25937466.641 7 136302366.155 7      2894.195          47.000    25937463.383 7 104439414.394 7      2217.495          42.000
E08  22275199.148 8 117057024.611 8       695.727          51.000    22275200.719 8  89693076.882 8       533.092          51.000
E13  23308565.477 8 122487336.066 8      -332.484          51.000    23308568.094 8  93853957.811 8      -254.770          51.000
> 2020 05 16 18 12 30.0000000  0 19        .000000000000
G03  23250918.430 6 122184398.284 6      3290.945          38.000    23250922.086 6  95208639.917 6      2564.376          38.000
G08  20782364.586 8 109212053.895 8     -1646.723          51.000    20782365.141 8  85100303.710 8     -1283.161          51.000
G10  23552315.898 5 123768240.485 5     -3120.141          32.000
G11  19936562.938 8 104767338.412 8       694.887          49.000    19936561.539 8  81636893.514 8       541.470          48.000
G14  22419149.016 6 117813470.714 6      1726.613          39.000    22419146.547 5  91802714.134 5      1345.413          34.000
G22  21484455.461 8 112901666.191 8      1985.543          50.000    21484453.750 8  87975252.507 8      1547.176          48.000
G27  22756662.859 7 119587036.243 7     -3293.207          46.000    22756663.070 7  93184702.756 7     -2566.135          46.000
G32  22023690.383 6 115735294.951 6       358.059          36.000    22023688.547 6  90183334.836 6       279.004          36.000
R05  19969684.742 8 106749413.582 8     -1846.273          51.000    19969688.141 8  83027428.652 8     -1435.993          48.000
R06  20113063.258 7 107327151.801 7      2853.207          46.000
R20  20413090.492 5 109157965.940 5     -1841.848          34.000    20413096.016 7  84900637.698 7     -1432.551          43.000
C05  39659946.320 5 206519747.471 5       -28.977          34.000    39659945.102 6 159694164.133 6       -22.107          37.000
C19  21595050.742 8 112451129.492 8       355.062          51.000
C20  24106184.484 5 125527192.865 5     -2472.609          35.000
C22  24208797.820 7 126061525.432 7      2992.977          43.000
C29  23543343.906 8 122596330.779 8     -2543.707          50.000
E07  25920955.219 7 136215608.331 7      2888.590          44.000    25920955.141 7 104372937.680 7      2213.389          45.000
E08  22271264.734 8 117036348.957 8       681.703          51.000    22271266.414 8  89677234.530 8       522.308          51.000
E13  23310480.297 8 122497398.604 8      -339.398          51.000    23310482.883 8  93861668.050 8      -260.002          51.000
> 2020 05 16 18 13  0.0000000  0 19        .000000000000
G03  23232155.453 6 122085803.065 6      3282.836          38.000    23232162.523 6  95131812.529 6      2558.057          37.000
G08  20791817.312 8 109261730.572 8     -1663.641          50.000    20791818.828 8  85139012.763 8     -1296.346          50.000
G10  23570146.266 5 123861942.519 5     -3125.395          33.000    23570151.055 5  96515826.670 5     -2435.372          32.000
G11  19932647.438 8 104746762.626 8       678.164          49.000    19932645.969 8  81620860.428 8       528.440          49.000
G14  22409339.023 6 117761923.281 6      1711.004          36.000    22409337.031 5  91762547.345 5      1333.250          31.000
G22  21473161.898 8 112842318.489 8      1972.359          51.000    21473159.875 7  87929007.557 7      1536.903          47.000
G27  22775491.703 7 119685988.004 7     -3302.227          45.000    22775494.039 7  93261807.968 7     -2573.164          45.000
G32  22021711.062 6 115724896.424 6       336.801          36.000    22021710.820 6  90175231.984 6       262.433          36.000
R05  19980116.562 8 106805176.946 8     -1869.820          51.000    19980119.641 8  83070800.147 8     -1454.305          48.000
R06  20097084.375 7 107241885.324 7      2832.641          45.000
R20  20423471.867 6 109213476.186 6     -1857.496          37.000    20423476.734 7  84943812.319 7     -1444.719          43.000
