     3.02           OBSERVATION DATA    M (MIXED)           RINEX VERSION / TYPE
SAVERINEX           SC600               20200514 205931 LCL PGM / RUN BY / DATE
       G = GPS       R = GLONASS       C = COMPASS          COMMENT
       S = SBAS      J = QZSS          E = GALILEO          COMMENT
BEAN                                                        MARKER NAME
1                                                           MARKER NUMBER
GEODETIC                                                    MARKER TYPE
Unige DICCA         GTER                                    OBSERVER / AGENCY
SC60291900056       SC600               2.12(191202)        REC # / TYPE / VERS
                    HEMA45          NONE                    ANT # / TYPE
  4509407.8091   693652.4678  4442337.6214                  APPROX POSITION XYZ
        0.0000        0.0000        0.0000                  ANTENNA: DELTA H/E/N
G    8 C1C L1C D1C S1C C2Y L2Y D2Y S2Y                      SYS / # / OBS TYPES
R    8 C1C L1C D1C S1C C2P L2P D2P S2P                      SYS / # / OBS TYPES
C    8 C1I L1I D1I S1I C7I L7I D7I S7I                      SYS / # / OBS TYPES
E    8 C1C L1C D1C S1C C7Q L7Q D7Q S7Q                      SYS / # / OBS TYPES
DBHZ                                                        COMMENT
     30.000                                                 INTERVAL
  2020    05    14    18    00    0.0000000     GPS         TIME OF FIRST OBS
  2020    05    14    18    59   30.0000000     GPS         TIME OF LAST OBS
     0                                                      RCV CLOCK OFFS APPL
G L1C  0.00000                                              SYS / PHASE SHIFT
G L2Y  0.00000                                              SYS / PHASE SHIFT
R L1C  0.00000                                              SYS / PHASE SHIFT
R L2P  0.25000                                              SYS / PHASE SHIFT
C L1I  0.00000                                              SYS / PHASE SHIFT
C L7I  0.00000                                              SYS / PHASE SHIFT
E L1C  0.50000                                              SYS / PHASE SHIFT
E L7Q -0.25000                                              SYS / PHASE SHIFT
 14 R01  1 R02 -4 R03  5 R04  6 R05  1 R10 -5 R13 -2 R14 -7 GLONASS SLOT / FRQ #
    R15  0 R16 -1 R17  4 R18 -3 R19  3 R23  3               GLONASS SLOT / FRQ #
 C1C   71.950 C2C   71.950 C2P   71.950                     GLONASS COD/PHS/BIS
    18                                                      LEAP SECONDS
*** Above antenna height is from mark to ANTENNA BOTTOM.    COMMENT
    17     4        0.0000        ANT MEASURE TYPE/HEIGT    COMMENT
    0.0000    0.0000    0.0458    0.0405    0.0000          COMMENT
                    BASE STATION                            COMMENT
                                                            END OF HEADER
> 2020 05 14 18 00  0.0000000  0 17        .000000000000
G08  20475202.523 8 107597932.612 8      -955.156          51.000    20475204.414 8  83842519.756 8      -744.278          51.000
G14  22894717.844 7 120312586.709 7      2269.492          47.000    22894715.430 6  93750052.104 6      1768.439          37.000
G22  22024433.055 8 115739192.453 8      2481.141          50.000    22024428.859 7  90186346.234 7      1933.359          44.000
G27  22025045.750 8 115742378.806 8     -2888.371          49.000    22025048.055 8  90188869.323 8     -2250.676          49.000
G32  22200283.062 6 116663270.569 6      1116.543          37.000    22200280.586 6  90906435.928 6       870.009          36.000
R02  22662304.711 6 120930347.091 6     -3852.414          36.000
R03  19652903.617 8 105203541.787 8      -654.805          51.000    19652905.078 8  81824995.728 8      -509.293          48.000
R04  20615801.797 8 110396744.723 8      3360.461          49.000    20615801.648 7  85864071.671 7      2613.692          44.000
R18  19936611.383 8 106422982.669 8     -1301.332          49.000    19936614.523 7  82773435.017 7     -1012.147          47.000
C12  22307946.383 8 116163329.521 8     -1658.043          49.000    22307945.820 8  89824845.362 8     -1282.107          51.000
C21  21969253.883 8 114399635.830 8        38.355          51.000
C22  24722558.672 6 128736848.926 6     -2688.152          36.000
E02  26923685.047 8 141484892.549 8     -2521.918          48.000    26923686.633 8 108410508.125 8     -1932.412          48.000
E04  25569045.070 5 134366238.570 5     -1034.297          33.000
E09  22687469.438 8 119223504.928 8      1770.367          51.000    22687473.039 8  91353069.318 8      1356.545          51.000
E11                                                                  24222021.141 5  97532051.805 5     -1316.004          32.000
E36  23241295.711 7 122133821.196 7       409.156          47.000    23241298.188 8  93583083.463 8       313.488          48.000
> 2020 05 14 18 00 30.0000000  0 17        .000000000000
G08  20480680.125 8 107626718.985 8      -965.258          51.000    20480682.414 8  83864950.664 8      -752.149          51.000
G11  20166970.141 5 105978144.224 5      1297.832          35.000
G14  22881771.766 8 120244551.669 8      2264.875          48.000    22881769.617 6  93697037.823 6      1764.838          38.000
G22  22010276.219 8 115664802.330 8      2476.812          49.000    22010273.195 7  90128379.893 7      1929.984          45.000
G27  22041541.773 8 115829068.331 8     -2892.422          49.000    22041544.828 8  90256419.615 8     -2253.835          49.000
G32  22193937.828 5 116629923.243 5      1105.855          35.000    22193941.055 5  90880451.130 5       861.712          35.000
R02  22683967.281 6 121045954.734 6     -3855.738          38.000
R03  19656622.820 8 105223450.377 8      -673.812          51.000    19656623.977 7  81840480.191 7      -524.076          47.000
R04  20597001.117 8 110296068.272 8      3349.855          50.000    20597001.242 7  85785767.797 7      2605.446          45.000
R18  19943942.828 7 106462117.468 7     -1309.098          47.000    19943945.805 7  82803873.214 7     -1018.184          45.000
C12  22317505.758 8 116213108.446 8     -1661.918          49.000    22317505.305 8  89863337.580 8     -1285.028          51.000
C21  21969055.625 8 114398602.564 8        29.195          51.000
C22  24738043.406 6 128817488.790 6     -2689.684          36.000
E02  26938075.992 7 141560517.485 7     -2520.938          46.000    26938077.523 8 108468454.455 8     -1931.630          49.000
E04  25574965.242 5 134397348.616 5     -1040.227          32.000
E09  22677373.805 8 119170446.495 8      1765.535          51.000    22677375.984 8  91312414.171 8      1352.813          51.000
E36  23238953.109 7 122121512.024 7       409.996          47.000    23238955.875 8  93573651.750 8       314.225          49.000
> 2020 05 14 18 01  0.0000000  0 17        .000000000000
G03  24030685.672 6 126282142.235 6      3549.773          36.000    24030684.148 5  98401633.166 5      2766.057          34.000
G08  20486242.359 8 107655949.740 8      -982.770          51.000    20486244.641 8  83887727.882 8      -765.794          51.000
G11  20159605.805 6 105939437.042 6      1283.797          36.000
G14  22868878.539 7 120176794.915 7      2252.883          47.000    22868876.570 6  93644240.394 6      1755.496          41.000
G22  21996171.516 8 115590681.820 8      2465.141          51.000    21996168.594 7  90070623.647 7      1920.892          44.000
G27  22058087.977 8 115916019.152 8     -2903.703          48.000    22058091.039 8  90324173.443 8     -2262.629          48.000
G32  22187680.273 6 116597037.306 6      1087.273          39.000    22187680.672 6  90854825.731 6       847.223          37.000
R02  22705675.406 6 121161798.603 6     -3866.305          38.000
R03  19660475.242 8 105244072.408 8      -700.312          51.000    19660476.484 8  81856519.566 8      -544.684          48.000
R04  20578286.859 8 110195854.203 8      3331.707          50.000    20578287.305 7  85707823.536 7      2591.328          46.000
R18  19951343.438 7 106501625.423 7     -1324.246          45.000    19951347.133 7  82834601.606 7     -1029.969          45.000
C12  22327113.422 8 116263138.910 8     -1672.840          48.000    22327113.102 8  89902024.325 8     -1293.640          51.000
C21  21968936.711 8 114397982.351 8        12.812          51.000
C22  24753562.094 5 128898301.302 5     -2697.328          33.000
E02  26952486.648 7 141636247.983 7     -2527.031          45.000    26952488.867 8 108526481.663 8     -1936.342          49.000
E09  22667332.000 8 119117672.586 8      1753.324          51.000    22667332.961 8  91271977.051 8      1343.444          51.000
E36  23236631.242 8 122109312.403 8       403.797          48.000    23236634.242 8  93564303.994 8       309.418          49.000
> 2020 05 14 18 01 30.0000000  0 17        .000000000000
G03  24010439.953 5 126175744.197 5      3543.250          33.000    24010444.016 5  98318725.642 5      2760.971          34.000
G08  20491903.898 8 107685702.022 8     -1000.996          51.000    20491906.430 8  83910911.470 8      -779.997          51.000
G11  20152322.125 6 105901158.558 6      1268.180          37.000    20152317.461 5  82520375.792 5       988.192          30.000
G14  22856053.211 7 120109396.442 7      2240.191          45.000    22856052.188 6  93591722.220 6      1745.607          41.000
G22  21982133.445 8 115516908.920 8      2452.738          51.000    21982129.797 7  90013138.296 7      1911.228          44.000
G27  22074698.203 8 116003307.179 8     -2915.688          48.000    22074700.984 8  90392189.984 8     -2271.967          48.000
G32  22181525.586 6 116564691.790 6      1068.988          38.000    22181523.031 6  90829621.321 6       832.969          37.000
R02  22727441.789 6 121277953.015 6     -3877.016          38.000
R03  19664475.391 8 105265484.891 8      -727.465          51.000    19664476.367 7  81873173.716 7      -565.806          47.000
R04  20559673.570 7 110096184.998 7      3312.621          47.000    20559675.188 7  85630303.053 7      2576.483          46.000
R18  19958829.273 7 106541584.870 7     -1340.047          46.000    19958833.000 7  82865681.196 7     -1042.259          43.000
C12  22336784.016 8 116313497.468 8     -1684.625          48.000    22336784.086 8  89940964.731 8     -1302.671          51.000
C21  21968911.797 8 114397851.615 8        -4.273          51.000
C22  24769127.445 4 128979361.439 4     -2706.320          29.000
E02  26966931.859 7 141712159.611 7     -2533.957          45.000    26966935.016 8 108584647.633 8     -1941.618          49.000
E09  22657358.984 8 119065261.890 8      1740.371          51.000    22657358.898 8  91231818.240 8      1333.516          51.000
E36  23234345.164 8 122097300.416 8       396.691          48.000    23234348.477 8  93555100.000 8       304.033          50.000
> 2020 05 14 18 02  0.0000000  0 17        .000000000000
G03  23990214.953 5 126069458.197 5      3537.875          32.000    23990221.938 5  98235905.449 5      2756.789          33.000
G08  20497653.453 8 107715916.413 8     -1017.840          51.000    20497656.414 8  83934455.147 8      -793.122          51.000
G11  20145108.320 6 105863250.194 6      1254.273          37.000    20145103.695 4  82490836.823 4       977.356          28.000
G14  22843285.023 7 120042299.464 7      2228.293          44.000    22843284.500 6  93539438.928 6      1736.335          39.000
G22  21968150.211 8 115443425.224 8      2441.469          50.000    21968146.352 7  89955878.351 7      1902.443          44.000
G27  22091360.867 8 116090871.004 8     -2926.535          48.000    22091363.406 7  90460421.433 7     -2280.420          47.000
G32  22175461.711 5 116532828.360 5      1050.742          35.000    22175459.211 5  90804792.892 5       818.766          34.000
R02  22749255.266 6 121394354.257 6     -3887.184          37.000    22749253.617 4  94417845.798 4     -3023.359          25.000
R03  19668611.398 8 105287625.521 8      -753.301          51.000    19668612.320 7  81890394.216 7      -585.901          47.000
R04  20541150.328 7 109997003.102 7      3294.652          46.000    20541153.930 7  85553161.589 7      2562.507          45.000
R18  19966388.258 7 106581935.970 7     -1354.723          47.000    19966392.062 7  82897065.307 7     -1053.676          43.000
C12  22346506.109 8 116364124.965 8     -1695.195          48.000    22346506.805 8  89980113.089 8     -1310.848          51.000
C21  21968969.633 8 114398150.781 8       -20.219          51.000
C22  24784728.172 5 129060608.072 5     -2714.691          33.000
E02  26981400.039 7 141788190.516 7     -2539.453          46.000    26981403.719 8 108642905.013 8     -1945.887          49.000
E09  22647443.828 8 119013156.104 8      1728.613          51.000    22647443.344 8  91191893.039 8      1324.549          51.000
E36  23232083.742 8 122085417.048 8       390.824          48.000    23232087.289 8  93545994.557 8       299.418          50.000
> 2020 05 14 18 02 30.0000000  0 17        .000000000000
G08  20503512.602 8 107746706.379 8     -1031.977          51.000    20503515.703 8  83958447.320 8      -804.138          51.000
G11  20137986.781 6 105825828.173 6      1243.168          37.000    20137982.961 5  82461676.803 5       968.702          34.000
G14  22830595.266 7 119975620.903 7      2219.629          42.000    22830595.844 6  93487481.594 6      1729.584          40.000
G22  21954243.602 8 115370346.060 8      2433.035          50.000    21954239.852 7  89898933.609 7      1895.875          46.000
G27  22108097.539 7 116178823.203 7     -2934.344          47.000    22108099.727 7  90528955.593 7     -2286.502          47.000
G32  22169512.383 6 116501563.067 6      1035.715          37.000    22169505.797 4  90780430.252 4       807.041          29.000
R02  22771136.555 5 121511114.408 5     -3894.043          35.000    22771136.133 4  94508660.760 4     -3028.697          27.000
R03  19672905.164 8 105310609.161 8      -776.258          51.000    19672906.156 7  81908270.389 7      -603.756          47.000
R04  20522740.742 7 109898428.264 7      3279.637          46.000    20522745.734 7  85476492.295 7      2550.829          44.000
R18  19974042.891 8 106622795.259 8     -1366.590          50.000    19974046.344 7  82928844.724 7     -1062.903          43.000
C12  22356302.078 8 116415134.273 8     -1702.777          48.000    22356302.719 8  90019556.724 8     -1316.708          51.000
C21  21969131.516 8 114398992.479 8       -33.234          51.000
C22  24800387.953 5 129142152.031 5     -2719.246          33.000
E02  26995912.273 7 141864452.843 7     -2541.992          46.000    26995915.844 8 108701339.726 8     -1947.766          49.000
E04  25599346.734 5 134525474.489 5     -1091.418          33.000    25599345.867 5 103077957.410 5      -836.221          32.000
E09  22637608.398 8 118961470.611 8      1719.754          51.000    22637607.742 8  91152289.879 8      1317.689          51.000
E36  23229868.742 8 122073777.073 8       387.773          48.000    23229872.211 8  93537075.603 8       297.098          50.000
> 2020 05 14 18 03  0.0000000  0 17        .000000000000
G08  20509455.359 8 107777935.420 8     -1052.773          51.000    20509458.320 8  83982781.630 8      -820.343          51.000
G10  22939957.789 6 120550286.766 6     -2922.367          36.000
G11  20130932.016 6 105788757.105 6      1225.355          37.000    20130928.344 5  82432790.265 5       954.822          35.000
G14  22817959.797 7 119909226.439 7      2203.926          44.000    22817961.203 6  93435745.622 6      1717.342          38.000
G22  21940388.156 8 115297535.866 8      2418.008          51.000    21940384.781 7  89842198.414 7      1884.162          47.000
G27  22124881.359 7 116267025.548 7     -2948.574          45.000    22124884.008 7  90597684.683 7     -2297.590          45.000
R02  22793064.430 5 121628157.640 5     -3907.402          32.000    22793060.312 4  94599667.223 4     -3039.094          28.000
R03  19677329.812 8 105334295.189 8      -805.734          51.000    19677330.523 7  81926692.857 7      -626.682          47.000
R04  20504420.523 7 109800324.761 7      3257.766          46.000    20504425.172 7  85400189.588 7      2533.818          43.000
R18  19981766.523 8 106664024.019 8     -1385.020          49.000    19981769.969 7  82960911.497 7     -1077.240          44.000
C12  22366145.438 8 116466389.853 8     -1717.117          48.000    22366145.922 8  90059190.752 8     -1327.739          51.000
C21  21969371.414 8 114400240.742 8       -52.770          51.000
C22  24816078.242 5 129223856.046 5     -2730.434          32.000
E02  27010442.422 7 141940832.844 7     -2551.066          45.000    27010443.938 8 108759864.457 8     -1954.773          48.000
E04  25605618.195 5 134558427.947 5     -1107.039          33.000    25605609.414 5 103103193.689 5      -848.430          31.000
E09  22627826.727 8 118910069.952 8      1704.105          51.000    22627826.688 8  91112904.989 8      1305.737          51.000
E36  23227674.180 8 122062244.385 8       378.082          48.000    23227677.438 8  93528238.868 8       289.708          50.000
> 2020 05 14 18 03 30.0000000  0 17        .000000000000
G03  23929757.930 5 125751735.332 5      3521.570          30.000    23929766.359 5  97988360.165 5      2744.081          31.000
G08  20515512.695 8 107809766.368 8     -1068.781          51.000    20515515.508 8  84007584.946 8      -832.817          51.000
G10  22956656.336 5 120638046.213 5     -2927.820          33.000    22956647.484 5  94003619.641 5     -2281.418          32.000
G11  20123975.641 6 105752201.647 6      1212.242          38.000    20123972.547 6  82404305.462 6       944.607          37.000
G14  22805411.070 7 119843281.877 7      2193.016          44.000    22805412.570 6  93384360.229 6      1708.843          41.000
G22  21926615.133 8 115225158.513 8      2407.652          51.000    21926612.523 7  89785800.501 7      1876.093          47.000
G27  22141743.883 7 116355639.625 7     -2958.406          47.000    22141746.922 7  90666734.633 7     -2305.252          47.000
R02  22815057.477 5 121745526.695 5     -3915.523          30.000    22815051.945 4  94690934.019 4     -3045.407          28.000
R03  19681916.555 8 105358847.995 8      -830.637          51.000    19681917.500 7  81945789.492 7      -646.051          47.000
R04  20486220.125 7 109702862.074 7      3240.320          47.000    20486224.195 7  85324385.287 7      2520.249          42.000
R18  19989590.336 8 106705788.268 8     -1398.844          50.000    19989594.023 7  82993394.753 7     -1087.993          45.000
C12  22376067.266 8 116518053.363 8     -1726.637          50.000    22376067.219 8  90099140.205 8     -1335.127          51.000
C21  21969720.320 8 114402056.950 8       -67.684          51.000
C22  24831829.070 5 129305879.908 5     -2736.973          31.000
E02  27025020.789 7 142017441.669 7     -2555.621          46.000    27025021.539 8 108818564.663 8     -1958.170          48.000
E09  22618130.805 8 118859118.624 8      1693.152          51.000    22618130.977 8  91073864.362 8      1297.395          51.000
E36  23225531.281 8 122050982.844 8       373.164          49.000    23225534.461 8  93519609.899 8       285.919          50.000
> 2020 05 14 18 04  0.0000000  0 16        .000000000000
G03  23909673.031 5 125646193.351 5      3514.520          31.000    23909679.273 5  97906119.729 5      2738.584          32.000
G08  20521666.617 8 107842104.379 8     -1087.516          51.000    20521669.227 8  84032783.388 8      -847.415          51.000
G10  22973392.266 5 120726002.017 5     -2935.871          35.000    22973391.359 5  94072156.505 5     -2287.689          33.000
G11  20117099.945 6 105716069.401 6      1196.238          39.000    20117098.188 6  82376150.471 6       932.131          38.000
G14  22792930.852 7 119777695.565 7      2179.035          44.000    22792932.461 7  93333254.078 7      1697.949          43.000
G22  21912906.844 8 115153121.487 8      2394.430          50.000    21912904.039 7  89729667.763 7      1865.789          47.000
G27  22158667.172 8 116444569.839 8     -2970.719          49.000    22158669.789 8  90736030.907 8     -2314.846          49.000
R03  19686646.719 8 105384170.240 8      -857.922          51.000    19686647.719 7  81965484.572 7      -667.273          47.000
R04  20468122.609 8 109605947.758 8      3220.195          49.000    20468125.516 7  85249007.504 7      2504.596          43.000
R18  19997496.711 8 106747993.339 8     -1415.316          49.000    19997500.539 7  83026220.908 7     -1100.802          46.000
C12  22386049.719 8 116570031.313 8     -1738.961          51.000    22386048.773 8  90139332.818 8     -1344.596          51.000
C21  21970160.172 8 114404347.306 8       -85.270          51.000
C22  24847623.109 5 129388128.346 5     -2746.059          33.000
E02  27039629.117 7 142094208.208 7     -2562.523          47.000    27039629.648 8 108877385.714 8     -1963.504          48.000
E09  22608502.930 8 118808523.815 8      1679.543          51.000    22608503.398 8  91035096.901 8      1286.908          51.000
E36  23223422.203 8 122039899.055 8       365.492          49.000    23223425.375 8  93511117.128 8       280.055          51.000
> 2020 05 14 18 04 30.0000000  0 16        .000000000000
G08  20527920.453 8 107874968.819 8     -1107.820          50.000    20527922.898 8  84058392.029 8      -863.237          50.000
G10  22990168.828 5 120814170.864 5     -2945.684          35.000    22990172.305 5  94140859.427 5     -2295.344          32.000
G11  20110308.672 6 105680380.772 6      1178.035          40.000    20110307.531 6  82348341.168 6       917.953          36.000
G14  22780522.969 7 119712489.009 7      2163.660          46.000    22780524.367 7  93282443.856 7      1685.972          44.000
G22  21899266.953 8 115081444.060 8      2379.711          50.000    21899263.984 8  89673815.257 8      1854.323          48.000
G27  22175654.016 8 116533833.311 8     -2984.586          50.000    22175656.438 8  90805586.837 8     -2325.651          50.000
G32  22146730.781 5 116381857.038 5       956.656          33.000
R03  19691523.984 8 105410279.017 8      -886.961          51.000    19691525.203 7  81985791.416 7      -689.859          47.000
R04  20450132.172 8 109509604.150 8      3198.258          51.000    20450133.500 7  85174073.644 7      2487.534          43.000
R18  20005489.250 8 106790658.236 8     -1433.508          49.000    20005493.062 7  83059404.706 7     -1114.951          46.000
C12  22396095.922 8 116622342.147 8     -1752.758          51.000    22396094.609 8  90179782.835 8     -1355.292          51.000
C21  21970694.656 8 114407130.044 8      -104.449          51.000
C22  24863464.648 5 129470617.894 5     -2757.000          34.000
E02  27054270.766 7 142171149.183 7     -2571.133          47.000    27054271.188 7 108936340.438 7     -1970.065          47.000
E09  22598946.547 8 118758305.469 8      1664.125          51.000    22598947.664 8  90996617.911 8      1275.091          51.000
E36  23221350.656 8 122029012.279 8       356.086          50.000    23221353.719 8  93502775.316 8       272.866          51.000
> 2020 05 14 18 05  0.0000000  0 16        .000000000000
G08  20534266.258 8 107908316.730 8     -1119.359          51.000    20534268.367 8  84084377.380 8      -872.228          51.000
G10  23006977.391 5 120902509.126 5     -2947.258          31.000    23006981.117 5  94209694.558 5     -2296.568          30.000
G11  20103594.047 6 105645095.785 6      1169.641          39.000    20103592.891 6  82320846.362 6       911.408          37.000
G14  22768179.938 7 119647623.032 7      2156.586          46.000    22768181.188 7  93231898.963 7      1680.460          43.000
G22  21885687.852 8 115010085.556 8      2373.523          50.000    21885684.773 7  89618211.272 7      1849.499          47.000
G27  22192695.875 8 116623386.556 8     -2989.734          50.000    22192698.188 8  90875368.543 8     -2329.663          50.000
G32  22141295.906 6 116353287.061 6       943.965          38.000    22141303.141 6  90664905.058 6       735.563          37.000
R03  19696539.969 8 105437130.324 8      -907.152          51.000    19696541.500 7  82006675.766 7      -705.563          47.000
R04  20432240.867 8 109413792.029 8      3185.043          51.000    20432241.648 7  85099553.182 7      2477.259          44.000
R18  20013560.180 8 106833740.789 8     -1442.898          48.000    20013563.641 7  83092913.338 7     -1122.257          46.000
C12  22406197.547 8 116674944.343 8     -1758.059          51.000    22406196.539 8  90220458.133 8     -1359.451          51.000
C21  21971315.398 8 114410363.047 8      -115.055          51.000
C22  24879344.336 5 129553305.255 5     -2759.340          32.000
E02  27068937.039 7 142248220.703 7     -2570.918          46.000    27068937.805 7 108995395.184 7     -1969.963          46.000
E09  22589453.797 8 118708423.020 8      1657.348          51.000    22589455.641 8  90958396.292 8      1269.916          51.000
E36  23219308.781 8 122018281.494 8       355.266          50.000    23219311.812 8  93494553.025 8       272.190          51.000
> 2020 05 14 18 05 30.0000000  0 17        .000000000000
G08  20540714.445 8 107942201.245 8     -1140.410          51.000    20540716.320 8  84110780.884 8      -888.631          51.000
G10  23023828.352 5 120991039.323 5     -2958.219          32.000    23023831.695 5  94278701.019 5     -2305.102          33.000
G11  20096966.547 6 105610268.810 6      1151.461          40.000    20096964.906 6  82293708.458 6       897.245          38.000
G14  22755911.633 7 119583152.846 7      2140.422          44.000    22755912.961 6  93181662.503 6      1667.861          41.000
G22  21872179.781 8 114939100.019 8      2357.887          50.000    21872176.570 7  89562897.912 7      1837.314          47.000
G27  22209802.453 8 116713280.807 8     -3004.102          49.000    22209804.570 8  90945415.957 8     -2340.861          49.000
G32  22135968.219 6 116325286.320 6       921.680          37.000    22135971.961 6  90643086.274 6       718.192          36.000
R03  19701704.477 8 105464775.989 8      -936.773          51.000    19701705.852 7  82028177.960 7      -728.602          46.000
R04  20414458.945 8 109318568.383 8      3162.320          51.000    20414459.977 7  85025490.428 7      2459.586          44.000
R18  20021719.703 7 106877295.010 7     -1461.781          47.000    20021722.898 7  83126788.831 7     -1136.941          46.000
C12  22416365.219 8 116727889.990 8     -1772.500          51.000    22416364.188 8  90261399.038 8     -1370.658          51.000
C21  21972032.438 8 114414098.223 8      -134.859          51.000
C22  24895272.203 4 129636214.339 4     -2771.391          28.000
E02  27083637.461 7 142325473.522 7     -2580.184          45.000    27083638.977 7 109054588.846 7     -1977.027          46.000
E04  25638152.273 6 134729381.658 6     -1175.078          36.000    25638156.766 5 103234210.724 5      -900.121          35.000
E09  22580034.953 8 118658930.508 8      1641.277          51.000    22580037.609 8  90920473.464 8      1257.602          51.000
E36  23217306.664 8 122007760.059 8       345.203          50.000    23217309.977 8  93486491.145 8       264.482          51.000
> 2020 05 14 18 06  0.0000000  0 15        .000000000000
G03  23829689.953 5 125225853.921 5      3493.145          35.000    23829708.922 5  97578653.090 5      2721.931          35.000
G08  20547278.172 8 107976693.188 8     -1153.387          51.000    20547280.156 8  84137657.687 8      -898.743          51.000
G11  20090439.555 6 105575972.349 6      1141.125          36.000    20090437.938 5  82266983.933 5       889.185          35.000
G14  22743732.672 7 119519152.570 7      2131.875          43.000    22743733.797 6  93131792.159 6      1661.201          41.000
G22  21858756.398 8 114868559.643 8      2350.445          50.000    21858752.820 7  89507931.384 7      1831.516          47.000
G27  22226987.180 8 116803585.736 8     -3010.398          50.000    22226988.617 8  91015783.382 8     -2345.765          49.000
R03  19707030.570 8 105493287.064 8      -958.090          51.000    19707031.930 7  82050353.255 7      -745.178          46.000
R04  20396801.273 8 109224009.353 8      3147.480          50.000    20396802.148 7  84951944.546 7      2448.040          45.000
R18  20029981.328 7 106921393.615 7     -1472.445          44.000    20029984.109 7  83161087.746 7     -1145.235          45.000
C12  22426612.383 8 116781249.533 8     -1779.141          51.000    22426611.219 8  90302660.003 8     -1375.702          51.000
C21  21972859.391 8 114418405.651 8      -146.621          51.000
E02  27098385.562 7 142402976.964 7     -2581.102          45.000    27098387.688 7 109113974.547 7     -1977.721          45.000
E04  25644897.422 5 134764842.386 5     -1183.691          35.000    25644905.852 5 103261381.968 5      -907.269          33.000
E09  22570704.398 8 118609900.489 8      1633.133          51.000    22570707.680 8  90882904.999 8      1251.359          51.000
E36  23215358.078 8 121997520.058 8       343.168          50.000    23215361.742 8  93478644.903 8       262.947          51.000
> 2020 05 14 18 06 30.0000000  0 15        .000000000000
G03  23809765.078 5 125121150.398 5      3486.457          35.000    23809784.523 5  97497065.973 5      2716.720          35.000
G08  20553911.445 8 108011550.159 8     -1170.652          51.000    20553913.109 8  84164818.939 8      -912.197          51.000
G11  20083967.953 6 105541966.437 6      1125.746          37.000    20083967.125 5  82240485.826 5       877.205          35.000
G14  22731597.383 7 119455382.978 7      2119.270          42.000    22731598.672 6  93082101.573 6      1651.379          41.000
G22  21845372.031 8 114798223.659 8      2338.461          51.000    21845368.539 7  89453124.147 7      1822.180          47.000
G27  22244203.641 8 116894058.002 8     -3021.133          50.000    22244204.266 8  91086281.218 8     -2354.133          50.000
G32  22125634.594 6 116270969.640 6       889.820          36.000    22125635.602 5  90600772.702 5       693.366          35.000
R03  19712471.984 8 105522415.298 8      -983.945          51.000    19712473.180 7  82073008.551 7      -765.291          45.000
R04  20379222.109 7 109129871.814 7      3128.164          47.000    20379222.922 7  84878726.444 7      2433.013          45.000
R18  20038298.922 7 106965791.619 7     -1487.777          45.000    20038301.133 7  83195619.539 7     -1157.160          45.000
C12  22436892.789 8 116834783.297 8     -1789.977          49.000    22436891.883 8  90344055.692 8     -1384.148          51.000
C21  21973750.281 8 114423045.363 8      -162.871          51.000
E02  27113135.289 7 142480487.198 7     -2586.418          46.000    27113137.438 7 109173365.438 7     -1981.819          45.000
E09  22561416.281 8 118561092.433 8      1620.551          51.000    22561419.922 8  90845506.633 8      1241.721          51.000
E36  23213417.125 8 121987320.339 8       336.676          51.000    23213420.914 8  93470829.534 8       257.933          51.000
> 2020 05 14 18 07  0.0000000  0 15        .000000000000
G03  23789873.133 5 125016624.576 5      3477.719          33.000    23789892.602 5  97415617.291 5      2709.914          34.000
G08  20560641.375 8 108046914.939 8     -1191.012          51.000    20560642.531 8  84192375.919 8      -928.061          51.000
G10  23074604.266 5 121257859.200 5     -2975.887          34.000    23074603.086 5  94486654.279 5     -2318.864          32.000
G11  20077579.500 6 105508395.505 6      1107.625          40.000    20077579.344 6  82214326.648 6       863.084          38.000
G14  22719533.172 6 119391989.451 6      2103.434          41.000    22719535.484 6  93032704.049 6      1639.042          40.000
G22  21832054.000 8 114728235.829 8      2323.434          51.000    21832050.484 7  89398588.204 7      1810.471          47.000
G27  22261478.562 8 116984838.732 8     -3034.840          49.000    22261478.922 8  91157019.437 8     -2364.810          49.000
R03  19718055.586 8 105552304.491 8     -1012.691          50.000    19718056.625 7  82096255.718 7      -787.649          45.000
R04  20361748.758 7 109036304.520 7      3105.625          47.000    20361749.945 7  84805951.857 7      2415.486          45.000
R18  20046699.320 7 107010634.199 7     -1505.836          45.000    20046702.125 7  83230497.063 7     -1171.209          46.000
C12  22447233.445 8 116888632.574 8     -1803.898          48.000    22447233.188 8  90385695.365 8     -1394.922          51.000
C21  21974731.820 8 114428158.195 8      -181.941          51.000
E02  27127913.430 7 142558145.029 7     -2594.723          46.000    27127914.969 7 109232869.414 7     -1988.161          44.000
E09  22552198.078 8 118512650.297 8      1604.875          51.000    22552201.234 8  90808388.648 8      1229.748          51.000
E36  23211511.031 8 121977304.406 8       327.043          50.000    23211514.797 8  93463154.978 8       250.588          51.000
> 2020 05 14 18 07 30.0000000  0 17        .000000000000
G03  23770012.195 5 124912265.583 5      3476.906          32.000    23770029.102 5  97334298.521 5      2709.275          33.000
G08  20567465.320 8 108082774.593 8     -1202.664          51.000    20567466.586 8  84220318.506 8      -937.141          51.000
G10  23091586.219 5 121347110.861 5     -2977.371          35.000    23091587.430 5  94556201.082 5     -2320.029          34.000
G11  20071271.711 6 105475248.446 6      1098.828          40.000    20071271.695 6  82188497.826 6       856.233          38.000
G14  22707538.844 6 119328961.754 6      2095.578          40.000    22707541.531 6  92983591.578 6      1632.915          39.000
G22  21818799.938 8 114658584.719 8      2316.930          51.000    21818796.727 8  89344314.626 8      1805.400          48.000
G27  22278809.359 8 117075913.690 8     -3039.797          49.000    22278810.227 8  91227986.937 8     -2368.673          49.000
R02  22992828.242 5 122694136.127 5     -3985.043          30.000
R03  19723778.461 8 105582939.849 8     -1032.680          50.000    19723779.375 7  82120083.216 7      -803.195          45.000
R04  20344379.742 8 108943297.621 8      3091.750          49.000    20344381.453 7  84733613.166 7      2404.697          45.000
R18  20055180.625 7 107055908.655 7     -1515.547          47.000    20055183.719 7  83265710.490 7     -1178.759          45.000
C12  22457632.312 8 116942784.707 8     -1809.223          48.000    22457632.531 8  90427569.233 8     -1399.087          51.000
C21  21975802.008 8 114433731.141 8      -192.562          51.000
E02  27142717.031 7 142635935.819 7     -2594.488          45.000    27142717.617 7 109292475.258 7     -1987.985          43.000
E09  22543047.672 8 118464562.699 8      1597.793          51.000    22543049.641 8  90771542.356 8      1224.265          49.000
E11  24371772.688 5 128074530.302 5     -1783.156          33.000
E36  23209637.562 8 121967460.257 8       326.074          51.000    23209641.359 8  93455612.049 8       249.876          51.000
> 2020 05 14 18 08  0.0000000  0 18        .000000000000
G03  23750198.273 5 124808153.244 5      3466.180          32.000    23750212.609 5  97253172.095 5      2700.922          31.000
G08  20574398.297 8 108119207.146 8     -1223.727          51.000    20574399.914 8  84248707.510 8      -953.553          51.000
G10  23108615.523 5 121436595.886 5     -2987.285          34.000    23108615.789 5  94625941.362 5     -2327.746          33.000
G11  20065059.938 6 105442605.122 6      1079.906          39.000    20065059.430 6  82163061.449 6       841.485          39.000
G14  22695629.695 6 119266380.717 6      2079.137          38.000    22695632.500 6  92934827.159 6      1620.110          37.000
G22  21805624.703 8 114589349.427 8      2301.102          51.000    21805622.148 8  89290365.043 8      1793.066          49.000
G27  22296210.766 8 117167359.559 8     -3054.207          49.000    22296212.531 8  91299243.428 8     -2379.902          49.000
G32  22110879.352 6 116193499.840 6       831.926          38.000    22110901.836 5  90540407.942 5       648.263          34.000
R02  23015275.516 5 122813910.160 5     -3997.355          31.000    23015276.539 4  95521941.704 4     -3109.057          28.000
R03  19729655.219 8 105614398.981 8     -1062.145          51.000    19729656.172 7  82144551.429 7      -826.112          45.000
R04  20327131.070 8 108850934.316 8      3068.195          50.000    20327132.812 7  84661775.074 7      2386.374          43.000
R18  20063757.945 8 107101695.293 8     -1534.602          48.000    20063761.086 7  83301322.276 7     -1193.579          44.000
C12  22468104.570 8 116997317.038 8     -1823.906          48.000    22468104.664 8  90469737.086 8     -1410.315          51.000
C21  21976975.203 8 114439841.164 8      -212.484          51.000
E02  27157560.156 7 142713935.854 7     -2603.160          44.000    27157560.125 7 109352241.451 7     -1994.710          43.000
E09  22533979.906 8 118416909.108 8      1581.438          51.000    22533980.469 8  90735028.633 8      1211.694          49.000
E11  24381982.547 5 128128176.371 5     -1791.992          34.000
E36  23207811.859 8 121957866.869 8       315.816          51.000    23207815.750 8  93448261.273 8       241.995          51.000
> 2020 05 14 18 08 30.0000000  0 19        .000000000000
G03  23730429.641 4 124704249.785 4      3461.512          29.000    23730441.352 5  97172194.968 5      2697.279          31.000
G08  20581438.109 8 108156201.595 8     -1240.137          51.000    20581439.758 8  84277534.348 8      -966.340          51.000
G10  23125691.797 5 121526331.721 5     -2992.914          34.000    23125695.844 5  94695865.379 5     -2332.138          35.000
G11  20058942.141 6 105410456.558 6      1065.938          39.000    20058941.852 6  82138010.613 6       830.601          38.000
G14  22683804.508 6 119204238.498 6      2066.129          38.000    22683807.430 6  92886404.697 6      1609.968          37.000
G22  21792526.938 8 114520520.555 8      2289.859          51.000    21792524.852 8  89236732.149 8      1784.306          48.000
G27  22313680.477 8 117259164.267 8     -3063.684          50.000    22313682.602 8  91370779.502 8     -2387.286          50.000
G32  22106178.555 5 116168758.527 5       814.312          32.000    22106203.945 5  90521221.251 5       634.547          32.000
R02  23037776.008 5 122933983.369 5     -4004.586          32.000    23037778.164 4  95615331.944 4     -3114.675          28.000
R03  19735683.812 8 105646669.713 8     -1086.750          49.000    19735684.914 7  82169650.901 7      -845.250          45.000
R04  20310001.414 8 108759207.063 8      3049.379          51.000    20310002.289 7  84590431.729 7      2371.742          43.000
R18  20072429.172 8 107147983.375 8     -1548.918          49.000    20072432.367 7  83337324.090 7     -1204.714          44.000
C12  22478647.930 8 117052219.117 8     -1833.867          48.000    22478647.938 8  90512190.806 8     -1418.047          51.000
C21  21978249.633 8 114446477.365 8      -227.578          51.000
E02  27172440.336 7 142792132.622 7     -2607.234          44.000    27172440.375 7 109412158.392 7     -1997.847          43.000
E04  25679624.812 5 134947246.592 5     -1249.367          34.000
E09  22524992.930 8 118369680.308 8      1569.605          51.000    22524992.164 8  90698840.383 8      1202.697          49.000
E11  24392231.102 5 128182036.758 5     -1796.508          35.000
E36  23206032.062 8 121948514.484 8       310.141          51.000    23206035.961 8  93441095.148 8       237.667          51.000
> 2020 05 14 18 09  0.0000000  0 18        .000000000000
G03  23710673.156 5 124600434.368 5      3455.953          32.000    23710683.297 5  97091299.904 5      2692.957          33.000
G08  20588550.422 8 108193577.052 8     -1255.906          51.000    20588552.047 8  84306658.074 8      -978.628          51.000
G10  23142778.578 5 121616120.648 5     -2997.672          35.000    23142784.617 5  94765830.772 5     -2335.851          35.000
G11  20052884.352 6 105378623.772 6      1052.051          37.000    20052884.336 6  82113205.839 6       819.777          38.000
G14  22672029.484 6 119142356.727 6      2054.680          41.000    22672031.312 6  92838185.203 6      1601.052          38.000
G22  21779472.453 8 114451918.272 8      2279.242          51.000    21779470.414 8  89183275.855 8      1776.033          48.000
G27  22331184.031 8 117351145.421 8     -3072.586          50.000    22331185.758 8  91442453.065 8     -2394.223          50.000
G32  22101563.906 5 116144525.981 5       797.141          33.000    22101583.789 5  90502338.977 5       621.152          35.000
R02  23060299.086 5 123054171.984 5     -4011.668          32.000    23060301.930 4  95708810.938 4     -3120.189          27.000
R03  19741828.953 8 105679565.715 8     -1110.680          50.000    19741830.367 7  82195236.683 7      -863.862          45.000
R04  20292957.039 8 108667934.918 8      3031.047          51.000    20292957.359 7  84519442.371 7      2357.481          44.000
R18  20081159.680 7 107194589.615 7     -1562.562          47.000    20081163.148 7  83373573.336 7     -1215.329          44.000
C12  22489228.125 8 117107311.654 8     -1843.164          49.000    22489227.758 8  90554791.813 8     -1425.324          51.000
C21  21979590.922 8 114453460.100 8      -242.137          51.000
E02  27187322.898 7 142870343.350 7     -2610.945          43.000    27187323.445 7 109472086.026 7     -2000.577          43.000
E09  22516052.391 8 118322696.740 8      1558.336          51.000    22516051.195 8  90662840.033 8      1194.062          51.000
E11  24402484.695 5 128235914.854 5     -1799.723          34.000    24402482.758 5  98258683.198 5     -1379.080          33.000
E36  23204263.914 8 121939223.091 8       305.027          51.000    23204267.617 8  93433975.771 8       233.731          51.000
> 2020 05 14 18 09 30.0000000  0 17        .000000000000
G03  23690967.547 5 124496885.495 5      3448.211          34.000    23690976.492 5  97010612.553 5      2686.921          33.000
G08  20595774.352 8 108231538.710 8     -1273.816          51.000    20595775.961 8  84336238.585 8      -992.584          51.000
G10  23159914.195 5 121706166.817 5     -3004.266          34.000    23159920.234 5  94835996.603 5     -2340.986          33.000
G11  20046926.195 6 105347314.094 6      1036.074          39.000    20046926.070 6  82088808.697 6       807.328          39.000
G14  22660343.695 7 119080944.037 7      2040.594          42.000    22660344.406 6  92790331.203 6      1590.076          37.000
G22  21766500.312 8 114383749.613 8      2266.402          51.000    21766498.406 7  89130157.464 7      1766.031          47.000
G27  22348760.203 8 117443507.383 8     -3083.797          51.000    22348761.469 8  91514423.367 8     -2402.959          51.000
R02  23082883.109 5 123174681.620 5     -4020.594          32.000    23082885.578 4  95802542.620 4     -3127.128          26.000
R03  19748129.578 8 105713294.862 8     -1136.785          50.000    19748131.117 7  82221470.474 7      -884.166          44.000
R04  20276037.273 8 108577331.074 8      3010.367          50.000    20276038.273 7  84448972.756 7      2341.397          46.000
R18  20089989.180 7 107241723.613 7     -1578.637          45.000    20089992.844 7  83410233.078 7     -1227.829          45.000
C12  22499883.906 8 117162798.528 8     -1854.805          49.000    22499883.422 8  90597697.738 8     -1434.177          51.000
C21  21981037.609 8 114460992.815 8      -258.883          51.000
E02  27202247.047 7 142948772.061 7     -2616.426          44.000    27202248.164 7 109532180.721 7     -2004.815          44.000
E09  22507197.562 8 118276165.564 8      1544.879          51.000    22507197.133 8  90627186.299 8      1183.765          51.000
E11  24412780.562 5 128290027.907 5     -1805.809          33.000    24412779.016 5  98300139.488 5     -1383.528          35.000
E36  23202546.859 8 121930199.405 8       297.738          51.000    23202550.195 8  93427061.508 8       228.173          51.000
> 2020 05 14 18 10  0.0000000  0 16        .000000000000
G08  20603089.406 8 108269979.435 8     -1289.953          51.000    20603091.023 8  84366192.383 8     -1005.158          51.000
G10  23177078.336 5 121796361.708 5     -3009.469          33.000    23177084.297 5  94906278.252 5     -2345.047          33.000
G11  20041047.797 6 105316422.681 6      1022.168          40.000    20041047.445 6  82064737.464 6       796.498          37.000
G14  22648727.031 6 119019896.660 6      2028.602          41.000    22648727.633 6  92742761.864 6      1580.732          37.000
G22  21753590.406 8 114315908.896 8      2255.328          50.000    21753588.016 7  89077294.614 7      1757.402          46.000
G27  22366388.445 8 117536141.816 8     -3092.895          51.000    22366389.461 8  91586606.018 8     -2410.048          51.000
R02  23105505.688 5 123295400.665 5     -4027.938          31.000    23105508.672 4  95896437.671 4     -3132.840          26.000
R03  19754565.789 8 105747746.673 8     -1161.059          49.000    19754566.891 7  82248266.311 7      -903.046          44.000
R04  20259221.867 8 108487289.855 8      2991.426          48.000    20259224.617 7  84378940.712 7      2326.664          47.000
R18  20098897.227 7 107289277.340 7     -1592.754          43.000    20098901.180 7  83447219.312 7     -1238.806          45.000
C12  22510595.016 8 117218573.864 8     -1864.520          49.000    22510594.477 8  90640826.751 8     -1441.762          50.000
C21  21982569.164 8 114468969.255 8      -273.797          50.000
E02  27217192.414 7 143027310.064 7     -2620.293          45.000    27217193.977 7 109592359.150 7     -2007.712          42.000
E09  22498408.422 8 118229981.341 8      1533.113          51.000    22498409.789 8  90591798.391 8      1174.684          51.000
E11                                                                  24423094.617 5  98341680.401 5     -1386.910          31.000
E36  23200860.625 8 121921337.475 8       292.125          51.000    23200863.641 8  93420271.196 8       223.824          51.000
> 2020 05 14 18 10 30.0000000  0 15        .000000000000
G08  20610503.141 8 108308939.285 8     -1307.375          51.000    20610504.883 8  84396550.676 8     -1018.734          51.000
G10  23194277.570 5 121886751.261 5     -3015.184          31.000    23194284.656 5  94976705.334 5     -2349.506          31.000
G11  20035256.969 6 105285990.930 6      1006.266          38.000    20035255.836 6  82041024.401 6       784.103          38.000
G14  22637187.695 7 118959256.181 7      2014.383          42.000    22637188.055 6  92695509.603 6      1569.646          38.000
G22  21740750.820 8 114248437.048 8      2242.887          51.000    21740747.891 7  89024719.200 7      1747.704          46.000
G27  22384075.883 8 117629087.085 8     -3103.410          51.000    22384076.734 8  91659030.901 8     -2418.242          51.000
R03  19761143.516 8 105782959.627 8     -1186.449          50.000    19761145.094 7  82275654.205 7      -922.794          44.000
R04  20242519.844 8 108397855.237 8      2970.918          49.000    20242523.891 7  84309380.431 7      2310.714          47.000
R18  20107891.594 7 107337291.588 7     -1608.281          46.000    20107895.758 7  83484563.704 7     -1250.885          46.000
C12  22521368.914 8 117274677.034 8     -1875.570          48.000    22521368.625 8  90684209.243 8     -1450.452          51.000
C21  21984193.539 8 114477428.427 8      -290.078          50.000
C22  25056788.266 4 130477241.224 4     -2839.012          29.000
E02  27232165.938 7 143105995.373 7     -2625.348          45.000    27232168.109 7 109652650.433 7     -2011.831          43.000
E09  22489692.938 8 118184185.126 8      1519.945          50.000    22489696.180 8  90556707.777 8      1164.636          51.000
E36  23199212.945 8 121912677.928 8       285.164          51.000    23199215.625 8  93413635.953 8       218.439          51.000
> 2020 05 14 18 11  0.0000000  0 15        .000000000000
G08  20618046.594 8 108348580.976 8     -1324.660          51.000    20618048.164 8  84427440.287 8     -1032.203          51.000
G11  20029585.094 6 105256184.099 6       991.082          41.000    20029582.930 6  82017798.312 6       772.269          38.000
G14  22625757.711 7 118899189.647 7      2001.055          42.000    22625757.492 6  92648704.550 6      1559.266          36.000
G22  21728012.852 8 114181498.819 8      2230.555          51.000    21728009.930 7  88972559.573 7      1738.095          45.000
G27  22401853.055 8 117722505.414 8     -3113.738          51.000    22401853.891 8  91731824.394 8     -2426.290          51.000
G32  22084265.758 6 116053597.299 6       721.812          38.000    22084266.828 6  90431387.613 6       562.445          38.000
R03  19767894.570 8 105819098.492 8     -1211.770          48.000    19767895.914 7  82303762.210 7      -942.487          43.000
R04  20225964.070 8 108309197.108 8      2950.602          51.000    20225967.812 7  84240424.114 7      2294.912          47.000
R18  20117004.500 7 107385932.970 7     -1623.527          47.000    20117008.117 7  83522395.898 7     -1262.743          46.000
C12  22532237.055 8 117331270.172 8     -1886.594          48.000    22532236.719 8  90727970.642 8     -1458.777          50.000
C21  21985941.430 8 114486532.047 8      -306.176          50.000
C22  25073197.414 5 130562660.498 5     -2845.230          31.000
E02  27247198.219 7 143184989.826 7     -2630.102          45.000    27247201.195 7 109713178.572 7     -2015.449          42.000
E09  22481082.781 8 118138941.962 8      1506.984          51.000    22481087.586 8  90522040.928 8      1154.726          51.000
E36  23197635.055 8 121904385.331 8       278.441          51.000    23197637.469 8  93407281.889 8       213.381          51.000
> 2020 05 14 18 11 30.0000000  0 17        .000000000000
G03  23612529.586 5 124084677.877 5      3424.375          32.000    23612512.898 5  96689302.099 5      2668.344          32.000
G08  20625632.031 8 108388443.926 8     -1339.645          51.000    20625633.633 8  84458502.295 8     -1043.879          51.000
G11  20023944.820 7 105226543.513 7       978.031          42.000    20023942.328 6  81994701.777 6       762.105          40.000
G14  22614349.578 6 118839238.840 6      1989.164          41.000    22614348.734 6  92601989.641 6      1549.998          37.000
G22  21715288.867 8 114114634.771 8      2220.359          51.000    21715286.609 7  88920457.728 7      1730.150          46.000
G27  22419631.891 8 117815934.633 8     -3121.777          50.000    22419633.039 8  91804626.361 8     -2432.554          50.000
G32  22080176.000 4 116032102.228 4       704.691          29.000    22080177.016 5  90414638.141 5       549.116          30.000
R03  19774730.234 8 105855692.190 8     -1234.848          49.000    19774732.297 7  82332223.994 7      -960.437          44.000
R04  20209466.586 8 108220849.464 8      2932.270          51.000    20209469.758 7  84171709.315 7      2280.657          47.000
R18  20126146.922 8 107434734.363 8     -1636.805          50.000    20126150.203 7  83560352.483 7     -1273.073          46.000
C12  22543111.188 7 117387896.779 7     -1895.324          46.000    22543111.117 8  90771757.920 8     -1465.521          49.000
C21  21987725.750 8 114495823.135 8      -320.051          50.000
C22  25089586.875 4 130648063.286 4     -2849.242          27.000
E02  27262201.258 7 143263830.792 7     -2632.676          45.000    27262205.086 7 109773589.094 7     -2017.173          42.000
E09  22472490.906 8 118093792.504 8      1496.184          51.000    22472496.562 8  90487445.894 8      1146.387          51.000
E11  24454242.938 5 128507913.324 5     -1823.684          35.000
E36  23196039.469 8 121896000.019 8       273.852          51.000    23196041.742 8  93400856.772 8       209.816          51.000
> 2020 05 14 18 12  0.0000000  0 17        .000000000000
G03  23593010.336 5 123982108.135 5      3416.684          34.000    23592995.867 5  96609377.831 5      2662.360          34.000
G08  20633340.258 8 108428951.551 8     -1357.812          51.000    20633341.820 8  84490066.669 8     -1058.036          51.000
G11  20018417.031 7 105197494.508 7       961.590          43.000    20018414.750 7  81972066.157 7       749.291          42.000
G14  22603044.648 6 118779830.302 6      1974.629          41.000    22603042.414 6  92555697.256 6      1538.672          38.000
G22  21702659.844 8 114048269.501 8      2207.039          51.000    21702658.164 7  88868744.508 7      1719.771          47.000
G27  22437492.547 8 117909796.787 8     -3132.750          48.000    22437494.453 8  91877765.652 8     -2441.107          48.000
G32  22076218.203 6 116011312.305 6       685.012          38.000    22076225.586 6  90398442.669 6       533.769          37.000
R03  19781731.672 7 105893170.264 7     -1260.711          47.000    19781733.438 7  82361373.612 7      -980.550          43.000
R04  20193108.391 8 108133247.210 8      2910.777          51.000    20193110.891 7  84103574.275 7      2263.938          47.000
R18  20135400.320 8 107484126.020 8     -1652.965          49.000    20135403.133 7  83598768.220 7     -1285.639          46.000
C11  21960534.820 6 114354301.009 6      1079.898          36.000
C12  22554072.664 8 117444976.545 8     -1907.016          48.000    22554072.656 8  90815895.598 8     -1474.746          49.000
C21  21989626.672 8 114505720.926 8      -336.793          50.000
E02  27277255.227 7 143342940.160 7     -2638.309          45.000    27277259.891 7 109834205.272 7     -2021.391          42.000
E09  22463998.094 8 118049161.613 8      1482.188          51.000    22464003.930 8  90453248.187 8      1135.723          51.000
E11  24464681.430 5 128562770.809 5     -1829.816          33.000
E36  23194506.922 8 121887946.356 8       266.129          51.000    23194509.094 8  93394685.782 8       203.875          51.000
> 2020 05 14 18 12 30.0000000  0 17        .000000000000
G03  23573525.367 6 123879718.452 6      3408.715          37.000    23573513.562 6  96529593.816 6      2656.148          38.000
G08  20641141.070 8 108469945.833 8     -1375.957          50.000    20641142.609 8  84522010.252 8     -1072.174          50.000
G11  20012972.164 7 105168881.363 7       944.906          43.000    20012970.062 7  81949770.194 7       736.291          42.000
G14  22591813.570 7 118720808.266 7      1959.504          44.000    22591811.461 6  92509706.131 6      1526.886          40.000
G22  21690096.172 8 113982246.798 8      2193.504          50.000    21690094.414 7  88817298.304 7      1709.224          46.000
G27  22455405.453 8 118003933.145 8     -3144.016          48.000    22455407.789 8  91951118.610 8     -2449.882          48.000
R03  19788867.766 8 105931370.396 8     -1286.812          48.000    19788868.867 7  82391084.802 7     -1000.857          44.000
R04  20176859.828 8 108046233.230 8      2889.176          51.000    20176861.742 7  84035896.747 7      2247.137          47.000
R18  20144733.297 8 107533948.830 8     -1669.398          48.000    20144736.828 7  83637519.199 7     -1298.421          45.000
C11  21954345.297 5 114322071.118 5      1067.555          35.000    21954341.641 4  88401037.720 4       824.852          28.000
C12  22565091.906 8 117502353.594 8     -1918.926          49.000    22565090.969 8  90860263.149 8     -1483.893          48.000
C21  21991613.875 8 114516069.096 8      -353.961          51.000
C22  25122520.570 5 130819552.793 5     -2865.777          31.000
E02  27292329.812 7 143422158.821 7     -2643.953          44.000    27292335.359 7 109894905.225 7     -2025.769          42.000
E09  22455574.359 8 118004893.387 8      1468.031          51.000    22455580.000 8  90419328.381 8      1124.891          51.000
E11  24475143.734 5 128617758.684 5     -1836.422          35.000
E36  23193007.773 8 121880068.001 8       258.195          51.000    23193009.734 8  93388649.120 8       197.838          51.000
> 2020 05 14 18 13  0.0000000  0 18        .000000000000
G03  23554061.703 6 123777444.436 6      3405.770          40.000    23554053.727 6  96449899.913 6      2653.849          39.000
G08  20649021.938 8 108511360.727 8     -1388.723          51.000    20649023.578 8  84554281.579 8     -1082.122          51.000
G11  20007598.094 7 105140639.597 7       933.777          43.000    20007595.922 7  81927763.619 7       727.619          42.000
G14  22580644.352 7 118662110.441 7      1949.859          45.000    22580642.578 6  92463967.618 6      1519.374          41.000
G22  21677585.469 8 113916501.921 8      2185.652          51.000    21677582.656 7  88766068.594 7      1703.109          45.000
G27  22473358.008 8 118098275.901 8     -3149.387          49.000    22473360.375 8  92024632.416 8     -2454.071          49.000
G32  22068602.406 6 115971270.851 6       649.758          36.000    22068606.906 6  90367260.979 6       506.296          36.000
R03  19796125.914 7 105970223.161 7     -1307.199          46.000    19796127.320 7  82421303.648 7     -1016.707          44.000
R04  20160708.094 8 107959743.136 8      2873.039          48.000    20160710.281 7  83968626.672 7      2234.586          47.000
R18  20154135.328 7 107584135.585 7     -1680.160          46.000    20154138.156 7  83676553.374 7     -1306.791          44.000
C11  21948202.383 5 114290083.078 5      1061.180          35.000    21948197.539 5  88376298.549 5       820.433          32.000
C12  22576155.766 8 117559962.090 8     -1925.297          49.000    22576153.766 8  90904809.663 8     -1488.804          48.000
C21  21993675.211 8 114526801.467 8      -365.402          51.000
C22  25139028.625 5 130905513.513 5     -2868.879          32.000
E02  27307412.242 7 143501418.715 7     -2643.867          44.000    27307418.438 7 109955636.769 7     -2025.829          43.000
E09  22447207.188 8 117960922.750 8      1459.496          51.000    22447212.031 8  90385636.620 8      1118.312          51.000
E11  24485619.242 6 128672798.024 6     -1837.379          36.000
E36  23191529.445 8 121872299.573 8       255.875          51.000    23191531.398 8  93382696.690 8       196.069          51.000
> 2020 05 14 18 13 30.0000000  0 17        .000000000000
G03  23534651.844 6 123675456.003 6      3396.691          41.000    23534647.883 6  96370428.525 6      2646.779          41.000
G08  20657015.133 8 108553363.722 8     -1408.051          51.000    20657016.758 8  84587011.180 8     -1097.182          51.000
G11  20002326.938 7 105112938.847 7       916.402          44.000    20002324.633 6  81906178.625 6       714.083          41.000
G14  22569568.852 7 118603907.341 7      1933.676          46.000    22569567.805 6  92418614.601 6      1506.760          41.000
G22  21665159.867 8 113851203.623 8      2171.000          51.000    21665156.578 7  88715186.853 7      1691.691          44.000
G27  22491382.016 8 118192991.685 8     -3161.480          50.000    22491383.906 8  92098436.875 8     -2463.491          50.000
R03  19803537.383 8 106009897.571 8     -1334.273          48.000    19803538.828 7  82452161.498 7     -1037.771          45.000
R04  20144686.398 8 107873951.487 8      2850.020          49.000    20144689.117 7  83901899.848 7      2216.682          47.000
