     3.02           OBSERVATION DATA    M (MIXED)           RINEX VERSION / TYPE
SAVERINEX           SC600               20200508 225931 LCL PGM / RUN BY / DATE
       G = GPS       R = GLONASS       C = COMPASS          COMMENT
       S = SBAS      J = QZSS          E = GALILEO          COMMENT
BEAN                                                        MARKER NAME
1                                                           MARKER NUMBER
GEODETIC                                                    MARKER TYPE
Unige DICCA         GTER                                    OBSERVER / AGENCY
SC60291900056       SC600               2.12(191226)        REC # / TYPE / VERS
                    HEMA45          NONE                    ANT # / TYPE
  4509407.8091   693652.4678  4442337.6214                  APPROX POSITION XYZ
        0.0000        0.0000        0.0000                  ANTENNA: DELTA H/E/N
G    8 C1C L1C D1C S1C C2Y L2Y D2Y S2Y                      SYS / # / OBS TYPES
R    8 C1C L1C D1C S1C C2P L2P D2P S2P                      SYS / # / OBS TYPES
C    8 C1I L1I D1I S1I C7I L7I D7I S7I                      SYS / # / OBS TYPES
E    8 C1C L1C D1C S1C C7Q L7Q D7Q S7Q                      SYS / # / OBS TYPES
DBHZ                                                        COMMENT
     30.000                                                 INTERVAL
  2020    05    08    20    00    0.0000000     GPS         TIME OF FIRST OBS
  2020    05    08    20    59   30.0000000     GPS         TIME OF LAST OBS
     0                                                      RCV CLOCK OFFS APPL
G L1C  0.00000                                              SYS / PHASE SHIFT
G L2Y  0.00000                                              SYS / PHASE SHIFT
R L1C  0.00000                                              SYS / PHASE SHIFT
R L2P  0.25000                                              SYS / PHASE SHIFT
C L1I  0.00000                                              SYS / PHASE SHIFT
C L7I  0.00000                                              SYS / PHASE SHIFT
E L1C  0.50000                                              SYS / PHASE SHIFT
E L7Q -0.25000                                              SYS / PHASE SHIFT
 14 R04  6 R05  1 R06 -4 R07  5 R08  6 R09 -2 R10 -5 R15  0 GLONASS SLOT / FRQ #
    R16 -1 R18 -3 R19  3 R20  2 R21  4 R22 -3               GLONASS SLOT / FRQ #
 C1C   71.950 C2C   71.950 C2P   71.950                     GLONASS COD/PHS/BIS
    18                                                      LEAP SECONDS
*** Above antenna height is from mark to ANTENNA BOTTOM.    COMMENT
    17     4        0.0000        ANT MEASURE TYPE/HEIGT    COMMENT
    0.0000    0.0000    0.0458    0.0405    0.0000          COMMENT
                    BASE STATION                            COMMENT
                                                            END OF HEADER
> 2020 05 08 20 00  0.0000000  0 17        .000000000000
G01  20276893.312 8 106555797.586 8       211.730          51.000    20276895.484 8  83030506.053 8       164.985          51.000
G03  21068614.156 7 110716339.860 7      1784.273          42.000    21068618.422 7  86272533.127 7      1390.343          42.000
G08  23073909.406 7 121254182.592 7     -3482.930          45.000    23073907.586 7  94483782.992 7     -2713.974          45.000
G11  20448898.547 8 107459705.850 8     -1902.570          50.000    20448898.633 8  83734805.292 8     -1482.522          50.000
G22  20613668.367 8 108325652.969 8       126.613          51.000    20613665.203 8  84409523.086 8        98.660          51.000
R05  22598822.789 5 120803580.570 5     -3945.180          35.000    22598822.328 4  93958403.285 4     -3068.473          29.000
R06  19142039.562 7 102145608.991 7      -606.180          46.000
R07  20797950.844 8 111333056.019 8      3072.789          49.000    20797949.859 6  86592381.559 6      2389.950          41.000
R20  22834486.477 6 122106255.891 6     -3773.359          39.000    22834491.266 7  94971536.366 7     -2934.832          44.000
R21  19278707.430 8 103164243.615 8      -677.273          51.000    19278708.531 7  80238875.031 7      -526.765          47.000
C05                                                                  39675740.547 6 159757765.461 6       -24.306          37.000
C12  21605903.055 8 112507619.329 8      -815.879          49.000    21605903.781 8  86998018.884 8      -630.941          51.000
C21  21874540.938 8 113906611.695 8       954.574          51.000
C22  22987003.945 8 119699452.619 8     -2006.121          51.000
E04  23757998.352 8 124849164.790 8       947.141          51.000    23757999.969 8  95663673.622 8       725.737          51.000
E11  22501251.703 8 118244876.518 8       517.816          49.000    22501249.727 8  90603214.996 8       396.730          49.000
E12  23193747.812 8 121883957.892 8     -1952.402          49.000    23193747.922 8  93391598.525 8     -1496.113          49.000
> 2020 05 08 20 00 30.0000000  0 18        .000000000000
G01  20275723.836 8 106549652.199 8       198.758          51.000    20275726.125 8  83025717.448 8       154.876          51.000
G03  21058464.891 7 110663003.900 7      1772.191          42.000    21058467.898 7  86230972.703 7      1380.931          42.000
G08  23093816.273 7 121358791.227 7     -3490.160          44.000    23093815.898 7  94565296.178 7     -2719.605          44.000
G11  20459809.891 8 107517043.121 8     -1919.273          51.000    20459809.711 8  83779483.677 8     -1495.538          50.000
G14  22034094.438 5 115789947.328 5      -909.961          34.000
G22  20612981.820 8 108322045.377 8       114.652          51.000    20612978.680 8  84406711.981 8        89.339          51.000
R05  22620979.148 5 120922019.215 5     -3950.406          32.000    22620979.133 4  94050522.227 4     -3072.538          27.000
R06  19145512.094 7 102164137.889 7      -628.512          46.000
R07  20780777.055 8 111241122.723 8      3056.863          48.000    20780775.891 7  86520877.935 7      2377.560          43.000
R20  22855682.344 6 122219603.729 6     -3782.578          36.000    22855687.648 7  95059695.830 7     -2942.005          43.000
R21  19282569.133 8 103184906.085 8      -699.590          50.000    19282569.695 7  80254945.837 7      -544.125          47.000
C05                                                                  39675925.008 6 159758508.012 6       -24.596          36.000
C12  21610650.547 8 112532340.232 8      -831.320          49.000    21610651.359 8  87017134.653 8      -642.860          51.000
C21  21869081.312 8 113878179.190 8       941.555          51.000
C22  22998589.133 8 119759779.812 8     -2015.020          51.000
E04  23752630.320 8 124820954.787 8       934.195          51.000    23752632.312 8  95642058.171 8       715.884          51.000
E11  22498324.617 8 118229493.213 8       508.590          50.000    22498322.203 8  90591427.798 8       389.726          49.000
E12  23204917.633 8 121942653.980 8     -1959.918          49.000    23204917.297 8  93436573.426 8     -1501.701          49.000
> 2020 05 08 20 01  0.0000000  0 18        .000000000000
G01  20274629.227 8 106543899.890 8       185.793          51.000    20274631.391 8  83021235.140 8       144.774          51.000
G03  21048384.961 6 110610031.629 6      1760.219          41.000    21048386.867 6  86189695.706 6      1371.602          41.000
G08  23113762.898 6 121463610.101 6     -3496.918          40.000    23113763.859 6  94646973.197 6     -2724.871          40.000
G11  20470817.055 8 107574884.906 8     -1935.898          51.000    20470817.047 8  83824555.198 8     -1508.492          50.000
G14  22039344.180 6 115817539.479 6      -927.594          40.000    22039338.008 4  90247428.084 4      -722.794          29.000
G22  20612363.969 8 108318798.974 8       102.746          51.000    20612361.000 8  84404182.333 8        80.062          51.000
R05  22643163.039 5 121040609.426 5     -3954.762          32.000
R06  19149109.547 7 102183336.227 7      -650.449          45.000
R07  20763693.297 7 111149677.349 7      3040.664          46.000    20763694.359 7  86449753.794 7      2364.961          45.000
R20  22876930.641 6 122333231.861 6     -3791.812          36.000    22876936.430 7  95148073.348 7     -2949.184          42.000
R21  19286556.164 8 103206239.956 8      -721.766          51.000    19286556.148 7  80271538.853 7      -561.373          46.000
C05                                                                  39676110.516 6 159759255.178 6       -24.409          36.000
C12  21615487.656 8 112557527.389 8      -846.703          50.000    21615488.680 8  87036610.943 8      -654.779          51.000
C21  21863697.305 8 113850140.727 8       928.648          51.000
C22  23010225.703 8 119820373.785 8     -2023.723          51.000
E04  23747336.203 8 124793134.245 8       921.340          51.000    23747338.609 8  95620741.150 8       705.968          51.000
E11  22495449.531 8 118214384.301 8       499.508          50.000    22495447.023 8  90579850.849 8       382.725          49.000
E12  23216130.469 8 122001576.840 8     -1967.273          50.000    23216129.695 8  93481722.091 8     -1507.460          49.000
> 2020 05 08 20 01 30.0000000  0 17        .000000000000
G01  20273615.609 8 106538573.160 8       169.102          51.000    20273617.719 8  83017084.431 8       131.767          51.000
G03  21038379.836 6 110557455.345 6      1744.543          37.000    21038382.211 6  86148727.152 6      1359.384          37.000
G08  23133754.836 6 121568667.993 6     -3507.059          38.000    23133756.727 6  94728836.455 6     -2732.776          37.000
G11  20481925.844 8 107633261.931 8     -1956.121          51.000    20481926.297 8  83870043.788 8     -1524.250          50.000
G14  22044702.945 6 115845698.486 6      -949.773          39.000    22044699.094 5  90269370.159 5      -740.077          31.000
G22  20611820.719 8 108315944.840 8        87.230          51.000    20611817.992 8  84401958.338 8        67.975          51.000
R06  19152838.406 7 102203234.925 7      -676.152          44.000
R07  20746706.797 7 111058754.078 7      3020.617          44.000    20746710.516 7  86379035.705 7      2349.369          46.000
R20  22898237.227 6 122447171.193 6     -3804.695          36.000    22898243.820 7  95236692.840 7     -2959.207          42.000
R21  19290674.734 8 103228278.364 8      -747.707          51.000    19290674.516 7  80288679.839 7      -581.550          46.000
C05                                                                  39676303.250 6 159760031.318 6       -27.390          36.000
C12  21620420.609 8 112583212.430 8      -865.746          51.000    21620421.617 8  87056472.234 8      -669.386          51.000
C21  21858394.977 8 113822527.720 8       912.059          51.000
C22  23021919.148 8 119881264.438 8     -2035.914          51.000
E04  23742122.383 8 124765735.231 8       904.992          51.000    23742125.289 8  95599747.112 8       693.492          51.000
E11  22492632.828 8 118199582.516 8       487.023          50.000    22492630.117 8  90568509.224 8       373.243          49.000
E12  23227392.266 8 122060758.095 8     -1978.250          49.000    23227391.039 8  93527068.734 8     -1515.769          48.000
> 2020 05 08 20 02  0.0000000  0 17        .000000000000
G01  20272670.602 8 106533606.972 8       160.207          51.000    20272672.641 8  83013214.674 8       124.840          51.000
G03  21028437.578 6 110505209.539 6      1736.562          40.000    21028440.570 6  86108016.090 6      1353.163          39.000
G08  23153780.133 5 121673897.135 5     -3510.289          34.000    23153782.102 5  94810833.139 5     -2735.293          33.000
G11  20493123.625 8 107692107.151 8     -1968.711          51.000    20493124.391 8  83915897.188 8     -1534.060          48.000
G14  22050156.070 6 115874356.948 6      -962.738          37.000    22050153.703 5  90291701.392 5      -750.186          35.000
G22  20611339.500 8 108313416.678 8        79.508          51.000    20611336.883 8  84399988.336 8        61.954          51.000
R06  19156685.391 7 102223764.729 7      -694.082          44.000
R07  20729806.219 8 110968288.082 8      3008.586          48.000    20729811.680 7  86308673.296 7      2340.014          47.000
R20  22919589.734 6 122561352.692 6     -3809.617          36.000    22919595.352 6  95325500.677 6     -2963.036          38.000
R21  19294912.180 8 103250954.649 8      -765.816          51.000    19294911.891 7  80306316.912 7      -595.635          45.000
C05                                                                  39676490.633 6 159760786.100 6       -24.264          37.000
C12  21625436.398 8 112609330.103 8      -877.148          50.000    21625437.156 8  87076668.083 8      -678.264          51.000
C21  21853161.945 8 113795274.935 8       903.074          51.000
C22  23033656.758 8 119942384.910 8     -2040.539          51.000
E04  23736976.242 8 124738692.211 8       896.195          51.000    23736979.711 8  95579025.854 8       686.695          51.000
E11  22489862.219 8 118185023.045 8       482.086          49.000    22489859.430 8  90557353.268 8       369.402          50.000
E12  23238690.547 8 122120131.785 8     -1981.695          49.000    23238689.227 8  93572562.830 8     -1518.430          49.000
> 2020 05 08 20 02 30.0000000  0 17        .000000000000
G01  20271794.344 8 106529001.988 8       148.266          51.000    20271796.367 8  83009626.369 8       115.532          51.000
G03  21018559.070 6 110453294.335 6      1726.020          40.000    21018561.344 6  86067562.708 6      1344.950          40.000
G08  23173838.727 6 121779295.080 6     -3515.281          36.000    23173839.203 6  94892961.378 6     -2739.180          36.000
G11  20504410.445 8 107751419.612 8     -1984.109          51.000    20504410.812 7  83962114.661 7     -1546.062          46.000
G14  22055704.156 6 115903514.533 6      -979.805          36.000    22055704.133 5  90314421.662 5      -763.481          33.000
G22  20610920.266 8 108311213.818 8        68.668          51.000    20610917.672 8  84398271.821 8        53.508          51.000
R06  19160650.375 7 102244924.261 7      -715.055          43.000
R07  20712993.328 8 110878281.518 8      2993.324          51.000    20712998.297 7  86238668.213 7      2328.141          46.000
R20  22940987.188 5 122675774.028 5     -3816.973          35.000    22940991.578 6  95414495.013 6     -2968.760          36.000
R21  19299268.984 8 103274269.695 8      -787.078          51.000    19299268.484 7  80324450.834 7      -612.172          45.000
C05                                                                  39676672.672 6 159761519.461 6       -23.572          37.000
C12  21630535.125 8 112635880.259 8      -891.520          50.000    21630535.820 8  87097198.348 8      -689.334          51.000
C21  21847997.797 8 113768382.247 8       891.199          51.000
C22  23045438.289 8 120003733.499 8     -2047.992          51.000
E04  23731897.883 8 124712005.314 8       884.422          51.000    23731901.320 8  95558577.453 8       677.695          51.000
E11  22487137.891 8 118170706.812 8       473.879          49.000    22487135.320 8  90546383.688 8       363.153          50.000
E12  23250025.562 8 122179697.671 8     -1987.984          49.000    23250024.531 8  93618204.180 8     -1523.228          50.000
> 2020 05 08 20 03  0.0000000  0 17        .000000000000
G01  20270994.539 8 106524798.404 8       132.746          51.000    20270996.633 8  83006350.848 8       103.439          51.000
G03  21008750.336 6 110401749.663 6      1711.152          37.000    21008752.906 6  86027398.077 6      1333.365          38.000
G08  23193936.828 5 121884898.466 5     -3523.707          33.000    23193935.500 5  94975249.713 5     -2745.749          32.000
G11  20515793.586 8 107811237.509 8     -2002.938          51.000    20515792.797 7  84008725.929 7     -1560.731          44.000
G14  22061354.328 6 115933209.342 6      -999.176          38.000    22061354.180 5  90337560.497 5      -778.585          32.000
G22  20610570.203 8 108309374.899 8        54.555          51.000    20610567.672 8  84396838.922 8        42.510          51.000
R06  19164740.633 7 102266751.327 7      -739.293          43.000
R07  20696274.453 8 110788776.342 8      2974.496          51.000    20696278.094 7  86169053.133 7      2313.500          46.000
R20  22962436.156 5 122790473.426 5     -3828.785          33.000    22962438.922 6  95503705.544 6     -2977.947          37.000
R21  19303752.609 8 103298263.936 8      -811.750          51.000    19303752.688 7  80343112.981 7      -631.361          46.000
C05                                                                  39676857.055 6 159762261.692 6       -25.551          37.000
C12  21635724.664 8 112662902.030 8      -909.168          50.000    21635725.328 8  87118093.288 8      -703.026          51.000
C21  21842909.875 8 113741888.593 8       875.801          51.000
C22  23057270.508 8 120065347.691 8     -2058.840          50.000
E04  23726894.727 8 124685714.297 8       869.129          51.000    23726897.961 8  95538432.398 8       665.983          51.000
E11  22484467.570 8 118156674.235 8       462.227          50.000    22484465.203 8  90535631.456 8       354.213          50.000
E12  23261404.789 8 122239495.025 8     -1997.730          50.000    23261404.031 8  93664022.912 8     -1530.779          49.000
> 2020 05 08 20 03 30.0000000  0 16        .000000000000
G01  20270268.914 8 106520984.703 8       120.879          51.000    20270271.008 8  83003379.141 8        94.191          51.000
G03  20999009.930 6 110350563.647 6      1700.203          41.000    20999013.039 6  85987512.879 6      1324.834          41.000
G08  23214070.906 5 121990693.038 5     -3529.098          33.000    23214068.734 5  95057686.987 5     -2749.946          32.000
G11  20527270.391 8 107871547.470 8     -2018.320          51.000    20527268.891 7  84055720.640 7     -1572.717          45.000
G14  22067104.828 6 115963428.326 6     -1015.902          38.000    22067103.523 5  90361107.757 5      -791.612          32.000
G22  20610287.070 8 108307887.709 8        43.855          51.000    20610284.492 8  84395680.074 8        34.173          51.000
R06  19168953.672 7 102289231.241 7      -760.074          44.000
R07  20679645.820 8 110699762.149 8      2959.152          48.000    20679648.930 7  86099819.920 7      2301.566          44.000
R20  22983934.820 5 122905436.507 5     -3836.051          30.000    22983937.281 6  95593121.194 6     -2983.598          40.000
R21  19308361.320 8 103322925.353 8      -833.008          51.000    19308361.125 7  80362294.077 7      -647.895          46.000
C12  21641002.445 8 112690383.273 8      -923.527          50.000    21641002.773 8  87139343.520 8      -714.151          51.000
C21  21837896.031 8 113715781.798 8       863.965          51.000
C22  23069150.727 8 120127213.699 8     -2066.234          49.000
E04  23721964.523 8 124659807.070 8       857.277          51.000    23721967.977 8  95518581.435 8       656.863          51.000
E11  22481849.109 8 118142914.097 8       454.250          50.000    22481846.852 8  90525087.977 8       347.993          50.000
E12  23272825.328 8 122299511.445 8     -2004.055          48.000    23272824.984 8  93710009.508 8     -1535.577          49.000
> 2020 05 08 20 04  0.0000000  0 17        .000000000000
G01  20269619.562 8 106517572.045 8       107.312          51.000    20269621.609 8  83000719.933 8        83.620          51.000
G03  20989340.281 7 110299746.941 7      1687.957          42.000    20989343.141 7  85947915.490 7      1315.294          42.000
G08  23234240.859 6 122096686.700 6     -3536.664          36.000    23234239.133 5  95140279.312 5     -2755.845          35.000
G11  20538842.664 8 107932359.077 8     -2035.207          51.000    20538841.109 7  84103106.285 7     -1585.876          47.000
G14  22072956.320 6 115994180.830 6     -1034.145          39.000    22072955.320 5  90385070.789 5      -805.833          33.000
G22  20610072.734 8 108306761.130 8        31.859          51.000    20610069.992 8  84394802.208 8        24.825          51.000
G32  23035053.375 5 121050032.816 5     -2435.285          34.000    23035056.836 5  94324691.192 5     -1897.640          34.000
R06  19173290.828 7 102312372.977 7      -782.117          44.000
R07  20663110.109 7 110611251.668 7      2942.207          47.000    20663113.133 7  86030978.451 7      2288.383          43.000
R21  19313096.703 8 103348265.210 8      -855.715          51.000    19313096.578 7  80382002.863 7      -665.556          47.000
C05                                                                  39677227.336 6 159763751.812 6       -24.705          36.000
C12  21646370.453 8 112718334.162 8      -939.355          50.000    21646370.297 8  87160956.929 8      -726.300          51.000
C21  21832958.438 8 113690072.028 8       850.602          51.000
C22  23081081.227 8 120189340.240 8     -2075.027          49.000
E04  23717109.648 8 124634294.319 8       844.086          51.000    23717112.922 8  95499032.725 8       646.755          51.000
E11  22479284.609 8 118129437.748 8       444.836          50.000    22479282.477 8  90514761.944 8       340.815          51.000
E12  23284289.109 7 122359757.168 7     -2011.770          46.000    23284289.680 8  93756171.802 8     -1541.459          50.000
> 2020 05 08 20 04 30.0000000  0 18        .000000000000
G01  20269043.188 8 106514543.025 8        99.148          51.000    20269045.234 8  82998359.662 8        77.259          51.000
G03  20979736.922 6 110249281.786 6      1680.711          38.000    20979739.602 6  85908592.058 6      1309.648          38.000
G08  23254444.961 6 122202858.541 6     -3537.219          38.000    23254441.086 5  95223010.573 5     -2756.277          34.000
G11  20550506.562 8 107993652.833 8     -2046.621          50.000    20550505.484 8  84150867.684 8     -1594.767          49.000
G14  22078906.312 6 116025447.590 6     -1046.598          36.000    22078905.828 5  90409434.560 5      -815.528          35.000
G22  20609923.539 8 108305976.759 8        25.051          51.000    20609920.781 8  84394191.026 8        19.520          51.000
G32  23048989.070 5 121123273.315 5     -2443.191          35.000
R06  19177748.141 7 102336156.331 7      -798.867          44.000
R07  20646666.445 8 110523228.069 8      2930.699          49.000    20646668.805 7  85962515.713 7      2279.436          43.000
R21  19317955.578 8 103374265.323 8      -873.059          51.000    19317955.664 7  80402225.187 7      -679.046          47.000
C05                                                                  39677411.812 6 159764494.841 6       -21.159          36.000
C12  21651825.117 8 112746736.822 8      -949.812          50.000    21651824.781 8  87182919.667 8      -734.431          51.000
C21  21828093.039 8 113664741.239 8       842.574          51.000
C22  23093058.391 8 120251707.749 8     -2078.363          49.000
E04  23712326.430 8 124609158.088 8       836.242          51.000    23712328.922 8  95479772.507 8       640.673          51.000
E11  22476770.805 8 118116228.013 8       440.547          50.000    22476768.883 8  90504640.195 8       337.553          51.000
E12  23295793.047 7 122420213.862 7     -2014.203          46.000    23295794.836 8  93802495.776 8     -1543.335          50.000
E19  26102058.328 5 137167217.435 5     -2091.781          33.000
> 2020 05 08 20 05  0.0000000  0 18        .000000000000
G01  20268544.125 8 106511920.447 8        81.230          51.000    20268546.250 8  82996316.097 8        63.296          51.000
G03  20970204.344 6 110199190.570 6      1663.836          40.000    20970207.125 6  85869559.992 6      1296.492          39.000
G08  23274686.695 6 122309228.357 6     -3548.688          39.000    23274675.984 6  95305895.923 6     -2765.214          37.000
G11  20562265.812 8 108055449.766 8     -2067.867          49.000    20562265.531 8  84199021.182 8     -1611.322          49.000
G14  22084957.789 6 116057249.079 6     -1068.598          36.000    22084957.758 4  90434214.911 4      -832.677          26.000
G22  20609843.625 8 108305556.128 8         8.523          51.000    20609840.742 8  84393863.278 8         6.645          51.000
G32  23063005.086 6 121196928.765 6     -2461.566          36.000    23063019.258 5  94439220.162 5     -1918.095          31.000
R06  19182329.383 7 102360601.292 7      -825.219          43.000
R07  20630319.414 8 110435715.788 8      2909.031          51.000    20630321.359 7  85894450.640 7      2262.580          46.000
R20  23048728.016 5 123251899.451 5     -3862.832          32.000    23048732.641 7  95862607.596 7     -3004.425          43.000
R21  19322942.258 8 103400948.797 8      -900.371          51.000    19322942.203 7  80422979.020 7      -700.289          47.000
C05                                                                  39677599.102 6 159765249.059 6       -24.998          36.000
C12  21657370.570 8 112775612.963 8      -969.984          50.000    21657370.156 8  87205248.517 8      -749.975          51.000
C21  21823304.766 8 113639811.187 8       824.844          51.000
C22  23105085.844 8 120314336.468 8     -2091.434          49.000
E04  23707619.055 8 124584420.640 8       818.488          51.000    23707621.117 8  95460817.878 8       627.153          51.000
E11  22474312.125 8 118103307.982 8       426.250          50.000    22474310.398 8  90494740.425 8       326.658          51.000
E12  23307341.594 7 122480903.374 7     -2026.344          45.000    23307344.133 8  93848998.161 8     -1552.704          50.000
> 2020 05 08 20 05 30.0000000  0 19        .000000000000
G01  20268109.109 8 106509634.965 8        70.223          51.000    20268111.484 8  82994535.200 8        54.719          51.000
G03  20960730.438 6 110149403.604 6      1654.246          41.000    20960733.461 6  85830764.942 6      1289.023          41.000
G08  23294951.516 6 122415723.758 6     -3552.203          36.000    23294939.883 5  95388879.182 5     -2767.954          35.000
G11  20574107.258 8 108117678.390 8     -2081.855          51.000    20574107.555 8  84247511.049 8     -1622.225          50.000
G14  22091098.398 5 116089514.694 5     -1083.621          35.000    22091097.227 5  90459357.041 5      -844.371          31.000
G22  20609819.477 8 108305428.591 8         -.953          51.000    20609816.398 8  84393763.898 8         -.743          51.000
G32  23077086.492 6 121270926.767 6     -2472.719          37.000    23077102.578 5  94496880.890 5     -1926.803          34.000
R05  22843946.930 5 122113920.679 5     -3991.461          32.000
R06  19187021.062 7 102385634.688 7      -844.562          45.000
R07  20614055.023 8 110348645.724 8      2894.625          51.000    20614057.312 7  85826729.512 7      2251.375          47.000
R20  23070413.133 5 123367857.068 5     -3868.203          34.000    23070415.961 6  95952796.832 6     -3008.602          41.000
R21  19328043.273 8 103428244.296 8      -920.309          51.000    19328043.211 7  80444208.863 7      -715.796          47.000
C05                                                                  39677775.516 6 159765959.319 6       -23.023          36.000
C12  21662993.641 8 112804893.041 8      -982.922          51.000    21662993.023 8  87227889.731 8      -760.103          51.000
C21  21818580.781 8 113615212.311 8       814.117          51.000
C22  23117149.750 8 120377155.354 8     -2097.422          49.000
E04  23702974.305 8 124560012.099 8       807.836          51.000    23702976.422 8  95442115.284 8       619.033          51.000
E11  22471895.422 8 118090608.543 8       419.176          50.000    22471893.719 8  90485009.688 8       321.199          51.000
E12  23318921.391 7 122541755.533 7     -2031.367          45.000    23318923.656 8  93895625.141 8     -1556.487          49.000
> 2020 05 08 20 06  0.0000000  0 18        .000000000000
G01  20267759.328 8 106507797.417 8        54.051          51.000    20267761.891 8  82993103.336 8        42.117          51.000
G03  20951334.883 6 110100031.188 6      1639.465          37.000    20951338.148 6  85792292.960 6      1277.505          37.000
G11  20586051.938 8 108180448.139 8     -2100.938          51.000    20586052.312 8  84296422.554 8     -1637.094          49.000
G14  22097347.594 5 116122345.200 5     -1103.777          33.000    22097345.641 4  90484935.436 4      -860.089          26.000
G22  20609871.820 8 108305703.723 8       -15.469          51.000    20609868.852 8  84393978.303 8       -12.054          51.000
G32  23091253.633 6 121345375.193 6     -2488.582          36.000
R05  22866374.016 5 122233799.752 5     -3997.527          33.000
R06  19191843.516 7 102411366.549 7      -868.930          45.000
R07  20597894.047 8 110262131.685 8      2874.902          51.000    20597896.742 7  85759440.848 7      2236.038          47.000
R20  23092156.125 5 123484123.311 5     -3879.980          35.000    23092157.688 6  96043226.152 6     -3017.763          40.000
R21  19333279.398 8 103456264.512 8      -945.695          51.000    19333279.406 7  80466002.360 7      -735.544          46.000
C05                                                                  39677962.141 6 159766711.531 6       -25.312          36.000
C12  21668715.258 8 112834686.098 8     -1001.289          50.000    21668714.148 8  87250927.608 8      -774.248          51.000
C21  21813941.602 8 113591053.538 8       798.336          51.000
C22  23129270.781 8 120440271.918 8     -2108.473          49.000
E04  23698413.172 8 124536042.768 8       791.988          51.000    23698415.023 8  95423749.209 8       606.872          51.000
E11  22469541.836 8 118078240.827 8       407.230          50.000    22469540.047 8  90475533.134 8       311.965          51.000
E12  23330553.289 8 122602880.265 8     -2041.605          48.000    23330554.680 8  93942460.977 8     -1564.350          48.000
> 2020 05 08 20 06 30.0000000  0 18        .000000000000
G01  20267492.930 8 106506397.807 8        41.898          51.000    20267495.602 8  82992012.725 8        32.648          51.000
G03  20942015.922 6 110051063.044 6      1628.293          38.000    20942018.234 6  85754135.948 6      1268.797          38.000
G11  20598097.336 8 108243746.714 8     -2116.211          51.000    20598097.547 8  84345746.111 8     -1648.996          49.000
G14  22103703.195 5 116155744.786 5     -1119.977          35.000
G22  20609998.633 8 108306370.084 8       -26.223          51.000    20609995.875 8  84394497.557 8       -20.433          51.000
G32  23105504.469 5 121420261.050 5     -2501.578          33.000    23105510.211 5  94613201.775 5     -1949.282          32.000
R05  22888829.703 5 122353834.466 5     -4001.551          34.000
R06  19196794.336 7 102437783.723 7      -889.484          45.000
R07  20581833.961 7 110176164.353 7      2859.004          47.000    20581837.031 7  85692577.420 7      2223.670          45.000
R20  23113953.391 5 123600685.284 5     -3887.801          35.000    23113954.336 6  96133885.493 6     -3023.842          37.000
R21  19338649.023 8 103484999.071 8      -967.141          51.000    19338648.523 7  80488351.446 7      -752.224          45.000
C05                                                                  39678157.031 6 159767496.080 6       -24.693          36.000
C12  21674532.938 8 112864981.480 8     -1015.711          49.000    21674531.531 8  87274353.930 8      -785.376          51.000
C21  21809385.047 8 113567324.162 8       786.367          51.000
C22  23141446.570 8 120503673.966 8     -2115.723          48.000
E04  23693933.438 8 124512502.126 8       780.086          51.000    23693934.805 8  95405711.592 8       597.752          51.000
E11  22467249.547 8 118066195.074 8       398.852          50.000    22467247.742 8  90466303.270 8       305.634          51.000
E12  23342235.656 8 122664266.605 8     -2048.020          50.000    23342236.000 8  93989497.254 8     -1569.238          49.000
> 2020 05 08 20 07  0.0000000  0 17        .000000000000
G01  20267290.609 8 106505334.743 8        28.715          51.000    20267293.336 8  82991184.359 8        22.375          51.000
G03  20932755.500 6 110002397.376 6      1615.914          40.000    20932756.148 6  85716214.618 6      1259.154          39.000
G11  20610223.766 8 108307470.967 8     -2132.363          51.000    20610223.961 7  84395401.349 7     -1661.582          47.000
G14  22110146.375 5 116189602.402 5     -1138.395          33.000
G22  20610180.406 8 108307325.086 8       -37.805          51.000    20610177.625 8  84395241.715 8       -29.458          51.000
R05  22911294.609 5 122473917.642 5     -4004.684          33.000
R06  19201853.594 7 102464780.355 7      -910.672          45.000
R07  20565856.070 7 110090642.288 7      2842.188          47.000    20565859.742 7  85626060.261 7      2210.590          45.000
R20  23135786.344 6 123717437.027 6     -3896.125          37.000    23135785.906 5  96224692.475 5     -3030.316          35.000
R21  19344132.453 8 103514344.156 8      -989.562          51.000    19344132.039 7  80511175.348 7      -769.660          44.000
C05                                                                  39678340.844 6 159768236.754 6       -24.811          37.000
C12  21680427.375 8 112895677.830 8     -1031.090          48.000    21680426.344 8  87298090.290 8      -797.319          51.000
C21  21804891.312 8 113543922.855 8       773.395          51.000
C22  23153657.414 7 120567258.665 7     -2123.746          47.000
E04  23689515.688 8 124489288.194 8       767.145          51.000    23689517.250 8  95387924.317 8       587.815          51.000
E11  22464999.320 8 118054370.190 8       389.262          50.000    22464997.586 8  90457242.656 8       298.194          51.000
E12  23353948.172 8 122725812.267 8     -2055.426          49.000    23353947.914 8  94036655.589 8     -1574.931          49.000
> 2020 05 08 20 07 30.0000000  0 19        .000000000000
G01  20267157.031 8 106504632.551 8        15.910          51.000    20267159.680 8  82990637.189 8        12.398          51.000
G03  20923557.523 6 109954057.881 6      1604.422          41.000    20923557.898 6  85678547.593 6      1250.202          41.000
G08  23376387.516 5 122843748.919 5     -3577.672          33.000    23376385.438 5  95722392.920 5     -2787.799          32.000
G11  20622435.359 8 108371643.015 8     -2148.070          51.000    20622435.359 7  84445405.508 7     -1673.824          46.000
G14  22116680.148 5 116223939.725 5     -1153.758          35.000
G22  20610421.383 8 108308591.311 8       -48.949          51.000    20610418.367 8  84396228.380 8       -38.142          51.000
R05  22933772.266 5 122594070.433 5     -4007.355          31.000
R06  19207025.461 7 102492378.664 7      -931.602          46.000
R07  20549967.789 8 110005590.743 8      2825.531          49.000    20549971.023 7  85559909.124 7      2197.638          46.000
R20  23157659.789 6 123834400.143 6     -3904.031          39.000    23157659.734 6  96315663.804 6     -3036.469          37.000
R21  19349734.414 8 103544323.999 8     -1011.508          51.000    19349734.062 7  80534492.969 7      -786.728          44.000
C05                                                                  39678518.234 6 159768949.711 6       -24.590          36.000
C12  21686403.219 8 112926798.357 8     -1045.977          48.000    21686402.805 8  87322154.636 8      -808.828          51.000
C21  21800464.953 8 113520872.859 8       760.918          51.000
C22  23165907.406 7 120631047.844 7     -2131.238          47.000
E04  23685164.898 8 124466424.743 8       754.688          51.000    23685166.664 8  95370405.595 8       578.300          51.000
E09  24327576.297 6 127842277.608 6      2877.406          41.000    24327583.750 6  97957098.016 6      2204.769          36.000
E11  22462795.844 8 118042790.742 8       380.113          50.000    22462794.305 8  90448370.088 8       291.295          51.000
E12  23365694.781 8 122787540.705 8     -2062.250          48.000    23365694.477 8  94083953.946 8     -1580.124          48.000
> 2020 05 08 20 08  0.0000000  0 18        .000000000000
G01  20267112.438 8 106504398.151 8         1.449          51.000    20267115.125 8  82990454.533 8         1.129          51.000
G03  20914441.625 6 109906151.253 6      1591.059          41.000    20914442.594 6  85641217.835 6      1239.789          41.000
G08  23396832.203 6 122951190.390 6     -3583.957          36.000    23396831.445 6  95806113.550 6     -2792.694          36.000
G11  20634752.047 8 108436368.258 8     -2165.266          51.000    20634751.719 7  84495840.725 7     -1687.220          46.000
G14  22123325.289 6 116258862.600 6     -1172.262          37.000
G22  20610741.680 8 108310274.408 8       -61.629          51.000    20610738.492 8  84397539.896 8       -48.019          51.000
R06  19212329.836 7 102520683.982 7      -953.832          46.000
R07  20534188.789 8 109921120.155 8      2807.492          51.000    20534191.141 7  85494209.816 7      2183.605          47.000
R20  23179592.766 6 123951681.288 6     -3913.090          38.000    23179592.789 6  96406882.468 6     -3043.514          38.000
R21  19355475.109 8 103575047.060 8     -1035.125          51.000    19355475.406 7  80558388.663 7      -805.097          45.000
C05                                                                  39678709.273 6 159769718.414 6       -25.708          36.000
C12  21692480.984 8 112958448.085 8     -1062.445          49.000    21692480.719 8  87346628.218 8      -821.598          51.000
C21  21796126.203 8 113498279.229 8       746.902          51.000
C22  23178216.602 7 120695145.153 7     -2140.188          46.000
E04  23680901.008 8 124444018.165 8       740.602          51.000    23680902.656 8  95353236.926 8       567.450          51.000
E09  24311172.102 7 127756075.458 7      2870.840          42.000    24311187.820 6  97891047.158 6      2199.453          36.000
E11  22460659.367 8 118031563.878 8       369.699          50.000    22460658.156 8  90439767.682 8       283.225          51.000
E12  23377495.961 8 122849557.842 8     -2070.656          48.000    23377495.797 8  94131473.562 8     -1586.682          48.000
> 2020 05 08 20 08 30.0000000  0 18        .000000000000
G01  20267138.977 8 106504537.637 8       -10.422          51.000    20267141.664 8  82990563.216 8        -8.124          51.000
G03  20905389.711 6 109858583.136 6      1580.680          39.000    20905391.062 6  85604151.824 6      1231.698          39.000
G08  23417304.344 6 123058775.435 6     -3588.234          36.000    23417306.477 6  95889946.039 6     -2796.030          36.000
G11  20647155.797 8 108501550.610 8     -2179.848          51.000    20647155.281 7  84546632.127 7     -1698.586          47.000
G14  22130063.531 5 116294275.024 5     -1188.008          34.000
G22  20611123.180 8 108312279.345 8       -71.633          51.000    20611120.008 8  84399102.191 8       -55.818          51.000
R06  19217748.219 8 102549598.470 8      -973.469          48.000
R07  20518500.289 8 109837135.767 8      2791.930          50.000    20518502.367 7  85428888.681 7      2171.504          47.000
R20  23201565.953 6 124069182.008 6     -3919.695          36.000    23201566.531 6  96498271.905 6     -3048.652          40.000
R21  19361336.602 8 103606417.149 8     -1056.012          50.000    19361337.891 7  80582787.613 7      -821.342          47.000
C05                                                                  39678895.797 6 159770469.386 6       -24.355          36.000
C12  21698642.867 8 112990533.276 8     -1076.273          49.000    21698642.133 8  87371438.525 8      -832.219          51.000
C21  21791857.062 8 113476048.048 8       735.512          51.000
C22  23190566.656 7 120759455.327 7     -2146.645          47.000
E04  23676705.828 8 124421973.956 8       729.289          51.000    23676707.250 8  95336345.902 8       558.809          51.000
E09  24294792.797 6 127670012.129 6      2866.793          41.000    24294811.805 5  97825102.529 5      2196.672          35.000
E11  22458572.086 8 118020595.980 8       361.945          49.000    22458571.250 8  90431363.704 8       277.287          51.000
E12  23389333.938 7 122911768.907 7     -2076.445          47.000    23389334.133 8  94179141.785 8     -1591.123          49.000
> 2020 05 08 20 09  0.0000000  0 18        .000000000000
G01  20267241.883 8 106505078.493 8       -24.910          51.000    20267244.500 8  82990984.658 8       -19.411          51.000
G03  20896406.820 6 109811380.632 6      1566.957          36.000    20896408.656 6  85567370.630 6      1221.002          36.000
G08  23437808.133 6 123166528.152 6     -3594.789          38.000    23437811.930 6  95973909.185 6     -2801.134          38.000
G11  20659651.703 8 108567215.762 8     -2197.031          51.000    20659650.781 7  84597799.759 7     -1711.972          47.000
G14  22136899.984 6 116330202.554 6     -1205.980          40.000    22136899.109 3  90646907.224 3      -939.725          22.000
G22  20611570.875 8 108314632.170 8       -84.391          51.000    20611567.680 8  84400935.562 8       -65.759          51.000
R06  19223285.531 7 102579146.917 7      -995.797          47.000
R07  20502907.391 8 109753666.658 8      2773.543          50.000    20502909.992 8  85363968.291 8      2157.200          48.000
R20  23223583.680 5 124186926.867 5     -3929.004          32.000    23223585.969 6  96589851.297 6     -3055.889          41.000
R21  19367324.086 8 103638461.879 8     -1079.590          49.000    19367326.719 7  80607711.286 7      -839.681          47.000
C05                                                                  39679083.016 6 159771224.258 6       -25.457          36.000
C12  21704893.516 8 113023080.215 8     -1092.746          50.000    21704892.297 8  87396605.888 8      -845.041          51.000
C21  21787662.453 8 113454205.601 8       721.461          51.000
C22  23202962.250 7 120824003.222 7     -2155.641          46.000
E04  23672584.922 8 124400319.030 8       715.172          51.000    23672586.273 8  95319753.167 8       547.974          51.000
E09  24278445.891 7 127584115.654 7      2860.355          42.000    24278466.930 6  97759285.785 6      2191.683          36.000
E11  22456539.352 8 118009914.833 8       351.137          49.000    22456538.719 8  90423179.450 8       268.987          51.000
E12  23401213.227 7 122974200.489 7     -2084.992          45.000    23401214.578 8  94226978.965 8     -1597.573          50.000
> 2020 05 08 20 09 30.0000000  0 18        .000000000000
G01  20267433.844 8 106506087.036 8       -37.207          51.000    20267436.398 8  82991770.534 8       -28.992          51.000
G03  20887505.797 6 109764609.531 6      1556.211          37.000    20887509.312 6  85530925.646 6      1212.635          37.000
G08  23458355.625 6 123274511.582 6     -3599.434          37.000    23458360.844 6  96058052.143 6     -2804.753          37.000
G11  20672251.750 8 108633427.931 8     -2211.887          51.000    20672250.383 8  84649393.659 8     -1723.548          48.000
G14  22143846.906 6 116366709.478 6     -1222.586          36.000
G22  20612097.164 8 108317397.976 8       -94.867          51.000    20612094.016 8  84403090.746 8       -73.922          51.000
R06  19228953.758 8 102609393.938 8     -1015.504          48.000
R07  20487422.859 8 109670781.575 8      2757.359          49.000    20487426.281 7  85299502.101 7      2144.610          47.000
R20  23245658.055 5 124304981.163 5     -3936.215          32.000    23245663.086 7  96681671.412 7     -3061.497          42.000
R21  19373450.805 8 103671248.231 8     -1100.945          49.000    19373454.062 8  80633211.800 8      -856.291          48.000
C05                                                                  39679283.492 6 159772031.337 6       -24.844          37.000
C12  21711245.125 8 113056153.694 8     -1107.055          51.000    21711243.789 8  87422180.375 8      -856.000          51.000
C21  21783554.852 8 113432816.839 8       709.578          51.000
C22  23215415.664 7 120888852.340 7     -2162.457          46.000
E04  23668550.758 8 124379119.101 8       703.328          51.000    23668552.258 8  95303509.077 8       538.917          51.000
E09  24262144.578 7 127498453.002 7      2855.832          45.000    24262167.461 5  97693648.249 5      2187.954          35.000
E11  22454573.930 8 117999587.025 8       342.445          49.000    22454573.375 8  90415265.932 8       262.399          51.000
E12  23413147.070 7 123036917.942 7     -2091.223          45.000    23413149.805 8  94275035.171 8     -1602.324          51.000
> 2020 05 08 20 10  0.0000000  0 19        .000000000000
G01  20267681.680 8 106507389.246 8       -47.469          51.000    20267684.195 8  82992785.253 8       -36.986          51.000
G03  20878654.180 6 109718095.554 6      1547.098          40.000    20878658.680 6  85494680.977 6      1205.531          40.000
G08  23478913.047 5 123382549.320 5     -3601.418          33.000    23478919.992 5  96142237.418 5     -2806.300          34.000
G11  20684922.008 8 108700011.245 8     -2224.676          51.000    20684920.898 8  84701276.732 8     -1733.514          49.000
G14  22150870.773 6 116403619.972 6     -1235.953          39.000
G22  20612668.836 8 108320401.985 8      -103.160          51.000    20612665.867 8  84405431.540 8       -80.385          51.000
G32  23207257.102 4 121954941.590 4     -2587.223          29.000    23207268.000 4  95029867.947 4     -2016.018          29.000
R06  19234719.102 8 102640159.733 8     -1033.199          48.000
R07  20472014.633 8 109588304.274 8      2743.340          50.000    20472018.672 7  85235353.091 7      2133.709          46.000
R20  23267758.039 5 124423164.547 5     -3940.434          34.000    23267764.688 7  96773591.850 7     -3064.782          42.000
R21  19379683.125 8 103704598.244 8     -1120.102          49.000    19379686.891 8  80659150.719 8      -871.190          48.000
C05                                                                  39679463.844 6 159772757.835 6       -22.328          36.000
C12  21717664.562 8 113089580.510 8     -1119.223          51.000    21717663.297 8  87448028.113 8      -865.472          51.000
C21  21779500.914 8 113411708.410 8       699.879          51.000
C22  23227893.500 7 120953827.999 7     -2167.043          47.000
E04  23664570.055 8 124358199.623 8       693.523          51.000    23664571.656 8  95287479.883 8       531.383          51.000
E09  24245855.383 7 127412850.825 7      2853.152          47.000    24245878.273 5  97628103.972 5      2186.014          33.000
E11  22452642.742 8 117989438.813 8       336.078          49.000    22452642.164 8  90407490.036 8       257.458          51.000
E12  23425102.859 8 123099746.378 8     -2095.332          48.000    23425106.297 8  94323176.464 8     -1605.481          51.000
> 2020 05 08 20 10 30.0000000  0 19        .000000000000
G01  20268019.312 8 106509163.459 8       -65.203          51.000    20268021.672 8  82994167.773 8       -50.805          51.000
G03  20869885.727 6 109672016.460 6      1530.508          41.000    20869889.672 6  85458775.195 6      1192.603          41.000
G08  23499513.555 5 123490815.965 5     -3610.723          30.000    23499522.109 5  96226601.083 5     -2813.544          31.000
G11  20697696.242 8 108767141.932 8     -2244.895          50.000    20697695.688 8  84753586.356 8     -1749.268          50.000
G14  22158004.992 6 116441110.253 6     -1257.457          37.000
G22  20613319.336 8 108323820.081 8      -119.016          51.000    20613316.469 8  84408094.999 8       -92.736          51.000
G32  23222090.609 4 122032918.236 4     -2603.715          29.000    23222100.078 5  95090587.444 5     -2028.863          30.000
R06  19240615.227 8 102671622.635 8     -1058.562          48.000
R07  20456718.367 8 109506417.491 8      2721.598          51.000    20456720.922 7  85171663.450 7      2116.801          46.000
R20  23289917.492 5 124541655.900 5     -3952.891          34.000    23289923.883 7  96865751.818 7     -3074.470          42.000
R21  19386054.734 8 103738693.216 8     -1147.039          49.000    19386058.898 7  80685669.045 7      -892.141          47.000
C05                                                                  39679658.078 6 159773539.932 6       -25.533          37.000
C12  21724185.477 8 113123536.379 8     -1138.891          51.000    21724184.211 8  87474284.937 8      -880.675          51.000
C21  21775534.547 8 113391056.105 8       682.562          51.000
C22  23240429.164 7 121019104.605 7     -2179.156          45.000
E04  23660676.562 8 124337738.301 8       676.168          51.000    23660678.062 8  95271801.742 8       518.106          51.000
E09  24229612.266 8 127327488.008 8      2843.156          48.000    24229634.008 5  97562696.106 5      2178.780          32.000
E11  22450779.828 8 117979648.843 8       322.180          49.000    22450779.125 8  90399988.627 8       246.895          51.000
E12  23437114.211 8 123162863.224 8     -2106.961          48.000    23437117.578 8  94371538.744 8     -1614.359          51.000
> 2020 05 08 20 11  0.0000000  0 18        .000000000000
G01  20268424.680 8 106511294.448 8       -77.535          50.000    20268426.883 8  82995828.310 8       -60.417          50.000
G03  20861178.031 7 109626256.643 7      1519.547          42.000    20861181.023 7  85423118.225 7      1184.066          42.000
G08  23520136.094 5 123599149.352 5     -3615.230          32.000    23520144.453 5  96311051.026 5     -2817.060          33.000
G11  20710552.531 8 108834702.898 8     -2259.629          51.000    20710552.523 8  84806231.283 8     -1760.750          50.000
G14  22165227.125 6 116479063.196 6     -1273.266          36.000
G22  20614026.547 8 108327536.273 8      -129.289          51.000    20614023.672 8  84410990.750 8      -100.742          51.000
R06  19246619.453 8 102703662.813 8     -1078.172          48.000
R07  20441510.820 8 109425004.902 8      2705.332          51.000    20441512.398 7  85108342.655 7      2104.153          46.000
R20  23312112.008 5 124660335.082 5     -3960.086          33.000    23312117.859 7  96958057.881 7     -3080.064          42.000
R21  19392543.320 8 103773415.230 8     -1168.312          50.000    19392547.961 7  80712675.033 7      -908.691          47.000
C05                                                                  39679844.133 6 159774288.930 6       -25.028          36.000
C12  21730785.742 8 113157906.257 8     -1153.082          51.000    21730784.586 8  87500861.887 8      -891.657          51.000
C21  21771633.586 8 113370744.857 8       670.910          51.000
C22  23253000.078 7 121084565.729 7     -2185.641          44.000
E04  23656848.086 8 124317619.284 8       664.406          51.000    23656849.531 8  95256385.896 8       509.073          51.000
E09  24213392.945 8 127242250.007 8      2838.488          48.000    24213411.555 5  97497373.904 5      2174.916          30.000
E11  22448963.219 8 117970102.076 8       313.836          49.000    22448962.375 8  90392673.587 8       240.478          51.000
E12  23449158.555 8 123226152.367 8     -2112.996          50.000    23449161.461 8  94420033.036 8     -1619.085          51.000
> 2020 05 08 20 11 30.0000000  0 18        .000000000000
G01  20268906.484 8 106513827.262 8       -91.762          49.000    20268908.711 8  82997801.951 8       -71.503          49.000
G03  20852539.703 7 109580860.724 7      1506.578          44.000    20852541.758 7  85387744.816 7      1173.957          44.000
G08  23540789.047 6 123707679.385 6     -3620.109          36.000    23540795.812 5  96395619.901 5     -2820.864          35.000
G11  20723499.234 8 108902737.502 8     -2276.234          51.000    20723499.492 8  84859245.282 8     -1773.689          49.000
G14  22172545.758 6 116517522.150 6     -1291.352          37.000
G22  20614798.789 8 108331594.290 8      -141.523          51.000    20614795.844 8  84414152.851 8      -110.278          51.000
R06  19252739.922 8 102736322.953 8     -1099.594          48.000
R07  20426399.453 8 109344113.495 8      2687.105          48.000    20426401.820 7  85045427.165 7      2089.971          47.000
R20  23334348.297 5 124779244.957 5     -3967.754          30.000    23334354.484 6  97050543.418 6     -3086.028          41.000
R21  19399157.977 8 103808809.264 8     -1191.551          51.000    19399162.492 7  80740203.706 7      -926.762          46.000
C05                                                                  39680030.297 6 159775038.799 6       -25.409          36.000
C12  21737474.141 8 113192733.742 8     -1169.023          51.000    21737473.102 8  87527792.682 8      -903.981          51.000
C21  21767806.688 8 113350818.439 8       657.207          51.000
C22  23265614.969 7 121150253.814 7     -2193.836          45.000
E04  23653093.250 8 124297887.068 8       650.742          51.000    23653094.633 8  95241266.429 8       498.600          51.000
E09  24197206.039 7 127157182.480 7      2832.141          47.000
E11  22447201.430 8 117960843.891 8       303.191          48.000    22447200.625 8  90385579.664 8       232.345          50.000
E12  23461244.117 8 123289657.920 8     -2120.969          51.000    23461246.422 8  94468693.128 8     -1625.176          51.000
> 2020 05 08 20 12  0.0000000  0 18        .000000000000
G01  20269466.398 8 106516769.841 8      -104.199          50.000    20269468.492 8  83000094.897 8       -81.191          50.000
G03  20843972.438 7 109535836.214 7      1495.492          45.000    20843973.555 7  85352660.776 7      1165.319          45.000
G08  23561472.367 6 123816367.187 6     -3624.695          36.000    23561477.352 5  96480311.685 5     -2824.438          35.000
G11  20736537.078 8 108971251.012 8     -2290.988          51.000    20736537.438 8  84912632.441 8     -1785.186          49.000
G14  22179961.625 6 116556492.803 6     -1306.660          37.000
G22  20615637.312 8 108336000.694 8      -151.934          51.000    20615634.281 8  84417586.420 8      -118.387          51.000
R06  19258977.469 8 102769607.716 8     -1119.180          49.000
R07  20411385.820 8 109263752.464 8      2670.645          48.000    20411390.148 7  84982924.085 7      2077.165          47.000
R20  23356628.305 5 124898391.117 5     -3974.570          31.000    23356635.258 6  97143212.745 6     -3091.329          40.000
R21  19405899.375 8 103844882.882 8     -1212.953          51.000    19405903.289 7  80768260.928 7      -943.411          44.000
C05                                                                  39680218.023 6 159775794.250 6       -24.512          36.000
C12  21744251.672 8 113228025.930 8     -1183.398          51.000    21744250.867 8  87555082.819 8      -915.103          51.000
C21  21764055.375 8 113331283.793 8       645.426          51.000
C22  23278274.703 7 121216174.542 7     -2200.395          46.000
E04  23649413.422 8 124278549.002 8       638.789          51.000    23649414.797 8  95226448.981 8       489.486          51.000
E09  24181053.273 7 127072294.038 7      2827.344          46.000
E11  22445496.148 8 117951882.570 8       294.316          48.000    22445495.461 8  90378713.203 8       225.530          51.000
E12  23473372.086 8 123353386.903 8     -2127.273          51.000    23473373.781 8  94517524.419 8     -1629.965          51.000
> 2020 05 08 20 12 30.0000000  0 19        .000000000000
G01  20270100.469 8 106520101.600 8      -117.766          51.000    20270102.188 8  83002691.095 8       -91.765          51.000
G03  20835471.531 7 109491162.031 7      1483.191          44.000    20835472.969 7  85317849.762 7      1155.734          44.000
G08  23582181.805 6 123925188.801 6     -3630.055          36.000    23582185.148 5  96565107.715 5     -2828.614          35.000
G11  20749661.680 8 109040221.153 8     -2306.855          51.000    20749662.055 8  84966375.398 8     -1797.550          48.000
G14  22187470.680 6 116595952.146 6     -1323.219          36.000    22187482.484 5  90854030.977 5     -1031.080          30.000
G22  20616537.977 8 108340733.679 8      -163.449          51.000    20616534.930 8  84421274.465 8      -127.363          51.000
G32  23282099.992 5 122348257.039 5     -2652.035          35.000    23282100.930 5  95336295.095 5     -2066.509          34.000
R06  19265327.867 8 102803493.990 8     -1139.719          49.000
R07  20396469.148 8 109183901.711 8      2653.020          51.000    20396473.594 7  84920817.937 7      2063.463          46.000
R20  23378949.336 5 125017749.704 5     -3982.648          32.000    23378955.734 6  97236047.312 6     -3097.612          41.000
R21  19412763.258 8 103881614.376 8     -1235.621          50.000    19412766.523 7  80796829.823 7      -961.039          44.000
C05                                                                  39680403.438 6 159776541.076 6       -24.877          36.000
C12  21751113.938 8 113263761.452 8     -1198.770          51.000    21751113.633 8  87582715.757 8      -927.031          51.000
C21  21760375.219 8 113312119.600 8       632.461          51.000
C22  23290974.695 7 121282305.249 7     -2207.988          46.000
E04  23645804.539 8 124259583.858 8       625.742          51.000    23645805.938 8  95211917.289 8       479.453          51.000
E09  24164930.812 7 126987564.756 7      2821.285          45.000    24164931.766 5  97302167.788 5      2162.243          35.000
E11  22443843.672 8 117943197.800 8       284.660          49.000    22443843.000 8  90372058.651 8       218.056          51.000
E12  23485538.055 8 123417317.840 8     -2134.590          51.000    23485539.086 8  94566510.447 8     -1635.580          49.000
> 2020 05 08 20 13  0.0000000  0 19        .000000000000
G01  20270812.266 8 106523842.020 8      -131.445          50.000    20270813.719 8  83005605.715 8      -102.425          51.000
G03  20827040.281 7 109446857.358 7      1470.824          43.000    20827042.883 7  85283326.638 7      1146.097          42.000
G08  23602920.031 5 124034160.921 5     -3635.082          35.000    23602921.961 5  96650021.008 5     -2832.534          35.000
G11  20762876.508 8 109109665.416 8     -2322.699          51.000    20762876.820 8  85020487.788 8     -1809.895          48.000
G14  22195075.977 6 116635918.369 6     -1340.945          36.000
G22  20617504.180 8 108345811.470 8      -174.984          51.000    20617501.234 8  84425231.205 8      -136.351          51.000
G32  23297275.758 5 122428003.275 5     -2664.570          35.000    23297277.609 6  95398434.965 6     -2076.286          36.000
R06  19271793.984 8 102837998.115 8     -1160.324          49.000
R07  20381652.359 8 109104581.682 8      2635.152          51.000    20381655.367 7  84859124.648 7      2049.566          45.000
R20  23401314.062 5 125137337.700 5     -3990.211          35.000    23401319.336 7  97329060.240 7     -3103.494          42.000
R21  19419754.016 8 103919022.918 8     -1258.191          49.000    19419756.922 7  80825925.301 7      -978.593          46.000
C05                                                                  39680589.992 6 159777292.712 6       -24.838          36.000
C12  21758064.820 8 113299958.644 8     -1214.227          51.000    21758064.961 8  87610705.668 8      -938.757          51.000
C21  21756769.859 8 113293344.274 8       619.398          51.000
C22  23303718.000 7 121348662.963 7     -2215.676          44.000
