     3.02           OBSERVATION DATA    M (MIXED)           RINEX VERSION / TYPE
SAVERINEX           SC600               20200518 115932 LCL PGM / RUN BY / DATE
       G = GPS       R = GLONASS       C = COMPASS          COMMENT
       S = SBAS      J = QZSS          E = GALILEO          COMMENT
BEAN                                                        MARKER NAME
1                                                           MARKER NUMBER
GEODETIC                                                    MARKER TYPE
Unige DICCA         GTER                                    OBSERVER / AGENCY
SC60291900056       SC600               2.12(191202)        REC # / TYPE / VERS
                    HEMA45          NONE                    ANT # / TYPE
  4509407.8091   693652.4678  4442337.6214                  APPROX POSITION XYZ
        0.0000        0.0000        0.0000                  ANTENNA: DELTA H/E/N
G    8 C1C L1C D1C S1C C2Y L2Y D2Y S2Y                      SYS / # / OBS TYPES
R    8 C1C L1C D1C S1C C2P L2P D2P S2P                      SYS / # / OBS TYPES
C    8 C1I L1I D1I S1I C7I L7I D7I S7I                      SYS / # / OBS TYPES
E    8 C1C L1C D1C S1C C7Q L7Q D7Q S7Q                      SYS / # / OBS TYPES
DBHZ                                                        COMMENT
     30.000                                                 INTERVAL
  2020    05    18    09    00    0.0000000     GPS         TIME OF FIRST OBS
  2020    05    18    09    59   30.0000000     GPS         TIME OF LAST OBS
     0                                                      RCV CLOCK OFFS APPL
G L1C  0.00000                                              SYS / PHASE SHIFT
G L2Y  0.00000                                              SYS / PHASE SHIFT
R L1C  0.00000                                              SYS / PHASE SHIFT
R L2P  0.25000                                              SYS / PHASE SHIFT
C L1I  0.00000                                              SYS / PHASE SHIFT
C L7I  0.00000                                              SYS / PHASE SHIFT
E L1C  0.50000                                              SYS / PHASE SHIFT
E L7Q -0.25000                                              SYS / PHASE SHIFT
 14 R03  5 R04  6 R05  1 R06 -4 R09 -2 R10 -5 R13 -2 R14 -7 GLONASS SLOT / FRQ #
    R15  0 R16 -1 R17  4 R18 -3 R19  3 R23  3               GLONASS SLOT / FRQ #
 C1C   71.950 C2C   71.950 C2P   71.950                     GLONASS COD/PHS/BIS
    18                                                      LEAP SECONDS
*** Above antenna height is from mark to ANTENNA BOTTOM.    COMMENT
    17     4        0.0000        ANT MEASURE TYPE/HEIGT    COMMENT
    0.0000    0.0000    0.0458    0.0405    0.0000          COMMENT
                    BASE STATION                            COMMENT
                                                            END OF HEADER
> 2020 05 18 09 00  0.0000000  0 15        .000000000000
G12  20286164.117 8 106604522.016 8      -966.945          51.000    20286163.016 8  83068459.183 8      -753.464          51.000
G24  21796780.766 7 114542840.308 7     -2717.824          43.000    21796782.523 7  89254153.671 7     -2117.785          42.000
G29  22465850.641 8 118058825.636 8      3291.066          51.000    22465852.156 8  91993894.697 8      2564.467          51.000
R06  23325588.930 6 124469808.261 6     -3641.027          37.000
R15  21648093.977 5 115680813.124 5     -2604.559          30.000    21648082.367 5  89973960.267 5     -2025.768          33.000
R16  19497574.570 6 104152597.231 6       384.395          36.000    19497578.719 5  81007540.146 5       298.974          33.000
R18  19768518.305 8 105525782.985 8      1336.902          49.000    19768522.953 8  82075598.130 8      1039.813          50.000
C11  23136800.297 8 120479403.933 8      2554.090          51.000    23136802.617 8  93162325.023 8      1975.036          51.000
C12  22321699.516 5 116235043.998 5      -573.352          35.000    22321700.508 8  89880275.613 8      -443.306          49.000
C24  23956446.016 5 124747427.586 5     -2302.844          33.000
C25  21772473.172 8 113374980.665 8       346.043          51.000
E13  24716242.391 8 129884751.415 8      1531.469          49.000    24716245.477 8  99522094.667 8      1173.502          48.000
E19                                                                  27272939.039 5 109816837.930 5     -2080.202          35.000
E21  23617997.820 8 124113422.490 8      -257.113          51.000    23618000.250 8  95099895.709 8      -197.024          51.000
E27  26124306.039 5 137284143.214 5     -2024.402          35.000
> 2020 05 18 09 00 30.0000000  0 16        .000000000000
G02  23090961.406 4 121343820.888 4       987.246          29.000
G12  20291722.852 8 106633733.136 8      -983.133          51.000    20291721.492 8  83091221.079 8      -766.081          51.000
G24  21812332.453 7 114624574.009 7     -2733.617          43.000    21812335.984 7  89317842.273 7     -2130.088          43.000
G29  22447098.172 8 117960281.105 8      3276.000          50.000    22447100.688 8  91917106.772 8      2552.727          50.000
R06  23346085.805 5 124579179.379 5     -3653.266          35.000
R16  19495460.938 6 104141303.483 6       365.863          37.000    19495464.734 5  80998756.098 5       284.560          33.000
R17  21229491.570 5 113603213.488 5     -2674.000          30.000
R18  19761088.672 7 105486125.688 7      1304.316          46.000    19761094.148 8  82044753.586 8      1014.468          49.000
C11  23122127.055 8 120402993.205 8      2537.320          51.000    23122128.875 8  93103239.440 8      1961.993          51.000
C12  22325057.586 5 116252532.513 5      -595.031          33.000    22325058.727 7  89893798.803 7      -460.288          47.000
C24  23969738.156 6 124816647.740 6     -2314.570          39.000
C25  21770517.336 8 113364796.249 8       330.410          51.000
E13  24707544.711 8 129839045.546 8      1512.973          48.000    24707546.922 7  99487073.281 7      1159.285          47.000
E19                                                                  27288458.031 5 109879329.709 5     -2087.712          34.000
E21  23619489.133 8 124121259.724 8      -267.977          51.000    23619491.406 8  95105900.870 8      -205.339          51.000
E27  26135887.352 5 137345008.972 5     -2032.941          32.000
> 2020 05 18 09 01  0.0000000  0 14        .000000000000
G02  23085352.266 5 121314345.294 5       978.477          31.000    23085340.930 5  94530615.865 5       762.449          30.000
G12  20297351.828 8 106663313.674 8      -988.961          51.000    20297350.523 8  83114270.843 8      -770.619          51.000
G24  21827954.805 7 114706671.750 7     -2739.453          43.000    21827958.625 7  89381814.543 7     -2134.642          43.000
G29  22428411.031 8 117862078.443 8      3270.871          51.000    22428413.789 8  91840585.237 8      2548.731          51.000
R06  23366630.320 5 124688803.666 5     -3655.754          35.000
R16  19493429.133 6 104130445.760 6       357.949          37.000    19493432.812 5  80990311.198 5       278.405          34.000
R18  19753820.656 7 105447331.749 7      1281.953          47.000    19753826.789 8  82014580.506 8       997.072          48.000
C11  23107528.555 8 120326973.500 8      2530.488          50.000    23107530.023 8  93044456.235 8      1956.797          51.000
C12  22328521.242 5 116270568.715 5      -606.996          33.000    22328522.305 8  89907745.458 8      -469.600          48.000
C24  23983080.352 6 124886116.867 6     -2316.801          37.000
C25  21768629.242 8 113354965.110 8       324.824          51.000
E13  24698930.289 8 129793777.883 8      1504.727          48.000    24698931.742 7  99452387.673 7      1152.921          47.000
E19                                                                  27304011.086 5 109941956.818 5     -2087.631          33.000
E21  23621020.172 8 124129306.112 8      -268.625          51.000    23621022.406 8  95112066.285 8      -205.812          51.000
> 2020 05 18 09 01 30.0000000  0 15        .000000000000
G12  20303031.031 8 106693158.347 8     -1000.039          51.000    20303029.797 8  83137526.429 8      -779.251          51.000
G24  21843627.484 7 114789028.145 7     -2750.293          47.000    21843630.641 7  89445988.301 7     -2143.088          47.000
G25  20356513.078 5 106974212.824 5       916.098          32.000    20356520.227 5  83356535.954 5       713.842          34.000
G29  22409769.719 8 117764115.147 8      3260.672          51.000    22409771.641 8  91764250.268 8      2540.786          51.000
R06  23387201.266 5 124798570.508 5     -3662.055          34.000
R15  21692192.578 5 115916467.231 5     -2630.809          33.000    21692198.109 5  90157262.196 5     -2046.184          33.000
R16  19491459.008 6 104119919.132 6       344.730          38.000    19491461.578 5  80982123.843 5       268.127          32.000
R18  19746695.500 8 105409297.358 8      1254.387          49.000    19746701.781 8  81984998.194 8       975.634          48.000
C11  23092985.203 8 120251243.342 8      2518.773          50.000    23092986.375 8  92985896.942 8      1947.585          51.000
C12  22332070.016 6 116289048.473 6      -623.824          36.000    22332071.305 7  89922035.183 7      -482.704          47.000
C24  23996449.094 6 124955731.609 6     -2323.574          40.000
C25  21766789.227 8 113345384.937 8       314.395          51.000
E13  24690380.023 8 129748845.613 8      1491.395          48.000    24690381.320 8  99417959.058 8      1142.706          48.000
E19  27319584.828 5 143565390.717 5     -2729.000          33.000    27319578.188 5 110004619.968 5     -2091.136          32.000
E21  23622571.180 8 124137457.729 8      -274.277          51.000    23622573.422 8  95118312.327 8      -210.173          51.000
> 2020 05 18 09 02  0.0000000  0 16        .000000000000
G12  20308770.484 8 106723319.428 8     -1006.410          51.000    20308769.367 8  83161028.564 8      -784.216          51.000
G24  21859359.242 8 114871693.984 8     -2756.402          50.000    21859361.984 8  89510403.189 8     -2147.849          50.000
G25  20351311.906 5 106946826.407 5       910.102          32.000
G29  22391184.523 8 117666446.433 8      3254.801          51.000    22391184.883 8  91688144.880 8      2536.211          51.000
R06  23407804.414 5 124908552.588 5     -3662.863          31.000
R15  21706989.688 6 115995532.691 6     -2635.277          36.000    21706994.469 4  90218757.536 4     -2049.657          28.000
R16  19489560.969 6 104109778.914 6       335.953          39.000    19489563.266 5  80974237.005 5       261.300          32.000
R17  21274922.688 5 113846322.961 5     -2727.918          34.000    21274929.875 5  88547173.836 5     -2121.714          30.000
R18  19739723.445 8 105372077.411 8      1231.355          51.000    19739729.047 8  81956049.367 8       957.724          48.000
C11  23078507.680 8 120175856.952 8      2511.285          49.000    23078508.680 8  92927603.439 8      1941.894          51.000
C12  22335713.883 6 116308023.356 6      -636.723          39.000    22335715.070 7  89936707.723 7      -492.252          45.000
C24  24009857.133 6 125025543.691 6     -2326.066          38.000
C25  21765007.414 8 113336108.965 8       308.195          51.000
E13  24681903.773 8 129704302.796 8      1482.457          48.000    24681905.156 8  99383828.889 8      1135.927          48.000
E19  27335176.289 6 143647311.681 6     -2728.730          36.000    27335168.602 5 110067396.302 5     -2090.609          31.000
E21  23624152.305 8 124145767.624 8      -275.438          51.000    23624154.578 8  95124679.649 8      -211.047          51.000
> 2020 05 18 09 02 30.0000000  0 13        .000000000000
G12  20314568.602 8 106753788.427 8     -1032.152          51.000    20314567.688 8  83184770.643 8      -804.275          51.000
G24  21875148.320 8 114954661.126 8     -2781.965          51.000    21875150.227 8  89575052.878 8     -2167.765          51.000
G25  20346177.617 5 106919884.356 5       882.902          31.000    20346181.758 5  83314186.651 5       687.982          30.000
G29  22372654.102 8 117569066.579 8      3229.762          51.000    22372653.484 8  91612264.583 8      2516.700          51.000
R16  19487734.000 6 104100017.955 6       307.348          38.000    19487735.812 5  80966645.170 5       239.048          33.000
R18  19732902.938 8 105335665.423 8      1188.672          51.000    19732907.953 8  81927728.976 8       924.526          48.000
C11  23064095.016 8 120100808.292 8      2484.586          49.000    23064095.883 8  92869571.078 8      1921.324          51.000
C12  22339451.711 6 116327484.566 6      -668.078          40.000    22339452.219 7  89951756.373 7      -516.576          45.000
C24  24023298.680 4 125095545.334 4     -2348.238          29.000
C25  21763282.828 8 113327130.223 8       283.105          51.000
E13  24673500.469 8 129660142.816 8      1454.176          49.000    24673501.547 7  99349992.037 7      1114.310          47.000
E19  27350787.977 6 143729348.881 6     -2747.773          37.000    27350780.195 5 110130256.929 5     -2105.392          31.000
E21  23625762.156 8 124154228.121 8      -295.977          51.000    23625764.312 8  95131162.367 8      -226.775          51.000
> 2020 05 18 09 03  0.0000000  0 15        .000000000000
G06  23499089.680 6 123488553.874 6      -395.477          37.000
G12  20320444.836 8 106784667.862 8     -1031.668          51.000    20320443.938 8  83208832.542 8      -803.894          51.000
G24  21891013.875 8 115038030.652 8     -2781.281          51.000    21891015.102 8  89640016.111 8     -2167.232          51.000
G25  20341122.984 5 106893319.905 5       882.785          33.000    20341124.242 5  83293487.127 5       687.885          34.000
G29  22354198.266 8 117472081.022 8      3230.754          51.000    22354197.789 8  91536691.504 8      2517.474          51.000
R16  19485997.789 6 104090742.695 6       305.676          39.000    19485998.219 5  80959431.069 5       237.748          33.000
R17  21305759.031 4 114011422.546 4     -2772.527          29.000
R18  19726253.477 8 105300168.048 8      1172.535          51.000    19726257.820 8  81900119.978 8       911.975          48.000
C11  23049767.594 8 120026201.778 8      2483.949          49.000    23049768.016 8  92811880.626 8      1920.656          51.000
C12  22343302.141 6 116347533.950 6      -673.664          41.000    22343302.641 7  89967259.913 7      -521.029          44.000
C24  24036798.961 5 125165838.157 5     -2343.574          32.000
C25  21761635.523 8 113318552.201 8       283.668          51.000
E13  24665189.938 8 129616470.459 8      1452.066          49.000    24665190.789 8  99316528.814 8      1112.589          48.000
E19  27366439.852 6 143811599.277 6     -2740.629          38.000    27366432.727 5 110193280.919 5     -2100.091          32.000
E21  23627420.516 8 124162942.989 8      -290.281          51.000    23627422.359 8  95137839.987 8      -222.429          51.000
> 2020 05 18 09 03 30.0000000  0 13        .000000000000
G06  23501382.031 6 123500605.231 6      -408.391          38.000    23501380.961 5  96234205.993 5      -318.223          35.000
G12  20326344.125 8 106815668.663 8     -1035.648          51.000    20326343.141 8  83232989.005 8      -806.999          51.000
G24  21906900.672 8 115121513.960 8     -2784.895          51.000    21906901.336 8  89705068.003 8     -2170.048          51.000
G29  22335762.664 8 117375203.969 8      3227.152          50.000    22335762.797 8  91461202.950 8      2514.664          50.000
R16  19484297.906 6 104081661.595 6       299.086          39.000    19484298.414 5  80952367.985 5       232.622          34.000
R18  19719720.820 8 105265294.271 8      1151.773          51.000    19719724.461 8  81872995.947 8       895.824          48.000
C11  23035470.906 8 119951753.675 8      2478.754          48.000    23035470.867 8  92754312.650 8      1916.715          51.000
C12  22347210.891 7 116367885.081 7      -683.617          43.000    22347209.992 6  89982996.683 6      -528.538          40.000
C24  24050298.531 6 125236136.766 6     -2343.398          36.000
C25  21760010.742 8 113310090.263 8       279.895          51.000
E13  24656917.484 8 129572998.837 8      1445.500          48.000    24656918.844 8  99283219.418 8      1107.612          49.000
E19  27382076.656 5 143893772.611 5     -2737.793          35.000    27382070.867 5 110256251.881 5     -2097.987          32.000
E21  23629072.617 8 124171624.346 8      -289.031          51.000    23629074.117 8  95144491.944 8      -221.463          51.000
> 2020 05 18 09 04  0.0000000  0 14        .000000000000
G06  23503816.289 6 123513402.571 6      -436.797          36.000    23503821.719 6  96244178.001 6      -340.361          37.000
G12  20332335.070 8 106847151.429 8     -1055.402          51.000    20332334.148 8  83257521.026 8      -822.391          51.000
G24  21922877.109 8 115205470.890 8     -2804.309          50.000    21922877.984 8  89770488.954 8     -2185.176          50.000
G29  22317416.922 8 117278798.678 8      3207.727          50.000    22317417.141 8  91386082.000 8      2499.530          50.000
G32  22141714.164 5 116355487.299 5      -134.145          32.000
R16  19482703.047 6 104073143.222 6       276.805          39.000    19482704.125 5  80945742.566 5       215.293          35.000
R18  19713373.484 8 105231412.631 8      1114.898          51.000    19713377.359 8  81846643.589 8       867.143          49.000
C11  23021273.641 8 119877824.032 8      2457.652          49.000    23021273.617 8  92697145.570 8      1900.573          51.000
C12  22351246.109 7 116388895.185 7      -709.207          44.000    22351244.102 7  89999242.996 7      -548.407          42.000
C24  24063867.289 6 125306799.071 6     -2359.270          38.000
C25  21758477.148 8 113302103.398 8       260.391          51.000
E13  24648752.336 8 129530090.652 8      1423.000          49.000    24648754.273 8  99250341.717 8      1090.348          49.000
E19  27397766.492 5 143976237.588 5     -2751.188          33.000    27397762.867 5 110319434.352 5     -2107.933          32.000
E21  23630787.188 8 124180633.812 8      -303.680          51.000    23630788.453 8  95151395.305 8      -232.642          51.000
> 2020 05 18 09 04 30.0000000  0 15        .000000000000
G06  23506361.250 6 123526780.935 6      -454.930          37.000    23506366.852 6  96254602.754 6      -354.488          37.000
G12  20338386.203 8 106878950.609 8     -1064.902          51.000    20338385.508 8  83282299.597 8      -829.794          51.000
G24  21938911.492 7 115289734.681 7     -2813.500          46.000    21938913.180 7  89836149.042 7     -2192.338          46.000
G25  20326296.180 6 106815357.038 6       847.836          37.000    20326297.359 6  83232786.746 6       660.651          36.000
G29  22299130.258 8 117182702.595 8      3198.359          50.000    22299130.242 8  91311201.976 8      2492.231          50.000
R16  19481182.430 6 104065021.253 6       264.121          40.000    19481184.570 6  80939425.470 6       205.428          36.000
R17  21352934.875 5 114263805.921 5     -2834.539          34.000
R18  19707180.758 8 105198357.029 8      1088.449          50.000    19707185.141 8  81820933.690 8       846.572          50.000
C11  23007144.523 8 119804251.175 8      2446.820          49.000    23007145.141 8  92640254.374 8      1892.139          51.000
C12  22355376.039 7 116410399.849 7      -724.727          45.000    22355374.711 6  90015871.834 6      -560.344          40.000
C24  24077475.461 6 125377661.148 6     -2364.840          38.000
C25  21757003.297 8 113294429.093 8       251.020          50.000
E13  24640663.242 8 129487582.187 8      1410.637          49.000    24640665.492 8  99217770.302 8      1080.907          49.000
E19                                                                  27413476.773 5 110382703.360 5     -2110.001          32.000
E21  23632532.875 8 124189806.774 8      -308.035          51.000    23632534.016 8  95158423.940 8      -236.039          51.000
> 2020 05 18 09 05  0.0000000  0 16        .000000000000
G06  23509014.117 5 123540721.671 5      -475.906          35.000    23509018.766 6  96265465.691 6      -370.833          36.000
G12  20344493.820 8 106911046.980 8     -1076.492          51.000    20344493.336 8  83307309.755 8      -838.825          51.000
G24  21955000.375 7 115374285.787 7     -2824.809          47.000    21955002.539 7  89902033.027 7     -2201.153          47.000
G25  20321488.016 6 106790093.730 6       835.098          36.000    20321488.375 6  83213101.067 6       650.725          36.000
G29  22280899.508 8 117086899.213 8      3186.793          50.000    22280899.195 8  91236550.040 8      2483.218          50.000
R15  21796791.289 6 116475363.989 6     -2692.852          36.000
R16  19479732.547 6 104057277.802 6       249.949          40.000    19479735.125 6  80933402.782 6       194.405          36.000
R17  21368886.727 5 114349140.891 5     -2855.762          32.000
R18  19701139.445 8 105166109.943 8      1059.723          49.000    19701144.219 8  81795852.619 8       824.229          49.000
C11  22993080.531 8 119731018.439 8      2433.832          48.000    22993082.031 8  92583626.185 8      1881.921          51.000
C12  22359597.266 7 116432379.838 7      -742.215          44.000    22359596.055 5  90032868.152 5      -573.916          35.000
C24  24091118.078 6 125448704.266 6     -2372.789          40.000
C25  21755586.039 8 113287049.795 8       239.387          50.000
E13  24632646.766 8 129445456.058 8      1396.145          50.000    24632649.344 8  99185491.857 8      1069.785          49.000
E19                                                                  27429208.367 5 110446045.187 5     -2114.222          32.000
E21  23634306.234 8 124199124.886 8      -314.664          51.000    23634307.273 8  95165563.806 8      -241.088          51.000
> 2020 05 18 09 05 30.0000000  0 16        .000000000000
G02  23038675.352 5 121069053.371 5       827.387          32.000
G06  23511783.555 6 123555274.943 6      -503.668          36.000    23511789.211 5  96276805.843 5      -392.472          33.000
G12  20350667.328 8 106943489.857 8     -1095.926          51.000    20350667.008 8  83332589.903 8      -853.968          51.000
G24  21971153.820 8 115459173.923 8     -2843.844          50.000    21971156.148 8  89968179.577 8     -2215.985          49.000
G25  20316749.555 5 106765200.347 5       814.984          32.000    20316751.117 5  83193703.654 5       635.059          31.000
G29  22262734.414 8 116991440.855 8      3167.555          50.000    22262733.594 8  91162166.960 8      2468.227          50.000
R16  19478363.516 6 104049965.527 6       227.723          41.000    19478366.938 6  80927715.429 6       177.115          38.000
R17  21384952.602 5 114435105.680 5     -2884.844          32.000
R18  19695259.516 8 105134723.589 8      1023.094          50.000    19695264.539 8  81771441.019 8       795.743          51.000
C11  22979091.680 8 119658177.449 8      2412.941          48.000    22979093.977 8  92527300.946 8      1865.915          51.000
C12  22363918.641 7 116454883.982 7      -767.461          43.000    22363917.000 6  90050269.751 6      -593.434          37.000
C24  24104805.633 6 125519977.875 6     -2387.930          36.000
C25  21754235.078 8 113280016.225 8       220.164          49.000
E13  24624712.953 8 129403763.771 8      1373.871          50.000    24624715.750 8  99153545.843 8      1052.748          49.000
E19                                                                  27444966.688 5 110509507.843 5     -2123.566          30.000
E21  23636116.805 8 124208638.665 8      -328.934          51.000    23636117.922 8  95172853.591 8      -252.052          51.000
> 2020 05 18 09 06  0.0000000  0 19        .000000000000
G02  23033937.125 6 121044154.304 6       822.559          36.000    23033941.750 5  94320151.794 5       640.955          32.000
G06  23514653.914 5 123570359.604 5      -512.203          34.000    23514661.695 5  96288560.099 5      -399.125          34.000
G12  20356891.336 8 106976197.855 8     -1094.680          50.000    20356891.047 8  83358076.656 8      -852.997          50.000
G24  21987356.180 8 115544315.882 8     -2842.199          51.000    21987358.656 8  90034523.893 8     -2214.704          51.000
G25  20312066.531 5 106740596.322 5       815.086          34.000    20312068.938 5  83174531.755 5       635.132          34.000
G29  22244619.977 8 116896248.926 8      3168.598          50.000    22244618.859 8  91087991.504 8      2469.040          50.000
G32  22145667.883 5 116376285.508 5      -209.621          35.000
R15  21827116.414 6 116637441.564 6     -2707.469          38.000
R16  19477060.195 6 104043003.221 6       226.129          41.000    19477063.891 6  80922300.320 6       175.878          38.000
R17  21401119.836 5 114521613.774 5     -2892.582          34.000
R18  19689526.094 8 105104117.464 8      1007.262          51.000    19689531.266 8  81747636.269 8       783.426          51.000
R19  21805108.117 6 116642637.642 6      4213.402          37.000    21805107.398 5  90722048.621 5      3277.091          33.000
C11  22965163.039 8 119585649.839 8      2412.273          48.000    22965165.641 8  92471218.037 8      1865.419          51.000
C12  22368325.203 7 116477831.212 7      -772.301          44.000    22368324.961 5  90068014.088 5      -596.941          32.000
C24  24118522.594 6 125591401.596 6     -2383.312          37.000
C25  21752935.203 8 113273249.156 8       221.125          49.000
E13  24616846.539 8 129362425.666 8      1372.074          49.000    24616849.086 8  99121871.212 8      1051.315          49.000
E19  27460737.586 5 144307149.427 5     -2762.582          32.000
E21  23637949.234 8 124218267.574 8      -322.836          51.000    23637950.594 8  95180231.580 8      -247.335          51.000
> 2020 05 18 09 06 30.0000000  0 16        .000000000000
G02  23029313.133 6 121019849.083 6       801.004          37.000
G12  20363196.742 8 107009332.811 8     -1110.586          51.000    20363196.383 8  83383896.111 8      -865.392          51.000
G24  22003637.789 8 115629873.220 8     -2857.812          51.000    22003640.742 8  90101191.892 8     -2226.870          51.000
G29  22226587.625 8 116801487.991 8      3152.504          50.000    22226587.211 8  91014151.887 8      2456.500          50.000
G32  22146950.180 5 116383019.433 5      -235.188          34.000    22146951.812 4  90688038.349 4      -183.260          29.000
R15  21842360.906 4 116718931.748 4     -2720.902          28.000    21842373.469 4  90781458.439 4     -2116.266          28.000
R16  19475853.312 6 104036557.699 6       207.238          41.000    19475857.195 6  80917287.138 6       161.185          38.000
R18  19683970.227 8 105074457.623 8       973.875          51.000    19683974.820 8  81724567.502 8       757.458          50.000
R19  21781534.383 5 116516535.219 5      4197.340          35.000    21781535.664 6  90623968.997 6      3264.601          38.000
C11  22951325.914 8 119513598.607 8      2394.680          48.000    22951328.602 8  92415503.487 8      1851.839          51.000
C12  22372847.961 7 116501381.764 7      -793.969          43.000
C24  24132300.367 6 125663135.984 6     -2395.270          36.000
C25  21751717.844 8 113266910.623 8       205.098          49.000
E13  24609078.227 7 129321605.602 7      1353.156          47.000    24609080.883 8  99090593.525 8      1036.789          48.000
E19  27476550.133 5 144390244.068 5     -2772.410          33.000
E21  23639834.531 8 124228174.496 8      -333.816          51.000    23639836.156 8  95187822.598 8      -255.737          51.000
> 2020 05 18 09 07  0.0000000  0 13        .000000000000
G02  23024783.273 5 120996051.857 5       789.293          30.000
G12  20369566.781 8 107042807.038 8     -1116.121          51.000    20369566.359 8  83409979.924 8      -869.705          51.000
G24  22019981.445 8 115715757.432 8     -2862.953          51.000    22019984.445 8  90168114.615 8     -2230.873          51.000
G29  22208621.383 8 116707073.191 8      3146.660          51.000    22208621.922 8  90940581.965 8      2451.946          50.000
R16  19474726.625 6 104030541.473 6       198.918          41.000    19474730.750 6  80912607.854 6       154.714          38.000
R18  19678575.148 8 105045657.110 8       951.086          51.000    19678579.602 8  81702167.109 8       739.737          51.000
R19  21758027.375 5 116390795.912 5      4190.035          30.000    21758030.617 6  90526171.785 6      3258.916          40.000
C11  22937564.289 8 119441939.404 8      2387.398          49.000    22937567.070 8  92360092.095 8      1846.034          51.000
C12  22377469.531 7 116525448.530 7      -805.445          42.000    22377492.562 5  90104809.496 5      -623.193          31.000
C25  21750566.797 8 113260915.472 8       199.449          50.000
E13  24601391.984 7 129281217.973 7      1344.367          47.000    24601395.328 8  99059647.197 8      1030.037          49.000
E19  27492386.320 5 144473466.171 5     -2771.262          32.000
E21  23641756.266 8 124238272.942 8      -334.488          51.000    23641758.141 8  95195560.367 8      -256.344          51.000
> 2020 05 18 09 07 30.0000000  0 15        .000000000000
G02  23020330.062 5 120972649.868 5       772.332          34.000
G12  20375980.672 8 107076511.873 8     -1127.500          51.000    20375980.188 8  83436243.436 8      -878.571          51.000
G24  22036366.312 8 115801859.844 8     -2873.832          51.000    22036369.320 8  90235207.369 8     -2239.350          51.000
G25  20298468.555 6 106669146.094 6       779.484          37.000    20298469.273 6  83118829.068 6       607.390          38.000
G29  22190700.945 8 116612898.645 8      3134.871          51.000    22190702.109 8  90867199.236 8      2442.757          51.000
R15  21872996.914 5 116882602.778 5     -2734.281          35.000
R16  19473660.516 7 104024846.289 7       184.266          42.000    19473664.234 6  80908178.269 6       143.318          39.000
R18  19673320.773 8 105017607.667 8       922.254          51.000    19673325.195 8  81680350.886 8       717.309          50.000
C11  22923858.156 8 119370567.023 8      2374.062          49.000    22923860.648 8  92304902.464 8      1835.806          51.000
C12  22382169.508 6 116549923.597 6      -822.711          41.000
C24  24159958.305 5 125807240.279 5     -2405.328          35.000
C25  21749461.469 8 113255157.595 8       187.781          50.000
E13  24593767.859 7 129241155.938 7      1329.785          47.000    24593771.719 8  99028950.305 8      1018.905          48.000
E19  27508225.930 4 144556702.720 4     -2776.582          28.000
E21  23643693.953 8 124248455.133 8      -341.016          51.000    23643696.094 8  95203362.307 8      -261.292          51.000
> 2020 05 18 09 08  0.0000000  0 17        .000000000000
G02  23015958.195 5 120949672.113 5       762.355          33.000
G06  23527294.281 5 123636759.220 5      -584.598          34.000
G12  20382442.977 8 107110471.250 8     -1132.223          51.000    20382442.328 8  83462705.284 8      -882.251          51.000
G24  22052796.664 8 115888203.212 8     -2877.883          49.000    22052799.906 8  90302487.872 8     -2242.506          49.000
G25  20294042.781 5 106645899.754 5       774.551          31.000    20294046.156 5  83100715.119 5       603.546          30.000
G29  22172830.953 8 116518991.117 8      3129.648          49.000    22172832.453 8  90794024.559 8      2438.687          49.000
R15  21888367.062 5 116964739.922 5     -2737.309          34.000    21888383.102 4  90972653.830 4     -2129.024          27.000
R16  19472659.578 7 104019498.452 7       176.441          42.000    19472662.609 6  80904018.837 6       137.232          38.000
R17  21466940.547 5 114873823.331 5     -2965.973          35.000
R18  19668211.773 8 104990335.280 8       900.223          51.000    19668215.844 8  81659139.029 8       700.173          49.000
R19  21711165.195 5 116140066.745 5      4172.242          34.000    21711170.500 7  90331183.561 7      3245.077          43.000
C11  22910212.344 8 119299507.474 8      2367.422          51.000    22910214.156 8  92249954.737 8      1830.517          51.000
C12  22386952.570 6 116574830.289 6      -833.297          41.000    22386955.805 4  90142986.743 4      -644.899          29.000
C24  24173828.406 5 125879457.493 5     -2405.195          33.000
C25  21748406.414 8 113249662.202 8       182.719          50.000
E13  24586210.797 8 129201445.213 8      1321.770          48.000    24586215.031 8  98998522.613 8      1012.775          48.000
E21  23645652.289 8 124258745.973 8      -340.891          51.000    23645654.695 8  95211247.500 8      -261.235          51.000
> 2020 05 18 09 08 30.0000000  0 14        .000000000000
G02  23011679.102 5 120927178.624 5       740.129          34.000
G12  20388964.773 8 107144742.969 8     -1149.578          51.000    20388963.938 8  83489410.512 8      -895.775          51.000
G24  22069283.617 7 115974845.225 7     -2894.949          46.000    22069287.234 7  90370001.092 7     -2255.805          47.000
G29  22155022.586 8 116425411.568 8      3111.879          48.000    22155024.375 8  90721105.435 8      2424.841          48.000
R16  19471735.078 7 104014558.671 7       155.746          43.000    19471737.453 6  80900176.800 6       121.136          39.000
R17  21483653.070 6 114963247.398 6     -2992.613          36.000
R18  19663259.625 8 104963900.586 8       865.113          51.000    19663263.758 8  81638578.736 8       672.866          49.000
R19  21687829.906 6 116015222.137 6      4153.484          36.000    21687832.242 7  90234082.233 7      3230.491          43.000
C11  22896638.102 8 119228820.865 8      2347.930          51.000    22896639.109 8  92195295.388 8      1815.771          51.000
C12  22391829.977 6 116600225.731 6      -856.605          41.000    22391832.852 6  90162623.694 6      -662.539          38.000
C24  24187732.734 5 125951874.968 5     -2419.055          30.000
C25  21747413.062 8 113244488.365 8       165.117          51.000
E13  24578732.594 8 129162145.677 8      1301.191          49.000    24578736.633 8  98968409.987 8       997.017          49.000
E21  23647642.406 8 124269204.473 8      -353.367          51.000    23647645.016 8  95219261.152 8      -270.720          51.000
> 2020 05 18 09 09  0.0000000  0 16        .000000000000
G12  20395553.617 8 107179366.853 8     -1157.594          51.000    20395552.656 8  83516390.158 8      -902.021          51.000
G24  22085834.344 7 116061824.714 7     -2902.391          45.000    22085838.875 7  90437777.326 7     -2261.600          45.000
G25  20285400.031 5 106600490.023 5       746.738          33.000    20285397.188 5  83065312.810 5       581.871          33.000
G29  22137284.641 8 116332202.231 8      3103.105          49.000    22137286.172 8  90648474.788 8      2418.004          48.000
G32  22154975.023 5 116425157.456 5      -328.125          32.000    22154969.227 5  90720896.349 5      -255.688          32.000
R15  21919271.000 4 117129933.032 4     -2759.012          29.000
R16  19470894.977 7 104010069.497 7       144.555          44.000    19470897.039 6  80896685.210 6       112.431          40.000
R17  21500477.094 4 115053395.699 4     -3009.152          29.000    21500491.609 4  89486034.981 4     -2340.452          28.000
R18  19658472.508 8 104938345.806 8       839.594          51.000    19658476.453 7  81618702.820 7       653.020          47.000
R19  21664566.148 6 115890773.736 6      4143.941          38.000    21664567.656 7  90137289.102 7      3223.069          42.000
C11  22883143.172 8 119158549.001 8      2337.844          50.000    22883143.633 8  92140956.780 8      1807.769          51.000
C12  22396808.422 6 116626149.185 6      -870.703          38.000    22396810.078 6  90182669.421 6      -673.071          37.000
C24  24201684.016 5 126024530.113 5     -2422.711          31.000
C25  21746489.328 8 113239677.109 8       156.688          51.000
E13  24571341.203 8 129123299.015 8      1289.781          50.000    24571344.336 8  98938644.365 8       988.310          49.000
E21  23649672.188 8 124279871.485 8      -356.605          51.000    23649674.828 8  95227434.583 8      -273.264          51.000
> 2020 05 18 09 09 30.0000000  0 19        .000000000000
G02  23003419.453 6 120883755.842 6       706.574          38.000    23003425.438 4  94195180.735 4       550.577          26.000
G06  23537902.547 4 123692534.542 4      -649.086          29.000
G12  20402201.102 8 107214299.109 8     -1170.766          51.000    20402200.070 8  83543610.081 8      -912.285          51.000
G24  22102440.547 7 116149097.015 7     -2915.332          46.000    22102445.664 7  90505781.766 7     -2271.684          46.000
G25  20281178.266 5 106578306.070 5       732.445          31.000    20281178.070 5  83048026.691 5       570.743          31.000
G29  22119610.102 8 116239322.235 8      3089.250          50.000    22119610.672 8  90576100.787 8      2407.208          50.000
G32  22156912.008 5 116435344.758 5      -350.402          35.000    22156912.477 5  90728834.634 5      -273.035          33.000
R15  21934778.492 4 117212806.999 4     -2769.324          29.000
R16  19470131.250 7 104005988.343 7       128.020          44.000    19470133.148 6  80893511.001 6        99.571          40.000
R17  21517408.984 4 115144000.417 4     -3031.066          29.000
R18  19653841.969 8 104913627.924 8       808.707          51.000    19653845.719 8  81599477.848 8       628.997          48.000
R19  21641368.961 6 115766681.826 6      4129.164          38.000    21641368.625 6  90040773.271 6      3211.575          40.000
C11  22869720.047 8 119088650.748 8      2322.512          50.000    22869720.117 8  92086907.055 8      1795.877          51.000
C12  22401879.602 6 116652556.713 6      -889.496          39.000    22401877.227 5  90203089.346 5      -688.129          35.000
C24  24215670.914 5 126097360.095 5     -2432.719          33.000
C25  21745627.109 8 113235186.569 8       143.180          51.000
E13  24564027.562 8 129084863.191 8      1273.035          50.000    24564030.625 8  98909193.566 8       975.481          49.000
E21  23651733.555 8 124290704.135 8      -365.051          51.000    23651736.047 8  95235734.927 8      -279.777          51.000
E26  25686632.070 7 134984161.533 7      3138.727          43.000    25686637.820 5 103429429.976 5      2404.923          35.000
> 2020 05 18 09 10  0.0000000  0 16        .000000000000
G02  22999432.930 5 120862820.250 5       683.320          32.000
G12  20408918.961 8 107249601.567 8     -1188.645          51.000    20408918.016 8  83571118.478 8      -926.217          51.000
G24  22119115.086 7 116236723.300 7     -2932.492          47.000    22119119.664 7  90574062.022 7     -2285.059          47.000
G25  20277033.242 5 106556524.153 5       714.137          33.000    20277034.617 5  83031053.813 5       556.473          34.000
G29  22102011.078 8 116146836.159 8      3070.656          51.000    22102009.930 8  90504033.748 8      2392.719          51.000
R15  21950359.547 4 117296065.492 4     -2787.383          27.000
R16  19469455.891 7 104002379.730 7       106.387          44.000    19469457.859 6  80890704.302 6        82.745          41.000
R18  19649380.500 8 104889811.767 8       772.992          51.000    19649383.836 7  81580954.196 7       601.216          47.000
R19  21618250.672 6 115643014.482 6      4109.289          37.000    21618248.938 6  89944587.661 6      3196.117          40.000
C11  22856381.133 8 119019189.994 8      2302.332          50.000    22856380.945 8  92033195.623 8      1780.297          51.000
C12  22407056.305 6 116679509.523 6      -913.453          38.000    22407052.570 7  90223930.929 7      -706.213          42.000
C24  24229710.477 6 126170468.361 6     -2446.961          37.000
C25  21744838.312 8 113231079.700 8       124.785          51.000
E13  24556804.320 8 129046902.020 8      1251.660          51.000    24556807.141 8  98880106.445 8       959.079          49.000
E21  23653838.398 8 124301765.412 8      -378.301          51.000    23653840.758 8  95244210.445 8      -289.903          51.000
E26  25668726.406 7 134890064.744 7      3128.387          44.000    25668731.125 5 103357329.930 5      2396.800          33.000
> 2020 05 18 09 10 30.0000000  0 15        .000000000000
G02  22995547.133 5 120842402.639 5       675.176          34.000
G12  20415701.148 8 107285242.172 8     -1190.348          51.000    20415700.344 8  83598890.362 8      -927.547          51.000
G24  22135851.719 8 116324671.786 8     -2933.645          49.000    22135855.695 8  90642593.294 8     -2285.960          49.000
G29  22084481.625 8 116054714.895 8      3067.961          51.000    22084479.016 8  90432250.989 8      2390.622          51.000
R16  19468863.273 7 103999213.525 7       101.555          44.000    19468865.664 6  80888241.696 6        78.987          41.000
R17  21551604.188 4 115326963.048 4     -3067.031          29.000
R18  19645081.984 8 104866866.460 8       753.605          51.000    19645085.266 7  81563107.877 7       586.141          47.000
R19  21595205.062 5 115519744.135 5      4105.781          35.000    21595205.023 7  89848710.789 7      3193.388          42.000
C11  22843120.414 8 118950137.453 8      2298.199          48.000    22843120.375 8  91979799.834 8      1777.147          51.000
C12  22412330.359 5 116706975.206 5      -920.832          35.000    22412326.664 6  90245169.259 6      -712.009          41.000
C24  24243793.719 5 126243802.759 5     -2444.734          35.000
C25  21744117.555 8 113227326.372 8       122.473          51.000
E13  24549665.406 8 129009385.306 8      1246.512          49.000    24549668.039 8  98851359.874 8       955.188          49.000
E21  23655980.797 8 124313024.297 8      -375.273          51.000    23655983.125 8  95252837.375 8      -287.553          51.000
E26  25650842.242 7 134796085.343 7      3134.109          44.000    25650844.898 5 103285324.803 5      2401.448          32.000
> 2020 05 18 09 11  0.0000000  0 15        .000000000000
G02  22991742.703 5 120822410.547 5       658.418          34.000
G12  20422529.844 8 107321127.036 8     -1201.156          51.000    20422529.055 8  83626852.576 8      -935.966          51.000
G24  22152631.812 8 116412847.230 8     -2944.004          49.000    22152634.688 8  90711301.396 8     -2294.032          49.000
G25  20268938.562 5 106513970.929 5       698.863          35.000    20268938.141 6  82997902.334 6       544.578          36.000
G29  22067003.906 8 115962866.992 8      3056.004          50.000    22067000.898 8  90360681.255 8      2381.302          50.000
R16  19468335.930 7 103996395.944 7        87.051          45.000    19468338.477 7  80886050.238 7        67.706          42.000
R18  19640929.203 8 104844697.844 8       724.992          51.000    19640932.188 8  81545865.640 8       563.883          48.000
R19  21572216.352 6 115396780.110 6      4092.793          36.000    21572218.656 7  89753072.081 7      3183.283          43.000
C11  22829920.102 7 118881402.367 7      2285.043          47.000    22829920.742 8  91926649.533 8      1766.717          51.000
C12  22417686.477 5 116734860.534 5      -937.629          35.000    22417681.891 6  90266731.914 6      -724.937          41.000
C24  24257903.242 6 126317270.415 6     -2452.363          36.000
C25  21743447.203 8 113223834.953 8       111.012          51.000
E13  24542593.102 8 128972220.841 8      1231.938          48.000    24542595.906 8  98822883.241 8       943.916          49.000
E21  23658143.133 8 124324387.819 8      -381.547          51.000    23658145.539 8  95261544.483 8      -292.378          51.000
E26  25632962.961 7 134702131.982 7      3130.223          44.000    25632962.250 5 103213334.720 5      2398.617          33.000
> 2020 05 18 09 11 30.0000000  0 15        .000000000000
G12  20429421.477 8 107357342.662 8     -1214.715          51.000    20429420.625 8  83655072.538 8      -946.531          51.000
G24  22169471.203 8 116501335.443 8     -2957.051          49.000    22169472.977 8  90780253.176 8     -2304.198          49.000
G25  20264984.328 5 106493202.759 5       683.965          35.000    20264987.078 5  82981719.413 5       532.960          35.000
G29  22049594.617 8 115871381.949 8      3041.582          49.000    22049592.477 8  90289394.252 8      2370.064          49.000
R15  21997384.430 5 117547323.371 5     -2807.168          34.000    21997390.797 5  91425700.667 5     -2183.356          30.000
R16  19467890.711 7 103994017.000 7        69.879          45.000    19467893.320 6  80884199.961 6        54.350          41.000
R18  19636938.414 8 104823395.599 8       693.539          51.000    19636941.727 8  81529297.262 8       539.422          49.000
R19  21549303.766 6 115274215.477 6      4076.711          37.000    21549306.766 7  89657744.049 7      3170.778          43.000
C11  22816797.164 7 118813072.888 7      2268.793          47.000    22816798.648 8  91873812.873 8      1754.384          51.000
C12  22423138.414 5 116763250.838 5      -957.004          32.000    22423134.742 7  90288685.150 7      -739.950          44.000
C24  24272054.781 5 126390957.577 5     -2461.621          35.000
C25  21742844.109 8 113220692.871 8        96.848          51.000
E13  24535604.617 8 128935497.049 8      1214.754          48.000    24535607.547 8  98794744.244 8       930.776          49.000
E21  23660342.055 8 124335943.596 8      -390.465          51.000    23660344.555 8  95270398.900 8      -299.220          51.000
E26  25615105.914 7 134608294.012 7      3123.891          44.000    25615103.891 5 103141432.960 5      2393.783          35.000
> 2020 05 18 09 12  0.0000000  0 15        .000000000000
G12  20436371.203 8 107393863.650 8     -1221.598          51.000    20436370.312 8  83683530.443 8      -951.894          51.000
G24  22186364.898 8 116590110.817 8     -2963.133          50.000    22186365.922 8  90849428.705 8     -2308.938          50.000
G25  20261096.703 5 106472775.202 5       676.648          31.000    20261100.523 5  82965801.928 5       527.262          31.000
G29  22032249.328 7 115780237.148 7      3033.492          46.000    22032249.039 7  90218372.354 7      2363.763          46.000
R15  22013149.562 5 117631573.232 5     -2811.352          32.000    22013151.258 4  91491254.249 4     -2186.610          26.000
R16  19467522.758 7 103992052.663 7        59.273          44.000    19467525.227 7  80882672.131 7        46.102          42.000
R18  19633105.523 8 104802935.462 8       668.816          51.000    19633108.969 8  81513383.830 8       520.191          49.000
R19  21526462.703 6 115152029.392 6      4067.523          37.000    21526465.117 7  89562710.456 7      3163.629          42.000
C11  22803748.234 7 118745126.278 7      2259.359          47.000    22803749.805 8  91821272.269 8      1747.143          50.000
C12  22428682.188 5 116792120.461 5      -969.340          31.000    22428679.281 7  90311009.060 7      -749.522          44.000
C24  24286244.562 6 126464839.322 6     -2465.062          40.000
C25  21742303.375 8 113217876.556 8        89.297          51.000
E13  24528695.445 8 128899190.366 8      1204.113          48.000    24528698.406 8  98766924.835 8       922.662          48.000
E21  23662572.992 8 124347667.318 8      -392.754          51.000    23662575.508 8  95279382.002 8      -300.893          51.000
E26  25597266.609 7 134514548.844 7      3124.273          43.000    25597265.211 5 103069602.248 5      2393.981          35.000
> 2020 05 18 09 12 30.0000000  0 16        .000000000000
G12  20443382.594 8 107430708.895 8     -1226.477          51.000    20443381.734 8  83712241.021 8      -955.696          51.000
G24  22203316.539 8 116679190.384 8     -2967.277          51.000    22203317.125 8  90918841.298 8     -2312.164          51.000
G25  20257278.328 5 106452708.167 5       670.133          35.000    20257281.820 5  82950165.273 5       522.181          35.000
G29  22014972.977 7 115689454.125 7      3027.289          46.000    22014974.406 7  90147632.325 7      2358.923          46.000
G32  22170938.203 5 116509057.825 5      -461.621          33.000
R15  22028967.812 5 117716038.485 5     -2814.688          33.000
R16  19467236.203 7 103990524.122 7        50.805          44.000    19467238.578 7  80881483.264 7        39.515          42.000
R18  19629434.062 8 104783337.767 8       646.027          51.000    19629437.688 8  81498141.187 8       502.466          49.000
R19  21503696.789 6 115030246.107 6      4059.930          37.000    21503698.195 6  89467990.182 6      3157.723          40.000
C11  22790777.531 8 118677583.502 8      2251.730          49.000    22790778.875 8  91769043.972 8      1741.196          51.000
C12  22434322.188 6 116821487.910 6      -980.492          38.000    22434319.461 7  90333717.876 7      -758.013          45.000
C24  24300475.156 6 126538934.619 6     -2466.457          37.000
C25  21741828.836 8 113215406.231 8        83.555          51.000
E13  24521869.445 7 128863321.352 7      1195.453          47.000    24521872.648 8  98739440.795 8       915.988          48.000
E21  23664839.742 8 124359578.841 8      -393.102          51.000    23664842.156 8  95288508.998 8      -301.187          51.000
E26  25579448.906 7 134420918.007 7      3126.258          42.000    25579449.664 6 102997859.163 6      2395.486          38.000
> 2020 05 18 09 13  0.0000000  0 16        .000000000000
G12  20450426.562 8 107467725.398 8     -1242.691          51.000    20450425.719 8  83741085.044 8      -968.331          51.000
G24  22220296.875 8 116768421.412 8     -2982.906          51.000    22220297.289 8  90988371.971 8     -2324.343          51.000
G25  20253498.977 5 106432849.460 5       652.207          35.000    20253504.547 6  82934690.834 6       508.213          36.000
G29  21997738.008 8 115598882.500 8      3009.703          49.000    21997739.703 8  90077057.059 8      2345.223          49.000
G32  22173645.117 5 116523276.832 5      -486.977          35.000    22173648.430 5  90797354.506 5      -379.462          32.000
R15  22044801.500 5 117800673.166 5     -2828.730          33.000
R16  19467002.633 7 103989277.433 7        30.777          44.000    19467004.828 7  80880513.617 7        23.938          42.000
R18  19625895.336 8 104764448.529 8       611.691          50.000    19625899.000 8  81483449.543 8       475.760          49.000
R19  21480977.742 6 114908714.591 6      4040.676          36.000    21480978.125 6  89373465.749 6      3142.751          39.000
C11  22777856.453 8 118610295.240 8      2232.789          51.000    22777857.383 8  91717012.484 8      1726.549          51.000
C12  22440028.328 6 116851200.852 6     -1001.934          39.000    22440026.234 7  90356693.863 7      -774.731          44.000
C24  24314715.570 5 126613092.240 5     -2478.492          34.000
C25  21741391.852 8 113213131.659 8        66.609          51.000
E13  24515097.969 7 128827738.634 7      1175.340          47.000    24515100.836 7  98712176.145 7       900.546          47.000
E21  23667113.367 8 124371526.028 8      -404.770          51.000    23667115.625 8  95297663.328 8      -310.151          51.000
E26  25561624.445 6 134327251.108 6      3116.570          41.000    25561628.188 6 102926088.398 6      2388.264          39.000
> 2020 05 18 09 13 30.0000000  0 18        .000000000000
G06  23571156.531 5 123867216.632 5      -799.641          34.000
G12  20457544.188 8 107505128.978 8     -1247.914          51.000    20457543.273 8  83770230.688 8      -972.401          51.000
G24  22237346.711 8 116858018.743 8     -2987.297          51.000    22237348.094 8  91058188.053 8     -2327.764          51.000
G25  20249799.891 5 106413416.752 5       646.266          30.000    20249808.438 5  82919547.756 5       503.587          30.000
G29  21980585.289 8 115508741.050 8      3002.902          50.000    21980586.453 8  90006816.994 8      2339.924          49.000
G32  22176478.367 5 116538151.798 5      -502.172          32.000    22176480.211 4  90808945.300 4      -391.312          29.000
R15  22060704.266 5 117885642.358 5     -2832.855          33.000    22060718.531 4  91688953.221 4     -2203.338          25.000
R16  19466863.250 7 103988534.383 7        21.668          44.000    19466865.945 7  80879935.681 7        16.853          43.000
R18  19622530.516 8 104746488.543 8       588.504          49.000    19622534.250 8  81469480.669 8       457.725          50.000
R19  21458347.680 6 114787659.534 6      4032.574          36.000    21458347.648 6  89279311.917 6      3136.450          40.000
C11  22765025.891 8 118543477.942 8      2224.715          51.000    22765026.500 8  91665345.148 8      1720.254          51.000
C12  22445841.609 6 116881472.977 6     -1013.105          40.000    22445839.539 7  90380102.172 7      -783.443          43.000
C24  24329009.086 5 126687526.489 5     -2480.555          33.000
C25  21741033.859 8 113211268.560 8        60.586          51.000
E13  24508422.648 7 128792660.061 7      1166.262          47.000    24508424.320 7  98685297.781 7       893.518          46.000
E19  27699748.969 5 145563162.857 5     -2808.785          33.000    27699749.906 5 111535412.229 5     -2152.360          33.000
E21  23669435.102 8 124383726.030 8      -405.547          51.000    23669437.180 8  95307011.381 8      -310.744          51.000
E26  25543835.023 6 134233766.921 6      3118.551          40.000    25543841.422 6 102854457.660 6      2389.500          39.000
> 2020 05 18 09 14  0.0000000  0 18        .000000000000
G02  22970885.500 5 120712833.976 5       551.512          34.000
G06  23575809.945 5 123891674.258 5      -831.426          35.000
G12  20464728.367 8 107542882.261 8     -1270.156          51.000    20464727.281 8  83799648.831 8      -989.732          51.000
G24  22254459.180 8 116947944.729 8     -3008.906          50.000    22254461.070 8  91128260.246 8     -2344.602          51.000
G25  20246175.859 5 106394371.774 5       622.680          34.000    20246183.312 5  82904707.650 5       485.214          33.000
G29  21963507.648 8 115418994.805 8      2978.926          51.000    21963508.461 8  89936884.903 8      2321.241          50.000
G32  22179429.172 6 116553653.260 6      -533.203          37.000    22179432.461 6  90821024.401 6      -415.483          37.000
R16  19466811.453 7 103988258.810 7        -4.504          44.000    19466814.609 7  80879721.340 7        -3.503          42.000
R18  19619333.086 8 104729421.157 8       548.039          49.000    19619337.008 8  81456206.040 8       426.253          49.000
R19  21435800.656 6 114667047.893 6      4006.516          36.000    21435801.242 6  89185502.948 6      3116.179          41.000
C11  22752278.680 8 118477096.711 8      2199.504          51.000    22752279.227 8  91614014.989 8      1700.763          51.000
C12  22451754.977 6 116912266.620 6     -1041.102          39.000    22451753.234 7  90403913.784 7      -805.025          43.000
C24  24343347.836 5 126762200.521 5     -2499.223          31.000
C25  21740748.180 8 113209781.274 8        37.410          51.000
E13  24501836.570 7 128758049.871 7      1139.895          47.000    24501837.719 7  98658778.293 7       873.354          47.000
E19  27715824.789 5 145647642.782 5     -2823.852          33.000    27715824.898 5 111600143.529 5     -2163.859          31.000
E21  23671797.922 8 124396142.380 8      -423.422          51.000    23671799.820 8  95316525.204 8      -324.491          51.000
E26  25526074.500 6 134140430.766 6      3102.453          36.000    25526082.398 7 102782940.342 7      2377.360          42.000
> 2020 05 18 09 14 30.0000000  0 20        .000000000000
G02  22967745.672 5 120696313.456 5       541.004          33.000
G06  23580574.961 5 123916713.155 5      -844.164          34.000    23580590.320 5  96558556.902 5      -657.793          31.000
G12  20471971.227 8 107580943.724 8     -1274.137          51.000    20471969.969 8  83829307.110 8      -992.834          51.000
G24  22271625.977 8 117038156.386 8     -3012.086          51.000    22271628.234 8  91198554.992 8     -2347.080          51.000
G25  20242618.156 5 106375674.679 5       617.453          33.000    20242625.289 4  82890138.383 4       481.129          29.000
G29  21946497.375 8 115329605.035 8      2973.477          50.000    21946498.336 8  89867230.569 8      2316.995          50.000
G32  22182479.641 5 116569742.546 5      -546.012          33.000    22182497.531 4  90833617.342 4      -425.479          25.000
R15  22092664.711 5 118056524.433 5     -2855.508          31.000
R16  19466839.727 7 103988409.940 7       -12.578          44.000    19466843.070 7  80879838.884 7        -9.783          43.000
R17  21692491.156 5 116080786.761 5     -3214.105          33.000
R18  19616295.273 8 104713205.285 8       525.898          50.000    19616298.992 8  81443593.688 8       409.032          48.000
R19  21413329.578 6 114546842.210 6      3999.730          36.000    21413330.945 7  89092009.664 7      3110.901          43.000
C11  22739607.125 8 118411112.685 8      2192.543          51.000    22739607.844 8  91562991.958 8      1695.380          51.000
C12  22457760.227 6 116943540.146 6     -1050.770          40.000    22457759.445 7  90428096.495 7      -812.452          42.000
C24  24357726.875 6 126837073.456 6     -2499.215          37.000
C25  21740527.062 8 113208630.162 8        32.457          51.000
E13  24495331.984 7 128723868.155 7      1131.930          47.000    24495333.570 7  98632587.123 7       867.341          47.000
E19  27731917.117 5 145732205.866 5     -2820.484          35.000    27731914.977 5 111664932.515 5     -2160.986          31.000
E21  23674194.172 8 124408734.528 8      -422.957          51.000    23674195.859 8  95326173.721 8      -324.093          51.000
E26                                                                  25508343.836 7 102711506.688 7      2379.452          43.000
> 2020 05 18 09 15  0.0000000  0 18        .000000000000
G06  23585407.117 5 123942195.543 5      -864.082          31.000
G12  20479235.203 8 107619115.832 8     -1284.266          51.000    20479233.852 8  83859051.605 8     -1000.726          51.000
G24  22288809.578 8 117128455.949 8     -3021.574          51.000    22288811.703 8  91268918.264 8     -2354.473          51.000
G29  21929517.250 8 115240376.822 8      2961.527          50.000    21929518.891 8  89797702.119 8      2307.684          50.000
G32  22185636.281 5 116586293.314 5      -565.988          35.000    22185641.375 5  90846480.357 5      -441.030          31.000
R16  19466910.867 7 103988789.648 7       -26.957          45.000    19466914.125 7  80880134.212 7       -20.970          43.000
R17  21710520.188 5 116177263.357 5     -3231.582          34.000
R18  19613379.570 8 104697641.658 8       497.750          50.000    19613383.430 8  81431488.672 8       387.139          48.000
R19  21390897.062 6 114426846.896 6      3985.652          36.000    21390900.023 7  88998679.988 7      3099.952          43.000
C11  22726974.266 8 118345332.758 8      2179.285          50.000    22726975.414 8  91512126.774 8      1685.183          51.000
C12  22463820.352 7 116975097.560 7     -1066.664          42.000    22463819.836 7  90452498.707 7      -824.770          42.000
