     3.02           OBSERVATION DATA    M (MIXED)           RINEX VERSION / TYPE
SAVERINEX           SC600               20200519 055931 LCL PGM / RUN BY / DATE
       G = GPS       R = GLONASS       C = COMPASS          COMMENT
       S = SBAS      J = QZSS          E = GALILEO          COMMENT
BEAN                                                        MARKER NAME
1                                                           MARKER NUMBER
GEODETIC                                                    MARKER TYPE
Unige DICCA         GTER                                    OBSERVER / AGENCY
SC60291900056       SC600               2.12(191202)        REC # / TYPE / VERS
                    HEMA45          NONE                    ANT # / TYPE
  4509407.8091   693652.4678  4442337.6214                  APPROX POSITION XYZ
        0.0000        0.0000        0.0000                  ANTENNA: DELTA H/E/N
G    8 C1C L1C D1C S1C C2Y L2Y D2Y S2Y                      SYS / # / OBS TYPES
R    8 C1C L1C D1C S1C C2P L2P D2P S2P                      SYS / # / OBS TYPES
C    8 C1I L1I D1I S1I C7I L7I D7I S7I                      SYS / # / OBS TYPES
E    8 C1C L1C D1C S1C C7Q L7Q D7Q S7Q                      SYS / # / OBS TYPES
DBHZ                                                        COMMENT
     30.000                                                 INTERVAL
  2020    05    19    03    00    0.0000000     GPS         TIME OF FIRST OBS
  2020    05    19    03    59   30.0000000     GPS         TIME OF LAST OBS
     0                                                      RCV CLOCK OFFS APPL
G L1C  0.00000                                              SYS / PHASE SHIFT
G L2Y  0.00000                                              SYS / PHASE SHIFT
R L1C  0.00000                                              SYS / PHASE SHIFT
R L2P  0.25000                                              SYS / PHASE SHIFT
C L1I  0.00000                                              SYS / PHASE SHIFT
C L7I  0.00000                                              SYS / PHASE SHIFT
E L1C  0.50000                                              SYS / PHASE SHIFT
E L7Q -0.25000                                              SYS / PHASE SHIFT
 12 R01  1 R02 -4 R03  5 R04  6 R10 -5 R12 -1 R13 -2 R14 -7 GLONASS SLOT / FRQ #
    R15  0 R17  4 R18 -3 R23  3                             GLONASS SLOT / FRQ #
 C1C   71.950 C2C   71.950 C2P   71.950                     GLONASS COD/PHS/BIS
    18                                                      LEAP SECONDS
*** Above antenna height is from mark to ANTENNA BOTTOM.    COMMENT
    17     4        0.0000        ANT MEASURE TYPE/HEIGT    COMMENT
    0.0000    0.0000    0.0458    0.0405    0.0000          COMMENT
                    BASE STATION                            COMMENT
                                                            END OF HEADER
> 2020 05 19 03 00  0.0000000  0 13        .000000000000
G05  20789252.375 8 109248245.335 8     -1251.859          51.000    20789250.945 8  85128512.204 8      -975.475          51.000
G07  22751905.164 6 119562028.365 6     -2544.750          36.000    22751880.445 5  93165148.682 5     -1982.916          34.000
G28  21536328.961 8 113174154.340 8      1993.824          49.000    21536328.008 7  88187671.783 7      1553.626          45.000
G30  20703654.047 8 108798434.380 8     -1262.250          51.000    20703655.031 8  84778064.289 8      -983.571          51.000
R03  21519267.570 7 115194383.065 7     -3272.281          45.000    21519266.609 7  89595590.199 7     -2545.108          46.000
R04  19187553.508 8 102748444.061 8        47.906          49.000    19187554.320 8  79915475.948 8        37.260          48.000
R14  19151830.953 8 102090055.748 8       -83.523          51.000    19151834.930 8  79403444.179 8       -64.963          49.000
R15  21220771.562 8 113397400.443 8      3519.848          51.000    21220773.086 7  88197959.565 7      2737.659          46.000
C05  39814216.359 6 207323072.234 6         7.125          36.000    39814213.938 6 160315336.704 6         5.440          40.000
C22  22235934.391 8 115788341.735 8     -1440.270          51.000
E05  24174659.953 8 127038686.170 8     -1370.512          51.000    24174663.719 8  97341325.112 8     -1050.180          51.000
E24                                                                  22709929.852 7  91443455.753 7      -859.645          42.000
E25  24206384.062 8 127205466.218 8      1809.379          51.000    24206389.055 8  97469104.853 8      1386.395          51.000
> 2020 05 19 03 00 30.0000000  0 12        .000000000000
G05  20796459.875 8 109286120.941 8     -1272.570          51.000    20796458.492 8  85158025.665 8      -991.613          51.000
G28  21524997.312 8 113114609.143 8      1976.473          49.000    21524996.836 7  88141272.906 7      1540.109          44.000
G30  20710901.352 8 108836518.366 8     -1276.094          51.000    20710902.242 8  84807740.113 8      -994.359          51.000
R03  21537648.617 7 115292783.510 7     -3287.062          42.000    21537649.695 8  89672123.949 8     -2556.601          48.000
R04  19187350.758 8 102747357.912 8        25.094          50.000    19187351.227 7  79914631.155 7        19.517          47.000
R14  19152376.055 8 102092960.111 8      -109.449          51.000    19152379.750 8  79405703.140 8       -85.127          49.000
R15  21201058.117 8 113292055.328 8      3503.691          50.000    21201059.719 7  88116024.503 7      2725.096          47.000
C05  39814182.812 5 207322896.679 5         5.414          35.000    39814180.383 6 160315201.721 6         3.942          40.000
C22  22244278.375 8 115831791.885 8     -1455.801          51.000
E05  24182515.117 8 127079962.913 8     -1380.574          51.000    24182518.500 8  97372952.733 8     -1057.831          51.000
E24  22716366.812 6 119375313.643 6     -1136.664          37.000    22716378.258 7  91469422.771 7      -870.950          42.000
E25  24196096.258 8 127151403.655 8      1795.457          51.000    24196101.594 8  97427680.262 8      1375.737          51.000
> 2020 05 19 03 01  0.0000000  0 13        .000000000000
G05  20803781.398 8 109324595.943 8     -1290.750          51.000    20803779.844 8  85188006.190 8     -1005.779          51.000
G07  22781044.719 5 119715165.449 5     -2556.586          35.000
G28  21513761.500 8 113055565.504 8      1961.410          50.000    21513760.688 7  88095264.888 7      1528.372          44.000
G30  20718223.656 8 108874996.983 8     -1287.410          51.000    20718224.359 8  84837723.446 8     -1003.177          51.000
R03  21556107.430 6 115391607.708 6     -3299.355          40.000    21556111.680 7  89748987.291 7     -2566.165          47.000
R04  19187271.828 8 102746934.358 8         4.895          51.000    19187272.023 7  79914301.723 7         3.807          47.000
R14  19153062.750 8 102096619.873 8      -132.746          51.000    19153066.391 8  79408549.641 8      -103.244          49.000
R15  21181430.273 7 113187175.768 7      3490.070          47.000    21181433.570 7  88034451.503 7      2714.499          47.000
C05  39814156.062 6 207322757.456 6         6.098          36.000    39814153.602 6 160315094.057 6         4.449          40.000
C22  22252708.266 8 115875687.363 8     -1468.809          51.000
E05  24190423.125 8 127121517.489 8     -1388.043          51.000    24190426.055 8  97404793.242 8     -1063.512          51.000
E24  22722893.633 6 119409616.474 6     -1148.609          41.000    22722905.578 7  91495706.712 7      -880.103          42.000
E25  24185882.305 8 127097730.750 8      1784.453          51.000    24185887.492 8  97386554.230 8      1367.281          51.000
> 2020 05 19 03 01 30.0000000  0 14        .000000000000
G05  20811212.320 8 109363645.929 8     -1309.516          51.000    20811210.766 8  85218434.761 8     -1020.402          51.000
G07  22795660.875 6 119791983.699 6     -2561.660          37.000
G28  21502617.602 8 112997002.275 8      1945.816          51.000    21502616.219 7  88049631.223 7      1516.221          43.000
G30  20725616.234 8 108913845.553 8     -1299.387          51.000    20725617.094 8  84867995.066 8     -1012.509          51.000
R03  21574642.453 7 115490830.352 7     -3312.180          46.000    21574647.172 7  89826160.485 7     -2576.137          45.000
R04  19187311.969 8 102747151.278 8       -16.098          51.000    19187312.328 7  79914470.426 7       -12.520          46.000
R14  19153886.367 8 102101009.979 8      -156.836          51.000    19153890.000 8  79411964.195 8      -121.984          49.000
R15  21161884.539 7 113082740.854 7      3475.488          45.000    21161890.086 7  87953224.289 7      2703.158          46.000
C05  39814131.695 6 207322630.460 6         6.543          36.000    39814129.250 6 160314995.884 6         4.365          40.000
C19  25521184.102 6 132895480.698 6     -3254.941          36.000
C22  22261219.258 8 115920004.667 8     -1482.570          51.000
E05  24198379.562 8 127163326.700 8     -1396.168          51.000    24198382.102 8  97436828.861 8     -1069.746          51.000
E24  22729495.336 6 119444308.458 6     -1161.164          41.000    22729507.844 6  91522288.901 6      -889.675          41.000
E25  24175738.422 8 127044425.058 8      1772.523          51.000    24175742.609 8  97345709.600 8      1358.122          51.000
> 2020 05 19 03 02  0.0000000  0 14        .000000000000
G05  20818743.094 8 109403221.453 8     -1328.539          50.000    20818742.039 8  85249272.821 8     -1035.225          50.000
G07  22810300.398 5 119868920.718 5     -2567.129          35.000    22810297.914 5  93404363.379 5     -2000.360          35.000
G28  21491556.453 8 112938873.077 8      1929.746          51.000    21491554.484 7  88004335.764 7      1503.698          44.000
G30  20733069.797 8 108953014.453 8     -1311.637          51.000    20733070.789 8  84898516.280 8     -1022.055          51.000
R03  21593244.102 8 115590400.494 8     -3325.398          49.000    21593247.453 7  89903603.913 7     -2586.421          44.000
R04  19187462.977 8 102747960.606 8       -37.492          51.000    19187463.539 7  79915099.869 7       -29.161          46.000
R14  19154837.617 8 102106080.482 8      -180.980          51.000    19154841.188 8  79415907.945 8      -140.763          49.000
R15  21142414.820 7 112978703.875 7      3460.508          46.000    21142420.531 7  87872306.614 7      2691.506          45.000
C05                                                                  39814098.094 6 160314870.257 6         4.492          40.000
C19  25539950.992 6 132993190.950 6     -3258.812          38.000
C22  22269802.289 8 115964695.534 8     -1496.543          51.000
E05  24206374.992 8 127205342.420 8     -1404.551          51.000    24206377.188 8  97469022.713 8     -1076.232          51.000
E24  22736162.641 7 119479340.154 7     -1173.938          43.000    22736174.250 6  91549131.397 6      -899.549          39.000
E25  24165655.320 8 126991439.252 8      1760.195          51.000    24165658.383 8  97305110.101 8      1348.769          51.000
> 2020 05 19 03 02 30.0000000  0 13        .000000000000
G05  20826382.664 8 109443368.948 8     -1347.914          51.000    20826382.133 8  85280556.558 8     -1050.326          51.000
G28  21480587.078 8 112881227.244 8      1913.273          51.000    21480584.859 7  87959416.945 7      1490.862          43.000
G30  20740593.039 8 108992549.535 8     -1324.059          51.000    20740593.969 8  84929322.828 8     -1031.734          51.000
R03  21611919.570 8 115690364.549 8     -3338.816          51.000    21611920.305 7  89981353.657 7     -2596.860          42.000
R04  19187734.008 8 102749412.183 8       -59.352          51.000    19187734.430 7  79916228.834 7       -46.162          45.000
R14  19155925.008 8 102111877.643 8      -205.543          51.000    19155928.609 8  79420416.855 8      -159.867          49.000
R15  21123030.398 8 112875115.154 8      3445.246          49.000    21123034.898 7  87791737.634 7      2679.639          45.000
C05  39814071.383 5 207322317.432 5         4.961          35.000    39814069.102 6 160314753.417 6         3.749          40.000
C19  25558740.820 6 133091030.196 6     -3263.723          41.000
C22  22278465.742 8 116009806.308 8     -1510.859          51.000
E05  24214418.469 8 127247611.962 8     -1413.336          51.000    24214420.578 8  97501411.050 8     -1082.880          51.000
E24  22742902.477 7 119514757.738 7     -1187.086          44.000    22742912.758 6  91576269.512 6      -909.630          38.000
E25  24155642.328 8 126938821.477 8      1747.738          51.000    24155644.445 8  97264792.611 8      1339.212          51.000
> 2020 05 19 03 03  0.0000000  0 13        .000000000000
G05  20834125.719 8 109484058.639 8     -1363.438          51.000    20834125.477 8  85312262.805 8     -1062.416          51.000
G28  21469704.367 8 112824038.263 8      1900.625          50.000    21469702.070 7  87914854.103 7      1481.006          44.000
G30  20748180.211 8 109032420.962 8     -1332.711          51.000    20748181.047 8  84960391.490 8     -1038.476          51.000
R03  21630662.672 8 115790691.891 8     -3348.277          51.000    21630662.055 7  90059385.911 7     -2604.219          43.000
R04  19188119.930 8 102751478.095 8       -77.102          51.000    19188119.844 7  79917835.646 7       -59.968          45.000
R14  19157142.914 8 102118371.460 8      -226.125          51.000    19157146.695 8  79425467.640 8      -175.875          49.000
R15  21103726.023 8 112771948.611 8      3433.816          51.000    21103728.461 7  87711497.022 7      2670.746          45.000
C05  39814039.336 5 207322150.561 5         8.270          35.000    39814036.852 6 160314623.599 6         5.981          40.000
C19  25577549.258 7 133188968.921 7     -3264.410          42.000
C22  22287203.742 8 116055308.333 8     -1521.332          51.000
E05  24222504.898 8 127290106.973 8     -1418.371          51.000    24222506.648 8  97533972.176 8     -1086.789          51.000
E24  22749709.852 7 119550531.472 7     -1196.480          43.000    22749720.102 6  91603680.539 6      -916.517          37.000
E25  24145694.273 8 126886544.192 8      1738.730          51.000    24145695.977 8  97224736.014 8      1332.259          51.000
> 2020 05 19 03 03 30.0000000  0 14        .000000000000
G05  20841972.125 8 109525291.228 8     -1386.184          50.000    20841972.156 8  85344392.087 8     -1080.143          50.000
G07  22854390.703 5 120100595.158 5     -2583.684          35.000
G28  21458909.289 8 112767309.665 8      1880.562          51.000    21458907.047 7  87870650.003 7      1465.373          44.000
G30  20755831.508 8 109072628.967 8     -1348.746          51.000    20755832.297 8  84991722.407 8     -1050.971          51.000
R03  21649473.109 8 115891382.331 8     -3365.223          50.000    21649472.836 7  90137700.638 7     -2617.398          43.000
R04  19188621.125 8 102754161.505 8      -102.656          50.000    19188621.016 7  79919922.719 7       -79.844          46.000
R14  19158491.750 8 102125562.387 8      -254.117          51.000    19158495.336 8  79431060.589 8      -197.647          48.000
R15  21084501.336 8 112669208.108 8      3414.738          51.000    21084501.914 7  87631587.780 7      2655.911          45.000
C05  39814004.094 5 207321966.059 5         3.254          35.000    39814001.719 6 160314482.069 6         2.697          40.000
C19  25596376.273 6 133287007.401 6     -3272.535          41.000
C22  22296016.906 8 116101202.691 8     -1539.129          51.000
E05  24230634.414 8 127332829.152 8     -1430.715          51.000    24230636.016 8  97566707.367 8     -1096.217          51.000
E24  22756585.109 7 119586661.765 7     -1213.199          44.000    22756596.422 5  91631364.802 5      -929.322          35.000
E25  24135811.625 8 126834609.844 8      1722.688          51.000    24135813.336 8  97184942.188 8      1319.972          51.000
> 2020 05 19 03 04  0.0000000  0 14        .000000000000
G05  20849931.320 8 109567117.226 8     -1402.234          49.000    20849931.297 8  85376983.757 8     -1092.650          50.000
G07  22869150.125 5 120178150.011 5     -2586.371          34.000    22869167.391 5  93645410.067 5     -2015.357          32.000
G28  21448212.281 8 112711095.242 8      1866.930          51.000    21448210.016 7  87826846.564 7      1454.750          46.000
G30  20763556.539 8 109113223.998 8     -1357.801          51.000    20763557.453 8  85023354.891 8     -1058.027          51.000
R03  21668360.062 8 115992486.930 8     -3375.176          48.000    21668359.836 7  90216337.631 7     -2625.131          43.000
R04  19189248.047 8 102757516.489 8      -121.223          50.000    19189247.945 7  79922532.144 7       -94.284          46.000
R14  19159980.945 8 102133501.497 8      -275.242          51.000    19159984.539 8  79437235.477 8      -214.077          49.000
R15  21065365.594 8 112566949.075 8      3402.383          51.000    21065365.852 7  87552052.987 7      2646.298          46.000
C05  39813975.969 5 207321820.258 5         5.828          35.000    39813973.500 6 160314368.544 6         4.534          40.000
C19  25615231.828 7 133385195.582 7     -3273.648          42.000
C22  22304915.125 8 116147540.159 8     -1550.164          51.000
E05  24238816.961 8 127375830.355 8     -1436.266          51.000    24238818.742 8  97599656.341 8     -1100.500          51.000
E24  22763537.641 7 119623199.221 7     -1222.883          44.000    22763548.242 5  91659360.971 5      -937.275          33.000
E25  24126004.508 8 126783071.047 8      1713.152          51.000    24126006.281 8  97145451.454 8      1312.669          51.000
> 2020 05 19 03 04 30.0000000  0 14        .000000000000
G05  20857992.750 8 109609479.416 8     -1421.418          50.000    20857992.141 8  85409993.246 8     -1107.598          50.000
G07  22883934.508 5 120255832.924 5     -2591.688          30.000    22883944.094 4  93705942.233 4     -2019.503          29.000
G28  21437602.805 8 112655340.779 8      1850.328          51.000    21437600.836 8  87783401.538 8      1441.817          48.000
G30  20771344.297 8 109154148.726 8     -1370.082          51.000    20771345.211 8  85055244.292 8     -1067.596          51.000
R03  21687312.672 7 116093946.936 7     -3388.324          46.000    21687313.047 7  90295251.065 7     -2635.360          42.000
R04  19189989.750 8 102761487.274 8      -143.051          49.000    19189989.680 7  79925620.525 7      -111.262          46.000
R14  19161599.836 8 102142130.796 8      -299.559          50.000    19161603.297 8  79443947.188 8      -232.990          49.000
R15  21046308.211 8 112465117.053 8      3386.816          49.000    21046309.812 7  87472850.280 7      2634.191          47.000
C05  39813944.062 6 207321653.298 6         5.441          36.000    39813941.602 6 160314240.211 6         4.138          40.000
C19  25634105.188 7 133483476.713 7     -3277.895          43.000
C22  22313887.266 8 116194264.932 8     -1564.520          50.000
E05  24247042.336 8 127419054.813 8     -1445.023          51.000    24247044.078 8  97632776.376 8     -1107.274          51.000
E24  22770557.008 7 119660086.737 7     -1235.891          44.000    22770567.930 5  91687625.351 5      -946.676          35.000
E25  24116262.211 8 126731872.820 8      1700.355          51.000    24116263.922 8  97106221.670 8      1302.834          51.000
> 2020 05 19 03 05  0.0000000  0 13        .000000000000
G05  20866158.352 8 109652388.192 8     -1439.543          51.000    20866156.844 8  85443428.636 8     -1121.722          51.000
G28  21427083.070 8 112600059.928 8      1834.648          50.000    21427081.617 8  87740325.576 8      1429.596          48.000
G30  20779196.711 8 109195413.284 8     -1381.242          51.000    20779197.461 8  85087398.501 8     -1076.290          51.000
R03  21706333.469 7 116195772.358 7     -3400.324          47.000    21706335.359 7  90374448.635 7     -2644.697          42.000
R04  19190849.055 8 102766086.950 8      -163.828          50.000    19190848.797 7  79929198.060 7      -127.422          47.000
R14  19163350.078 8 102151460.429 8      -322.613          50.000    19163353.430 8  79451203.573 8      -250.921          49.000
R15  21027333.195 8 112363726.149 8      3372.191          50.000    21027336.367 7  87393990.678 7      2622.816          47.000
C05  39813910.672 6 207321479.663 6         6.211          36.000    39813908.242 6 160314105.953 6         4.452          40.000
C19  25652998.375 7 133581860.896 7     -3281.328          43.000
C22  22322936.000 8 116241387.842 8     -1577.508          50.000
E05  24255312.641 8 127462514.028 8     -1452.602          51.000    24255314.211 8  97666076.302 8     -1113.020          51.000
E24  22777645.023 7 119697334.570 7     -1247.750          44.000    22777658.805 6  91716165.890 6      -956.161          36.000
E25  24106586.891 8 126681027.455 8      1688.977          51.000    24106588.664 8  97067262.255 8      1294.082          51.000
> 2020 05 19 03 05 30.0000000  0 13        .000000000000
G05  20874431.250 8 109695860.807 8     -1457.535          51.000    20874428.891 8  85477303.406 8     -1135.742          51.000
G28  21416657.258 8 112545273.301 8      1818.754          50.000    21416656.344 7  87697634.702 7      1417.211          47.000
G30  20787117.086 8 109237035.036 8     -1392.465          51.000    20787117.734 8  85119831.032 8     -1085.038          51.000
R03  21725425.875 7 116297980.352 7     -3412.332          46.000    21725428.781 7  90453943.654 7     -2654.039          43.000
R04  19191829.195 8 102771335.715 8      -184.766          49.000    19191828.867 7  79933280.454 7      -143.707          47.000
R14  19165234.742 8 102161507.943 8      -345.902          49.000    19165238.445 8  79459018.317 8      -269.035          50.000
R15  21008445.398 8 112262797.970 8      3357.426          50.000    21008449.031 7  87315490.988 7      2611.331          46.000
C05  39813879.414 6 207321317.063 6         6.598          36.000    39813877.055 6 160313980.221 6         4.600          40.000
C19  25671914.422 7 133680365.288 7     -3284.691          43.000
C22  22332065.383 8 116288926.939 8     -1590.625          51.000
E05  24263631.078 8 127506226.937 8     -1460.410          51.000    24263632.594 8  97699570.602 8     -1119.051          51.000
E24  22784804.695 7 119734960.295 7     -1259.602          44.000    22784819.195 5  91744995.954 5      -965.212          35.000
E25  24096982.195 8 126630554.620 8      1676.988          51.000    24096983.992 8  97028588.270 8      1284.974          51.000
> 2020 05 19 03 06  0.0000000  0 13        .000000000000
G05  20882806.797 8 109739874.292 8     -1476.035          51.000    20882804.359 8  85511599.631 8     -1150.157          51.000
G28  21406321.578 8 112490961.155 8      1802.520          50.000    21406321.047 7  87655313.537 7      1404.561          47.000
G30  20795101.023 8 109278990.993 8     -1403.984          51.000    20795101.602 8  85152523.984 8     -1094.014          51.000
R03  21744586.203 7 116400547.342 7     -3424.715          46.000    21744588.984 7  90533717.935 7     -2663.667          43.000
R04  19192926.664 8 102777212.982 8      -206.406          50.000    19192926.648 8  79937851.659 8      -160.535          48.000
R14  19167249.867 8 102172250.107 8      -369.621          48.000    19167253.750 8  79467373.323 8      -287.483          50.000
R15  20989640.734 8 112162312.886 8      3342.152          50.000    20989643.703 7  87237335.936 7      2599.452          45.000
C05  39813846.188 6 207321144.016 6         6.078          36.000    39813843.844 6 160313846.398 6         4.606          40.000
C19  25690849.391 7 133778967.144 7     -3288.266          43.000
C22  22341270.742 8 116336860.278 8     -1604.227          51.000
E05  24271993.797 8 127550171.920 8     -1468.684          51.000    24271994.984 8  97733242.735 8     -1125.358          51.000
E24  22792032.328 7 119772941.038 7     -1271.699          45.000    22792045.641 6  91774098.068 6      -974.610          36.000
E25  24087444.297 8 126580433.454 8      1664.930          51.000    24087445.758 8  96990183.729 8      1275.704          51.000
> 2020 05 19 03 06 30.0000000  0 13        .000000000000
G05  20891285.617 8 109784431.627 8     -1493.785          51.000    20891283.484 8  85546319.644 8     -1163.988          51.000
G28  21396077.148 8 112437128.772 8      1786.848          50.000    21396076.680 7  87613366.213 7      1392.349          46.000
G30  20803148.961 8 109321283.218 8     -1414.859          51.000    20803149.445 8  85185478.956 8     -1102.488          51.000
R03  21763813.242 7 116503475.006 7     -3436.543          46.000    21763816.820 7  90613772.807 7     -2672.867          45.000
R04  19194142.164 8 102783723.317 8      -227.188          50.000    19194142.445 7  79942915.260 7      -176.701          47.000
R14  19169395.984 8 102183688.581 8      -392.469          50.000    19169399.406 8  79476269.902 8      -305.253          51.000
R15  20970920.211 8 112062276.911 8      3327.352          49.000    20970922.219 7  87159530.219 7      2587.940          46.000
C05  39813811.477 5 207320963.048 5         6.461          35.000    39813809.266 6 160313707.235 6         4.791          40.000
C19  25709803.836 7 133877668.451 7     -3291.160          43.000
C22  22350552.055 8 116385190.719 8     -1617.227          50.000
E05  24280401.094 8 127594352.514 8     -1476.215          51.000    24280402.125 8  97767095.402 8     -1131.156          51.000
E24  22799327.930 7 119811279.055 7     -1283.469          45.000    22799341.586 6  91803473.933 6      -983.602          38.000
E25  24077974.039 8 126530668.238 8      1653.340          51.000    24077975.234 8  96952051.929 8      1266.797          51.000
> 2020 05 19 03 07  0.0000000  0 13        .000000000000
G05  20899868.484 8 109829536.356 8     -1512.922          51.000    20899866.906 8  85581466.200 8     -1178.900          51.000
G28  21385925.641 8 112383783.334 8      1769.781          50.000    21385925.102 7  87571798.332 7      1379.053          45.000
G30  20811261.641 8 109363915.732 8     -1427.039          51.000    20811262.109 8  85218699.087 8     -1111.978          51.000
R03  21783109.570 8 116606766.831 8     -3449.309          48.000    21783113.188 7  90694110.916 7     -2682.796          45.000
R04  19195476.922 8 102790873.408 8      -249.344          50.000    19195477.578 8  79948476.446 8      -193.934          48.000
R14  19171673.367 8 102195827.657 8      -416.555          49.000    19171676.617 8  79485711.426 8      -323.987          50.000
R15  20952284.914 8 111962697.842 8      3311.312          49.000    20952287.422 7  87082079.854 7      2575.465          47.000
C05  39813776.625 5 207320781.529 5         5.773          35.000    39813774.414 6 160313566.843 6         4.479          40.000
C19  25728778.477 7 133976473.270 7     -3295.297          43.000
C22  22359910.594 8 116433923.032 8     -1631.418          51.000
E05  24288854.008 8 127638774.166 8     -1485.062          51.000    24288854.914 8  97801132.777 8     -1137.923          51.000
E24  22806691.984 7 119849978.432 7     -1296.340          44.000    22806705.695 6  91833126.661 6      -993.123          38.000
E25  24068572.445 8 126481265.149 8      1640.277          51.000    24068574.047 8  96914197.615 8      1256.863          51.000
> 2020 05 19 03 07 30.0000000  0 13        .000000000000
G05  20908557.953 8 109875202.035 8     -1531.543          50.000    20908557.078 8  85617049.852 8     -1193.410          50.000
G28  21375870.242 8 112330941.432 8      1752.977          50.000    21375868.859 7  87530622.826 7      1365.956          43.000
G30  20819441.500 8 109406901.727 8     -1438.707          51.000    20819442.133 8  85252194.670 8     -1121.070          51.000
R03  21802476.844 8 116710436.072 8     -3461.891          49.000    21802479.672 7  90774742.599 7     -2692.579          45.000
R04  19196934.234 8 102798679.203 8      -271.117          51.000    19196935.406 8  79954547.616 8      -210.869          48.000
R14  19174084.969 8 102208680.480 8      -440.309          50.000    19174087.469 8  79495708.055 8      -342.465          50.000
R15  20933738.359 8 111863593.119 8      3295.551          49.000    20933742.125 8  87004998.394 8      2563.206          48.000
C05  39813744.250 6 207320612.992 6         5.379          36.000    39813742.062 6 160313436.514 6         4.292          40.000
C19  25747775.719 7 134075394.701 7     -3299.293          44.000
C22  22369349.766 8 116483071.099 8     -1645.211          51.000
E05  24297355.664 8 127683451.566 8     -1493.480          51.000    24297356.578 8  97835366.110 8     -1144.310          51.000
E24  22814127.836 7 119889052.551 7     -1308.688          45.000    22814140.711 6  91863066.549 6     -1002.641          39.000
E25  24059242.445 8 126432239.591 8      1627.977          51.000    24059245.125 8  96876632.585 8      1247.423          51.000
> 2020 05 19 03 08  0.0000000  0 13        .000000000000
G05  20917351.328 8 109921413.554 8     -1549.516          51.000    20917350.688 8  85653058.804 8     -1207.415          51.000
G28  21365908.516 8 112278591.049 8      1736.762          50.000    21365906.477 7  87489830.347 7      1353.321          44.000
G30  20827685.688 8 109450226.180 8     -1449.727          51.000    20827686.523 8  85285953.967 8     -1129.657          51.000
R03  21821911.242 8 116814466.818 8     -3473.691          48.000    21821913.297 7  90855655.405 7     -2701.757          43.000
R04  19198511.508 8 102807127.967 8      -292.344          50.000    19198512.977 7  79961118.875 7      -227.378          47.000
R14  19176626.898 8 102222231.522 8      -463.371          49.000    19176629.789 8  79506247.755 8      -360.400          51.000
R15  20915278.125 8 111764951.064 8      3280.281          48.000    20915283.172 8  86928276.768 8      2551.330          49.000
C05  39813711.805 6 207320444.475 6         5.711          36.000    39813709.586 6 160313305.819 6         4.392          40.000
C19  25766792.312 7 134174417.839 7     -3302.395          43.000
C22  22378866.367 8 116532620.855 8     -1658.363          51.000
E05  24305903.398 8 127728371.106 8     -1501.387          51.000    24305904.359 8  97869784.967 8     -1150.362          51.000
E24  22821632.141 7 119928486.560 7     -1320.535          44.000    22821645.320 6  91893282.199 6     -1011.842          41.000
E25  24049982.070 8 126383578.753 8      1615.852          51.000    24049985.773 8  96839347.019 8      1238.120          51.000
> 2020 05 19 03 08 30.0000000  0 13        .000000000000
G05  20926247.812 8 109968164.682 8     -1567.492          51.000    20926246.688 8  85689488.248 8     -1221.422          51.000
G28  21356039.641 8 112226729.119 8      1720.492          49.000    21356037.477 7  87449418.482 7      1340.646          44.000
G30  20835993.133 8 109493882.779 8     -1460.887          51.000    20835994.047 8  85319972.091 8     -1138.353          51.000
R03  21841411.812 8 116918852.548 8     -3485.484          49.000    21841412.031 6  90936844.286 6     -2710.935          40.000
R04  19200208.156 8 102816215.707 8      -313.656          49.000    19200209.930 7  79968187.110 7      -243.955          47.000
R14  19179298.758 8 102236474.143 8      -486.352          49.000    19179301.727 8  79517325.337 8      -378.273          50.000
R15  20896904.359 8 111666768.961 8      3264.895          49.000    20896909.602 8  86851912.904 8      2539.362          48.000
C05  39813678.422 6 207320270.693 6         5.793          36.000    39813676.102 6 160313171.046 6         4.434          40.000
C19  25785826.961 6 134273536.531 6     -3305.914          40.000
C22  22388458.805 8 116582566.844 8     -1671.570          51.000
E05  24314496.234 8 127773527.973 8     -1509.297          51.000    24314497.312 8  97904385.657 8     -1156.435          51.000
E24  22829203.422 6 119968274.189 6     -1332.277          41.000    22829216.859 6  91923768.814 6     -1020.788          41.000
E25  24040790.641 8 126335278.442 8      1604.074          51.000    24040794.992 8  96802337.711 8      1229.015          51.000
> 2020 05 19 03 09  0.0000000  0 13        .000000000000
G05  20935245.562 8 110015447.082 8     -1584.793          51.000    20935243.953 8  85726331.661 8     -1234.904          51.000
G28  21346262.375 8 112175350.445 8      1704.656          49.000    21346260.734 7  87409383.202 7      1328.304          44.000
G30  20844362.281 8 109537863.113 8     -1471.359          51.000    20844363.219 8  85354242.481 8     -1146.514          51.000
R03  21860977.602 8 117023583.836 8     -3496.578          49.000    21860973.586 5  91018301.906 5     -2719.564          35.000
R04  19202023.438 8 102825936.495 8      -334.531          49.000    19202025.219 7  79975747.709 7      -260.191          46.000
R14  19182098.594 8 102251399.646 8      -508.770          51.000    19182101.461 8  79528934.053 8      -395.713          50.000
R15  20878616.414 8 111569042.106 8      3249.996          49.000    20878621.258 8  86775903.171 8      2527.778          48.000
C05  39813642.656 6 207320084.185 6         6.738          36.000    39813640.156 6 160313026.812 6         5.105          40.000
C19  25804878.172 6 134372742.358 6     -3308.289          37.000
C22  22398125.438 8 116632901.438 8     -1684.250          51.000
E05  24323132.945 8 127818915.103 8     -1516.598          51.000    24323134.352 8  97939162.792 8     -1162.119          51.000
E24  22836840.836 6 120008407.113 6     -1343.324          41.000    22836853.359 6  91954520.033 6     -1029.238          41.000
E25  24031667.055 8 126287332.396 8      1592.457          51.000    24031671.375 8  96765599.848 8      1220.170          51.000
> 2020 05 19 03 09 30.0000000  0 15        .000000000000
G05  20944346.250 8 110063269.919 8     -1602.754          51.000    20944344.352 8  85763596.195 8     -1248.899          51.000
G07  23033230.414 5 121040437.932 5     -2636.914          34.000    23033231.484 5  94317228.905 5     -2054.741          33.000
G13  20928846.297 5 109981829.424 5      1727.414          30.000
G28  21336579.664 8 112124467.848 8      1688.293          49.000    21336577.883 7  87369734.403 7      1315.553          44.000
G30  20852794.953 8 109582176.964 8     -1482.191          51.000    20852795.875 8  85388772.755 8     -1154.954          51.000
R03  21880608.695 7 117128670.433 7     -3508.289          45.000    21880600.547 5  91100035.852 5     -2728.672          35.000
R04  19203959.398 8 102836302.693 8      -355.777          48.000    19203960.953 7  79983810.296 7      -276.716          46.000
R14  19185028.539 8 102267017.739 8      -531.680          50.000    19185031.445 8  79541081.463 8      -413.529          50.000
R15  20860416.570 8 111471784.241 8      3234.598          50.000    20860420.820 7  86700258.181 7      2515.798          47.000
C05  39813606.711 6 207319896.635 6         7.023          36.000    39813604.125 6 160312881.800 6         5.268          40.000
C19  25823947.570 5 134472045.050 5     -3311.590          35.000
C22  22407868.148 8 116683635.101 8     -1697.324          51.000
E05  24331815.484 8 127864543.765 8     -1524.484          51.000    24331817.523 8  97974124.994 8     -1168.159          51.000
E24  22844545.594 6 120048895.426 6     -1355.156          41.000    22844557.867 6  91985543.505 6     -1038.349          41.000
E25  24022613.602 8 126239752.592 8      1580.262          51.000    24022617.062 8  96729142.603 8      1210.832          51.000
> 2020 05 19 03 10  0.0000000  0 14        .000000000000
G05  20953547.688 8 110111622.362 8     -1621.422          51.000    20953545.781 8  85801273.424 8     -1263.446          51.000
G07  23048299.883 5 121119629.954 5     -2642.625          34.000    23048297.531 5  94378929.435 5     -2059.179          33.000
G28  21326989.656 8 112074072.992 8      1670.770          50.000    21326988.109 7  87330465.692 7      1301.898          43.000
G30  20861288.898 8 109626812.791 8     -1494.105          51.000    20861289.711 8  85423553.915 8     -1164.238          51.000
R03  21900300.852 6 117234100.005 6     -3521.082          39.000    21900298.016 7  91182036.647 7     -2738.619          42.000
R04  19206014.438 8 102847304.934 8      -378.305          48.000    19206015.453 7  79992367.594 7      -294.237          46.000
R14  19188086.242 8 102283316.307 8      -555.602          51.000    19188088.891 8  79553758.139 8      -432.135          49.000
R15  20842302.992 8 111374987.262 8      3217.930          51.000    20842306.211 7  86624971.623 7      2502.834          46.000
C05  39813568.578 6 207319698.065 6         5.988          36.000    39813565.961 6 160312728.253 6         4.476          40.000
C19  25843032.445 4 134571433.180 4     -3315.250          29.000
C22  22417685.008 8 116734757.166 8     -1711.453          51.000
E05  24340541.797 8 127910403.816 8     -1533.395          51.000    24340544.758 8  98009264.499 8     -1174.894          51.000
E24  22852315.242 6 120089727.509 6     -1367.707          40.000    22852327.719 6  92016830.417 6     -1047.879          40.000
E25  24013628.055 8 126192529.568 8      1567.309          51.000    24013630.375 8  96692958.722 8      1200.946          51.000
> 2020 05 19 03 10 30.0000000  0 13        .000000000000
G05  20962850.695 8 110160508.810 8     -1639.180          51.000    20962848.836 8  85839366.764 8     -1277.283          51.000
G07  23063392.125 5 121198942.929 5     -2646.410          35.000    23063388.805 5  94440727.834 5     -2062.153          30.000
G28  21317494.203 8 112024173.515 8      1654.250          50.000    21317492.508 7  87291583.011 7      1289.029          43.000
G30  20869845.008 8 109671775.183 8     -1504.875          51.000    20869845.812 8  85458589.550 8     -1172.630          51.000
R03  21920059.375 7 117339876.939 7     -3532.348          44.000    21920061.453 7  91264307.579 7     -2747.382          46.000
R04  19208189.320 8 102858950.334 8      -399.531          48.000    19208190.156 7  80001425.145 7      -310.747          46.000
R14  19191272.227 8 102300299.753 8      -578.223          51.000    19191274.922 8  79566967.490 8      -449.726          49.000
R15  20824277.492 8 111278659.691 8      3202.359          51.000    20824279.477 7  86550050.173 7      2490.724          45.000
C05  39813529.484 6 207319494.389 6         6.520          36.000    39813526.820 6 160312570.721 6         4.927          40.000
C22  22427577.570 8 116786272.891 8     -1724.438          51.000
E05  24349313.812 8 127956501.285 8     -1541.230          51.000    24349317.156 8  98044585.954 8     -1180.970          51.000
E24  22860151.438 6 120130908.153 6     -1379.301          39.000    22860163.273 6  92048384.372 6     -1056.711          40.000
E25  24004711.562 8 126145670.078 8      1555.160          51.000    24004712.906 8  96657053.406 8      1191.616          51.000
> 2020 05 19 03 11  0.0000000  0 13        .000000000000
G05  20972250.164 8 110209902.544 8     -1657.086          51.000    20972248.516 8  85877855.385 8     -1291.236          51.000
G28  21308088.828 8 111974745.275 8      1637.535          51.000    21308086.633 7  87253067.497 7      1275.998          45.000
G30  20878458.109 8 109717037.139 8     -1515.922          51.000    20878459.156 8  85493858.618 8     -1181.238          51.000
R03  21939880.039 7 117445973.051 7     -3544.012          47.000    21939883.438 8  91346826.785 8     -2756.457          48.000
R04  19210479.227 8 102871213.852 8      -421.375          48.000    19210480.617 7  80010963.421 7      -327.736          46.000
R14  19194581.648 8 102317940.454 8      -601.172          51.000    19194584.602 8  79580688.051 8      -467.575          48.000
R15  20806335.242 8 111182777.870 8      3186.355          51.000    20806335.898 7  86475475.464 7      2478.276          45.000
C05  39813484.641 6 207319261.323 6         6.484          36.000    39813481.891 6 160312389.766 6         4.540          40.000
C19  25881260.531 5 134770524.679 5     -3321.172          31.000
C22  22437540.750 8 116838156.233 8     -1737.707          51.000
E05  24358126.695 8 128002810.610 8     -1549.461          51.000    24358130.016 8  98080069.736 8     -1187.321          51.000
E24  22868049.227 6 120172410.375 6     -1390.957          38.000    22868060.156 6  92080184.768 6     -1065.774          41.000
E25  23995859.469 8 126099149.209 8      1542.809          51.000    23995859.852 8  96621407.548 8      1182.122          51.000
> 2020 05 19 03 11 30.0000000  0 13        .000000000000
G05  20981762.461 8 110259890.081 8     -1674.262          51.000    20981760.820 8  85916806.713 8     -1304.620          51.000
G28  21298790.570 8 111925878.795 8      1621.391          51.000    21298788.102 7  87214989.746 7      1263.421          47.000
G30  20887144.797 8 109762685.790 8     -1526.168          51.000    20887146.062 8  85529429.001 8     -1189.222          51.000
R03  21959777.109 7 117552476.812 7     -3554.996          47.000    21959780.672 8  91429663.015 8     -2764.997          49.000
R04  19212901.961 8 102884186.627 8      -442.266          49.000    19212903.227 7  80021053.363 7      -343.984          46.000
R14  19198030.617 8 102336326.429 8      -623.332          51.000    19198033.297 7  79594988.258 7      -484.814          47.000
R15  20788493.242 8 111087433.666 8      3171.211          50.000    20788493.430 7  86401318.894 7      2466.500          45.000
C05  39813450.875 6 207319084.678 6         6.410          36.000    39813447.984 6 160312253.110 6         5.180          41.000
C19  25900404.562 5 134870215.445 5     -3323.570          33.000
C22  22447591.562 8 116890494.288 8     -1750.219          51.000
E05  24366996.781 8 128049420.342 8     -1556.695          51.000    24367000.289 8  98115783.681 8     -1192.852          51.000
E24  22876024.297 6 120214321.531 6     -1401.973          40.000    22876035.070 7  92112298.454 7     -1074.176          42.000
E25  23987088.477 8 126053056.226 8      1531.160          51.000    23987088.289 8  96586089.543 8      1173.236          51.000
> 2020 05 19 03 12  0.0000000  0 14        .000000000000
G05  20991370.961 8 110310384.156 8     -1691.012          51.000    20991369.297 8  85956152.726 8     -1317.671          51.000
G28  21289582.938 8 111877489.536 8      1605.539          51.000    21289580.219 7  87177283.864 7      1251.069          47.000
G30  20895888.477 8 109808633.691 8     -1536.000          51.000    20895889.617 8  85565232.567 8     -1196.883          51.000
R03  21979733.445 7 117659298.441 7     -3565.367          45.000    21979736.305 8  91512746.565 8     -2773.060          48.000
R04  19215440.633 8 102897781.790 8      -462.969          48.000    19215442.188 7  80031627.385 7      -360.087          46.000
R14  19201602.867 8 102355368.281 8      -645.000          51.000    19201605.414 7  79609798.610 7      -501.667          47.000
R15  20770735.031 8 110992542.284 8      3156.090          49.000    20770736.484 7  86327514.495 7      2454.734          47.000
C05  39813411.602 5 207318881.125 5         7.363          35.000    39813408.719 6 160312094.917 6         6.210          40.000
C19  25919562.508 5 134969968.988 5     -3324.977          33.000
C22  22457713.477 8 116943201.076 8     -1762.453          51.000
E03  23638848.453 6 124222982.965 6       950.457          39.000    23638849.023 6  95183847.444 6       728.440          40.000
E05  24375907.516 8 128096244.494 8     -1563.723          51.000    24375911.000 8  98151661.912 8     -1198.186          51.000
E24  22884060.578 6 120256554.142 6     -1412.488          40.000    22884071.680 7  92144658.492 7     -1082.380          43.000
E25  23978382.156 8 126007305.735 8      1519.824          51.000    23978382.062 8  96551033.989 8      1164.565          51.000
> 2020 05 19 03 12 30.0000000  0 14        .000000000000
G05  21001078.922 8 110361401.247 8     -1709.590          51.000    21001077.484 8  85995906.289 8     -1332.145          51.000
G28  21280469.609 8 111829597.172 8      1587.770          51.000    21280466.398 7  87139965.173 7      1237.223          46.000
G30  20904692.312 8 109854897.542 8     -1547.621          51.000    20904693.055 8  85601282.316 8     -1205.939          51.000
R03  21999750.859 7 117766454.420 7     -3577.637          45.000    21999754.141 7  91596090.192 7     -2782.603          46.000
R04  19218098.789 8 102912018.690 8      -485.742          48.000    19218101.062 7  80042700.531 7      -377.799          46.000
R14  19205301.289 8 102375082.941 8      -668.594          51.000    19205304.016 7  79625132.267 7      -520.017          46.000
R15  20753065.047 8 110898124.085 8      3139.043          48.000    20753068.039 7  86254078.074 7      2441.478          47.000
C05  39813370.391 6 207318666.737 6         7.426          36.000    39813367.500 6 160311929.161 6         5.371          40.000
C19  25938735.031 5 135069801.987 5     -3329.125          31.000
C22  22467909.789 8 116996293.826 8     -1776.480          51.000
E03  23633446.594 6 124194604.154 6       941.965          38.000    23633448.016 6  95162102.629 6       721.927          39.000
E05  24384862.391 8 128143301.081 8     -1572.812          51.000    24384865.242 8  98187718.265 8     -1205.151          51.000
E24  22892161.945 6 120299125.028 6     -1425.227          40.000    22892173.438 7  92177277.713 7     -1091.877          43.000
E25  23969744.430 8 125961916.552 8      1506.648          51.000    23969744.445 8  96516255.268 8      1154.418          51.000
> 2020 05 19 03 13  0.0000000  0 15        .000000000000
G05  21010891.367 8 110412966.557 8     -1727.344          51.000    21010890.352 8  86036087.048 8     -1345.982          51.000
G07  23139213.383 5 121597404.777 5     -2667.898          30.000
G28  21271455.969 8 111782230.368 8      1570.641          51.000    21271452.258 7  87103055.973 7      1223.876          46.000
G30  20913561.086 8 109901502.671 8     -1558.637          51.000    20913561.594 8  85637598.007 8     -1214.522          51.000
R03  22019835.812 7 117873970.030 7     -3589.199          47.000    22019839.320 7  91679713.414 7     -2791.602          44.000
R04  19220882.094 8 102926925.448 8      -507.508          48.000    19220885.078 7  80054294.650 7      -394.731          46.000
R14  19209130.672 8 102395495.323 8      -691.535          51.000    19209133.031 7  79641008.578 7      -537.861          46.000
R15  20735489.727 8 110804208.504 8      3122.637          50.000    20735493.266 7  86181032.606 7      2428.717          47.000
C05  39813332.445 5 207318469.072 5         6.535          35.000    39813329.539 6 160311776.288 6         5.494          40.000
C19  25957926.312 5 135169739.518 5     -3332.457          31.000
C22  22478185.117 8 117049798.302 8     -1789.812          51.000
E03  23628093.477 6 124166480.287 6       933.832          39.000    23628095.883 6  95140553.179 6       715.495          39.000
E05  24393866.320 8 128190616.861 8     -1580.977          51.000    24393868.992 8  98223973.214 8     -1211.377          51.000
E24  22900332.109 6 120342059.612 6     -1436.793          40.000    22900344.328 7  92210175.594 7     -1100.686          44.000
E25  23961180.641 8 125916916.059 8      1494.012          51.000    23961180.938 8  96481774.367 8      1144.786          51.000
> 2020 05 19 03 13 30.0000000  0 13        .000000000000
G05  21020809.078 8 110465084.654 8     -1745.469          51.000    21020808.469 8  86076698.546 8     -1360.106          51.000
G28  21262543.391 8 111735396.789 8      1553.215          51.000    21262539.523 7  87066562.269 7      1210.297          45.000
G30  20922495.633 8 109948453.937 8     -1569.773          51.000    20922496.289 8  85674183.405 8     -1223.200          51.000
R03  22039989.664 8 117981849.674 8     -3601.008          50.000    22039991.438 6  91763619.716 6     -2800.787          40.000
R04  19223792.102 7 102942509.341 7      -529.773          47.000    19223795.266 7  80066415.470 7      -412.046          46.000
R14  19213091.836 8 102416610.031 8      -714.551          51.000    19213094.203 7  79657431.165 7      -555.759          46.000
R15  20718011.094 8 110710804.147 8      3105.934          51.000    20718013.953 7  86108384.766 7      2415.729          47.000
C05  39813298.977 6 207318294.921 6         6.176          36.000    39813295.938 6 160311641.219 6         4.954          40.000
C22  22488540.586 8 117103720.044 8     -1803.348          51.000
E03  23622791.570 6 124138618.702 6       924.922          40.000    23622793.852 6  95119204.678 6       709.236          39.000
E05  24402920.516 8 128238198.146 8     -1589.449          51.000    24402923.414 8  98260431.587 8     -1217.908          51.000
E24  22908571.984 6 120385362.767 6     -1448.445          38.000    22908584.859 7  92243355.920 7     -1110.024          44.000
E25  23952692.258 8 125872311.246 8      1481.219          51.000    23952693.172 8  96447596.665 8      1134.993          51.000
> 2020 05 19 03 14  0.0000000  0 13        .000000000000
G05  21030818.516 8 110517683.626 8     -1762.062          51.000    21030818.039 8  86117684.730 8     -1373.039          51.000
G28  21253718.852 8 111689026.921 8      1537.211          50.000    21253715.164 7  87030429.902 7      1197.824          45.000
G30  20931482.227 8 109995679.052 8     -1579.441          51.000    20931483.062 8  85710982.186 8     -1230.737          51.000
R03  22060197.188 8 118090019.324 8     -3611.195          50.000    22060195.656 6  91847751.606 6     -2808.707          37.000
R04  19226815.070 7 102958698.953 7      -550.508          46.000    19226818.531 7  80079007.356 7      -428.176          46.000
R14  19217170.875 8 102438353.240 8      -735.980          51.000    19217172.805 7  79674342.556 7      -572.429          46.000
R15  20700615.133 8 110617841.040 8      3090.625          51.000    20700617.430 7  86036080.128 7      2403.819          47.000
C05  39813256.328 5 207318072.499 5         7.469          35.000    39813253.352 6 160311469.603 6         5.872          40.000
C22  22498962.820 8 117157988.004 8     -1815.438          51.000
E03  23617526.648 6 124110949.478 6       918.312          41.000    23617528.453 6  95098003.625 6       703.471          39.000
E05  24412011.734 8 128285973.988 8     -1596.422          51.000    24412014.438 8  98297039.062 8     -1223.283          51.000
E24  22916869.211 6 120428962.303 6     -1458.875          39.000    22916881.898 7  92276763.350 7     -1117.893          44.000
E25  23944266.164 8 125828031.809 8      1469.848          51.000    23944267.414 8  96413668.289 8      1126.223          51.000
> 2020 05 19 03 14 30.0000000  0 13        .000000000000
G05  21040929.797 8 110570816.201 8     -1779.480          51.000    21040928.867 8  86159086.717 8     -1386.608          51.000
G28  21244993.445 8 111643177.409 8      1519.988          50.000    21244990.023 7  86994703.008 7      1184.406          45.000
G30  20940531.078 8 110043231.350 8     -1590.219          51.000    20940531.828 8  85748035.902 8     -1239.131          51.000
R03  22080467.633 7 118198532.612 7     -3622.359          47.000    22080465.156 6  91932150.762 6     -2817.394          38.000
R04  19229962.180 8 102975550.684 8      -572.305          48.000    19229965.469 7  80092114.250 7      -445.123          46.000
R14  19221377.781 8 102460778.332 8      -758.410          51.000    19221379.852 7  79691784.310 7      -589.872          46.000
R15  20683312.023 8 110525377.085 8      3074.277          50.000    20683313.930 7  85964163.758 7      2391.105          47.000
C05  39813215.047 6 207317857.564 6         7.848          36.000    39813212.078 6 160311303.408 6         5.685          40.000
C22  22509461.648 8 117212655.668 8     -1828.547          51.000
E03  23612309.227 7 124083528.397 7       910.352          43.000    23612310.617 6  95076992.693 6       697.345          39.000
E05  24421150.453 8 128333999.085 8     -1604.531          51.000    24421152.820 8  98333837.525 8     -1229.500          51.000
E24  22925233.383 6 120472911.619 6     -1470.328          38.000    22925245.391 7  92310438.771 7     -1126.705          44.000
E25  23935912.688 8 125784133.142 8      1457.262          51.000    23935913.664 8  96380031.659 8      1116.603          51.000
> 2020 05 19 03 15  0.0000000  0 13        .000000000000
G05  21051140.367 8 110624470.709 8     -1797.406          51.000    21051138.836 8  86200895.424 8     -1400.576          51.000
G28  21236365.781 8 111597840.088 8      1502.473          50.000    21236362.781 7  86959375.211 7      1170.758          45.000
G30  20949640.117 8 110091099.835 8     -1601.160          51.000    20949640.680 8  85785335.992 8     -1247.657          51.000
R03  22100798.758 7 118307377.838 7     -3633.992          45.000    22100797.992 6  92016808.156 6     -2826.438          38.000
R04  19233231.422 8 102993055.594 8      -594.520          48.000    19233233.984 7  80105729.159 7      -462.404          46.000
R14  19225710.609 8 102483873.961 8      -781.219          51.000    19225712.883 7  79709747.599 7      -607.615          46.000
R15  20666099.594 7 110433404.775 7      3057.301          47.000    20666101.070 7  85892629.807 7      2377.904          45.000
C05  39813173.367 6 207317640.316 6         6.879          36.000    39813170.359 6 160311135.381 6         5.461          40.000
C22  22520034.727 8 117267712.801 8     -1841.938          51.000
E03  23607137.273 7 124056346.965 7       901.812          42.000    23607138.742 6  95056165.360 6       690.984          40.000
E05  24430334.688 8 128382263.915 8     -1613.102          51.000    24430336.969 8  98370819.659 8     -1236.025          51.000
E24  22933660.734 5 120517199.680 5     -1482.234          33.000    22933672.562 7  92344373.832 7     -1135.690          44.000
E25  23927629.891 8 125740606.286 8      1444.508          51.000    23927630.320 8  96346679.928 8      1106.858          51.000
> 2020 05 19 03 15 30.0000000  0 14        .000000000000
G05  21061451.195 8 110678653.668 8     -1814.238          51.000    21061449.594 8  86243115.902 8     -1413.692          51.000
G07  23215626.812 6 121998925.926 6     -2686.371          36.000    23215632.086 5  95064122.421 5     -2093.276          35.000
G28  21227837.336 8 111553023.367 8      1485.848          50.000    21227835.258 7  86924453.097 7      1157.803          47.000
G30  20958810.375 8 110139290.191 8     -1611.035          51.000    20958811.102 8  85822886.903 8     -1255.352          51.000
R03  22121192.891 7 118416560.132 7     -3644.312          43.000    22121194.078 6  92101727.763 6     -2834.465          40.000
R04  19236624.453 8 103011221.700 8      -615.973          49.000    19236626.344 7  80119858.336 7      -479.093          47.000
R14  19230170.117 8 102507645.113 8      -802.949          51.000    19230172.133 7  79728236.288 7      -624.516          46.000
R15  20648979.031 7 110341933.338 7      3041.422          46.000    20648982.258 7  85821485.345 7      2365.550          45.000
C05  39813132.414 5 207317426.689 5         7.660          35.000    39813129.586 6 160310970.967 6         5.926          40.000
C22  22530683.422 8 117323165.666 8     -1854.309          51.000
E03  23602012.312 7 124029413.328 7       894.238          42.000    23602013.945 6  95035527.872 6       685.468          40.000
E05  24439566.031 8 128430775.531 8     -1620.500          51.000    24439568.094 8  98407990.882 8     -1241.673          51.000
E24  22942154.016 6 120561832.349 6     -1492.992          37.000    22942165.234 7  92378572.916 7     -1143.769          44.000
E25  23919419.289 8 125697458.986 8      1432.570          51.000    23919419.391 8  96313619.035 8      1097.681          51.000
> 2020 05 19 03 16  0.0000000  0 14        .000000000000
G05  21071860.336 8 110733354.866 8     -1832.238          51.000    21071858.961 8  86285740.190 8     -1427.721          51.000
G07  23230975.039 5 122079587.659 5     -2690.766          34.000    23230974.320 5  95126975.692 5     -2096.697          30.000
G28  21219406.766 8 111508720.673 8      1467.934          50.000    21219405.336 7  86889931.509 7      1143.844          47.000
G30  20968040.164 8 110187793.057 8     -1622.227          51.000    20968041.219 8  85860681.348 8     -1264.073          51.000
R03  22141649.758 7 118526069.484 7     -3655.930          44.000    22141651.969 7  92186901.761 7     -2843.501          43.000
R04  19240139.555 8 103030041.523 8      -638.453          50.000    19240140.977 7  80134495.956 7      -496.578          47.000
R14  19234754.391 8 102532081.777 8      -825.953          51.000    19234756.102 7  79747242.588 7      -642.405          47.000
R15  20631953.891 8 110250956.876 8      3023.992          51.000    20631957.703 7  85750725.857 7      2351.994          47.000
C05  39813090.891 6 207317210.999 6         6.430          36.000    39813088.156 6 160310804.155 6         5.528          40.000
C22  22541406.711 8 117379005.650 8     -1868.066          51.000
E03  23596933.273 7 124002720.498 7       885.672          43.000    23596934.617 6  95015074.948 6       678.563          40.000
E05  24448842.906 8 128479525.940 8     -1629.199          51.000    24448844.617 8  98445345.074 8     -1248.383          51.000
E24  22950710.812 5 120606800.406 5     -1504.637          34.000    22950722.594 7  92413028.916 7     -1152.939          44.000
E25  23911279.531 8 125654683.859 8      1419.410          51.000    23911279.547 8  96280843.319 8      1087.588          51.000
> 2020 05 19 03 16 30.0000000  0 13        .000000000000
G05  21082367.172 8 110788569.450 8     -1848.820          51.000    21082365.867 8  86328764.531 8     -1440.639          51.000
G28  21211074.000 8 111464930.506 8      1451.254          51.000    21211072.898 8  86855809.291 8      1130.847          48.000
G30  20977328.609 8 110236603.843 8     -1631.875          51.000    20977329.734 8  85898715.723 8     -1271.591          51.000
R03  22162168.117 8 118635900.649 8     -3666.238          48.000    22162170.844 7  92272325.982 7     -2851.519          44.000
R04  19243776.414 8 103049512.493 8      -659.734          51.000    19243776.820 7  80149640.022 7      -513.130          46.000
R14  19239462.344 8 102557178.524 8      -847.387          50.000    19239464.453 7  79766762.288 7      -659.079          47.000
R15  20615022.781 8 110160473.989 8      3007.977          51.000    20615026.078 8  85680350.290 8      2339.537          48.000
C05  39813048.172 5 207316989.022 5         7.285          35.000    39813045.484 6 160310632.490 6         6.147          40.000
C22  22552203.961 8 117435228.661 8     -1880.258          51.000
E03  23591899.430 6 123976266.326 6       877.980          41.000    23591900.141 6  94994804.886 6       672.807          41.000
E05  24458164.766 8 128528511.875 8     -1636.453          51.000    24458166.094 8  98482879.730 8     -1253.846          51.000
E24  22959329.359 5 120652089.951 5     -1515.133          33.000    22959342.914 7  92447738.283 7     -1161.024          43.000
