     3.02           OBSERVATION DATA    M (MIXED)           RINEX VERSION / TYPE
SAVERINEX           SC600               20200502 045931 LCL PGM / RUN BY / DATE
       G = GPS       R = GLONASS       C = COMPASS          COMMENT
       S = SBAS      J = QZSS          E = GALILEO          COMMENT
BEAN                                                        MARKER NAME
1                                                           MARKER NUMBER
GEODETIC                                                    MARKER TYPE
Unige DICCA         GTER                                    OBSERVER / AGENCY
SC60291900056       SC600               2.12(191226)        REC # / TYPE / VERS
                    HEMA45          NONE                    ANT # / TYPE
  4509407.8091   693652.4678  4442337.6214                  APPROX POSITION XYZ
        0.0000        0.0000        0.0000                  ANTENNA: DELTA H/E/N
G    8 C1C L1C D1C S1C C2Y L2Y D2Y S2Y                      SYS / # / OBS TYPES
R    8 C1C L1C D1C S1C C2P L2P D2P S2P                      SYS / # / OBS TYPES
C    8 C1I L1I D1I S1I C7I L7I D7I S7I                      SYS / # / OBS TYPES
E    8 C1C L1C D1C S1C C7Q L7Q D7Q S7Q                      SYS / # / OBS TYPES
DBHZ                                                        COMMENT
     30.000                                                 INTERVAL
  2020    05    02    02    00    0.0000000     GPS         TIME OF FIRST OBS
  2020    05    02    02    59   30.0000000     GPS         TIME OF LAST OBS
     0                                                      RCV CLOCK OFFS APPL
G L1C  0.00000                                              SYS / PHASE SHIFT
G L2Y  0.00000                                              SYS / PHASE SHIFT
R L1C  0.00000                                              SYS / PHASE SHIFT
R L2P  0.25000                                              SYS / PHASE SHIFT
C L1I  0.00000                                              SYS / PHASE SHIFT
C L7I  0.00000                                              SYS / PHASE SHIFT
E L1C  0.50000                                              SYS / PHASE SHIFT
E L7Q -0.25000                                              SYS / PHASE SHIFT
 13 R01  1 R02 -4 R07  5 R08  6 R09 -2 R10 -5 R11  0 R12 -1 GLONASS SLOT / FRQ #
    R13 -2 R17  4 R18 -3 R22 -3 R23  3                      GLONASS SLOT / FRQ #
 C1C   71.950 C2C   71.950 C2P   71.950                     GLONASS COD/PHS/BIS
    18                                                      LEAP SECONDS
*** Above antenna height is from mark to ANTENNA BOTTOM.    COMMENT
    17     4        0.0000        ANT MEASURE TYPE/HEIGT    COMMENT
    0.0000    0.0000    0.0458    0.0405    0.0000          COMMENT
                    BASE STATION                            COMMENT
                                                            END OF HEADER
> 2020 05 02 02 00  0.0000000  0 18        .000000000000
G04  24008123.219 6 126163499.346 6     -2949.688          36.000
G06  22523865.547 8 118363708.394 8     -2852.168          49.000    22523867.344 8  92231478.184 8     -2222.469          49.000
G07  20815879.828 8 109388189.891 8       465.766          51.000    20815878.656 8  85237532.865 8       362.937          51.000
G09  21325541.508 6 112066472.176 6     -1897.754          41.000    21325542.266 6  87324522.020 6     -1478.769          40.000
G30  21623395.328 8 113631712.605 8      2559.707          50.000    21623396.781 8  88544209.417 8      1994.577          50.000
R02  19473451.836 6 103914033.832 6       560.285          38.000    19473448.102 5  80822023.509 5       435.774          30.000
R11  20917616.906 5 111777390.449 5     -1995.344          31.000    20917618.258 5  86937978.370 5     -1551.943          31.000
R12  19969961.500 8 106675992.793 8      2012.723          50.000    19969965.828 8  82970232.260 8      1565.451          48.000
R17  23156642.977 6 123915840.987 6     -3834.770          40.000    23156644.719 6  96378988.367 6     -2982.599          37.000
C05  39773161.195 5 207109286.270 5       -14.191          35.000    39773160.578 6 160150026.433 6       -10.838          41.000
C14  21911894.812 8 114100981.837 8     -1049.359          49.000    21911893.750 8  88230112.383 8      -811.350          51.000
C24  22487664.320 8 117099131.027 8      1183.059          51.000
C25  25085166.258 6 130625039.782 6      3376.395          38.000
C26  23381361.844 5 121752779.825 5     -1820.488          33.000
E03  23754567.039 6 124831075.963 6       834.359          37.000
E05  24468698.828 5 128583884.576 5     -1359.648          35.000    24468702.070 8  98525404.386 8     -1041.794          51.000
E15  25548289.570 6 134257176.688 6     -1803.570          40.000    25548292.938 5 102872389.974 5     -1382.013          33.000
E25  25861498.594 8 135903125.348 8      2692.047          50.000    25861500.648 8 104133616.842 8      2062.794          50.000
> 2020 05 02 02 00 30.0000000  0 17        .000000000000
G04  24024976.812 6 126252062.420 6     -2955.578          38.000
G06  22540188.242 8 118449485.966 8     -2867.770          49.000    22540189.805 8  92298317.836 8     -2234.626          49.000
G07  20813274.555 8 109374498.935 8       445.312          51.000    20813273.469 8  85226864.576 8       346.997          51.000
G09  21336404.977 7 112123562.242 7     -1909.895          42.000    21336405.859 7  87369007.792 7     -1488.226          42.000
G30  21608825.125 8 113555148.429 8      2542.953          50.000    21608827.117 8  88484549.007 8      1981.519          50.000
R02  19470343.469 6 103897445.102 6       544.180          39.000    19470340.211 4  80809137.157 4       423.245          29.000
R12  19958734.703 8 106616021.332 8      1983.766          50.000    19958739.406 8  82923587.774 8      1542.929          49.000
R17  23178167.078 6 124031029.684 6     -3845.551          37.000    23178168.148 6  96468579.580 6     -2990.984          36.000
C05  39773249.164 5 207109745.096 5       -17.852          35.000    39773248.500 6 160150380.454 6       -13.765          41.000
C14  21917976.203 8 114132648.870 8     -1063.312          50.000    21917975.047 8  88254599.324 8      -822.133          51.000
C24  22480901.352 8 117063917.034 8      1162.973          50.000
C25  25065733.625 6 130523847.509 6      3368.223          39.000
C26  23391902.477 4 121807769.775 4     -1836.551          28.000
E03  23749827.758 6 124806158.075 6       825.414          36.000
E05  24476481.805 6 128624780.435 6     -1368.520          36.000    24476485.617 8  98556744.739 8     -1048.543          51.000
E15  25558626.016 6 134311495.357 6     -1818.906          40.000    25558629.078 5 102914010.665 5     -1393.869          34.000
E25  25846158.062 8 135822511.418 8      2680.664          50.000    25846159.430 8 104071847.744 8      2053.964          49.000
> 2020 05 02 02 01  0.0000000  0 17        .000000000000
G02  22486896.148 5 118169444.651 5      -794.602          34.000
G04  24041820.266 5 126340571.953 5     -2951.090          32.000
G06  22556555.844 8 118535499.399 8     -2872.891          50.000    22556557.695 8  92365341.266 8     -2238.616          49.000
G07  20810742.547 8 109361192.272 8       435.316          51.000    20810741.555 8  85216495.775 8       339.211          51.000
G09  21347292.547 7 112180777.285 7     -1910.766          43.000    21347293.422 7  87413590.928 7     -1488.908          43.000
G30  21594307.344 8 113478858.903 8      2536.574          51.000    21594309.750 8  88425102.609 8      1976.548          50.000
R02  19467281.820 6 103881106.374 6       538.980          37.000    19467279.711 5  80796429.308 5       419.207          30.000
R12  19947626.742 8 106556685.556 8      1965.438          51.000    19947631.695 8  82877437.724 8      1528.671          50.000
R17  23199709.062 6 124146315.300 6     -3846.305          39.000    23199710.602 5  96558246.160 5     -2991.570          35.000
C05  39773316.469 5 207110095.195 5       -11.418          35.000    39773315.875 6 160150651.572 6        -8.841          41.000
C14  21924093.539 8 114164502.780 8     -1066.695          51.000    21924092.055 8  88279230.791 8      -824.900          51.000
C24  22474210.008 8 117029076.149 8      1153.324          50.000
C25  25046304.922 6 130422677.843 6      3370.031          40.000
E03  23745091.344 5 124781297.821 5       826.121          32.000
E05  24484270.211 6 128665712.427 6     -1367.027          38.000    24484275.148 8  98588108.304 8     -1047.250          51.000
E15  25569006.734 6 134366051.352 6     -1824.500          37.000    25569010.727 5 102955813.306 5     -1397.802          35.000
E25  25830838.633 8 135742008.580 8      2679.652          50.000    25830839.898 8 104010163.787 8      2053.204          48.000
> 2020 05 02 02 01 30.0000000  0 17        .000000000000
G02  22491498.367 5 118193635.147 5      -816.508          33.000
G04  24058690.648 5 126429275.433 5     -2957.684          31.000
G06  22573006.766 8 118621949.946 8     -2888.789          50.000    22573009.328 8  92432705.301 8     -2251.004          50.000
G07  20808322.438 8 109348474.036 8       414.203          51.000    20808321.648 8  85206585.496 8       322.756          51.000
G09  21358242.727 7 112238320.778 7     -1923.371          43.000    21358243.523 7  87458430.014 7     -1498.731          43.000
G30  21579881.586 8 113403049.828 8      2518.949          51.000    21579883.727 8  88366030.600 8      1962.818          51.000
R02  19464304.164 5 103865226.582 5       521.875          32.000    19464306.195 5  80784078.411 5       405.906          30.000
R12  19936677.547 8 106498195.436 8      1935.703          51.000    19936682.172 8  82831945.388 8      1505.547          50.000
R17  23221309.102 6 124261901.115 6     -3857.660          39.000    23221310.922 5  96648146.169 5     -3000.402          35.000
C05  39773402.000 6 207110540.404 6       -16.035          36.000    39773401.453 6 160150996.232 6       -12.689          41.000
C14  21930285.727 8 114196746.042 8     -1081.129          51.000    21930283.984 8  88304163.311 8      -836.025          51.000
C24  22467629.602 8 116994811.444 8      1132.672          51.000
C25  25026919.398 6 130321735.091 6      3361.078          41.000
E03  23740409.758 5 124756694.464 5       816.113          32.000    23740405.109 5  95592765.658 5       625.618          33.000
E05  24492103.898 6 128706878.887 6     -1376.121          36.000    24492108.945 8  98619651.520 8     -1054.341          51.000
E15  25579470.344 6 134421047.138 6     -1840.488          37.000    25579478.133 6 102997952.956 6     -1410.128          38.000
E25  25815579.531 8 135661822.982 8      2667.723          50.000    25815580.594 7 103948722.894 7      2044.174          47.000
> 2020 05 02 02 02  0.0000000  0 16        .000000000000
G06  22589531.258 8 118708786.026 8     -2901.812          51.000    22589534.641 8  92500369.750 8     -2261.156          51.000
G07  20806005.195 8 109336295.679 8       396.059          51.000    20806004.398 8  85197095.865 8       308.614          51.000
G09  21369246.195 6 112296143.219 6     -1933.086          41.000    21369246.188 6  87503486.477 6     -1506.301          40.000
G30  21565538.492 8 113327674.122 8      2504.320          51.000    21565540.188 8  88307296.314 8      1951.421          51.000
R02  19461402.984 5 103849781.384 5       507.812          35.000    19461409.023 5  80772046.838 5       394.968          32.000
R12  19925878.062 8 106440504.228 8      1908.695          51.000    19925882.422 8  82787074.457 8      1484.538          51.000
R17  23242956.727 6 124377732.909 6     -3865.988          38.000    23242958.414 6  96738237.534 6     -3006.880          36.000
C05  39773496.625 5 207111033.067 5       -18.230          35.000    39773496.078 6 160151377.166 6       -13.907          41.000
C14  21936543.602 8 114229330.667 8     -1092.785          51.000    21936541.625 8  88329359.787 8      -845.041          51.000
C24  22461151.109 8 116961075.546 8      1114.773          51.000
C25  25007568.414 6 130220973.048 6      3354.750          41.000
C26  23423905.750 5 121974441.097 5     -1877.715          31.000
E03  23735754.352 5 124732230.814 5       809.727          33.000    23735764.664 6  95574053.735 6       620.649          36.000
E05  24499974.297 6 128748231.307 6     -1382.707          36.000    24499977.953 8  98651337.124 8     -1059.318          50.000
E15  25590007.500 6 134476432.451 6     -1853.641          37.000    25590020.445 6 103040391.131 6     -1420.334          39.000
E25  25800371.859 8 135581907.936 8      2658.336          49.000    25800373.055 7 103887489.328 7      2037.003          46.000
> 2020 05 02 02 02 30.0000000  0 16        .000000000000
G06  22606103.836 8 118795874.100 8     -2906.844          51.000    22606107.828 8  92568230.574 8     -2265.073          51.000
G07  20803765.625 8 109324526.275 8       385.641          51.000    20803764.852 8  85187924.913 8       300.499          51.000
G09  21380277.773 6 112354113.242 6     -1934.605          41.000    21380276.984 7  87548657.903 7     -1507.485          42.000
G30  21551253.312 8 113252602.854 8      2497.348          51.000    21551254.625 8  88248799.265 8      1945.988          51.000
R02  19458556.289 6 103834591.706 6       501.848          37.000    19458562.781 5  80760232.717 5       390.326          33.000
R12  19915203.867 8 106383481.285 8      1889.762          51.000    19915207.844 8  82742723.304 8      1469.818          50.000
R17  23264625.555 6 124493672.984 6     -3866.215          36.000    23264626.812 6  96828413.128 6     -3007.056          37.000
C05  39773575.391 5 207111443.175 5       -12.078          35.000    39773574.828 6 160151694.306 6        -9.421          41.000
C14  21942842.172 8 114262127.417 8     -1096.605          51.000    21942839.953 8  88354720.283 8      -848.074          51.000
C24  22454749.766 8 116927739.883 8      1104.637          51.000
C25  24988227.898 6 130120264.270 6      3355.980          40.000
C26  23434741.391 5 122030843.496 5     -1885.301          34.000
E03  23731121.781 5 124707881.468 5       810.445          35.000    23731135.242 6  95555396.456 6       621.125          36.000
E05  24507854.102 6 128789638.872 6     -1381.098          36.000    24507857.508 8  98683065.041 8     -1058.312          50.000
E15  25600594.312 6 134532075.052 6     -1858.656          38.000    25600610.367 6 103083026.421 6     -1424.417          39.000
E25  25785190.742 7 135502134.770 7      2656.711          47.000    25785192.586 7 103826364.481 7      2035.623          46.000
> 2020 05 02 02 03  0.0000000  0 17        .000000000000
G04  24109356.484 5 126695517.394 5     -2955.910          34.000
G06  22622735.352 8 118883270.970 8     -2914.934          51.000    22622739.398 8  92636332.028 8     -2271.377          51.000
G07  20801615.094 8 109313225.350 8       372.203          51.000    20801614.438 8  85179119.015 8       290.028          51.000
G09  21391348.617 6 112412289.761 6     -1939.176          41.000    21391348.445 6  87593990.216 6     -1511.046          41.000
G30  21537037.680 8 113177897.446 8      2487.309          51.000    21537038.680 8  88190587.282 8      1938.163          51.000
R02  19455773.906 6 103819743.303 6       492.562          38.000    19455780.438 5  80748683.903 5       383.101          34.000
R12  19904666.383 8 106327190.010 8      1867.562          51.000    19904670.141 8  82698941.233 8      1452.549          49.000
R17  23286325.688 5 124609777.664 5     -3869.484          32.000    23286326.641 6  96918716.757 6     -3009.599          38.000
C05  39773649.664 5 207111830.516 5        -9.254          35.000    39773649.117 6 160151993.420 6        -7.122          41.000
C14  21949192.789 8 114295195.654 8     -1103.520          51.000    21949190.398 8  88380290.714 8      -853.212          51.000
C24  22448436.727 8 116894864.444 8      1091.375          51.000
C25  24968910.078 6 130019670.014 6      3354.383          39.000
C26  23445647.742 5 122087620.063 5     -1895.715          34.000
E03  23726515.281 5 124683668.400 5       808.656          35.000    23726516.695 5  95536852.641 5       619.716          33.000
E05  24515756.078 6 128831161.451 6     -1382.500          41.000    24515758.898 8  98714881.055 8     -1059.375          49.000
E15  25611242.539 6 134588033.044 6     -1867.234          40.000    25611259.109 6 103125903.321 6     -1430.756          37.000
E25  25770048.172 7 135422565.135 7      2652.211          47.000    25770051.281 8 103765395.585 8      2032.208          48.000
> 2020 05 02 02 03 30.0000000  0 16        .000000000000
G02  22510841.742 6 118295271.739 6      -887.199          37.000
G06  22639431.086 8 118971004.959 8     -2936.691          50.000    22639434.586 8  92704696.186 8     -2288.331          50.000
G07  20799559.648 8 109302423.868 8       345.113          51.000    20799558.984 8  85170702.274 8       268.922          51.000
G09  21402464.383 6 112470703.214 6     -1957.648          40.000    21402464.664 6  87639507.166 6     -1525.440          40.000
G30  21522897.398 8 113103590.780 8      2463.668          50.000    21522898.367 8  88132685.983 8      1919.741          50.000
R02  19453061.844 6 103805268.674 6       469.625          36.000    19453067.484 5  80737425.833 5       365.264          34.000
R12  19894271.891 8 106271664.710 8      1831.363          51.000    19894275.586 8  82655754.929 8      1424.397          48.000
R17  23308061.016 4 124726074.232 4     -3886.461          29.000    23308062.305 6  97009169.670 6     -3022.797          37.000
C05  39773725.320 5 207112225.080 5       -20.262          35.000    39773724.898 6 160152298.534 6       -15.508          41.000
C14  21955601.359 8 114328566.578 8     -1123.902          51.000    21955599.086 8  88406095.211 8      -869.124          51.000
C24  22442217.867 8 116862480.963 8      1064.711          51.000
C25  24949620.078 5 129919223.236 5      3338.918          35.000
E03  23721938.242 5 124659627.000 5       792.648          32.000    23721939.398 5  95518420.603 5       607.315          34.000
E05  24523686.133 6 128872830.251 6     -1398.148          41.000    24523688.141 8  98746809.140 8     -1071.332          48.000
E15  25621957.172 6 134644335.963 6     -1889.023          40.000    25621971.469 5 103169044.513 5     -1447.431          34.000
E25  25754951.500 7 135343232.277 7      2633.879          47.000    25754955.992 8 103704608.093 8      2018.155          50.000
> 2020 05 02 02 04  0.0000000  0 16        .000000000000
G02  22515935.180 6 118322035.622 6      -897.863          38.000
G06  22656207.484 8 119059163.447 8     -2940.875          49.000    22656210.352 8  92773391.126 8     -2291.591          49.000
G07  20797616.125 8 109292211.687 8       335.434          51.000    20797615.547 8  85162744.718 8       261.377          51.000
G09  21413642.008 6 112529443.246 6     -1958.652          37.000    21413641.992 6  87685278.560 6     -1526.223          37.000
G30  21508849.633 8 113029774.816 8      2457.160          48.000    21508851.047 8  88075167.024 8      1914.670          48.000
R02  19450437.500 6 103791261.659 6       464.047          39.000    19450442.406 5  80726531.449 5       360.928          35.000
R12  19884038.156 8 106216999.406 8      1812.746          50.000    19884041.859 7  82613237.519 7      1409.914          47.000
C05  39773819.695 6 207112715.389 6       -13.242          36.000    39773819.344 6 160152678.826 6       -10.037          41.000
C14  21962085.180 8 114362329.771 8     -1127.137          51.000    21962083.062 8  88432203.060 8      -871.613          51.000
C24  22436110.664 8 116830679.705 8      1055.176          51.000
C25  24930375.391 5 129819015.446 5      3340.980          33.000
C26  23467733.945 6 122202670.430 6     -1925.637          36.000
E03  23717409.094 5 124635825.125 5       793.984          33.000    23717412.727 5  95500182.780 5       608.315          35.000
E05  24531661.031 6 128914735.659 6     -1396.008          41.000    24531662.398 7  98778918.506 7     -1069.674          47.000
E15  25632755.258 6 134701072.480 6     -1893.520          41.000    25632764.672 5 103212523.894 5     -1450.690          31.000
E25  25739917.617 7 135264228.415 7      2632.914          47.000    25739922.938 8 103644072.663 8      2017.386          50.000
> 2020 05 02 02 04 30.0000000  0 18        .000000000000
G02  22521097.023 5 118349165.497 5      -911.332          35.000    22521110.867 4  92220183.611 4      -710.129          29.000
G04  24160100.695 5 126962184.757 5     -2962.309          31.000
G06  22673019.227 8 119147509.582 8     -2949.211          48.000    22673021.711 8  92842232.278 8     -2298.086          48.000
G07  20795740.234 8 109282355.070 8       321.426          50.000    20795739.930 8  85155064.237 8       250.462          50.000
G09  21424837.414 6 112588275.051 6     -1963.578          37.000    21424837.094 6  87731121.437 6     -1530.058          36.000
G30  21494851.461 8 112956217.198 8      2446.270          50.000    21494853.086 8  88017849.400 8      1906.184          49.000
R02  19447855.586 6 103777485.477 6       453.785          38.000    19447860.875 5  80715816.560 5       352.941          34.000
R11  21023798.898 4 112344806.180 4     -2202.715          29.000    21023804.383 5  87379316.406 5     -1713.223          30.000
R12  19873921.000 8 106162958.950 8      1789.617          48.000    19873925.117 8  82571206.037 8      1391.924          48.000
C05  39773888.328 6 207113072.725 6       -10.828          36.000    39773888.008 6 160152955.162 6        -8.464          41.000
C14  21968599.766 8 114396253.720 8     -1134.836          51.000    21968597.930 8  88458435.196 8      -877.473          51.000
C24  22430071.141 8 116799229.691 8      1041.141          51.000
C25  24911131.539 5 129718816.941 5      3338.336          33.000
C26  23478855.883 6 122260598.901 6     -1936.445          39.000
E03                                                                  23712890.266 6  95481960.173 6       606.142          36.000
E05  24539636.078 7 128956643.782 7     -1398.312          42.000    24539637.117 7  98811029.938 7     -1071.401          46.000
E15  25643591.430 6 134758007.058 6     -1902.492          41.000    25643595.156 5 103256136.059 5     -1457.389          31.000
E25  25724902.477 8 135185321.648 8      2627.297          49.000    25724907.945 8 103583611.604 8      2013.109          51.000
> 2020 05 02 02 05  0.0000000  0 18        .000000000000
G02  22526358.148 6 118376817.316 6      -930.188          36.000    22526361.695 4  92241656.712 4      -724.821          28.000
G04  24177028.859 5 127051140.996 5     -2965.793          33.000
G06  22689895.523 7 119236197.438 7     -2961.551          47.000    22689897.625 7  92911339.706 7     -2307.699          47.000
G07  20793961.812 8 109273010.495 8       303.211          50.000    20793961.875 8  85147782.763 8       236.268          50.000
G09  21436079.352 6 112647354.790 6     -1972.582          38.000    21436082.383 6  87777157.613 6     -1537.080          38.000
G30  21480933.555 8 112883076.509 8      2431.484          51.000    21480935.148 8  87960856.659 8      1894.663          51.000
R01  22284965.000 4 119125908.665 4     -2891.848          28.000
R02  19445347.016 6 103764100.923 6       439.867          39.000    19445351.547 5  80705406.343 5       342.122          34.000
R12  19863951.203 8 106109705.131 8      1762.293          49.000    19863955.797 8  82529786.359 8      1370.669          48.000
R17  23373487.562 5 125076195.527 5     -3896.016          32.000    23373472.539 5  97281469.377 5     -3030.237          32.000
C05  39773961.078 5 207113451.258 5       -12.926          35.000    39773960.695 6 160153247.849 6        -9.759          41.000
C14  21975175.211 8 114430494.174 8     -1146.328          50.000    21975173.703 8  88484912.086 8      -886.389          51.000
C24  22424128.828 8 116768287.177 8      1023.332          51.000
C25  24891919.797 5 129618785.161 5      3331.762          35.000
C26  23490059.039 5 122318938.641 5     -1950.988          34.000
E05  24547640.898 7 128998711.680 7     -1404.824          42.000    24547642.445 7  98843263.808 7     -1076.271          46.000
E15  25654494.805 7 134815294.945 7     -1915.074          42.000    25654496.469 5 103300031.937 5     -1467.347          34.000
E25  25709936.148 8 135106670.897 8      2617.668          49.000    25709941.375 8 103523346.708 8      2005.722          51.000
> 2020 05 02 02 05 30.0000000  0 16        .000000000000
G02  22531728.797 6 118405039.528 6      -953.336          37.000    22531731.062 5  92263648.066 5      -742.853          33.000
G04  24193980.719 5 127140213.889 5     -2973.844          35.000
G06  22706845.680 7 119325273.686 7     -2978.418          47.000    22706846.758 7  92980749.772 7     -2320.845          47.000
G07  20792290.344 8 109264227.722 8       280.613          50.000    20792290.406 8  85140939.032 8       218.660          50.000
G09  21447377.844 6 112706731.654 6     -1986.742          38.000    21447383.891 6  87823425.253 6     -1548.114          37.000
G30  21467105.055 8 112810403.961 8      2411.832          51.000    21467106.594 8  87904228.732 8      1879.353          51.000
R02  19442921.383 6 103751159.603 6       421.309          40.000    19442926.008 5  80695340.852 5       327.684          35.000
R12  19854139.227 8 106057290.262 8      1730.332          51.000    19854143.961 8  82489019.274 8      1345.817          49.000
R17  23395357.211 5 125193237.296 5     -3908.094          34.000    23395343.812 4  97372501.824 4     -3039.628          28.000
C05  39774047.242 5 207113901.015 5       -18.863          35.000    39774046.852 6 160153594.890 6       -14.562          41.000
C14  21981820.891 8 114465100.490 8     -1162.367          50.000    21981819.688 8  88511671.895 8      -898.798          51.000
C24  22418293.656 8 116737902.114 8      1000.754          51.000
C25  24872751.242 6 129518971.381 6      3320.723          37.000
E05  24555685.805 7 129040988.971 7     -1415.375          43.000    24555687.797 7  98875658.126 7     -1084.544          45.000
E15  25665473.922 7 134872984.129 7     -1932.453          44.000    25665475.906 6 103344235.322 6     -1480.875          36.000
E25  25695028.438 8 135028327.761 8      2603.527          50.000    25695033.031 8 103463317.486 8      1994.958          51.000
> 2020 05 02 02 06  0.0000000  0 16        .000000000000
G02  22537184.148 5 118433703.324 5      -965.297          34.000    22537188.773 5  92285983.450 5      -752.185          33.000
G06  22723845.172 8 119414607.914 8     -2984.820          48.000    22723844.617 8  93050360.830 8     -2325.834          48.000
G07  20790701.570 8 109255878.751 8       268.391          51.000    20790701.531 8  85134433.338 8       209.136          51.000
G09  21458709.055 6 112766277.141 6     -1990.266          41.000    21458713.914 6  87869824.368 6     -1550.856          40.000
G30  21453341.516 8 112738073.655 8      2402.562          51.000    21453343.078 8  87847867.475 8      1872.127          51.000
R02  19440555.133 6 103738533.043 6       412.934          41.000    19440559.688 5  80685520.218 5       321.171          34.000
R12  19844460.820 8 106005587.366 8      1708.777          51.000    19844465.297 8  82448805.932 8      1329.049          50.000
R17  23417246.977 5 125310382.137 5     -3909.715          33.000    23417233.062 4  97463614.441 4     -3040.892          26.000
C05  39774122.680 5 207114292.834 5       -14.738          35.000    39774122.250 6 160153898.636 6       -11.261          41.000
C14  21988512.438 8 114499946.494 8     -1168.234          49.000    21988511.414 8  88538617.049 8      -903.332          51.000
C24  22412541.703 8 116707948.870 8       988.504          51.000
C25  24853601.859 6 129419251.253 6      3319.844          38.000
C26  23512708.688 5 122436845.567 5     -1979.730          35.000
E05  24563746.289 7 129083348.180 7     -1416.246          43.000    24563748.617 7  98908115.241 7     -1085.047          45.000
E15  25676504.703 7 134930945.336 7     -1939.246          46.000    25676508.016 6 103388647.122 6     -1485.886          40.000
E25  25680155.250 8 134950166.608 8      2599.738          50.000    25680159.594 8 103403427.755 8      1991.932          51.000
> 2020 05 02 02 06 30.0000000  0 16        .000000000000
G02  22542738.891 5 118462889.352 5      -979.324          33.000    22542742.578 4  92308725.775 4      -763.116          28.000
G06  22740908.711 7 119504278.733 7     -2992.457          46.000    22740907.133 7  93120234.136 7     -2331.788          46.000
G07  20789210.961 8 109248044.974 8       254.801          51.000    20789210.742 8  85128329.102 8       198.546          51.000
G09  21470088.078 7 112826072.198 7     -1994.961          43.000    21470091.578 6  87916417.907 6     -1554.515          41.000
G30  21439658.453 8 112666168.766 8      2392.000          51.000    21439660.469 8  87791837.713 8      1863.896          51.000
R02  19438263.852 7 103726305.806 7       403.156          42.000    19438266.508 5  80676010.127 5       313.566          33.000
R11  21074361.961 5 112614979.628 5     -2293.488          35.000
R12  19834931.414 8 105954681.533 8      1685.883          51.000    19834935.805 8  82409212.539 8      1311.245          51.000
C05  39774202.922 6 207114710.666 6       -12.242          36.000    39774202.445 6 160154221.744 6        -9.460          41.000
C14  21995265.688 8 114535113.224 8     -1175.262          50.000    21995264.703 8  88565810.204 8      -908.923          51.000
C24  22406888.039 8 116678508.923 8       975.027          51.000
C25  24834486.500 6 129319707.613 6      3317.379          38.000
C26  23524134.883 6 122496384.211 6     -1989.367          39.000
E05  24571838.062 7 129125871.009 7     -1418.113          42.000    24571840.383 7  98940697.682 7     -1086.478          46.000
E15  25687601.977 7 134989258.517 7     -1947.438          46.000    25687606.852 6 103433328.613 6     -1492.237          41.000
E25  25665332.461 8 134872271.022 8      2594.301          51.000    25665336.680 8 103343741.527 8      1987.874          51.000
> 2020 05 02 02 07  0.0000000  0 16        .000000000000
G02  22548383.383 6 118492548.570 6      -996.133          36.000    22548384.891 4  92331836.790 4      -776.226          24.000
G06  22758026.539 7 119594235.718 7     -3002.949          44.000    22758025.859 7  93190330.470 7     -2339.960          44.000
G07  20787809.266 8 109240678.577 8       238.105          51.000    20787808.805 8  85122589.058 8       185.537          51.000
G09  21481505.297 7 112886068.615 7     -2002.527          42.000    21481509.508 7  87963168.356 7     -1560.411          42.000
G30  21426047.273 8 112594643.413 8      2378.254          51.000    21426049.773 8  87736103.687 8      1853.185          51.000
R02  19436038.938 6 103714431.234 6       390.336          41.000    19436039.336 5  80666774.343 5       303.592          34.000
R11  21087307.039 6 112684071.736 6     -2316.348          38.000    21087281.812 4  87643151.357 4     -1801.604          26.000
R12  19825542.359 8 105904526.843 8      1659.703          51.000    19825547.008 8  82370203.354 8      1290.880          51.000
C05  39774278.938 6 207115106.405 6       -12.203          36.000    39774278.430 6 160154527.768 6        -9.608          41.000
C14  22002071.586 8 114570553.827 8     -1185.512          50.000    22002070.680 8  88593215.118 8      -916.643          51.000
C24  22401324.023 8 116649536.007 8       958.391          51.000
C25  24815396.859 6 129220295.545 6      3312.086          40.000
C26  23535632.633 6 122556283.719 6     -2002.254          39.000
E05  24579951.672 7 129168510.007 7     -1422.684          42.000    24579955.016 7  98973369.144 7     -1090.150          47.000
E15  25698756.234 7 135047874.504 7     -1958.445          45.000    25698762.648 7 103478242.140 7     -1500.594          43.000
E25  25650551.914 8 134794595.504 8      2585.906          51.000    25650555.242 8 103284223.953 8      1981.424          51.000
> 2020 05 02 02 07 30.0000000  0 17        .000000000000
G02  22554121.367 6 118522700.742 6     -1011.496          36.000    22554120.922 4  92355356.010 4      -788.179          27.000
G06  22775202.453 7 119684496.526 7     -3012.328          44.000    22775203.891 7  93260663.571 7     -2347.266          44.000
G07  20786500.484 8 109233799.881 8       222.609          51.000    20786499.695 8  85117229.046 8       173.462          51.000
G09  21492964.711 6 112946286.264 6     -2009.316          41.000    21492967.914 6  88010091.189 6     -1565.701          40.000
G30  21412512.609 8 112523519.789 8      2365.523          51.000    21412515.266 8  87680682.672 8      1843.265          51.000
R02  19433884.391 7 103702930.968 7       378.715          45.000    19433882.805 5  80657829.654 5       294.556          34.000
R11  21100379.188 5 112753973.681 5     -2338.023          32.000    21100363.898 4  87697532.666 4     -1818.466          24.000
R12  19816297.766 8 105855146.322 8      1634.602          50.000    19816303.117 8  82331796.270 8      1271.357          51.000
C05  39774354.609 5 207115501.163 5       -11.980          35.000    39774354.102 6 160154832.599 6        -8.917          41.000
C14  22008934.297 8 114606288.940 8     -1194.668          51.000    22008933.367 8  88620847.768 8      -923.730          51.000
C24  22395854.125 8 116621051.244 8       942.820          51.000
C25  24796336.180 6 129121037.472 6      3307.691          41.000
C26  23547207.125 5 122616562.737 5     -2014.164          31.000
E03  23686412.688 6 124472927.537 6       759.102          37.000    23686407.945 6  95375345.203 6       581.607          37.000
E05  24588091.250 7 129211285.911 7     -1426.789          42.000    24588095.703 7  99006145.478 7     -1093.146          47.000
E15  25709970.891 7 135106812.180 7     -1968.387          43.000    25709979.094 7 103523402.181 7     -1508.349          43.000
E25  25635817.719 8 134717162.613 8      2578.453          51.000    25635819.180 8 103224892.297 8      1975.731          51.000
> 2020 05 02 02 08  0.0000000  0 17        .000000000000
G02  22559951.125 4 118553342.918 4     -1027.219          29.000    22559949.430 4  92379216.661 4      -800.430          27.000
G04  24278818.023 5 127586043.284 5     -2973.672          30.000
G06  22792436.141 7 119775058.484 7     -3021.340          45.000    22792439.461 7  93331231.306 7     -2354.291          45.000
G07  20785284.453 8 109227408.670 8       207.395          51.000    20785283.273 8  85112248.883 8       161.606          51.000
G09  21504465.969 6 113006724.668 6     -2015.914          41.000    21504466.227 6  88057186.040 6     -1570.842          39.000
G30  21399054.836 8 112452799.618 8      2353.141          51.000    21399057.156 8  87625576.023 8      1833.616          51.000
R02  19431800.617 7 103691806.530 7       367.051          46.000    19431797.539 5  80649177.334 5       285.487          34.000
R11  21113555.492 5 112824437.660 5     -2358.844          32.000
R12  19807198.617 8 105806542.234 8      1609.660          50.000    19807204.375 8  82293993.056 8      1251.955          50.000
C05  39774430.102 5 207115894.568 5       -11.215          35.000    39774429.562 6 160155136.447 6        -8.418          41.000
C14  22015853.742 8 114642318.840 8     -1203.418          51.000    22015852.461 8  88648708.385 8      -930.653          51.000
C24  22390477.586 8 116593055.435 8       927.465          51.000
C25  24777304.984 6 129021935.585 6      3303.062          41.000
E03  23682100.469 6 124450277.651 6       754.848          37.000    23682099.930 6  95357990.076 6       578.177          38.000
E05  24596257.086 6 129254198.831 6     -1430.078          41.000    24596262.133 7  99039026.848 7     -1095.918          47.000
E15  25721245.797 7 135166069.979 7     -1978.215          42.000    25721255.422 7 103568807.549 7     -1515.661          43.000
E25  25621129.961 8 134639974.474 8      2571.309          51.000    25621129.438 8 103165748.175 8      1970.167          51.000
> 2020 05 02 02 08 30.0000000  0 15        .000000000000
G06  22809731.586 7 119865945.123 7     -3034.246          44.000    22809736.203 7  93402052.066 7     -2364.348          45.000
G07  20784166.148 8 109221531.319 8       188.047          51.000    20784164.906 8  85107669.143 8       146.530          51.000
G09  21516013.820 6 113067409.564 6     -2026.848          38.000    21516013.344 6  88104473.003 6     -1579.362          37.000
G30  21385679.281 8 112382511.025 8      2336.516          51.000    21385680.812 8  87570805.673 8      1820.662          51.000
R02  19429791.992 7 103681086.160 7       351.254          45.000    19429788.180 6  80640839.273 6       273.197          36.000
R12  19798250.969 8 105758743.781 8      1580.566          51.000    19798256.164 8  82256816.451 8      1229.329          49.000
C05                                                                  39774509.836 6 160155468.635 6       -10.717          41.000
C14  22022834.789 8 114678670.071 8     -1216.262          51.000    22022833.125 8  88676817.462 8      -940.488          51.000
C24  22385199.953 8 116565575.550 8       908.055          51.000
C25  24758309.219 7 128923018.212 7      3294.555          42.000
C26  23570557.461 5 122738073.318 5     -2041.781          35.000
E03  23677823.648 5 124427810.676 5       746.617          32.000    23677826.805 6  95340775.158 6       572.170          39.000
E05  24604454.406 6 129297275.550 6     -1437.859          40.000    24604458.891 7  99072033.668 7     -1101.665          47.000
E15  25732586.516 6 135225672.789 6     -1991.617          40.000    25732596.570 7 103614477.290 7     -1526.110          42.000
E25  25606493.680 8 134563059.570 8      2560.082          51.000    25606492.469 8 103106813.407 8      1961.603          51.000
> 2020 05 02 02 09  0.0000000  0 15        .000000000000
G06  22827078.969 7 119957105.627 7     -3042.734          42.000    22827084.656 7  93473086.247 7     -2370.962          43.000
G07  20783136.516 8 109216119.799 8       173.129          51.000    20783135.008 8  85103452.385 8       134.906          51.000
G09  21527599.070 6 113128292.339 6     -2032.199          37.000    21527601.672 6  88151914.123 6     -1583.532          38.000
G30  21372377.320 8 112312607.609 8      2324.113          51.000    21372377.938 8  87516335.490 8      1810.997          51.000
R02  19427849.688 7 103670722.903 7       339.914          45.000    19427847.453 6  80632778.940 6       264.378          38.000
R12  19789445.586 8 105711704.340 8      1555.805          51.000    19789450.062 7  82220230.246 7      1210.070          47.000
C05  39774586.281 5 207116708.167 5       -12.062          35.000    39774586.062 6 160155773.607 6        -9.512          41.000
C14  22029868.195 8 114715295.404 8     -1224.848          50.000    22029866.617 8  88705138.475 8      -947.205          51.000
C24  22380012.852 8 116538564.839 8       892.977          51.000
C25  24739340.125 7 128824239.983 7      3290.500          42.000
C26  23582350.531 6 122799485.608 6     -2052.180          36.000
E03                                                                  23673578.445 6  95323664.120 6       569.033          36.000
E05  24612673.836 7 129340468.129 7     -1441.012          42.000    24612677.195 7  99105129.347 7     -1104.349          46.000
E15  25743984.016 6 135285571.118 6     -2001.129          39.000    25743992.922 6 103660373.392 6     -1533.279          41.000
E25  25591900.180 8 134486372.024 8      2552.930          51.000    25591899.031 8 103048052.821 8      1956.141          50.000
> 2020 05 02 02 09 30.0000000  0 16        .000000000000
G02  22578010.461 5 118648243.070 5     -1078.871          32.000
G06  22844482.281 7 120048560.964 7     -3053.512          42.000    22844488.930 7  93544350.200 7     -2379.357          42.000
G07  20782199.805 8 109211197.255 8       155.973          51.000    20782197.625 8  85099616.638 8       121.537          51.000
G09  21539226.484 6 113189396.480 6     -2040.582          38.000    21539231.492 6  88199527.709 6     -1590.061          37.000
G30  21359153.703 8 112243114.882 8      2309.629          51.000    21359153.938 8  87462185.333 8      1799.711          51.000
R02  19425978.883 7 103660742.232 7       326.387          44.000    19425978.438 6  80625016.197 6       253.856          40.000
R12  19780787.125 8 105665449.950 8      1528.777          51.000    19780790.828 7  82184254.676 7      1189.052          46.000
C05  39774662.031 6 207117105.345 6       -13.148          36.000    39774662.344 6 160156083.715 6       -10.046          41.000
C14  22036958.805 8 114752218.742 8     -1235.660          50.000    22036957.586 8  88733689.905 8      -955.430          51.000
C24  22374920.305 8 116512047.600 8       875.711          51.000
C25  24720402.602 6 128725626.632 6      3284.227          41.000
C26  23594216.617 5 122861273.056 5     -2066.016          33.000
E03                                                                  23669359.203 5  95306675.546 5       564.238          32.000
E05  24620919.586 6 129383800.653 6     -1446.793          38.000    24620923.164 7  99138332.266 7     -1108.384          47.000
E15  25755442.594 6 135345787.112 6     -2012.508          38.000    25755448.297 6 103706512.849 6     -1541.812          39.000
E25  25577354.398 8 134409937.664 8      2543.613          50.000    25577353.633 8 102989486.242 8      1949.008          49.000
> 2020 05 02 02 10  0.0000000  0 15        .000000000000
G02  22584215.523 5 118680845.805 5     -1093.605          34.000
G06  22861942.336 7 120140312.490 7     -3061.840          45.000    22861949.086 7  93615844.910 7     -2385.849          45.000
G07  20781356.898 8 109206767.946 8       140.613          51.000    20781354.656 8  85096165.240 8       109.569          51.000
G09  21550896.906 6 113250725.369 6     -2046.863          37.000    21550899.703 6  88247316.504 6     -1594.958          37.000
G30  21346009.391 8 112174038.616 8      2296.828          51.000    21346009.641 8  87408359.687 8      1789.739          51.000
R02  19424180.617 7 103651149.497 7       314.562          45.000    19424182.188 6  80617555.195 6       244.660          40.000
R11  21167566.844 4 113113057.391 4     -2447.906          28.000
R12  19772276.758 8 105619987.009 8      1503.445          51.000    19772279.703 7  82148894.684 7      1169.346          47.000
C14  22044107.633 8 114789444.426 8     -1244.660          50.000    22044106.469 8  88762475.151 8      -962.417          51.000
C24  22369923.625 8 116486028.649 8       860.199          51.000
C25  24701497.547 6 128627184.442 6      3279.824          39.000
E03                                                                  23665168.984 5  95289828.904 5       561.470          31.000
E05  24629191.062 5 129427271.657 5     -1450.188          32.000    24629197.102 7  99171645.766 7     -1111.320          46.000
E15  25766962.523 6 135406323.250 6     -2021.910          40.000    25766963.586 6 103752897.696 6     -1549.405          38.000
E25  25562857.852 8 134333762.723 8      2536.055          49.000    25562857.914 8 102931118.455 8      1943.109          49.000
> 2020 05 02 02 10 30.0000000  0 16        .000000000000
G02  22590511.102 5 118713925.366 5     -1110.055          32.000
G06  22879453.773 7 120232332.557 7     -3071.840          47.000    22879459.891 7  93687548.850 7     -2393.641          47.000
G07  20780603.070 8 109202806.924 8       124.070          51.000    20780600.875 8  85093078.749 8        96.678          51.000
G09  21562605.352 6 113312253.562 6     -2054.516          40.000    21562607.219 6  88295260.644 6     -1600.921          39.000
G30  21332939.750 8 112105355.600 8      2282.742          51.000    21332940.250 8  87354840.464 8      1778.760          51.000
R02  19422450.656 7 103641921.304 7       301.586          44.000    19422453.992 6  80610377.700 6       234.564          41.000
R12  19763910.211 8 105575292.659 8      1476.918          51.000    19763912.734 8  82114132.462 8      1148.717          48.000
C05  39774813.812 5 207117892.758 5       -12.641          35.000    39774813.250 6 160156692.597 6        -9.729          41.000
C14  22051309.977 8 114826948.170 8     -1254.918          50.000    22051308.586 8  88791475.413 8      -970.249          51.000
C24  22365018.609 8 116460484.102 8       843.496          51.000
C25  24682620.656 6 128528890.959 6      3274.125          38.000
C26  23618158.750 4 122985962.793 4     -2090.711          29.000
E03  23661004.188 5 124339415.263 5       726.707          32.000    23661004.602 5  95273073.561 5       556.705          33.000
E05  24637487.062 6 129470868.319 6     -1455.039          38.000    24637493.281 7  99205050.988 7     -1115.160          45.000
E15  25778538.781 7 135467153.177 7     -2032.426          42.000    25778536.859 6 103799507.591 6     -1557.346          39.000
E25  25548406.148 8 134257824.391 8      2527.449          49.000    25548407.633 8 102872931.955 8      1936.527          49.000
> 2020 05 02 02 11  0.0000000  0 15        .000000000000
G06  22897020.227 7 120324641.296 7     -3082.035          46.000    22897024.969 7  93759477.715 7     -2401.586          46.000
G07  20779942.602 8 109199336.491 8       107.105          51.000    20779940.023 8  85090374.522 8        83.459          51.000
G09  21574356.172 6 113374003.685 6     -2062.625          40.000    21574357.820 6  88343377.545 6     -1607.243          40.000
G30  21319949.477 8 112037090.457 8      2268.137          51.000    21319950.180 8  87301646.852 8      1767.379          51.000
R02  19420793.461 7 103633082.213 7       287.719          44.000    19420797.836 6  80603502.829 6       223.778          40.000
R12  19755692.203 8 105531392.058 8      1449.609          51.000    19755694.602 8  82079987.560 8      1127.474          49.000
C05  39774889.430 5 207118274.554 5       -13.289          35.000    39774887.938 6 160156990.263 6       -10.512          41.000
C14  22058570.078 8 114864753.025 8     -1265.633          50.000    22058568.492 8  88820708.527 8      -978.652          51.000
C24  22360209.055 8 116435437.450 8       826.141          51.000
C25  24663776.766 6 128430771.126 6      3267.449          36.000
C26  23630232.359 5 123048828.165 5     -2102.867          30.000
E03  23656875.438 5 124317718.812 5       720.348          33.000    23656873.336 5  95256429.558 5       552.012          35.000
E05  24645810.617 6 129514607.680 6     -1460.559          37.000    24645815.352 7  99238565.666 7     -1119.354          44.000
E15  25790174.977 7 135528298.252 7     -2043.918          42.000    25790170.406 6 103846359.015 6     -1566.400          37.000
E25  25534004.781 8 134182147.791 8      2517.789          49.000    25534007.406 8 102814945.972 8      1929.257          50.000
> 2020 05 02 02 11 30.0000000  0 15        .000000000000
G06  22914641.414 7 120417237.408 7     -3090.875          46.000    22914644.305 7  93831630.513 7     -2408.474          46.000
G07  20779375.859 8 109196358.139 8        91.488          51.000    20779373.086 8  85088053.728 8        71.290          51.000
G09  21586149.523 7 113435976.505 7     -2069.094          42.000    21586150.086 5  88391668.037 5     -1612.284          35.000
G30  21307039.148 8 111969246.368 8      2254.875          51.000    21307040.141 8  87248781.335 8      1757.045          51.000
R02  19419210.273 7 103624635.138 7       275.363          45.000    19419214.656 6  80596932.888 6       214.171          40.000
R12  19747623.117 8 105488288.791 8      1423.906          51.000    19747625.875 8  82046462.779 8      1107.483          50.000
C05                                                                  39774963.617 6 160157295.637 6        -9.744          41.000
C14  22065888.391 8 114902860.844 8     -1274.969          50.000    22065886.461 8  88850175.893 8      -985.811          51.000
C24  22355495.492 8 116410890.916 8       810.305          51.000
C25  24644968.094 6 128332828.576 6      3262.047          36.000
C26  23642379.367 4 123112072.623 4     -2115.301          28.000
E03  23652776.031 5 124296176.951 5       715.469          30.000    23652776.109 6  95239926.473 6       548.357          36.000
E05  24654163.234 5 129558501.821 5     -1465.246          30.000    24654165.055 7  99272191.185 7     -1122.269          44.000
E15  25801870.352 6 135589758.407 6     -2053.637          40.000    25801865.945 6 103893451.807 6     -1573.356          38.000
E25  25519654.438 8 134106736.459 8      2509.648          50.000    25519658.055 8 102757163.268 8      1923.055          51.000
> 2020 05 02 02 12  0.0000000  0 16        .000000000000
G02  22609945.211 4 118816063.582 4     -1158.816          29.000
G06  22932310.086 7 120510084.103 7     -3099.789          42.000    22932311.336 7  93903978.580 7     -2415.420          42.000
G07  20778896.305 8 109193837.723 8        75.605          51.000    20778893.586 8  85086089.784 8        58.913          51.000
G09  21597978.656 7 113498137.720 7     -2076.160          43.000    21597977.859 5  88440105.241 5     -1617.790          30.000
G30  21294202.609 8 111901790.998 8      2241.215          51.000    21294204.055 8  87196218.733 8      1746.404          51.000
R02  19417694.812 8 103616546.981 8       262.812          48.000    19417698.828 7  80590642.077 7       204.410          42.000
R11  21223513.188 5 113412018.778 5     -2533.629          31.000
R12  19739697.102 8 105445950.531 8      1397.652          51.000    19739700.352 8  82013533.005 8      1087.063          51.000
C05  39775034.703 5 207119043.164 5       -12.480          35.000    39775034.266 6 160157579.956 6        -9.699          41.000
C14  22073258.539 8 114941238.218 8     -1284.566          50.000    22073256.195 8  88879851.721 8      -993.323          51.000
C24  22350871.547 8 116386811.566 8       794.121          51.000
C25  24626188.039 6 128235031.868 6      3256.789          37.000
E03                                                                  23648704.672 6  95223524.717 6       544.553          36.000
E05                                                                  24662536.906 7  99305901.733 7     -1125.696          44.000
E15  25813617.938 6 135651498.051 6     -2063.062          37.000    25813616.000 6 103940758.777 6     -1580.926          38.000
E25  25505349.297 8 134031558.527 8      2501.223          51.000    25505352.727 8 102699559.386 8      1916.515          51.000
> 2020 05 02 02 12 30.0000000  0 15        .000000000000
G06  22950032.133 5 120603213.182 5     -3109.281          35.000    22950032.609 5  93976546.707 5     -2422.814          35.000
G07  20778510.391 8 109191809.426 8        59.473          51.000    20778507.820 8  85084509.296 8        46.342          51.000
G09  21609849.906 6 113560521.339 6     -2083.383          39.000    21609849.367 6  88488715.721 6     -1623.421          39.000
G30  21281446.930 8 111834760.522 8      2227.363          51.000    21281448.477 8  87143987.210 8      1735.608          51.000
R02  19416253.820 7 103608854.827 7       249.863          47.000    19416257.781 7  80584659.296 7       194.338          43.000
R12  19731921.234 8 105404414.058 8      1371.262          51.000    19731924.719 8  81981226.843 8      1066.537          51.000
C05  39775106.750 5 207119418.034 5       -11.770          35.000    39775106.398 6 160157869.856 6        -9.675          41.000
C14  22080687.031 8 114979919.780 8     -1294.371          51.000    22080684.539 8  88909762.728 8     -1000.884          51.000
C24  22346343.859 8 116363234.312 8       777.621          51.000
C25  24607441.852 6 128137417.419 6      3250.762          37.000
E03                                                                  23644663.438 5  95207251.167 5       540.156          34.000
E05                                                                  24670937.750 7  99339723.959 7     -1129.153          44.000
E15  25825424.078 5 135713550.174 5     -2073.609          34.000    25825425.273 6 103988305.198 6     -1588.654          39.000
E24  23547604.695 5 123743499.324 5       -96.270          31.000    23547618.125 6  94816494.321 6       -73.986          37.000
E25  25491095.914 8 133956650.608 8      2492.633          51.000    25491099.031 8 102642162.429 8      1909.844          51.000
> 2020 05 02 02 13  0.0000000  0 16        .000000000000
G02  22623358.047 5 118886558.546 5     -1192.539          33.000    22623359.180 5  92638865.724 5      -929.254          31.000
G06  22967797.586 5 120696602.421 5     -3119.625          30.000    22967808.023 5  94049334.682 5     -2430.880          30.000
G07  20778215.422 8 109190259.067 8        41.715          51.000    20778212.805 8  85083301.228 8        32.505          51.000
G09  21621760.734 6 113623112.757 6     -2091.562          39.000    21621761.430 6  88537488.179 6     -1629.786          38.000
G30  21268769.789 8 111768142.565 8      2211.695          51.000    21268771.141 8  87092077.131 8      1723.399          51.000
R02  19414884.508 8 103601545.333 8       235.164          48.000    19414887.992 7  80578974.149 7       182.905          43.000
R12  19724292.961 8 105363667.126 8      1342.996          51.000    19724296.812 8  81949534.801 8      1044.553          51.000
C05  39775177.148 5 207119785.013 5       -14.555          35.000    39775177.023 6 160158159.747 6       -11.088          41.000
C14  22088171.414 8 115018891.908 8     -1305.867          51.000    22088168.594 8  88939898.438 8     -1009.755          51.000
C24  22341909.820 8 116340145.946 8       759.500          51.000
C25  24588728.625 6 128039973.498 6      3243.316          38.000
E03                                                                  23640648.352 5  95191095.463 5       535.205          32.000
E05                                                                  24679363.367 7  99373647.343 7     -1134.083          44.000
E15  25837288.555 5 135775866.981 5     -2084.863          33.000    25837291.734 6 104036079.063 6     -1597.663          41.000
E24  23548198.742 6 123746608.986 6      -113.066          36.000    23548210.062 6  94818876.410 6       -86.674          37.000
E25  25476891.414 8 133882000.808 8      2482.145          51.000    25476894.344 8 102584963.249 8      1901.831          51.000
> 2020 05 02 02 13 30.0000000  0 15        .000000000000
G02  22630202.094 6 118922525.884 6     -1205.883          37.000    22630202.625 5  92666892.280 5      -939.646          35.000
G06  22985629.297 6 120790284.703 6     -3126.078          38.000    22985638.555 6  94122333.971 6     -2435.902          39.000
G07  20778015.922 8 109189210.841 8        27.727          51.000    20778013.461 8  85082484.435 8        21.605          51.000
G09  21633715.602 6 113685936.573 6     -2097.117          37.000    21633716.062 6  88586441.782 6     -1634.114          38.000
G30  21256176.039 8 111701963.689 8      2199.699          51.000    21256177.375 8  87040509.185 8      1714.051          51.000
R02  19413591.992 8 103594645.757 8       224.430          49.000    19413594.320 7  80573607.830 7       174.559          43.000
R12  19716817.922 8 105323737.002 8      1318.570          51.000    19716821.664 8  81918478.036 8      1025.555          51.000
C05  39775251.539 5 207120171.485 5       -12.031          35.000    39775251.523 6 160158458.996 6        -9.312          41.000
C14  22095716.055 8 115058179.673 8     -1313.703          50.000    22095713.008 8  88970278.236 8     -1015.965          51.000
C24  22337574.617 8 116317571.899 8       745.059          51.000
C25  24570054.328 6 127942727.067 6      3239.293          38.000
E05                                                                  24687817.422 7  99407691.236 7     -1135.864          43.000
E15  25849214.031 5 135838543.328 5     -2093.262          33.000    25849218.227 6 104084098.352 6     -1603.847          41.000
E24  23548881.367 6 123750191.493 6      -126.160          38.000    23548890.633 6  94821621.356 6       -96.647          36.000
E25  25462740.711 8 133807636.157 8      2475.176          51.000    25462743.664 8 102527982.560 8      1896.539          51.000
> 2020 05 02 02 14  0.0000000  0 17        .000000000000
G02  22637131.602 6 118958939.293 6     -1220.215          41.000    22637132.438 6  92695266.364 6      -950.814          37.000
G06  23003503.672 7 120884203.421 7     -3133.738          42.000    23003514.781 7  94195517.407 7     -2441.874          42.000
G07  20777902.734 8 109188616.609 8        13.117          51.000    20777900.695 8  85082021.397 8        10.224          51.000
G09  21645705.484 6 113748943.648 6     -2102.520          40.000    21645706.109 6  88635538.189 6     -1638.327          40.000
G30  21243656.758 8 111636176.986 8      2187.207          51.000    21243658.453 8  86989246.815 8      1704.317          51.000
R02  19412366.969 8 103588107.961 8       212.695          49.000    19412368.992 7  80568522.888 7       165.430          44.000
R12  19709486.812 8 105284576.283 8      1293.363          51.000    19709490.773 8  81888019.707 8      1005.949          51.000
R18  22453327.914 5 119857380.973 5     -2051.965          34.000    22453331.516 4  93222426.921 4     -1595.973          25.000
C05  39775320.414 5 207120530.285 5       -10.480          35.000    39775320.203 6 160158735.684 6        -8.300          41.000
C14  22103312.016 8 115097735.279 8     -1322.066          50.000    22103309.344 8  89000865.128 8     -1022.472          51.000
C24  22333328.977 8 116295464.723 8       729.957          51.000
C25  24551410.461 6 127845632.157 6      3234.949          36.000
C26  23704153.461 5 123433740.097 5     -2171.473          30.000
E05                                                                  24696293.141 7  99441818.672 7     -1138.450          44.000
E15  25861191.578 6 135901482.708 6     -2101.574          36.000    25861196.305 7 104132324.601 7     -1610.285          43.000
E24                                                                  23549655.078 5  94824692.145 5      -107.069          35.000
E25  25448635.016 8 133733510.251 8      2467.520          51.000    25448638.266 8 102471184.799 8      1890.706          51.000
> 2020 05 02 02 14 30.0000000  0 16        .000000000000
G02  22644150.914 6 118995825.085 6     -1237.652          39.000    22644152.086 6  92724008.500 6      -964.407          38.000
G06  23021426.445 7 120978383.302 7     -3143.887          43.000    23021439.477 7  94268904.321 7     -2449.782          43.000
G07  20777881.055 8 109188503.505 8        -4.566          51.000    20777879.273 8  85081933.280 8        -3.558          51.000
G09  21657735.297 6 113812161.137 6     -2111.098          39.000    21657735.969 6  88684798.571 6     -1645.011          39.000
G30  21231217.656 8 111570811.655 8      2171.445          50.000    21231219.758 8  86938312.773 8      1692.035          50.000
R02  19411215.102 8 103581961.557 8       198.090          49.000    19411217.125 7  80563742.359 7       154.070          44.000
