     3.04           OBSERVATION DATA    M (MIXED)           RINEX VERSION / TYPE
Convert 2.6.2       NovAtel             20200515 160931 UTC PGM / RUN BY / DATE 
Rinex Version 3.04 Observation File                         COMMENT             
                                                            MARKER NAME         
                                                            MARKER NUMBER       
                                                            MARKER TYPE         
                                                            OBSERVER / AGENCY   
                    NovAtel GPSCard                         REC # / TYPE / VERS 
                                                            ANT # / TYPE        
        0.0000        0.0000        0.0000                  APPROX POSITION XYZ 
        0.0000        0.0000        0.0000                  ANTENNA: DELTA H/E/N
G    8 C1C L1C D1C S1C C2W L2W D2W S2W                      SYS / # / OBS TYPES 
R    8 C1C L1C D1C S1C C2P L2P D2P S2P                      SYS / # / OBS TYPES 
E    8 C1C L1C D1C S1C C7Q L7Q D7Q S7Q                      SYS / # / OBS TYPES 
C    8 C2I L2I D2I S2I C7I L7I D7I S7I                      SYS / # / OBS TYPES 
DBHZ                                                        SIGNAL STRENGTH UNIT
    30.000                                                  INTERVAL            
  2020    05    12    17    00    0.0000000     GPS         TIME OF FIRST OBS   
  2020    05    12    17    59   30.0000000     GPS         TIME OF LAST OBS    
G L1C  0.00000  09 G32 G08 G16 G10 G27 G11 G20 G14 G22      SYS / PHASE SHIFT   
G L2W  0.00000  08 G32 G08 G16 G10 G27 G14 G22 G20          SYS / PHASE SHIFT   
R L1C  0.00000  07 R14 R01 R23 R24 R08 R02 R15              SYS / PHASE SHIFT   
R L2P  0.25000  06 R14 R01 R23 R24 R08 R02                  SYS / PHASE SHIFT   
E L1C  0.50000  05 E26 E01 E33 E07 E08                      SYS / PHASE SHIFT   
E L7Q -0.25000  05 E26 E01 E07 E33 E08                      SYS / PHASE SHIFT   
C L2I  0.00000  03 C05 C28 C14                              SYS / PHASE SHIFT   
C L7I  0.00000  02 C14 C05                                  SYS / PHASE SHIFT   
  7 R14 -7 R01  1 R23  3 R24  2 R08  6 R02 -4 R15  0        GLONASS SLOT / FRQ #
 C1C  -71.950 C2C  -71.950 C2P  -71.950                     GLONASS COD/PHS/BIS 
     0     0     0     0GPS                                 LEAP SECONDS        
                                                            END OF HEADER       
> 2020 05 12 17 00  0.0000000  0 15      -0.000000000000
G32  23840436.977 7 125282328.873 7      2825.145          45.000    23840441.680 7  97622618.214 7      2201.415          45.000  
G08  20620307.211 5 108360445.20925      1231.539          30.000    20620306.609 5  84436768.14025       959.632          30.000  
G16  23349021.141 6 122700009.971 6     -3577.266          40.000    23349017.016 4  95610335.302 4     -2787.480          27.000  
G10  21159798.953 7 111195552.702 7     -1217.664          45.000    21159801.234 7  86645890.037 7      -948.829          46.000  
G27  20474197.805 8 107592632.757 8     -1011.031          51.000    20474199.625 8  83838417.427 8      -787.817          51.000  
R14  22497842.234 8 119925746.451 8     -3289.980          48.000    22497845.688 7  93275583.928 7     -2558.874          42.000  
R01  20138705.102 7 107652545.951 7      2099.855          46.000    20138709.078 7  83729785.684 7      1633.221          42.000  
R23  20374576.523 6 108989864.856 6     -1659.473          36.000    20374582.055 4  84769904.146 4     -1290.707          29.000  
R24  19676891.734 5 105220817.343 5       703.953          35.000    19676890.484 4  81838392.770 4       547.516          29.000  
R08  20778640.492 5 111268243.435 5     -1415.227          35.000    20778643.844 5  86542036.212 5     -1100.735          34.000  
E26  22651481.523 8 119034344.526 8      -630.188          51.000    22651485.219 8  91208214.454 8      -482.871          51.000  
E01                                                                  26454318.375 6 106520584.475 6     -2121.972          36.000  
C05  39630878.188 5 206368381.572 5       -19.023          34.000                                                                  
C28  21524347.078 8 112082923.892 8       292.469          51.000                                                                  
C14  22484491.625 6 117082643.646 6      -369.926          41.000    22484491.305 7  90535713.913 7      -286.135          47.000  
> 2020 05 12 17 00 30.0000000  0 15      -0.000000000000
G32  23824324.680 7 125197659.896 7      2819.684          47.000    23824329.828 7  97556642.442 7      2197.160          47.000  
G08  20613312.031 5 108323686.329 5      1219.188          34.000    20613312.141 5  84408124.869 5       950.010          35.000  
G16  23369456.461 6 122807403.652 6     -3581.668          39.000    23369452.742 5  95694000.692 5     -2790.902          34.000  
G10  21166796.773 7 111232326.486 7     -1233.383          46.000    21166799.469 7  86674544.930 7      -961.078          46.000  
G27  20480011.664 8 107623185.523 8     -1025.234          51.000    20480013.750 8  83862224.771 8      -798.884          51.000  
R14  22516393.844 8 120024635.904 8     -3302.246          48.000    22516395.773 7  93352497.899 7     -2568.414          42.000  
R01  20126987.109 7 107589906.595 7      2076.609          47.000    20126991.633 7  83681066.202 7      1615.141          42.000  
R23  20383911.125 6 109039797.688 6     -1668.809          39.000    20383916.281 5  84808740.724 5     -1297.966          30.000  
R24  19672969.648 5 105199847.385 5       693.645          34.000    19672969.180 4  81822082.785 4       539.498          28.000  
R08  20786639.625 5 111311078.253 5     -1439.809          35.000    20786642.797 5  86575352.143 5     -1119.854          34.000  
E26  22655092.594 8 119053319.871 8      -634.469          51.000    22655096.117 8  91222754.005 8      -486.137          51.000  
E01  26470161.734 6 139101642.933 6     -2774.438          37.000    26470145.453 6 106584307.781 6     -2126.057          37.000  
C05  39630988.273 5 206368955.027 5       -18.156          35.000                                                                  
C28  21522687.695 8 112074283.999 8       283.941          51.000                                                                  
C14  22486670.625 6 117093992.651 6      -386.160          41.000    22486670.766 7  90544489.669 7      -298.604          46.000  
> 2020 05 12 17 01  0.0000000  0 17      -0.000000000000
G32  23808230.109 8 125113082.486 8      2812.418          48.000    23808235.516 8  97490738.027 8      2191.495          48.000  
G08  20606374.766 5 108287233.987 5      1204.566          35.000    20606376.406 5  84379720.369 5       938.623          34.000  
G16  23389905.250 6 122914865.396 6     -3588.637          36.000    23389901.625 5  95777736.935 5     -2796.359          33.000  
G10  21173871.406 8 111269503.578 8     -1250.988          48.000    21173874.031 7  86703514.058 7      -974.799          47.000  
G27  20485892.914 8 107654092.899 8     -1041.285          51.000    20485895.422 8  83886308.432 8      -811.391          51.000  
G11  21773132.211 5 114418593.177 5      2701.402          32.000                                                                  
R14  22534999.352 7 120123814.602 7     -3315.898          47.000    22535000.641 7  93429636.819 7     -2579.036          42.000  
R01  20115386.875 7 107527897.232 7      2051.172          47.000    20115392.055 7  83632836.726 7      1595.359          42.000  
R23  20393285.531 6 109089941.348 6     -1680.195          38.000    20393290.258 5  84847741.358 5     -1306.816          31.000  
R24  19669090.898 5 105179107.671 5       682.715          33.000    19669091.023 5  81805951.912 5       531.001          30.000  
R08  20794763.414 6 111354582.063 6     -1466.324          36.000    20794765.953 5  86609188.459 5     -1140.478          34.000  
E33  24663846.125 5 129609385.545 5      1449.262          32.000                                                                  
E26  22658714.281 8 119072351.270 8      -640.363          51.000    22658717.719 8  91237336.495 8      -490.656          51.000  
E01  26486001.406 6 139184881.809 6     -2780.824          39.000    26485987.156 6 106648088.182 6     -2130.996          36.000  
C05  39631080.062 5 206369432.997 5       -19.531          34.000                                                                  
C28  21521063.953 8 112065828.699 8       273.730          51.000                                                                  
C14  22488929.133 6 117105753.052 6      -404.090          40.000    22488929.633 7  90553583.546 7      -312.347          44.000  
> 2020 05 12 17 01 30.0000000  0 15      -0.000000000000
G32  23792197.508 8 125028829.049 8      2806.641          49.000    23792202.969 8  97425086.056 8      2186.993          49.000  
G08  20599539.953 5 108251318.653 5      1191.582          34.000    20599542.875 5  84351734.438 5       928.509          33.000  
G16  23410410.406 6 123022621.684 6     -3593.074          36.000                                                                  
G10  21181066.102 7 111307311.629 7     -1267.035          47.000    21181068.625 7  86732974.837 7      -987.300          47.000  
G27  20491885.352 8 107685584.138 8     -1055.863          51.000    20491887.898 8  83910847.066 8      -822.751          51.000  
R14  22553701.648 8 120223510.885 8     -3328.074          48.000    22553703.125 7  93507178.339 7     -2588.503          43.000  
R01  20103948.711 8 107466753.787 8      2027.379          48.000    20103954.062 7  83585280.743 7      1576.851          42.000  
R23  20402741.484 6 109140529.317 6     -1690.148          37.000    20402747.930 5  84887087.420 5     -1314.560          31.000  
R24  19665300.250 6 105158832.631 6       671.852          38.000    19665301.336 5  81790182.390 5       522.551          30.000  
R08  20803055.602 6 111398985.985 6     -1491.605          37.000    20803058.992 5  86643724.856 5     -1160.138          34.000  
E26  22662390.195 8 119091667.972 8      -644.984          51.000    22662393.625 8  91252137.600 8      -494.188          51.000  
E01  26501897.781 6 139268422.476 6     -2786.121          38.000    26501886.164 6 106712099.789 6     -2134.776          36.000  
E07  25390514.781 6 133428043.712 6      1388.539          38.000                                                                  
C28  21519519.500 8 112057785.922 8       264.906          51.000                                                                  
C14  22491310.086 6 117118151.488 6      -420.410          40.000    22491310.242 6  90563170.754 6      -324.928          38.000  
> 2020 05 12 17 02  0.0000000  0 16      -0.000000000000
G32  23776207.570 8 124944799.698 8      2801.184          48.000    23776212.812 8  97359608.703 8      2182.741          49.000  
G08  20592788.008 5 108215838.952 5      1178.887          32.000    20592791.164 5  84324087.934 5       918.610          33.000  
G16  23430951.508 5 123130567.151 5     -3597.117          34.000                                                                  
G10  21188360.992 8 111345646.109 8     -1282.672          49.000    21188363.328 8  86762845.871 8      -999.485          49.000  
G27  20497969.445 8 107717556.389 8     -1069.852          51.000    20497972.039 8  83935760.513 8      -833.651          51.000  
R14  22572480.508 8 120323615.930 8     -3339.699          48.000    22572483.125 7  93585037.731 7     -2597.547          44.000  
R01  20092653.695 8 107406374.468 8      2003.789          48.000    20092658.938 7  83538319.100 7      1558.506          42.000  
R23  20412261.688 5 109191457.061 5     -1699.129          33.000    20412267.109 4  84926697.776 4     -1321.551          29.000  
R24  19661576.859 6 105138918.630 6       661.941          36.000    19661578.602 5  81774693.804 5       514.843          31.000  
R08  20811496.078 5 111444182.772 5     -1515.473          35.000    20811497.820 5  86678877.939 5     -1178.701          32.000  
E26  22666100.789 8 119111167.184 8      -649.102          51.000    22666104.320 8  91267078.551 8      -497.388          51.000  
E01  26517831.359 6 139352160.037 6     -2790.363          38.000    26517822.383 6 106776262.298 6     -2138.572          36.000  
E07  25382635.859 5 133386651.758 5      1376.625          35.000    25382638.125 5 102205362.605 5      1054.853          34.000  
C05  39631320.523 5 206370684.937 5       -17.816          35.000                                                                  
C28  21518034.984 8 112050054.510 8       256.406          51.000                                                                  
C14  22493793.977 6 117131085.504 6      -436.164          38.000    22493793.430 6  90573171.969 6      -337.357          41.000  
> 2020 05 12 17 02 30.0000000  0 16      -0.000000000000
G32  23760220.883 7 124860789.522 7      2793.430          47.000    23760226.031 7  97294146.234 7      2176.699          47.000  
G16  23451489.156 5 123238490.720 5     -3604.270          35.000                                                                  
G10  21195716.211 8 111384297.526 8     -1300.285          49.000    21195718.500 8  86792963.820 8     -1013.213          49.000  
G27  20504105.617 8 107749801.664 8     -1086.129          51.000    20504108.078 8  83960886.693 8      -846.334          51.000  
G11  21727037.008 5 114176330.897 5      2680.859          34.000                                                                  
R14  22591295.531 7 120423914.140 7     -3353.180          47.000    22591299.391 7  93663047.407 7     -2608.032          44.000  
R01  20081462.195 8 107346550.252 8      1978.086          48.000    20081467.086 6  83491789.210 6      1538.512          40.000  
R23  20421807.656 6 109242512.752 6     -1710.914          38.000    20421810.961 5  84966407.727 5     -1330.711          30.000  
R24  19657880.492 5 105119155.230 5       649.188          35.000    19657882.312 5  81759322.232 5       504.921          31.000  
R08  20820044.734 5 111489958.320 5     -1542.297          35.000    20820045.648 5  86714481.050 5     -1199.568          34.000  
E26  22669806.602 8 119130640.942 8      -655.273          51.000    22669810.219 8  91281999.998 8      -502.111          51.000  
E01  26533762.188 6 139435884.465 6     -2797.051          40.000    26533755.180 5 106840414.711 5     -2143.510          35.000  
E07  25374791.891 6 133345450.869 6      1363.297          39.000    25374794.680 5 102173793.191 5      1044.925          34.000  
C05  39631410.086 5 206371151.063 5       -19.254          35.000                                                                  
C28  21516570.828 8 112042429.128 8       245.863          51.000                                                                  
C14  22496340.656 5 117144348.325 5      -453.988          35.000    22496340.969 6  90583427.609 6      -351.071          39.000  
> 2020 05 12 17 03  0.0000000  0 16      -0.000000000000
G32  23744314.477 7 124777205.011 7      2785.000          44.000    23744320.250 7  97229015.473 7      2170.131          44.000  
G08  20579493.023 5 108145976.237 5      1149.188          32.000    20579494.055 5  84269578.049 5       895.468          32.000  
G16  23472099.461 6 123346793.178 6     -3610.273          37.000    23472101.805 5  96114307.854 5     -2813.207          32.000  
G10  21203208.102 8 111423667.572 8     -1318.195          49.000    21203210.438 8  86823641.786 8     -1027.166          49.000  
G27  20510370.586 8 107782723.337 8     -1102.582          51.000    20510373.031 8  83986539.917 8      -859.158          51.000  
R14  22610222.633 7 120524810.373 7     -3366.910          47.000    22610227.680 7  93741522.212 7     -2618.711          45.000  
R01  20070451.859 7 107287694.367 7      1951.867          47.000    20070456.375 6  83446012.427 6      1518.119          40.000  
R23  20431451.812 5 109294107.578 5     -1722.664          33.000    20431455.266 4  85006536.892 4     -1339.862          27.000  
R24  19654289.633 5 105099953.876 5       636.738          35.000    19654291.609 5  81744387.775 5       495.241          31.000  
R08  20828777.969 6 111536721.868 6     -1569.234          37.000    20828779.031 5  86750852.743 5     -1220.516          34.000  
E26  22673584.375 8 119150492.746 8      -662.043          51.000    22673588.031 8  91297211.115 8      -507.235          51.000  
E01  26549767.508 6 139519997.168 6     -2804.281          41.000    26549760.281 5 106904864.609 5     -2148.595          33.000  
E07  25367063.477 6 133304851.783 6      1349.320          38.000    25367066.570 5 102142684.923 5      1033.812          35.000  
C05  39631542.695 5 206371841.701 5       -21.074          35.000                                                                  
C28  21515203.859 8 112035310.269 8       234.816          51.000                                                                  
C14  22499027.180 5 117158339.230 5      -472.457          35.000    22499027.125 6  90594246.137 6      -365.301          40.000  
> 2020 05 12 17 03 30.0000000  0 16      -0.000000000000
G32  23728420.828 7 124693685.293 7      2779.875          46.000    23728427.031 7  97163935.223 7      2166.137          46.000  
G08  20572958.977 5 108111633.082 5      1137.344          35.000    20572959.953 5  84242817.137 5       886.239          35.000  
G16  23492712.977 6 123455107.521 6     -3613.871          38.000    23492715.938 5  96198708.527 5     -2816.010          35.000  
G10  21210767.211 8 111463390.709 8     -1333.152          50.000    21210769.102 8  86854594.859 8     -1038.823          50.000  
G27  20516694.984 8 107815957.413 8     -1116.156          51.000    20516697.406 8  84012436.561 8      -869.732          51.000  
R14  22629192.258 7 120625930.882 7     -3377.586          47.000    22629197.867 7  93820171.469 7     -2627.012          46.000  
R01  20059553.172 7 107229439.128 7      1928.652          45.000    20059558.328 6  83400702.883 6      1500.063          39.000  
R23  20441129.859 6 109345870.683 6     -1731.215          39.000    20441131.875 4  85046797.179 4     -1346.501          29.000  
R24  19650735.188 5 105080945.232 5       627.770          32.000    19650735.781 4  81729611.25424       488.268          28.000  
R08  20837625.680 6 111584099.881 6     -1592.766          37.000    20837625.594 5  86787702.284 5     -1238.821          33.000  
E26  22677364.812 8 119170358.679 8      -665.594          51.000    22677368.305 8  91312433.060 8      -510.037          51.000  
E01  26565777.805 6 139604132.147 6     -2808.062          40.000    26565768.391 5 106969340.588 5     -2151.825          30.000  
E07  25359382.320 6 133264491.844 6      1338.344          40.000    25359384.727 5 102111759.835 5      1025.167          35.000  
C05  39631649.133 5 206372396.239 5       -19.539          35.000                                                                  
C28  21513865.062 8 112028338.019 8       226.906          51.000                                                                  
C14  22501785.117 6 117172696.962 6      -487.961          36.000    22501784.141 7  90605348.357 7      -377.262          44.000  
> 2020 05 12 17 04  0.0000000  0 17      -0.000000000000
G32  23712563.047 8 124610349.727 8      2772.867          48.000    23712568.906 7  97098998.440 7      2160.676          47.000  
G08  20566497.617 6 108077680.226 6      1123.480          37.000    20566498.375 6  84216360.418 6       875.443          37.000  
G16  23513350.570 6 123563547.544 6     -3618.465          38.000    23513352.133 4  96283207.228 4     -2819.590          26.000  
G10  21218415.375 8 111503581.571 8     -1349.266          49.000    21218417.016 8  86885912.439 8     -1051.376          49.000  
G27  20523100.922 8 107849620.193 8     -1131.098          51.000    20523103.148 8  84038667.279 8      -881.375          51.000  
G11  21681309.367 5 113936038.565 5      2659.250          32.000                                                                  
R14  22648225.812 7 120727389.302 7     -3389.293          47.000    22648231.961 7  93899083.531 7     -2636.117          46.000  
R01  20048789.180 7 107171905.461 7      1903.949          44.000    20048795.164 6  83355954.507 6      1480.850          39.000  
R23  20450859.664 5 109397920.991 5     -1741.828          35.000    20450863.719 4  85087280.709 4     -1354.759          29.000  
R24  19647238.609 5 105062248.883 5       616.133          34.000    19647237.789 4  81715062.67824       479.218          26.000  
R08  20846609.195 5 111632208.876 5     -1618.137          31.000    20846610.281 5  86825120.453 5     -1258.539          33.000  
E26  22681170.125 8 119190355.108 8      -670.441          51.000    22681173.320 8  91327754.991 8      -513.748          51.000  
E01  26581814.430 6 139688403.774 6     -2812.871          37.000                                                                  
E07  25351769.812 5 133224488.592 5      1325.641          34.000    25351772.336 5 102081108.005 5      1015.614          35.000  
C05  39631751.750 5 206372930.022 5       -18.629          35.000                                                                  
C28  21512576.688 8 112021628.454 8       217.492          51.000                                                                  
C14  22504634.555 6 117187536.002 6      -503.918          36.000    22504633.562 7  90616822.827 7      -390.021          45.000  
> 2020 05 12 17 04 30.0000000  0 17      -0.000000000000
G32  23696752.859 8 124527264.093 8      2765.914          48.000    23696758.305 8  97034256.462 8      2155.258          48.000  
G08  20560122.914 6 108044181.874 6      1109.730          37.000    20560124.258 6  84190257.784 6       864.728          36.000  
G16  23534023.602 6 123672173.812 6     -3623.559          37.000    23534022.047 6  96367851.048 6     -2823.553          36.000  
G10  21226164.148 8 111544301.348 8     -1365.500          49.000    21226165.781 8  86917642.143 8     -1064.023          48.000  
G27  20529600.297 8 107883774.403 8     -1146.098          51.000    20529602.398 8  84065280.927 8      -893.066          51.000  
G11  21666149.258 5 113856381.47525      2652.508          32.000                                                                  
R14  22667333.945 7 120829244.749 7     -3401.105          47.000    22667340.383 7  93978304.364 7     -2645.308          46.000  
R01  20038173.336 7 107115160.091 7      1878.828          46.000    20038179.875 6  83311819.189 6      1461.308          41.000  
R23  20460655.672 6 109450322.252 6     -1751.844          36.000    20460658.883 4  85128037.190 4     -1362.542          28.000  
R24  19643813.164 6 105043929.732 6       605.180          36.000                                                                  
R08  20855740.492 6 111681110.421 6     -1642.824          37.000    20855741.406 5  86863154.945 5     -1277.755          32.000  
E26  22685012.266 8 119210544.931 8      -675.684          51.000    22685015.250 8  91343225.111 8      -517.750          51.000  
E01  26597888.367 5 139772872.890 5     -2818.371          34.000                                                                  
E07  25344237.516 6 133184865.876 6      1312.926          40.000    25344241.273 6 102050778.523 6      1005.907          36.000  
C05  39631862.305 5 206373506.32425       -19.172          34.000                                                                  
C28  21511350.836 8 112015244.530 8       207.984          51.000                                                                  
C14  22507588.719 6 117202918.217 6      -521.484          36.000    22507587.312 8  90628717.241 8      -403.024          48.000  
> 2020 05 12 17 05  0.0000000  0 15      -0.000000000000
G32  23680997.547 7 124444467.081 7      2759.137          47.000    23681002.242 8  96969739.391 8      2149.980          48.000  
G08  20553841.688 6 108011174.979 6      1095.938          37.000    20553844.273 6  84164538.081 6       853.978          37.000  
G16  23554737.570 6 123781018.224 6     -3627.570          38.000    23554734.883 4  96452664.861 4     -2826.676          27.000  
G10  21234019.992 8 111585583.888 8     -1381.395          50.000    21234021.188 8  86949810.367 8     -1076.412          49.000  
G27  20536199.797 8 107918455.479 8     -1160.750          51.000    20536201.945 8  84092305.128 8      -904.481          51.000  
R14  22686522.414 7 120931528.703 7     -3412.520          47.000    22686528.508 7  94057858.506 7     -2654.185          45.000  
R01  20027713.383 8 107059241.322 8      1854.289          48.000    20027719.609 7  83268326.821 7      1442.228          43.000  
R23  20470523.984 5 109503110.834 5     -1761.680          33.000    20470528.875 5  85169094.859 5     -1370.205          30.000  
R24  19640465.742 6 105026025.041 6       594.086          37.000    19640465.320 4  81686884.635 4       462.067          27.000  
R08  20865027.516 5 111730838.268 5     -1667.582          33.000    20865027.289 5  86901832.116 5     -1297.009          32.000  
E26  22688897.945 8 119230963.718 8      -680.305          51.000    22688900.805 8  91358870.673 8      -521.318          51.000  
E07  25336793.453 6 133145740.813 6      1300.527          41.000    25336797.766 6 102020799.587 6       996.470          36.000  
C05  39631987.609 5 206374158.336 5       -18.379          34.000                                                                  
C28  21510194.445 8 112009222.245 8       198.742          51.000                                                                  
C14  22510653.500 6 117218877.864 6      -537.262          38.000    22510652.227 8  90641058.281 8      -415.690          49.000  
> 2020 05 12 17 05 30.0000000  0 15      -0.000000000000
G32  23665268.023 7 124361807.705 7      2751.281          47.000    23665272.117 7  96905329.564 7      2143.859          47.000  
G08  20547625.445 6 107978507.343 6      1081.512          38.000    20547626.977 6  84139082.793 6       842.737          38.000  
G16  23575462.555 6 123889924.297 6     -3632.676          39.000    23575457.492 5  96537526.571 5     -2830.660          30.000  
G10  21241953.227 8 111627273.459 8     -1398.156          49.000    21241954.453 7  86982295.756 7     -1089.473          47.000  
G27  20542870.258 8 107953509.314 8     -1176.383          51.000    20542872.383 8  84119619.793 8      -916.662          51.000  
R14  22705761.391 7 121034080.508 7     -3424.543          47.000    22705766.617 7  94137620.963 7     -2663.537          45.000  
R01  20017379.578 8 107003995.479 8      1828.645          51.000    20017385.438 7  83225357.856 7      1422.279          43.000  
R23  20480435.938 5 109556130.052 5     -1772.578          34.000                                                                  
R24  19637167.180 5 105008378.996 5       582.637          34.000    19637164.828 4  81673159.919 4       453.162          28.000  
R08  20874436.820 5 111781233.105 5     -1692.613          34.000    20874440.430 5  86941028.205 5     -1316.477          32.000  
E26  22692797.875 8 119251457.522 8      -686.062          51.000    22692800.609 8  91374573.712 8      -525.682          51.000  
E07  25329406.086 5 133106920.180 5      1287.609          35.000    25329409.898 5 101991054.005 5       986.580          33.000  
C05  39632098.227 5 206374734.524 5       -19.621          35.000                                                                  
C28  21509078.352 8 112003409.697 8       188.562          51.000                                                                  
C14  22513800.367 6 117235261.813 6      -554.914          40.000    22513798.852 8  90653727.377 8      -429.095          49.000  
> 2020 05 12 17 06  0.0000000  0 16      -0.000000000000
G32  23649582.062 7 124279380.264 7      2744.168          45.000    23649586.094 7  96841100.452 7      2138.316          45.000  
G08  20541491.477 6 107946271.159 6      1067.430          39.000    20541491.195 6  84113963.767 6       831.764          37.000  
G16  23596215.664 6 123998981.140 6     -3636.859          39.000    23596209.336 4  96622505.947 4     -2833.920          28.000  
G10  21249980.898 8 111669459.609 8     -1413.855          48.000    21249982.133 7  87015168.108 7     -1101.703          46.000  
G27  20549629.062 8 107989027.034 8     -1191.172          51.000    20549631.266 8  84147295.934 8      -928.186          51.000  
R14  22725067.305 7 121136988.135 7     -3435.586          47.000    22725071.336 7  94217660.182 7     -2672.123          44.000  
R01  20007189.438 8 106949517.449 8      1803.691          51.000    20007194.477 7  83182986.082 7      1402.871          43.000  
R23  20490410.828 6 109609472.929 6     -1782.957          38.000    20490418.211 4  85251859.41624     -1386.745          26.000  
R24  19633931.867 5 104991085.582 5       570.449          32.000    19633929.523 4  81659709.604 4       443.680          27.000  
R08  20883989.148 6 111832385.433 6     -1717.355          36.000    20883990.609 4  86980813.224 4     -1335.730          29.000  
E26  22696729.359 8 119272117.671 8      -691.023          51.000    22696732.078 8  91390404.214 8      -529.474          51.000  
E01  26646301.391 6 140027244.291 6     -2833.762          36.000                                                                  
E07  25322094.953 6 133068496.623 6      1274.738          36.000    25322094.742 5 101961582.587 5       976.745          32.000  
C05  39632211.781 5 206375326.308 5       -19.254          35.000                                                                  
C28  21508020.125 8 111997898.079 8       179.191          51.000                                                                  
C14  22517045.961 6 117252159.792 6      -571.559          38.000    22517043.742 8  90666793.928 8      -441.863          49.000  
> 2020 05 12 17 06 30.0000000  0 15      -0.000000000000
G32  23633936.914 7 124197166.525 7      2735.574          46.000    23633940.844 7  96777037.832 7      2131.617          46.000  
G08  20535435.734 6 107914447.522 6      1052.535          40.000    20535434.836 6  84089166.153 6       820.161          40.000  
G16  23616992.375 6 124108163.745 6     -3642.754          41.000    23616985.719 4  96707583.201 4     -2838.504          29.000  
G10  21258098.617 7 111712119.330 7     -1431.328          46.000    21258099.133 7  87048409.465 7     -1115.321          46.000  
G27  20556472.039 8 108024987.239 8     -1207.352          51.000    20556474.344 8  84175316.855 8      -940.794          51.000  
G11  21605917.641 5 113539862.75225      2622.113          32.000                                                                  
R14  22744434.859 7 121240225.505 7     -3448.094          45.000    22744438.242 7  94297955.878 7     -2681.851          45.000  
R01  19997138.812 8 106895788.350 8      1777.137          51.000    19997143.414 7  83141196.809 7      1382.221          43.000  
R24  19630758.375 5 104974124.363 5       558.762          33.000    19630759.391 4  81646517.512 4       434.593          29.000  
E26  22700688.297 8 119292922.872 8      -697.184          51.000    22700691.219 8  91406345.859 8      -534.218          51.000  
E01  26662494.336 6 140112323.872 6     -2839.535          39.000                                                                  
E07                                                                  25314854.555 5 101932429.976 5       966.078          34.000  
C05  39632324.016 5 206375910.630 5       -20.742          35.000                                                                  
C28  21507015.734 8 111992667.013 8       168.453          51.000                                                                  
C14  22520384.758 6 117269549.867 6      -589.293          37.000    22520383.359 8  90680241.037 8      -455.597          50.000  
> 2020 05 12 17 07  0.0000000  0 16      -0.000000000000
G32  23618338.461 7 124115195.641 7      2729.129          47.000    23618342.172 7  96713164.462 7      2126.598          47.000  
G08  20529463.156 6 107883063.906 6      1039.727          37.000    20529463.234 6  84064711.363 6       810.174          38.000  
G16  23637797.406 6 124217496.012 6     -3646.086          41.000    23637791.562 5  96792777.095 5     -2841.110          34.000  
G10  21266311.141 7 111755277.030 7     -1445.910          46.000    21266311.781 7  87082038.892 7     -1126.681          46.000  
G27  20563404.203 8 108061415.966 8     -1221.027          51.000    20563406.516 8  84203702.868 8      -951.450          51.000  
R14  22763867.906 7 121343814.593 7     -3457.672          43.000    22763871.828 7  94378525.139 7     -2689.301          45.000  
R01  19987233.211 8 106842837.003 8      1753.035          50.000    19987237.812 7  83100012.474 7      1363.475          42.000  
R23  20510539.977 6 109717140.602 6     -1803.801          36.000                                                                  
R24  19627653.797 5 104957522.958 5       548.797          34.000    19627656.039 4  81633605.229 4       426.845          29.000  
R08  20903506.281 5 111936926.425 5     -1766.500          34.000    20903510.023 4  87062085.588 4     -1373.954          29.000  
E26  22704679.797 8 119313899.447 8      -701.035          51.000    22704682.828 8  91422418.815 8      -537.139          51.000  
E01  26678717.445 6 140197568.366 6     -2843.102          41.000    26678727.031 6 107424180.959 6     -2178.640          36.000  
E07  25307695.250 5 132992833.524 5      1249.930          34.000    25307692.000 5 101903587.148 5       957.092          34.000  
C05  39632439.930 6 206376514.490 6       -19.797          36.000                                                                  
C28  21506070.219 8 111987743.170 8       159.953          51.000                                                                  
C14  22523824.625 6 117287457.383 6      -604.633          36.000    22523822.625 8  90694088.264 8      -467.420          50.000  
> 2020 05 12 17 07 30.0000000  0 14      -0.000000000000
G32  23602779.391 7 124033430.492 7      2720.016          47.000    23602782.914 7  96649451.436 7      2119.496          47.000  
G08  20523566.344 6 107852081.246 6      1024.203          37.000    20523567.188 6  84040568.993 6       798.084          37.000  
G16  23658622.633 6 124326935.295 6     -3651.617          40.000    23658617.633 5  96878054.343 5     -2845.426          33.000  
G10  21274610.594 7 111798890.871 7     -1463.656          45.000    21274610.961 7  87116023.731 7     -1140.512          45.000  
G27  20570417.875 8 108098272.901 8     -1237.715          51.000    20570420.195 8  84232422.562 8      -964.450          51.000  
R14  22783357.773 7 121447710.381 7     -3470.516          43.000    22783362.414 7  94459332.923 7     -2699.293          45.000  
R01  19977465.508 8 106790625.073 8      1725.922          49.000    19977469.914 6  83059403.220 6      1342.384          40.000  
R24  19624608.227 4 104941214.426 4       535.293          28.000    19624612.250 5  81620941.931 5       416.348          31.000  
E26  22708696.367 8 119335007.269 8      -707.855          51.000    22708699.375 8  91438592.342 8      -542.329          51.000  
E01  26694962.867 7 140282935.606 7     -2849.574          42.000    26694971.461 6 107489592.146 6     -2183.788          38.000  
E07                                                                  25300598.875 5 101875024.173 5       945.605          34.000  
C05  39632551.961 5 206377097.100 5       -21.543          35.000                                                                  
C28  21505175.977 8 111983087.529 8       148.609          51.000                                                                  
C14  22527354.672 5 117305847.603 5      -622.750          30.000    22527353.055 8  90708304.188 8      -481.574          49.000  
> 2020 05 12 17 08  0.0000000  0 14      -0.000000000000
G32  23587267.234 7 123951912.103 7      2713.426          46.000    23587270.508 7  96585930.700 7      2114.361          47.000  
G08  20517753.758 6 107821539.446 6      1010.961          37.000    20517755.250 5  84016770.124 5       787.759          35.000  
G16  23679474.820 6 124436516.302 6     -3654.273          39.000    23679470.828 4  96963442.118 4     -2847.493          27.000  
G10  21283003.766 7 111842996.892 7     -1477.922          46.000    21283003.172 7  87150392.105 7     -1151.628          44.000  
G27  20577520.133 8 108135595.800 8     -1251.383          51.000    20577522.789 8  84261505.338 8      -975.104          51.000  
R14  22802911.812 6 121551946.508 6     -3479.680          41.000    22802916.484 7  94540405.468 7     -2706.418          44.000  
R01  19967843.602 8 106739193.171 8      1701.805          48.000    19967848.367 6  83019400.672 6      1323.629          40.000  
R08  20923573.836 4 112044410.028 4     -1815.484          29.000    20923576.609 4  87145651.166 4     -1412.050          28.000  
E26  22712745.234 8 119356284.297 8      -711.469          51.000    22712748.227 8  91454895.529 8      -545.209          51.000  
E01  26711237.828 7 140368461.370 7     -2852.965          42.000    26711246.781 6 107555124.782 6     -2185.911          37.000  
E07                                                                  25293581.172 5 101846769.923 5       937.140          35.000  
C05  39632667.641 5 206377700.05025       -19.789          35.000                                                                  
C28  21504340.641 8 111978738.351 8       140.348          51.000                                                                  
C14  22530987.445 4 117324762.67624      -639.262          27.000    22530982.453 8  90722917.263 8      -493.300          50.000  
> 2020 05 12 17 08 30.0000000  0 17      -0.000000000000
G32  23571797.891 7 123870619.578 7      2706.629          45.000    23571800.594 7  96522585.943 7      2109.062          46.000  
G08  20512021.422 6 107791416.205 6       997.902          38.000    20512022.883 6  83993297.471 6       777.586          38.000  
G16  23700348.977 6 124546212.622 6     -3658.117          37.000    23700346.086 5  97048919.866 5     -2850.473          32.000  
G10  21291485.805 7 111887569.584 7     -1493.051          47.000    21291485.672 7  87185124.087 7     -1163.413          45.000  
G20  23134251.984 5 121571298.300 5     -3114.824          33.000                                                                  
G27  20584706.469 8 108173360.628 8     -1265.664          51.000    20584709.203 8  84290932.483 8      -986.232          51.000  
R14  22822524.477 7 121656494.481 7     -3489.406          42.000    22822529.359 7  94621720.494 7     -2713.986          45.000  
R01  19958363.281 8 106688519.521 8      1677.008          48.000    19958368.258 6  82979987.892 6      1304.340          40.000  
R23  20541129.641 4 109880800.046 4     -1834.301          28.000                                                                  
R24  19618726.508 5 104909788.586 5       514.367          33.000    19618722.430 4  81596462.311 4       400.070          29.000  
R08  20933815.852 5 112099240.883 5     -1839.781          34.000    20933819.273 5  87188297.369 5     -1430.941          31.000  
E26  22716821.750 8 119377706.768 8      -715.953          51.000    22716824.836 8  91471310.141 8      -548.543          51.000  
E01  26727537.617 7 140454119.803 7     -2856.926          43.000    26727547.078 5 107620759.130 5     -2189.014          35.000  
E07  25286631.781 5 132882150.381 5      1210.859          33.000    25286637.438 6 101818809.063 6       927.562          36.000  
C05  39632781.852 5 206378294.768 5       -19.367          35.000                                                                  
C28  21503559.711 8 111974672.745 8       131.355          51.000                                                                  
C14  22534712.734 6 117344152.304 6      -653.555          37.000    22534705.727 8  90737908.644 8      -505.588          49.000  
> 2020 05 12 17 09  0.0000000  0 17      -0.000000000000
G32  23556373.641 7 123789565.993 7      2697.332          43.000    23556376.000 7  96459427.380 7      2101.821          43.000  
G08  20506371.258 6 107761722.640 6       982.148          38.000    20506372.438 6  83970159.630 6       765.311          38.000  
G16  23721246.242 5 124656031.522 5     -3662.652          31.000                                                                  
G10  21300058.172 7 111932617.059 7     -1510.039          46.000    21300059.211 7  87220226.026 7     -1176.654          46.000  
G20  23152059.648 5 121664886.915 5     -3123.934          34.000                                                                  
G27  20591978.812 8 108211577.160 8     -1281.961          51.000    20591981.516 8  84320711.597 8      -998.931          51.000  
R14  22842197.164 7 121761359.731 7     -3501.305          45.000    22842202.422 7  94703282.300 7     -2723.238          45.000  
R01  19949027.539 7 106638616.539 7      1649.949          47.000    19949032.164 6  82941174.446 6      1283.294          40.000  
R23  20551461.586 5 109936066.86825     -1845.496          33.000    20551457.812 4  85505811.73424     -1435.386          26.000  
R24  19615881.617 5 104894506.32725       502.105          34.000    19615870.391 4  81584605.21424       390.527          28.000  
R08  20944194.547 5 112154802.32325     -1864.895          30.000    20944196.023 5  87231519.77125     -1450.474          30.000  
E26  22720927.977 8 119399284.726 8      -722.422          51.000    22720931.008 8  91487843.887 8      -553.568          51.000  
E01  26743864.016 7 140539918.818 7     -2862.965          42.000    26743876.492 5 107686501.235 5     -2193.292          31.000  
E07  25279764.289 6 132846050.494 6      1196.434          36.000    25279767.555 6 101791148.968 6       916.602          36.000  
C05  39632896.758 5 206378893.14125       -20.746          35.000                                                                  
C28  21502835.320 8 111970901.317 8       120.258          51.000                                                                  
C14  22538527.781 6 117364037.876 6      -671.672          37.000    22538524.516 8  90753285.325 8      -519.443          49.000  
> 2020 05 12 17 09 30.0000000  0 14      -0.000000000000
G32  23540997.047 7 123708762.210 7      2689.270          45.000    23540998.969 7  96396463.442 7      2095.538          44.000  
G08  20500804.812 6 107732468.476 6       967.918          40.000    20500806.023 6  83947364.179 6       754.222          40.000  
G10  21308722.000 7 111978145.383 7     -1525.555          45.000    21308723.016 7  87255702.658 7     -1188.744          45.000  
G20  23169910.242 5 121758700.283 5     -3130.996          33.000                                                                  
G27  20599338.719 8 108250253.076 8     -1296.664          51.000    20599341.336 8  84350848.648 8     -1010.388          51.000  
R14  22861929.945 7 121866545.648 7     -3511.305          46.000    22861935.820 7  94785093.521 7     -2731.018          45.000  
R01  19939837.828 7 106589494.311 7      1624.449          47.000    19939842.922 6  82902968.287 6      1263.461          41.000  
R23  20561847.805 6 109991590.275 6     -1856.227          37.000    20561839.000 4  85548996.657 4     -1443.729          27.000  
E26  22725065.336 8 119421026.083 8      -727.301          51.000    22725068.227 8  91504502.839 8      -557.274          51.000  
E01  26760218.148 6 140625864.233 6     -2867.203          39.000    26760233.312 4 107752370.558 4     -2196.437          29.000  
E07  25272973.719 6 132810353.208 6      1183.461          39.000    25272973.039 5 101763796.543 5       906.590          35.000  
C05  39633013.844 5 206379502.032 5       -20.891          35.000                                                                  
C28  21502169.281 8 111967432.581 8       110.547          51.000                                                                  
C14  22542438.008 6 117384428.442 6      -687.848          40.000    22542440.375 8  90769052.725 8      -531.999          48.000  
> 2020 05 12 17 10  0.0000000  0 17      -0.000000000000
G32  23525666.352 7 123628198.642 7      2681.883          45.000    23525668.406 7  96333686.702 7      2089.782          45.000  
G08  20495319.672 6 107703642.313 6       954.078          40.000    20495321.164 6  83924902.216 6       743.438          40.000  
G16  23763113.836 5 124876022.97125     -3670.402          31.000                                                                  
G10  21317474.516 7 112024140.194 7     -1540.250          43.000    21317475.391 7  87291542.774 7     -1200.195          43.000  
G14  24717109.570 6 129889286.059 6      2993.480          41.000    24717112.031 5 101212425.553 5      2332.583          32.000  
G20  23187801.898 5 121852723.352 5     -3136.973          31.000                                                                  
G27  20606783.602 8 108289375.617 8     -1311.133          51.000    20606785.961 8  84381333.713 8     -1021.662          51.000  
R14  22881719.461 7 121972035.046 7     -3520.941          44.000    22881725.398 7  94867140.789 7     -2738.510          44.000  
R01  19930792.719 7 106541142.305 7      1599.277          47.000    19930797.727 6  82865361.187 6      1243.883          41.000  
R23  20572282.523 5 110047431.630 5     -1866.039          34.000    20572274.516 4  85592427.601 4     -1451.370          27.000  
R24  19610368.234 5 104865033.045 5       479.121          32.000    19610368.992 4  81561715.61924       372.650          26.000  
E26  22729231.375 8 119442918.386 8      -731.770          51.000    22729234.273 8  91521277.454 8      -560.710          51.000  
E01  26776597.773 6 140711941.476 6     -2870.957          37.000                                                                  
E07  25266255.969 6 132775046.051 6      1170.793          40.000    25266254.406 6 101736742.989 6       897.218          36.000  
C05  39633130.648 6 206380110.875 6       -18.941          36.000                                                                  
C28  21501559.289 8 111964254.831 8       101.504          51.000                                                                  
C14  22546448.469 7 117405311.227 7      -703.793          45.000    22546450.812 7  90785200.572 7      -544.251          46.000  
> 2020 05 12 17 10 30.0000000  0 18      -0.000000000000
G32  23510383.078 7 123547884.074 7      2672.746          44.000    23510385.648 7  96271103.982 7      2082.663          44.000  
G08  20489917.133 7 107675251.696 7       938.801          42.000    20489918.367 7  83902779.691 7       731.533          42.000  
G16  23784079.789 5 124986197.063 5     -3674.695          35.000                                                                  
G22  24044895.180 6 126356778.064 6      3494.418          38.000                                                                  
G10  21326316.445 7 112070605.456 7     -1556.793          43.000    21326318.227 7  87327749.504 7     -1213.086          43.000  
G14  24700028.211 6 129799520.677 6      2991.547          41.000    24700028.312 5 101142478.610 5      2331.073          35.000  
G20  23205733.922 5 121946954.438 5     -3144.836          31.000                                                                  
G27  20614314.531 8 108328950.265 8     -1326.848          51.000    20614316.641 8  84412171.085 8     -1033.908          51.000  
R14  22901566.023 7 122077829.267 7     -3531.699          45.000    22901571.250 7  94949425.118 7     -2746.881          42.000  
R01  19921893.664 8 106493568.519 8      1572.633          49.000    19921898.156 6  82828359.366 6      1223.159          41.000  
R23  20582775.695 5 110103577.241 5     -1876.867          35.000    20582770.953 4  85636096.637 4     -1459.777          27.000  
R24  19607713.398 5 104850865.03525       466.227          31.000    19607713.812 4  81550671.63324       362.621          25.000  
E26  22733427.312 8 119464967.486 8      -737.855          51.000    22733430.195 8  91538172.211 8      -565.316          51.000  
E01  26793003.188 5 140798154.212 5     -2876.414          35.000                                                                  
E07  25259613.570 6 132740135.768 6      1156.750          39.000    25259613.297 6 101709993.593 6       886.389          37.000  
C05  39633248.648 6 206380724.643 6       -20.754          36.000                                                                  
C28  21501006.438 8 111961374.473 8        90.844          51.000                                                                  
C14  22550553.891 7 117426690.800 7      -721.105          45.000    22550556.961 7  90801732.604 7      -557.728          46.000  
> 2020 05 12 17 11  0.0000000  0 17      -0.000000000000
G32  23495141.734 7 123467790.696 7      2665.824          43.000    23495145.164 7  96208693.607 7      2077.266          43.000  
G08  20484591.742 6 107647267.134 6       925.828          41.000    20484593.039 6  83880973.545 6       721.425          41.000  
G16  23805060.922 5 125096452.626 5     -3676.566          34.000                                                                  
G22  24024955.547 6 126251986.876 6      3490.754          39.000                                                                  
G10  21335241.727 7 112117508.565 7     -1570.727          43.000    21335243.547 7  87364297.335 7     -1223.943          43.000  
G14  24682946.195 6 129709748.588 6      2992.348          41.000    24682945.992 5 101072526.443 5      2331.700          34.000  
G20  23223700.156 5 122041370.699 5     -3149.895          35.000                                                                  
G27  20621925.438 8 108368945.945 8     -1340.270          51.000    20621927.508 8  84443336.518 8     -1044.369          51.000  
R14  22921463.352 7 122183892.306 7     -3540.047          45.000    22921467.625 7  95031918.522 7     -2753.370          42.000  
R01  19913134.734 8 106446743.559 8      1548.312          49.000    19913138.695 6  82791939.997 6      1204.243          40.000  
R24  19605121.922 5 104837002.927 5       456.691          32.000    19605120.539 4  81539894.07124       355.201          26.000  
E26  22737647.242 8 119487142.584 8      -741.328          51.000    22737650.078 8  91555163.513 8      -568.019          51.000  
E01  26809428.086 5 140884494.532 5     -2878.992          35.000    26809438.039 5 107950496.732 5     -2205.647          31.000  
E07  25253041.156 6 132705592.644 6      1145.121          39.000    25253040.500 6 101683525.459 6       877.703          36.000  
C05  39633361.648 5 206381313.625 5       -19.367          35.000    39633361.047 5 159587118.204 5       -14.937          35.000  
C28  21500504.773 8 111958761.691 8        82.617          51.000                                                                  
C14  22554749.273 7 117448535.769 7      -736.090          47.000    22554752.117 7  90818624.494 7      -569.071          45.000  
> 2020 05 12 17 11 30.0000000  0 17      -0.000000000000
G32  23479952.164 7 123387969.460 7      2656.016          43.000    23479956.055 7  96146495.272 7      2069.623          42.000  
G08  20479352.859 7 107619738.407 7       909.855          42.000    20479354.969 7  83859522.561 7       708.979          42.000  
G16  23826065.734 6 125206834.944 6     -3681.680          37.000                                                                  
G22  24005051.109 6 126147384.335 6      3483.852          40.000                                                                  
G10  21344258.914 6 112164895.418 6     -1587.711          37.000    21344261.023 6  87401222.182 6     -1237.172          37.000  
G14  24665872.180 6 129620020.736 6      2990.156          41.000    24665871.102 5 101002608.780 5      2329.999          33.000  
G20  23241710.062 5 122136012.540 5     -3159.074          33.000                                                                  
G27  20629625.492 8 108409410.298 8     -1356.676          51.000    20629627.672 8  84474867.165 8     -1057.150          51.000  
R14  22941419.836 7 122290268.542 7     -3551.059          46.000    22941423.930 7  95114655.552 7     -2761.938          43.000  
R01  19904525.047 8 106400718.527 8      1520.691          48.000    19904528.406 6  82756142.784 6      1182.763          40.000  
R24  19602598.250 5 104823512.069 5       443.312          34.000    19602600.023 4  81529401.739 4       344.796          26.000  
E26  22741900.117 8 119509491.693 8      -747.887          51.000    22741903.000 8  91572288.147 8      -573.053          51.000  
E01  26825880.484 5 140970954.299 5     -2884.664          34.000    26825886.000 5 108016748.253 5     -2210.236          33.000  
E07  25246546.398 6 132671465.522 6      1130.758          38.000    25246545.922 6 101657376.112 6       866.249          37.000  
C05  39633478.719 6 206381923.366 6       -20.820          36.000    39633478.031 5 159587591.723 5       -16.275          35.000  
C28  21500063.727 8 111956464.698 8        71.246          51.000                                                                  
C14  22559043.195 7 117470892.751 7      -753.777          45.000    22559045.562 7  90835912.292 7      -582.890          43.000  
> 2020 05 12 17 12  0.0000000  0 17      -0.000000000000
G32  23464810.547 7 123308399.227 7      2648.078          43.000    23464814.141 7  96084492.541 7      2063.441          43.000  
G08  20474196.344 7 107592642.261 7       896.039          43.000    20474198.523 7  83838408.681 7       698.212          43.000  
G16  23847089.781 5 125317317.474 5     -3685.336          34.000                                                                  
G22  23985177.969 6 126042947.613 6      3478.473          40.000                                                                  
G10  21353363.547 7 112212740.122 7     -1602.387          42.000    21353366.070 7  87438503.803 7     -1248.613          42.000  
G14  24648801.852 7 129530315.350 7      2989.805          42.000    24648801.086 5 100932708.623 5      2329.725          35.000  
G27  20637410.055 8 108450318.963 8     -1371.074          51.000    20637412.320 8  84506744.037 8     -1068.370          51.000  
R14  22961429.453 7 122396928.896 7     -3560.039          44.000    22961433.828 7  95197613.538 7     -2768.923          42.000  
R01  19896060.680 8 106355470.678 8      1495.230          48.000    19896064.172 6  82720950.056 6      1162.960          40.000  
R23  20614593.539 4 110273788.92424     -1907.867          28.000                                                                  
R24  19600140.977 5 104810369.443 5       431.969          33.000    19600143.273 4  81519181.660 4       335.976          27.000  
E26  22746181.453 8 119531990.773 8      -752.449          51.000    22746184.422 8  91589527.693 8      -576.549          51.000  
E01  26842355.477 5 141057529.274 5     -2888.035          32.000    26842359.922 5 108083093.449 5     -2213.277          34.000  
E07  25240126.758 6 132637731.479 6      1117.840          41.000    25240128.148 6 101631527.953 6       856.710          39.000  
C05  39633595.445 6 206382531.042 6       -20.742          36.000                                                                  
C28  21499678.797 8 111954460.266 8        61.902          51.000                                                                  
C14  22563430.875 7 117493736.912 7      -769.680          46.000    22563432.781 7  90853576.864 7      -594.987          42.000  
> 2020 05 12 17 12 30.0000000  0 18      -0.000000000000
G32  23449718.320 6 123229090.201 6      2638.938          41.000    23449721.312 6  96022693.386 6      2056.319          41.000  
G08  20469124.031 7 107565987.210 7       880.801          43.000    20469125.688 7  83817638.538 7       686.339          43.000  
G16  23868133.734 6 125427904.459 6     -3688.375          37.000                                                                  
G22  23965337.516 6 125938685.849 6      3472.301          41.000                                                                  
G10  21362556.352 6 112261048.180 6     -1618.645          37.000    21362558.422 6  87476146.394 6     -1261.282          37.000  
G14  24631737.586 7 129440642.794 7      2988.188          43.000    24631736.719 5 100862834.000 5      2328.461          32.000  
G27  20645280.516 8 108491678.877 8     -1386.570          51.000    20645282.477 8  84538972.535 8     -1080.448          51.000  
G11  21429360.453 4 112612049.17324      2530.375          28.000                                                                  
R14  22981492.336 7 122503876.108 7     -3569.855          44.000    22981496.953 6  95280794.669 6     -2776.555          41.000  
R01  19887743.188 8 106311009.487 8      1468.520          48.000    19887746.281 6  82686369.148 6      1142.185          40.000  
R24  19597750.125 5 104797583.125 5       419.766          32.000    19597752.969 4  81509236.778 4       326.487          26.000  
E33                                                                  24479189.602 5  98567553.930 5      1044.284          33.000  
E26  22750492.703 8 119554647.127 8      -758.176          51.000    22750495.758 8  91606887.750 8      -580.934          51.000  
E01  26858855.586 6 141144241.795 6     -2892.590          36.000    26858860.586 5 108149536.203 5     -2216.111          33.000  
E07  25233783.672 6 132604398.635 6      1103.938          40.000    25233786.195 6 101605987.244 6       846.219          36.000  
C05  39633713.203 6 206383144.797 6       -20.742          36.000    39633712.172 5 159588535.442 5       -15.861          35.000  
C28  21499351.594 8 111952756.270 8        51.477          51.000                                                                  
C14  22567913.203 7 117517074.523 7      -786.449          46.000    22567913.391 6  90871622.919 6      -608.151          39.000  
> 2020 05 12 17 13  0.0000000  0 18      -0.000000000000
G32  23434676.695 6 123150048.314 6      2630.273          41.000    23434679.266 6  95961102.335 6      2049.564          41.000  
G08  20464136.680 7 107539778.098 7       866.117          44.000    20464138.477 7  83797215.831 7       674.897          44.000  
G16  23889197.344 6 125538595.954 6     -3691.301          37.000                                                                  
