     3.04           OBSERVATION DATA    M (MIXED)           RINEX VERSION / TYPE
Convert 2.6.2       NovAtel             20200515 161042 UTC PGM / RUN BY / DATE 
Rinex Version 3.04 Observation File                         COMMENT             
                                                            MARKER NAME         
                                                            MARKER NUMBER       
                                                            MARKER TYPE         
                                                            OBSERVER / AGENCY   
                    NovAtel GPSCard                         REC # / TYPE / VERS 
                                                            ANT # / TYPE        
        0.0000        0.0000        0.0000                  APPROX POSITION XYZ 
        0.0000        0.0000        0.0000                  ANTENNA: DELTA H/E/N
G    8 C1C L1C D1C S1C C2W L2W D2W S2W                      SYS / # / OBS TYPES 
R    8 C1C L1C D1C S1C C2P L2P D2P S2P                      SYS / # / OBS TYPES 
E    8 C1C L1C D1C S1C C7Q L7Q D7Q S7Q                      SYS / # / OBS TYPES 
C    8 C2I L2I D2I S2I C7I L7I D7I S7I                      SYS / # / OBS TYPES 
DBHZ                                                        SIGNAL STRENGTH UNIT
    30.000                                                  INTERVAL            
  2020    05    13    04    00    0.0000000     GPS         TIME OF FIRST OBS   
  2020    05    13    04    59   30.0000000     GPS         TIME OF LAST OBS    
G L1C  0.00000  08 G30 G28 G05 G15 G07 G13 G24 G17          SYS / PHASE SHIFT   
G L2W  0.00000  07 G30 G28 G05 G07 G15 G13 G17              SYS / PHASE SHIFT   
R L1C  0.00000  07 R16 R05 R06 R09 R15 R10 R07              SYS / PHASE SHIFT   
R L2P  0.25000  04 R16 R05 R09 R07                          SYS / PHASE SHIFT   
E L1C  0.50000  06 E24 E04 E31 E09 E01 E25                  SYS / PHASE SHIFT   
E L7Q -0.25000  06 E24 E04 E31 E09 E01 E25                  SYS / PHASE SHIFT   
C L2I  0.00000  03 C05 C19 C22                              SYS / PHASE SHIFT   
C L7I  0.00000  01 C05                                      SYS / PHASE SHIFT   
  7 R16 -1 R05  1 R06 -4 R09 -2 R15  0 R10 -7 R07  5        GLONASS SLOT / FRQ #
 C1C  -71.950 C2C  -71.950 C2P  -71.950                     GLONASS COD/PHS/BIS 
     0     0     0     0GPS                                 LEAP SECONDS        
                                                            END OF HEADER       
> 2020 05 13 04 00  0.0000000  0 15      -0.000000000000
G30  21363353.727 7 112265181.863 7     -1986.402          42.000    21363354.164 7  87479366.430 7     -1547.846          42.000  
G28  20969125.219 8 110193523.945 8       770.672          49.000    20969124.180 8  85865113.195 8       600.524          48.000  
G05  21547249.180 8 113231543.504 8     -2450.277          51.000    21547248.695 8  88232368.808 8     -1909.305          51.000  
R16  19431978.180 7 103801769.534 7     -1610.559          44.000    19431980.352 7  80734694.361 7     -1252.654          42.000  
R05  23200696.180 6 124020622.219 6     -4069.262          38.000    23200698.375 5  96460479.126 5     -3164.982          35.000  
R06  19267590.867 7 102815174.805 7     -1191.457          46.000                                                                  
R09  20825242.922 8 111205327.089 8      3011.207          51.000    20825242.375 8  86492957.530 8      2342.050          48.000  
R15  23265041.797 5 124320905.107 5     -4038.234          30.000                                                                  
E24  23129021.805 8 121543817.028 8      2370.484          51.000    23129033.992 8  93131070.626 8      1816.313          51.000  
E04  26543249.922 8 139485826.585 8     -2503.129          50.000    26543251.594 8 106878739.635 8     -1918.016          50.000  
E31  23668182.180 8 124377172.718 8      -276.215          51.000    23668182.430 8  95302018.295 8      -211.675          51.000  
E09  21514615.672 8 113060051.886 8      -520.867          51.000    21514617.898 8  86630457.301 8      -399.169          51.000  
E01  26822283.953 5 140952052.283 5     -2587.207          34.000                                                                  
C05  39798098.797 6 207239143.688 6        10.297          37.000    39798096.633 6 160250433.509 6         7.914          40.000  
C19  22282923.344 8 116033041.693 8     -1988.645          51.000                                                                  
> 2020 05 13 04 00 30.0000000  0 14      -0.000000000000
G30  21374728.883 7 112324958.256 7     -1996.988          42.000    21374729.102 7  87525945.405 7     -1556.095          42.000  
G28  20964787.961 8 110170733.208 8       749.961          50.000    20964787.086 7  85847354.143 7       584.382          47.000  
G05  21561288.320 8 113305320.535 8     -2466.938          50.000    21561287.727 8  88289857.398 8     -1922.290          51.000  
R16  19441086.055 7 103850422.950 7     -1632.000          43.000    19441088.062 7  80772535.899 7     -1269.334          42.000  
R05  23223564.469 5 124142861.791 5     -4078.000          35.000    23223567.500 6  96555554.391 6     -3171.775          38.000  
R06  19274362.398 7 102851311.750 7     -1216.145          45.000                                                                  
R09  20808377.797 8 111115269.446 8      2994.043          49.000    20808378.273 8  86422912.701 8      2328.700          49.000  
R15  23287726.633 5 124442127.644 5     -4042.254          30.000                                                                  
E24  23115524.039 8 121472887.251 8      2359.441          51.000    23115537.141 8  93076721.824 8      1807.891          51.000  
E04  26557563.766 8 139561043.712 8     -2510.156          50.000    26557565.375 8 106936373.502 8     -1923.404          50.000  
E31  23669805.172 8 124385701.921 8      -291.156          51.000    23669805.852 8  95308553.658 8      -223.094          51.000  
E09  21517627.344 8 113075877.802 8      -532.875          51.000    21517629.930 8  86642583.633 8      -408.322          51.000  
C05  39798049.555 6 207238887.195 6         8.332          36.000    39798047.398 6 160250235.167 6         6.370          40.000  
C19  22294427.062 8 116092943.708 8     -2003.555          51.000                                                                  
> 2020 05 13 04 01  0.0000000  0 13      -0.000000000000
G15  22008725.789 5 115656633.66225      2692.203          31.000                                                                  
G30  21386161.469 6 112385036.906 6     -2009.797          41.000    21386162.227 6  87572759.900 6     -1566.076          41.000  
G28  20960565.625 8 110148545.009 8       727.359          50.000    20960565.156 8  85830064.603 8       566.774          49.000  
G05  21575419.281 8 113379580.848 8     -2485.480          50.000    21575418.648 8  88347722.581 8     -1936.739          50.000  
R16  19450310.594 7 103899697.702 7     -1654.910          43.000    19450312.750 7  80810860.680 7     -1287.153          42.000  
R06  19281270.742 7 102888177.405 7     -1243.234          45.000                                                                  
R09  20791607.273 8 111025716.694 8      2974.461          50.000    20791608.461 8  86353260.570 8      2313.470          49.000  
E24  23102086.328 8 121402275.901 8      2346.160          50.000    23102100.781 8  93022617.000 8      1797.732          51.000  
E04  26571915.734 8 139636461.687 8     -2519.379          50.000    26571917.219 8 106994161.234 8     -1930.479          50.000  
E31  23671511.188 8 124394667.291 8      -308.238          51.000    23671511.805 8  95315423.231 8      -236.210          51.000  
E09  21520705.250 8 113092051.765 8      -547.059          51.000    21520707.859 8  86654976.670 8      -419.232          51.000  
C05  39798008.734 6 207238674.035 6         4.281          36.000    39798006.602 6 160250071.083 6         3.301          40.000  
C19  22306014.102 8 116153278.518 8     -2020.477          51.000                                                                  
> 2020 05 13 04 01 30.0000000  0 14      -0.000000000000
G15  21993343.055 5 115575786.67625      2699.812          35.000                                                                  
G30  21397617.734 6 112445239.691 6     -2002.812          41.000    21397618.586 6  87619671.156 6     -1560.630          41.000  
G28  20956424.547 8 110126782.963 8       724.320          51.000    20956424.438 8  85813107.187 8       564.406          48.000  
G05  21589607.914 8 113454145.726 8     -2484.336          49.000    21589607.328 8  88405825.078 8     -1935.847          48.000  
R16  19459617.031 7 103949411.592 7     -1658.297          43.000    19459619.258 6  80849527.053 6     -1289.787          40.000  
R05  23269420.297 6 124387954.200 6     -4080.941          37.000    23269417.820 6  96746216.087 6     -3174.072          40.000  
R06  19288282.031 7 102925592.850 7     -1250.070          45.000                                                                  
R09  20774897.945 7 110936490.948 7      2974.762          47.000    20774899.758 8  86283862.754 8      2313.701          49.000  
E24  23088675.805 8 121331807.284 8      2352.617          50.000    23088691.445 8  92968621.541 8      1802.686          51.000  
E04  26586271.961 8 139711903.304 8     -2509.027          49.000    26586273.359 8 107051967.071 8     -1922.550          49.000  
E31  23673266.375 8 124403891.469 8      -305.676          51.000    23673266.789 8  95322491.104 8      -234.228          51.000  
E09  21523815.875 8 113108397.540 8      -541.625          51.000    21523818.281 8  86667501.352 8      -415.039          51.000  
C05  39797942.828 6 207238331.063 6        19.711          36.000    39797940.773 6 160249805.867 6        15.323          40.000  
C19  22317650.492 8 116213869.993 8     -2017.938          51.000                                                                  
> 2020 05 13 04 02  0.0000000  0 15      -0.000000000000
G15  21977995.453 6 115495156.06026      2682.551          36.000                                                                  
G30  21409112.570 6 112505645.433 6     -2020.387          41.000    21409112.758 6  87666740.574 6     -1574.331          41.000  
G28  20952380.281 8 110105528.238 8       696.527          51.000    20952379.719 7  85796545.054 7       542.749          47.000  
G05  21603869.547 8 113529092.798 8     -2508.105          49.000    21603868.836 8  88464225.389 8     -1954.369          49.000  
R16  19469020.711 7 103999643.054 7     -1686.438          44.000    19469022.273 6  80888595.937 6     -1311.674          40.000  
R05  23292381.438 6 124510690.355 6     -4097.500          41.000    23292378.258 6  96841677.431 6     -3186.948          39.000  
R06  19295411.648 7 102963638.229 7     -1282.234          47.000                                                                  
R09  20758264.086 7 110847675.364 7      2950.281          47.000    20758267.133 8  86214783.915 8      2294.664          48.000  
R15  23355807.883 5 124805976.429 5     -4044.211          32.000                                                                  
E24  23075308.555 8 121261562.625 8      2334.211          51.000    23075324.539 8  92914797.687 8      1788.600          51.000  
E04  26600647.812 8 139787448.196 8     -2523.336          49.000    26600649.062 8 107109852.043 8     -1933.511          49.000  
E31  23675085.859 8 124413453.886 8      -327.875          51.000    23675086.703 8  95329818.155 8      -251.229          51.000  
E09  21526974.578 8 113124995.718 8      -560.961          51.000    21526976.664 8  86680219.445 8      -429.815          51.000  
C05  39797867.141 6 207237936.887 6        10.473          36.000    39797865.117 6 160249501.044 6         8.207          40.000  
C19  22329350.922 8 116274796.494 8     -2039.895          51.000                                                                  
> 2020 05 13 04 02 30.0000000  0 14      -0.000000000000
G30  21420675.922 6 112566411.951 6     -2030.266          36.000    21420676.031 6  87714091.063 6     -1582.029          37.000  
G28  20948462.883 8 110084940.122 8       676.281          51.000    20948461.617 7  85780502.390 7       526.973          47.000  
G05  21618234.211 8 113604578.594 8     -2524.055          50.000    21618233.102 8  88523045.484 8     -1966.797          51.000  
R16  19478550.672 7 104050550.938 7     -1707.004          42.000    19478552.117 6  80928190.956 6     -1327.670          40.000  
R05  23315400.195 7 124633743.271 7     -4105.801          42.000    23315398.516 6  96937385.188 6     -3193.404          40.000  
R06  19302690.070 8 103002475.354 8     -1306.633          48.000                                                                  
R09  20741739.531 8 110759433.226 8      2932.891          51.000    20741741.758 8  86146151.152 8      2281.138          48.000  
R15  23378525.109 5 124927369.440 5     -4047.004          31.000                                                                  
E24  23062014.922 8 121191701.922 8      2323.270          51.000    23062030.148 8  92861268.046 8      1780.196          51.000  
E04  26615073.102 8 139863254.833 8     -2530.324          48.000    26615074.500 8 107167937.610 8     -1938.737          49.000  
E31  23676999.961 8 124423512.814 8      -342.523          51.000    23677001.242 8  95337525.651 8      -262.438          51.000  
E09  21530211.523 8 113142005.760 8      -572.797          51.000    21530213.477 8  86693253.109 8      -438.915          51.000  
C05  39797811.883 6 207237648.975 6         9.273          36.000    39797809.828 6 160249278.446 6         6.836          40.000  
C19  22341145.078 8 116336214.504 8     -2054.363          50.000                                                                  
> 2020 05 13 04 03  0.0000000  0 13      -0.000000000000
G30  21432304.273 6 112627520.149 6     -2042.137          38.000    21432304.711 6  87761707.835 6     -1591.273          37.000  
G28  20944668.961 8 110065001.512 8       654.184          51.000    20944667.266 7  85764965.841 7       509.754          47.000  
G05  21632697.820 8 113680583.334 8     -2541.688          50.000    21632696.492 8  88582269.949 8     -1980.536          51.000  
R16  19488203.211 7 104102114.219 7     -1729.043          43.000    19488204.797 6  80968295.720 6     -1344.812          40.000  
R05  23338474.094 7 124757092.743 7     -4116.008          42.000    23338474.742 6  97033323.660 6     -3201.340          39.000  
R06  19310113.383 8 103042086.058 8     -1332.770          48.000                                                                  
R09  20725319.992 8 110671748.537 8      2913.953          51.000    20725321.164 8  86077951.975 8      2266.408          48.000  
E24  23048791.352 8 121122208.612 8      2310.785          51.000    23048804.961 8  92808019.939 8      1770.558          51.000  
E04  26629544.055 7 139939305.083 7     -2538.559          47.000    26629546.383 8 107226209.840 8     -1945.160          49.000  
E31  23679005.102 8 124434049.902 8      -358.711          51.000    23679006.414 8  95345599.519 8      -274.863          51.000  
E09  21533523.414 8 113159410.501 8      -586.254          51.000    21533525.148 8  86706589.206 8      -449.193          51.000  
C05  39797773.602 6 207237450.07726         5.613          36.000    39797771.641 6 160249124.606 6         4.313          40.000  
C19  22353029.328 8 116398105.599 8     -2070.434          50.000                                                                  
> 2020 05 13 04 03 30.0000000  0 14      -0.000000000000
G15  21932283.086 6 115254926.421 6      2665.656          36.000                                                                  
G30  21443945.109 6 112688695.010 6     -2037.016          41.000    21443946.188 6  87809376.592 6     -1587.285          40.000  
G28  20940946.516 8 110045439.191 8       648.988          51.000    20940944.516 8  85749722.492 8       505.705          48.000  
G05  21647207.641 8 113756831.027 8     -2542.410          50.000    21647206.289 8  88641683.708 8     -1981.102          50.000  
R16  19497926.000 7 104154052.229 7     -1734.156          42.000    19497927.938 6  81008691.960 6     -1348.788          38.000  
R05  23361551.039 7 124880458.012 7     -4109.039          43.000    23361552.539 6  97129274.391 6     -3195.923          37.000  
R06  19317629.477 8 103082191.843 8     -1341.859          48.000                                                                  
R09  20708952.625 8 110584344.912 8      2912.012          51.000    20708953.852 8  86009971.386 8      2264.902          48.000  
E24  23035585.633 8 121052810.031 8      2314.922          51.000    23035597.102 8  92754844.421 8      1773.739          50.000  
E04  26644008.703 7 140015324.760 7     -2530.289          46.000    26644012.172 8 107284458.646 8     -1938.671          49.000  
E31  23681049.031 8 124444790.743 8      -358.195          51.000    23681050.508 8  95353829.506 8      -274.479          51.000  
E09  21536858.383 8 113176936.694 8      -583.047          51.000    21536859.906 8  86720018.357 8      -446.727          51.000  
C05  39797700.414 6 207237068.922 6        19.199          36.000    39797698.469 6 160248829.871 6        14.758          40.000  
C19  22364952.883 8 116460197.451 8     -2069.887          51.000                                                                  
> 2020 05 13 04 04  0.0000000  0 14      -0.000000000000
G30  21455655.250 6 112750232.604 6     -2048.340          41.000    21455657.266 7  87857327.946 7     -1596.109          42.000  
G07  23968063.641 5 125952985.41425     -2824.613          33.000    23968061.906 5  98145200.45325     -2200.998          31.000  
G28  20937352.148 8 110026550.841 8       627.129          51.000    20937350.266 8  85735004.317 8       488.672          48.000  
G05  21661819.695 8 113833616.387 8     -2559.602          50.000    21661818.508 8  88701516.445 8     -1994.495          50.000  
R16  19507775.039 7 104206663.868 7     -1756.113          43.000    19507776.828 6  81049612.104 6     -1365.869          39.000  
R05  23384686.602 6 125004139.106 6     -4119.090          41.000    23384688.398 5  97225470.767 5     -3203.740          33.000  
R06  19325294.719 7 103123094.085 7     -1367.727          47.000                                                                  
R09  20692693.742 8 110497526.174 8      2893.031          50.000    20692695.461 7  85942445.691 7      2250.136          46.000  
E24  23022454.312 8 120983804.531 8      2302.500          50.000    23022464.188 8  92701970.094 8      1764.236          50.000  
E04  26658524.672 7 140091610.703 7     -2538.422          47.000    26658528.414 8 107342911.500 8     -1944.972          48.000  
E31  23683188.188 8 124456031.887 8      -374.191          51.000    23683190.148 8  95362442.851 8      -286.724          51.000  
E09  21540273.203 8 113194882.073 8      -596.328          51.000    21540274.523 8  86733768.704 8      -456.918          51.000  
C05  39797648.859 6 207236800.245 6        16.027          36.000    39797646.844 6 160248622.077 6        12.360          40.000  
C19  22376972.078 8 116522783.678 8     -2085.766          51.000                                                                  
> 2020 05 13 04 04 30.0000000  0 13      -0.000000000000
G30  21467405.070 6 112811976.864 6     -2061.965          40.000    21467407.695 6  87905440.340 6     -1606.726          41.000  
G28  20933856.688 8 110008182.439 8       603.227          51.000    20933854.656 8  85720691.268 8       470.047          48.000  
G05  21676504.180 8 113910782.575 8     -2578.883          50.000    21676503.219 8  88761645.926 8     -2009.520          50.000  
R16  19517720.352 7 104259788.978 7     -1779.594          42.000    19517722.812 6  81090931.661 6     -1384.129          38.000  
R05  23407851.523 6 125127976.308 6     -4130.961          39.000                                                                  
R06  19333079.406 7 103164636.100 7     -1395.770          47.000                                                                  
R09  20676514.875 8 110411136.797 8      2872.172          48.000    20676516.555 7  85875253.961 7      2233.915          45.000  
E24  23009367.672 8 120915038.437 8      2287.914          48.000    23009377.781 8  92649279.188 8      1753.117          50.000  
E04  26673062.344 7 140168007.675 7     -2548.855          47.000    26673065.836 8 107401449.424 8     -1952.880          49.000  
E31  23685392.984 8 124467617.883 8      -392.234          51.000    23685395.414 8  95371320.434 8      -300.546          51.000  
E09  21543738.445 8 113213092.372 8      -611.703          51.000    21543739.648 8  86747722.040 8      -468.696          51.000  
C05  39797589.438 6 207236490.730 6        10.695          36.000    39797587.492 6 160248382.729 6         8.340          40.000  
C19  22389056.508 8 116585709.831 8     -2103.512          51.000                                                                  
> 2020 05 13 04 05  0.0000000  0 14      -0.000000000000
G30  21479200.602 6 112873960.597 6     -2069.848          40.000    21479203.594 6  87953739.375 6     -1612.869          40.000  
G13  20426178.039 5 107340287.817 5      1101.215          34.000                                                                  
G28  20930466.547 8 109990368.228 8       585.055          51.000    20930464.445 8  85706810.049 8       455.884          49.000  
G05  21691266.766 8 113988361.139 8     -2592.414          49.000    21691266.211 8  88822096.754 8     -2020.063          49.000  
R16  19527767.750 7 104313459.474 7     -1797.469          42.000    19527769.109 6  81132675.367 6     -1398.031          37.000  
R05  23431051.844 6 125252001.713 6     -4137.316          38.000                                                                  
R06  19340990.578 7 103206850.943 7     -1417.836          47.000                                                                  
R09  20660423.625 8 110325213.215 8      2856.730          50.000    20660424.461 7  85808424.525 7      2221.902          45.000  
E24  22996332.258 7 120846546.904 7      2278.949          45.000    22996344.680 8  92596798.633 8      1746.188          51.000  
E04  26687627.906 8 140244549.232 8     -2553.273          48.000    26687631.539 8 107460098.124 8     -1956.423          50.000  
E31  23687669.773 8 124479582.087 8      -404.660          51.000    23687672.367 8  95380487.812 8      -310.055          51.000  
E09  21547260.531 8 113231602.157 8      -621.496          51.000    21547261.766 8  86761904.837 8      -476.236          51.000  
C05  39797528.570 6 207236174.326 6        11.262          36.000    39797526.672 6 160248138.065 6         8.536          40.000  
C19  22401212.672 8 116649008.612 8     -2115.676          51.000                                                                  
> 2020 05 13 04 05 30.0000000  0 14      -0.000000000000
G30  21491039.031 6 112936169.279 6     -2078.043          41.000    21491042.086 6  88002213.645 6     -1619.258          41.000  
G13  20419922.555 5 107307412.913 5      1089.805          34.000                                                                  
G28  20927179.195 8 109973095.578 8       566.086          50.000    20927177.578 8  85693350.837 8       441.106          49.000  
G05  21706104.461 8 114066336.680 8     -2606.484          48.000    21706104.523 8  88882856.921 8     -2031.027          48.000  
R16  19537914.031 7 104367659.163 7     -1815.895          42.000    19537915.648 6  81174830.682 6     -1412.363          38.000  
R05  23454285.312 6 125376199.707 6     -4143.117          40.000                                                                  
R06  19349025.391 7 103249725.620 7     -1440.770          47.000                                                                  
R09  20644418.141 8 110239743.387 8      2840.770          51.000    20644418.711 7  85741948.017 7      2209.488          46.000  
E24  22983347.664 7 120778317.687 7      2269.262          46.000    22983361.961 8  92544519.055 8      1738.825          51.000  
E04  26702218.609 7 140321221.657 7     -2558.426          47.000    26702222.320 8 107518847.105 8     -1960.389          50.000  
E31  23690015.859 8 124491910.544 8      -417.594          51.000    23690018.250 8  95389934.290 8      -319.987          51.000  
E09  21550837.141 8 113250398.628 8      -631.953          51.000    21550838.508 8  86776307.303 8      -484.212          51.000  
C05  39797464.016 6 207235837.961 6        10.871          36.000    39797462.094 6 160247877.945 6         8.581          40.000  
C19  22413437.875 8 116712665.826 8     -2128.438          51.000                                                                  
> 2020 05 13 04 06  0.0000000  0 15      -0.000000000000
G15  21857039.297 5 114859503.944 5      2620.316          35.000    21857031.039 5  89500900.510 5      2041.806          33.000  
G30  21502915.266 6 112998578.509 6     -2079.559          38.000    21502917.711 6  88050844.197 6     -1620.439          37.000  
G13  20413723.602 5 107274839.345 5      1083.777          31.000    20413718.812 4  83590766.084 4       844.502          29.000  
G28  20923990.672 8 109956341.953 8       553.406          50.000    20923989.242 8  85680296.028 8       431.223          49.000  
G05  21721012.586 7 114144683.903 7     -2614.066          47.000    21721013.430 7  88943906.738 7     -2036.935          47.000  
R16  19548154.453 7 104422361.192 7     -1828.074          42.000    19548155.977 6  81217376.695 6     -1421.836          37.000  
R05  23477547.555 6 125500544.231 6     -4143.742          39.000                                                                  
R06  19357179.320 8 103293235.910 8     -1457.324          48.000                                                                  
R09  20628494.156 8 110154705.865 8      2831.051          51.000    20628494.352 8  85675807.726 8      2201.929          48.000  
E24  22970410.133 8 120710328.687 8      2265.859          49.000    22970424.891 8  92492423.580 8      1736.206          51.000  
E04  26716829.562 7 140398001.372 7     -2557.492          47.000    26716833.523 8 107577678.303 8     -1959.620          50.000  
E31  23692426.656 8 124504579.419 8      -424.391          51.000    23692429.227 8  95399641.605 8      -325.165          51.000  
E09  21554464.031 8 113269459.155 8      -636.172          51.000    21554465.703 8  86790912.100 8      -487.439          51.000  
C05  39797391.305 6 207235458.90226        16.832          36.000    39797389.297 6 160247584.814 6        13.073          40.000  
C19  22425727.164 8 116776657.541 8     -2135.016          51.000                                                                  
> 2020 05 13 04 06 30.0000000  0 15      -0.000000000000
G15  21842134.844 5 114781160.410 5      2606.211          34.000    21842121.930 5  89439853.568 5      2030.790          33.000  
G30  21514838.750 5 113061239.359 5     -2092.871          35.000    21514840.203 5  88099670.760 5     -1630.809          35.000  
G13  20407592.125 5 107242620.781 5      1067.223          35.000    20407589.273 5  83565660.606 5       831.593          34.000  
G28  20920910.898 8 109940159.515 8       529.234          49.000    20920909.867 8  85667686.321 8       412.394          49.000  
G05  21736001.008 7 114223452.346 7     -2633.137          46.000    21736002.266 7  89005284.779 7     -2051.795          46.000  
R16  19558498.312 6 104477616.284 6     -1851.707          41.000    19558499.977 6  81260352.853 6     -1440.217          38.000  
R05  23500848.234 5 125625086.062 5     -4155.027          34.000                                                                  
R06  19365462.305 8 103337434.371 8     -1485.199          48.000                                                                  
R09  20612661.156 8 110070155.233 8      2809.656          51.000    20612661.375 8  85610046.166 8      2185.289          49.000  
E24  22957528.984 8 120642633.161 8      2251.012          51.000    22957543.453 8  92440552.998 8      1724.814          51.000  
E04  26731470.492 7 140474940.110 7     -2567.809          46.000    26731474.727 8 107636631.364 8     -1967.525          49.000  
E31  23694912.070 8 124517640.171 8      -442.465          51.000    23694914.961 8  95409649.202 8      -339.017          51.000  
E09  21558151.156 8 113288836.370 8      -651.711          51.000    21558153.352 8  86805759.543 8      -499.369          51.000  
C05  39797320.242 6 207235088.88326        11.738          36.000    39797318.242 6 160247298.697 6         8.959          40.000  
C19  22438089.969 8 116841034.362 8     -2152.855          51.000                                                                  
> 2020 05 13 04 07  0.0000000  0 14      -0.000000000000
G30  21526833.969 5 113124276.681 5     -2105.520          33.000    21526834.438 5  88148790.765 5     -1640.662          33.000  
G13  20401552.703 5 107210884.490 5      1051.148          34.000    20401549.742 4  83540933.954 4       819.080          27.000  
G28  20917964.070 8 109924675.166 8       506.230          49.000    20917963.477 8  85655620.598 8       394.465          48.000  
G05  21751093.891 8 114302765.924 8     -2651.164          48.000    21751094.914 8  89067087.603 8     -2065.843          48.000  
R16  19568969.234 7 104533549.433 7     -1874.020          42.000    19568971.359 6  81303856.409 6     -1457.571          37.000  
R05  23524208.555 6 125749951.526 6     -4165.754          36.000    23524207.719 4  97805545.28824     -3240.031          26.000  
R06  19373898.367 8 103382448.803 8     -1512.375          48.000                                                                  
R09  20596943.008 8 109986221.536 8      2789.191          50.000    20596943.711 8  85544764.403 8      2169.372          49.000  
E24  22944728.023 8 120575358.384 8      2237.145          51.000    22944741.812 8  92389004.810 8      1714.228          51.000  
E04  26746165.508 7 140552163.549 7     -2577.168          46.000    26746170.102 8 107695802.571 8     -1974.666          48.000  
E31  23697495.836 8 124531218.258 8      -459.531          51.000    23697498.492 8  95420053.193 8      -352.118          51.000  
E09  21561922.773 8 113308656.965 8      -666.348          51.000    21561925.367 8  86820946.735 8      -510.614          51.000  
C05                                                                  39797273.039 6 160247116.409 6         5.706          40.000  
C19  22450549.734 8 116905920.335 8     -2169.789          48.000                                                                  
> 2020 05 13 04 07 30.0000000  0 14      -0.000000000000
G15  21812490.648 5 114625409.91125      2594.883          35.000                                                                  
G13  20395550.195 5 107179342.228 5      1050.922          35.000    20395548.836 5  83516355.663 5       818.900          34.000  
G28  20915095.133 8 109909600.060 8       498.457          48.000    20915094.375 7  85643873.740 7       388.408          46.000  
G05  21766235.438 8 114382332.870 8     -2653.707          50.000    21766235.844 8  89129087.819 8     -2067.824          50.000  
R16  19579511.523 6 104589863.554 6     -1880.551          40.000    19579513.570 6  81347656.277 6     -1462.651          37.000  
R05  23547572.586 6 125874843.280 6     -4160.520          38.000    23547568.164 4  97902670.17024     -3235.963          27.000  
R06  19382431.766 7 103427984.394 7     -1523.680          47.000                                                                  
R09  20581285.648 8 109902612.207 8      2784.398          50.000    20581286.883 8  85479734.921 8      2165.644          50.000  
E24  22931952.172 8 120508215.997 8      2238.668          51.000    22931964.859 8  92337558.062 8      1715.341          51.000  
E04  26760859.789 7 140629381.884 7     -2571.098          45.000    26760864.484 7 107754969.873 7     -1970.051          47.000  
E31  23700122.828 8 124545023.578 8      -461.172          51.000    23700125.352 8  95430631.279 8      -353.336          51.000  
E09  21565723.664 8 113328631.976 8      -665.602          51.000    21565726.805 8  86836252.258 8      -510.034          51.000  
C05  39797200.508 6 207234465.126 6        18.016          36.000    39797198.508 6 160246816.334 6        14.160          40.000  
C19  22463051.141 7 116971027.545 7     -2171.098          47.000                                                                  
> 2020 05 13 04 08  0.0000000  0 13      -0.000000000000
G13  20389610.023 5 107148126.183 5      1017.410          34.000    20389608.711 5  83492031.513 5       792.787          34.000  
G28  20912329.055 8 109895065.032 8       457.980          48.000    20912328.148 7  85632547.720 7       356.868          46.000  
G05  21781449.906 8 114462281.956 8     -2688.789          51.000    21781448.953 8  89191385.766 8     -2095.161          51.000  
R16  19590149.641 6 104646688.636 6     -1920.391          41.000    19590151.172 5  81391853.543 5     -1493.637          35.000  
R05  23570965.336 6 125999892.061 6     -4188.559          38.000    23570962.641 4  97999932.761 4     -3257.771          29.000  
R06  19391087.422 7 103474173.617 7     -1568.270          45.000                                                                  
R09  20565714.148 8 109819461.503 8      2746.215          50.000    20565715.711 8  85415062.170 8      2135.945          49.000  
E24  22919226.180 8 120441337.598 8      2207.324          51.000    22919237.688 8  92286313.584 8      1691.399          49.000  
E04  26775577.953 7 140706725.139 7     -2597.680          46.000    26775582.344 7 107814232.859 7     -1990.431          44.000  
E31  23702817.820 8 124559185.896 8      -495.535          51.000    23702820.703 8  95441482.928 8      -379.726          51.000  
E09  21569578.766 8 113348892.424 8      -697.586          50.000    21569582.711 8  86851776.500 8      -534.532          51.000  
C05  39797121.531 6 207234055.242 6        -3.258          36.000    39797119.594 6 160246498.578 6        -2.368          39.000  
C19  22475620.609 8 117036484.248 8     -2205.020          48.000                                                                  
> 2020 05 13 04 08 30.0000000  0 15      -0.000000000000
G15  21783058.766 5 114470746.10725      2572.289          32.000                                                                  
G30  21563036.445 5 113314512.680 5     -2123.379          31.000    21563037.672 5  88297019.949 5     -1654.581          31.000  
G13  20383775.555 5 107117467.593 5      1022.680          33.000    20383774.281 5  83468141.746 5       796.906          30.000  
G28  20909709.969 8 109881300.118 8       456.062          49.000    20909709.008 7  85621821.826 7       355.373          46.000  
G05  21796780.492 8 114542840.554 8     -2685.344          51.000    21796777.758 8  89254158.647 8     -2092.476          51.000  
R16  19600926.242 6 104704255.591 6     -1920.562          38.000    19600927.477 6  81436627.845 6     -1493.768          36.000  
R05  23594430.266 6 126125329.541 6     -4177.812          36.000    23594432.641 5  98097495.192 5     -3249.413          30.000  
R06  19399908.586 7 103521249.176 7     -1573.844          44.000                                                                  
R09  20550272.188 8 109737005.091 8      2747.105          49.000    20550273.930 8  85350929.409 8      2136.638          48.000  
E24  22906593.797 8 120374954.322 8      2214.629          51.000    22906604.312 8  92235448.506 8      1696.868          48.000  
E04  26790364.039 8 140784422.920 8     -2585.852          48.000    26790365.789 7 107873767.469 7     -1981.368          43.000  
E31  23705624.344 8 124573934.605 8      -491.297          51.000    23705627.336 8  95452783.886 8      -376.478          51.000  
E09  21573532.281 8 113369668.904 8      -691.066          51.000    21573536.797 8  86867696.153 8      -529.549          51.000  
C05  39797082.047 6 207233848.609 6        13.348          36.000    39797080.141 6 160246339.573 6        10.297          40.000  
C19  22488302.078 8 117102517.441 8     -2200.723          51.000                                                                  
> 2020 05 13 04 09  0.0000000  0 12      -0.000000000000
G30  21575188.148 5 113378366.198 5     -2134.023          32.000    21575187.133 5  88346775.877 5     -1662.882          34.000  
G28  20907166.844 8 109867933.823 8       435.043          50.000    20907165.477 7  85611406.552 7       338.998          46.000  
G05  21812155.711 8 114623633.794 8     -2700.848          51.000    21812151.609 8  89317114.367 8     -2104.557          51.000  
R16  19611770.664 6 104762183.500 6     -1940.727          38.000    19611771.250 5  81481682.856 5     -1509.457          35.000  
R06  19408824.945 7 103568832.968 7     -1598.375          45.000                                                                  
R09  20534889.609 8 109654866.466 8      2728.707          49.000    20534891.477 8  85287043.793 8      2122.328          48.000  
E24  22893984.586 8 120308695.171 8      2202.734          51.000    22893994.336 8  92184678.525 8      1687.810          48.000  
E04  26805147.078 8 140862102.754 8     -2593.012          50.000    26805144.961 7 107933288.277 7     -1986.815          44.000  
E31  23708471.508 8 124588896.932 8      -506.102          51.000    23708474.148 8  95464248.511 8      -387.795          51.000  
E09  21577513.641 8 113390589.827 8      -703.625          51.000    21577518.406 8  86883726.481 8      -539.159          51.000  
C05  39797011.133 6 207233479.720 6        11.672          36.000    39797009.281 6 160246054.334 6         8.479          40.000  
C19  22501024.055 8 117168757.376 8     -2215.211          51.000                                                                  
> 2020 05 13 04 09 30.0000000  0 14      -0.000000000000
G30  21587391.555 5 113442507.663 5     -2143.590          32.000    21587389.617 5  88396744.538 5     -1670.330          32.000  
G13  20372254.406 4 107056918.61024       993.586          29.000                                                                  
G28  20904738.328 8 109855169.857 8       413.961          51.000    20904736.188 7  85601460.613 7       322.567          46.000  
G05  21827613.742 8 114704863.266 8     -2716.328          51.000    21827609.125 8  89380409.999 8     -2116.623          51.000  
R16  19622720.133 6 104820675.976 6     -1960.773          38.000    19622721.930 6  81527177.007 6     -1525.046          36.000  
R06  19417875.594 7 103617130.656 7     -1623.344          45.000                                                                  
R09  20519606.320 8 109573253.999 8      2710.156          51.000    20519607.625 7  85223567.430 7      2107.897          47.000  
E24  22881437.992 8 120242764.580 8      2190.617          51.000    22881447.578 8  92134160.282 8      1678.559          49.000  
E04  26819965.406 8 140939967.549 8     -2600.090          51.000    26819960.609 7 107992950.856 7     -1992.418          45.000  
E31  23711397.883 8 124604275.504 8      -521.062          51.000    23711400.477 8  95476032.090 8      -399.259          51.000  
E09  21581561.430 8 113411859.057 8      -716.348          51.000    21581566.258 8  86900023.684 8      -548.866          51.000  
C22  22453683.188 5 116922226.178 5       899.047          35.000                                                                  
C05  39796947.766 6 207233149.384 6         8.953          36.000    39796945.781 6 160245798.843 6         6.932          40.000  
C19  22513824.352 8 117235404.441 8     -2229.770          51.000                                                                  
> 2020 05 13 04 10  0.0000000  0 14      -0.000000000000
G30  21599639.164 5 113506870.270 5     -2148.820          31.000    21599638.867 5  88446897.970 5     -1674.409          32.000  
G13  20366600.352 5 107027201.033 5       985.488          35.000    20366596.938 5  83397815.719 5       767.913          33.000  
G28  20902417.781 8 109842973.816 8       397.879          51.000    20902415.516 7  85591957.234 7       310.036          47.000  
G05  21843147.297 8 114786491.369 8     -2726.750          51.000    21843142.812 8  89444016.274 8     -2124.741          51.000  
R16  19633768.859 6 104879694.853 6     -1975.059          38.000    19633771.422 5  81573080.598 5     -1536.154          35.000  
R06  19427053.336 7 103666106.741 7     -1642.895          46.000                                                                  
R09  20504415.602 8 109492134.122 8      2696.680          50.000    20504416.078 8  85160474.186 8      2097.418          48.000  
E24  22868948.094 8 120177128.759 8      2183.727          51.000    22868957.953 8  92083867.911 8      1673.267          49.000  
E04  26834811.938 8 141017982.083 8     -2602.199          51.000    26834806.781 7 108052728.168 7     -1993.786          47.000  
E31  23714396.727 8 124620034.778 8      -530.836          51.000    23714399.602 8  95488107.376 8      -406.739          51.000  
E09  21585669.031 8 113433442.278 8      -723.887          51.000    21585673.594 8  86916561.459 8      -554.661          51.000  
C22  22448530.977 5 116895413.574 5       887.621          33.000                                                                  
C05  39796885.102 6 207232823.178 6        10.996          36.000    39796883.227 6 160245546.583 6         8.953          40.000  
C19  22526695.688 8 117302423.032 8     -2239.332          51.000                                                                  
> 2020 05 13 04 10 30.0000000  0 14      -0.000000000000
G30  21611926.570 6 113571442.655 6     -2156.172          36.000    21611927.508 6  88497214.152 6     -1680.131          36.000  
G13  20361007.039 6 106997810.587 6       973.672          38.000    20361001.391 5  83374914.075 5       758.709          35.000  
G28  20900200.016 8 109831318.842 8       379.246          51.000    20900197.820 7  85582875.467 7       295.517          47.000  
G05  21858750.734 8 114868489.190 8     -2739.602          50.000    21858747.188 8  89507910.657 8     -2134.755          50.000  
R16  19644909.938 6 104939209.864 6     -1992.137          38.000    19644911.766 5  81619370.023 5     -1549.440          34.000  
R06  19436353.594 8 103715732.544 8     -1665.273          48.000                                                                  
R09  20489311.617 8 109411480.418 8      2680.301          50.000    20489312.422 8  85097743.566 8      2084.679          50.000  
E24  22856509.711 8 120111761.701 8      2174.156          51.000    22856520.078 8  92033781.470 8      1665.943          51.000  
E04  26849681.297 8 141096118.816 8     -2606.770          51.000    26849676.891 8 108112599.143 8     -1997.459          48.000  
E31  23717462.719 8 124636146.973 8      -543.223          51.000    23717465.531 8  95500453.092 8      -416.197          51.000  
E09  21589831.398 8 113455312.886 8      -734.039          51.000    21589835.414 8  86933319.444 8      -562.422          51.000  
C22  22443462.289 5 116869032.080 5       871.883          33.000                                                                  
C05  39796818.141 5 207232474.505 5        11.762          35.000    39796816.211 6 160245276.953 6         9.092          40.000  
C19  22539632.086 8 117369785.302 8     -2251.441          51.000                                                                  
> 2020 05 13 04 11  0.0000000  0 14      -0.000000000000
G30  21624259.375 6 113636252.596 6     -2163.168          36.000    21624261.508 5  88547715.440 5     -1685.583          35.000  
G13  20355482.805 6 106968783.906 6       962.035          39.000    20355476.977 6  83352295.884 6       749.641          37.000  
G28  20898090.867 8 109820235.054 8       360.531          51.000    20898088.555 7  85574238.766 7       280.934          47.000  
G05  21874429.070 8 114950883.735 8     -2752.500          49.000    21874427.469 8  89572114.223 8     -2144.803          49.000  
R16  19656149.047 6 104999248.043 6     -2009.445          41.000    19656151.625 5  81666066.409 5     -1562.902          34.000  
R06  19445781.430 8 103766038.196 8     -1687.637          48.000                                                                  
R09  20474301.531 8 109331325.259 8      2664.090          51.000    20474302.281 8  85035400.662 8      2072.070          50.000  
E24  22844128.445 8 120046694.257 8      2164.543          51.000    22844139.297 8  91983924.613 8      1658.508          51.000  
E04  26864579.148 8 141174407.113 8     -2611.562          50.000    26864575.812 8 108172586.243 8     -2000.973          49.000  
E31  23720601.500 8 124652641.144 8      -555.535          51.000    23720603.727 8  95513091.471 8      -425.667          51.000  
E09  21594054.227 8 113477501.175 8      -744.297          51.000    21594057.477 8  86950320.844 8      -570.315          51.000  
C22  22438485.516 5 116843112.537 5       857.273          33.000                                                                  
C05  39796752.516 6 207232133.007 6        12.266          36.000    39796750.586 6 160245012.870 6         9.231          40.000  
C19  22552638.969 8 117437519.620 8     -2263.457          50.000                                                                  
> 2020 05 13 04 11 30.0000000  0 14      -0.000000000000
G30  21636632.102 5 113701272.183 5     -2171.039          31.000    21636634.383 5  88598380.077 5     -1691.722          33.000  
G13  20350023.055 6 106940095.117 6       950.879          38.000    20350020.273 5  83329940.992 5       740.948          34.000  
G28  20896085.391 8 109809695.952 8       342.266          51.000    20896083.414 7  85566026.499 7       266.701          47.000  
G05  21890177.180 8 115033645.869 8     -2764.887          50.000    21890177.773 8  89636604.235 8     -2154.458          50.000  
R16  19667480.852 6 105059779.693 6     -2025.879          39.000    19667483.859 5  81713146.557 5     -1575.684          34.000  
R06  19455331.328 8 103816995.394 8     -1709.301          48.000                                                                  
R09  20459380.219 8 109251642.692 8      2648.184          51.000    20459380.273 8  84973425.335 8      2059.699          49.000  
E24  22831799.141 8 119981900.688 8      2155.102          51.000    22831810.180 8  91934277.599 8      1651.301          51.000  
E04  26879500.461 8 141252819.719 8     -2615.984          49.000    26879498.367 8 108232668.596 8     -2004.352          49.000  
E31  23723807.656 8 124669489.737 8      -567.625          51.000    23723809.742 8  95526001.447 8      -434.955          51.000  
E09  21598332.375 8 113499980.813 8      -754.305          51.000    21598334.742 8  86967545.480 8      -578.001          51.000  
C22  22433592.469 6 116817629.820 6       842.266          37.000                                                                  
C05  39796683.305 6 207231772.468 6        12.605          36.000    39796681.367 6 160244734.072 6         9.457          40.000  
C19  22565711.805 8 117505598.311 8     -2274.895          48.000                                                                  
> 2020 05 13 04 12  0.0000000  0 14      -0.000000000000
G30  21649047.109 5 113766504.439 5     -2179.461          32.000    21649047.648 5  88649227.677 5     -1698.282          32.000  
G13  20344630.398 6 106911758.023 6       938.109          40.000    20344627.203 5  83307860.148 5       730.995          31.000  
G28  20894185.891 8 109799713.796 8       322.926          51.000    20894184.352 8  85558248.228 8       251.631          48.000  
G05  21905997.906 8 115116785.282 8     -2778.105          51.000    21905999.578 8  89701388.218 8     -2164.758          51.000  
R16  19678906.367 6 105120813.715 6     -2043.344          40.000    19678909.297 5  81760617.487 5     -1589.268          34.000  
R06  19465005.531 8 103868615.794 8     -1732.148          49.000                                                                  
R09  20444549.648 8 109172446.762 8      2631.164          51.000    20444549.102 8  84911828.480 8      2046.461          48.000  
E24  22819524.242 8 119917394.194 8      2144.926          51.000    22819535.273 8  91884850.556 8      1643.557          51.000  
E04  26894447.406 8 141331368.394 8     -2621.027          49.000    26894446.594 8 108292855.204 8     -2008.288          50.000  
E31  23727083.484 8 124686704.207 8      -580.305          51.000    23727085.758 8  95539191.767 8      -444.730          51.000  
E09  21602668.055 8 113522764.458 8      -765.035          51.000    21602670.117 8  86985003.041 8      -586.121          51.000  
C22  22428786.555 6 116792597.281 6       826.371          38.000                                                                  
C05  39796612.836 5 207231405.063 5        11.949          35.000    39796610.820 6 160244449.932 6         9.170          40.000  
C19  22578853.086 8 117574032.360 8     -2287.496          48.000                                                                  
> 2020 05 13 04 12 30.0000000  0 14      -0.000000000000
G30  21661506.648 6 113831971.281 6     -2186.047          38.000    21661505.859 6  88700240.801 6     -1703.414          39.000  
G13  20339306.203 6 106883780.733 6       926.496          39.000    20339302.758 5  83286059.674 5       721.948          33.000  
G28  20892393.766 8 109790295.957 8       304.391          51.000    20892392.492 8  85550909.654 8       237.188          48.000  
G05  21921891.992 8 115200307.446 8     -2790.648          51.000    21921893.680 8  89766470.437 8     -2174.532          51.000  
R16  19690427.312 6 105182354.990 6     -2060.312          40.000    19690429.039 5  81808482.852 5     -1602.469          34.000  
R06  19474805.078 8 103920905.691 8     -1754.312          49.000                                                                  
R09  20429811.031 8 109093746.166 8      2614.812          51.000    20429810.797 7  84850616.871 7      2033.740          47.000  
E24  22807305.273 8 119853182.913 8      2135.184          51.000    22807316.219 8  91835649.721 8      1636.096          51.000  
E04  26909421.516 8 141410059.715 8     -2625.551          50.000    26909421.898 8 108353151.122 8     -2011.868          50.000  
E31  23730430.125 8 124704290.881 8      -592.559          51.000    23730432.391 8  95552667.267 8      -454.054          51.000  
E09  21607062.820 8 113545859.657 8      -775.199          51.000    21607064.891 8  87002699.328 8      -594.002          51.000  
C22  22424068.805 6 116768023.330 6       811.379          36.000                                                                  
C05  39796542.422 6 207231038.978 6        12.297          36.000    39796540.430 6 160244166.086 6         9.161          40.000  
C19  22592064.594 8 117642827.680 8     -2299.305          49.000                                                                  
> 2020 05 13 04 13  0.0000000  0 14      -0.000000000000
G30  21674008.742 6 113897672.862 6     -2194.027          38.000    21674008.727 6  88751436.836 6     -1709.632          38.000  
G13  20334052.844 7 106856173.735 7       913.773          43.000    20334049.688 6  83264547.705 6       712.034          36.000  
G28  20890710.688 8 109781451.938 8       285.023          51.000    20890709.406 8  85544018.204 8       222.096          48.000  
G05  21937860.336 8 115284218.854 8     -2803.656          51.000    21937861.438 8  89831855.948 8     -2184.668          51.000  
R16  19702043.805 6 105244409.622 6     -2077.188          39.000    19702046.734 5  81856747.581 5     -1615.591          34.000  
R06  19484731.516 8 103973874.065 8     -1777.012          50.000                                                                  
R09  20415167.711 8 109015552.158 8      2597.734          51.000    20415167.477 7  84789799.277 7      2020.460          46.000  
E24  22795144.188 8 119789277.055 8      2124.910          51.000    22795155.438 8  91786682.904 8      1628.203          51.000  
E04  26924424.656 8 141488902.447 8     -2630.793          50.000    26924425.453 8 108413563.067 8     -2015.824          50.000  
E31  23733849.164 8 124722258.206 8      -605.434          51.000    23733851.219 8  95566434.428 8      -463.892          51.000  
E09  21611518.672 8 113569276.090 8      -786.070          51.000    21611520.648 8  87020641.753 8      -602.323          51.000  
C22  22419439.719 5 116743918.587 5       795.504          33.000                                                                  
C05  39796473.711 5 207230681.574 5        11.426          35.000    39796471.805 6 160243889.675 6         9.004          40.000  
C19  22605347.586 8 117711992.264 8     -2311.879          51.000                                                                  
> 2020 05 13 04 13 30.0000000  0 15      -0.000000000000
G30  21686531.375 6 113963484.179 6     -2200.070          37.000    21686532.203 6  88802718.357 6     -1714.341          37.000  
G13  20328846.750 7 106828814.812 7       903.402          42.000    20328844.109 5  83243229.066 5       703.950          35.000  
G28  20889113.242 8 109773058.024 8       267.738          50.000    20889112.273 8  85537477.491 8       208.627          49.000  
G05  21953878.555 8 115368392.909 8     -2814.656          51.000    21953878.875 8  89897446.101 8     -2193.239          51.000  
R16  19713732.609 6 105306848.824 6     -2092.289          37.000    19713735.734 5  81905311.376 5     -1627.336          34.000  
R06  19494761.273 8 104027394.233 8     -1797.871          48.000                                                                  
R09  20400596.172 8 108937740.024 8      2582.770          51.000    20400595.883 7  84729278.773 7      2008.821          47.000  
E24  22783017.617 8 119725553.803 8      2116.547          51.000    22783029.727 8  91737855.994 8      1621.798          51.000  
E04  26939432.922 8 141567772.280 8     -2634.004          49.000    26939434.219 8 108473995.741 8     -2018.249          50.000  
E31  23737317.109 8 124740481.538 8      -616.164          51.000    23737319.047 8  95580397.743 8      -472.165          51.000  
E09  21616012.258 8 113592890.287 8      -794.922          51.000    21616013.922 8  87038735.740 8      -609.141          51.000  
E01  27231134.555 5 143100577.319 5     -2709.984          34.000    27231135.758 5 109648499.443 5     -2076.552          34.000  
C22  22414875.750 5 116720161.426 5       782.184          32.000                                                                  
C05  39796383.406 6 207230210.29926        13.113          36.000    39796381.539 6 160243526.000 6        10.179          40.000  
C19  22618677.828 8 117781402.249 8     -2322.266          51.000                                                                  
> 2020 05 13 04 14  0.0000000  0 15      -0.000000000000
G30  21699121.867 5 114029648.752 5     -2208.434          34.000    21699122.094 5  88854275.174 5     -1720.858          33.000  
G13  20323734.680 7 106801949.880 7       890.395          43.000    20323732.031 6  83222295.353 6       693.814          38.000  
G28  20887648.125 8 109765358.912 8       248.066          50.000    20887647.453 8  85531478.183 8       193.299          49.000  
G05  21969992.812 8 115453072.057 8     -2828.020          51.000    21969992.102 8  89963429.805 8     -2203.655          51.000  
R16  19725539.125 6 105369918.439 6     -2109.957          38.000    19725541.891 5  81954365.553 5     -1641.078          33.000  
R06  19504940.539 7 104081714.081 7     -1820.828          47.000                                                                  
R09  20386142.719 8 108860560.058 8      2565.195          51.000    20386142.750 8  84669249.961 8      1995.155          48.000  
E24  22770972.414 8 119662258.773 8      2105.781          51.000    22770985.625 8  91689357.208 8      1613.531          51.000  
E04  26954493.016 8 141646913.370 8     -2639.461          48.000    26954494.406 8 108534636.301 8     -2022.436          50.000  
E31  23740879.930 8 124759204.755 8      -629.336          51.000    23740882.219 8  95594744.100 8      -482.204          51.000  
E09  21620590.031 8 113616947.411 8      -806.184          51.000    21620591.406 8  87057169.113 8      -617.701          51.000  
E01  27246628.000 5 143181995.608 5     -2715.031          33.000    27246630.195 5 109710887.179 5     -2080.670          35.000  
C22  22410425.734 5 116696995.709 5       765.176          31.000                                                                  
C05  39796317.969 5 207229869.775 5        12.324          35.000    39796316.172 6 160243262.676 6         9.527          40.000  
C19  22632101.109 8 117851298.888 8     -2334.934          51.000                                                                  
> 2020 05 13 04 14 30.0000000  0 15      -0.000000000000
G30  21711748.578 5 114096004.372 5     -2215.934          34.000    21711749.078 5  88905980.834 5     -1726.702          35.000  
G13  20318686.211 7 106775419.287 7       877.938          44.000    20318683.648 6  83201622.143 6       684.107          37.000  
G28  20886284.469 8 109758193.592 8       229.262          50.000    20886283.789 8  85525894.820 8       178.646          48.000  
G05  21986171.945 8 115538092.732 8     -2840.434          51.000    21986170.328 8  90029679.643 8     -2213.329          51.000  
R16  19737432.945 6 105433451.619 6     -2126.172          39.000    19737434.812 5  82003780.226 5     -1653.693          34.000  
R06  19515238.867 7 104136668.421 7     -1843.031          47.000                                                                  
R09  20371776.836 8 108783849.901 8      2548.340          51.000    20371778.352 8  84609586.534 8      1982.042          49.000  
E24  22758978.273 8 119599231.885 8      2095.711          51.000    22758992.297 8  91641063.871 8      1605.796          51.000  
E04  26969573.383 7 141726164.211 7     -2644.305          45.000    26969575.672 8 108595360.919 8     -2026.100          51.000  
E31  23744507.062 8 124778265.949 8      -641.781          51.000    23744509.422 8  95609349.418 8      -491.710          51.000  
E09  21625221.414 8 113641286.751 8      -816.758          51.000    21625222.695 8  87075818.740 8      -625.825          51.000  
