     3.02           OBSERVATION DATA    M (MIXED)           RINEX VERSION / TYPE
SAVERINEX           SC600               20200504 185930 LCL PGM / RUN BY / DATE
       G = GPS       R = GLONASS       C = COMPASS          COMMENT
       S = SBAS      J = QZSS          E = GALILEO          COMMENT
BEAN                                                        MARKER NAME
1                                                           MARKER NUMBER
GEODETIC                                                    MARKER TYPE
Unige DICCA         GTER                                    OBSERVER / AGENCY
SC60291900056       SC600               2.12(191226)        REC # / TYPE / VERS
                    HEMA45          NONE                    ANT # / TYPE
  4509407.8091   693652.4678  4442337.6214                  APPROX POSITION XYZ
        0.0000        0.0000        0.0000                  ANTENNA: DELTA H/E/N
G    8 C1C L1C D1C S1C C2Y L2Y D2Y S2Y                      SYS / # / OBS TYPES
R    8 C1C L1C D1C S1C C2P L2P D2P S2P                      SYS / # / OBS TYPES
C    8 C1I L1I D1I S1I C7I L7I D7I S7I                      SYS / # / OBS TYPES
E    8 C1C L1C D1C S1C C7Q L7Q D7Q S7Q                      SYS / # / OBS TYPES
DBHZ                                                        COMMENT
     30.000                                                 INTERVAL
  2020    05    04    16    00    0.0000000     GPS         TIME OF FIRST OBS
  2020    05    04    16    59   30.0000000     GPS         TIME OF LAST OBS
     0                                                      RCV CLOCK OFFS APPL
G L1C  0.00000                                              SYS / PHASE SHIFT
G L2Y  0.00000                                              SYS / PHASE SHIFT
R L1C  0.00000                                              SYS / PHASE SHIFT
R L2P  0.25000                                              SYS / PHASE SHIFT
C L1I  0.00000                                              SYS / PHASE SHIFT
C L7I  0.00000                                              SYS / PHASE SHIFT
E L1C  0.50000                                              SYS / PHASE SHIFT
E L7Q -0.25000                                              SYS / PHASE SHIFT
 13 R01  1 R05  1 R06 -4 R07  5 R08  6 R10 -5 R11  0 R12 -1 GLONASS SLOT / FRQ #
    R13 -2 R14 -7 R21  4 R22 -3 R23  3                      GLONASS SLOT / FRQ #
 C1C   71.950 C2C   71.950 C2P   71.950                     GLONASS COD/PHS/BIS
    18                                                      LEAP SECONDS
*** Above antenna height is from mark to ANTENNA BOTTOM.    COMMENT
    17     4        0.0000        ANT MEASURE TYPE/HEIGT    COMMENT
    0.0000    0.0000    0.0458    0.0405    0.0000          COMMENT
                    BASE STATION                            COMMENT
                                                            END OF HEADER
> 2020 05 04 16 00  0.0000000  0 12        .000000000000
G10  21665051.852 8 113850620.989 8      2136.582          51.000    21665055.969 8  88714813.225 8      1664.869          51.000
G16  20647442.227 8 108503036.409 8     -1131.543          51.000    20647440.570 8  84547787.686 8      -881.722          48.000
G20  20967287.977 8 110183886.113 8      -178.613          49.000    20967287.000 7  85857610.736 7      -139.179          43.000
G26  21931279.492 7 115249644.905 7     -2941.426          46.000    21931282.945 7  89804900.687 7     -2292.020          46.000
R08  21821828.312 5 116854893.366 5      3120.340          35.000    21821848.414 4  90887205.708 4      2426.934          26.000
R13  21025946.617 5 112277392.794 5     -3059.859          35.000    21025952.211 6  87326846.035 6     -2379.888          41.000
C05  39611524.961 5 206267604.728 5        -4.348          35.000    39611529.250 6 159499214.433 6        -3.090          36.000
C28  22171421.844 7 115452397.145 7     -1239.086          45.000
E11  22559005.133 7 118548394.627 7       -97.082          47.000    22559004.250 8  90835744.335 8       -74.319          49.000
E24  24958566.078 6 131158081.906 6     -3158.441          41.000    24958582.867 5 100497857.272 5     -2420.194          31.000
E25  24385593.930 8 128147174.342 8     -1288.145          51.000    24385597.250 8  98190698.977 8      -987.011          51.000
E36                                                                  25421074.320 5 102360133.756 5      1455.829          33.000
> 2020 05 04 16 00 30.0000000  0 14        .000000000000
G10  21652892.680 8 113786725.744 8      2121.855          51.000    21652896.477 8  88665024.759 8      1653.394          51.000
G16  20653949.664 8 108537235.097 8     -1149.652          51.000    20653948.594 8  84574435.988 8      -895.833          48.000
G20  20968358.156 8 110189508.595 8      -197.434          49.000    20968357.133 7  85861991.903 7      -153.844          42.000
G26  21948097.414 7 115338026.650 7     -2951.961          47.000    21948101.672 7  89873769.597 7     -2300.229          47.000
R08  21804388.766 6 116761501.200 6      3104.398          38.000
R13  21043183.633 6 112369432.949 6     -3077.383          38.000    21043187.758 6  87398432.757 6     -2393.523          40.000
R24  21286019.750 4 113825876.282 4      2298.832          29.000
C05  39611542.922 5 206267697.373 5        -3.176          35.000    39611547.031 6 159499285.077 6        -2.682          36.000
C27  22203794.977 5 115620966.723 5      1323.074          30.000
C28  22178574.250 7 115489641.876 7     -1245.203          43.000
E11  22559570.961 8 118551368.898 8      -102.730          48.000    22559570.352 8  90838023.327 8       -78.719          48.000
E24  24976601.609 6 131252856.668 6     -3161.098          41.000    24976622.047 5 100570505.858 5     -2422.277          30.000
E25  24392981.078 8 128185995.132 8     -1301.152          51.000    24392984.672 8  98220444.753 8      -996.993          51.000
E36                                                                  25410234.633 5 102316486.361 5      1452.776          32.000
> 2020 05 04 16 01  0.0000000  0 14        .000000000000
G10  21640832.039 8 113723347.484 8      2106.883          51.000    21640835.609 8  88615639.139 8      1641.727          51.000
G16  20660574.875 8 108572052.476 8     -1167.918          51.000    20660574.328 8  84601566.387 8      -910.066          48.000
G20  20969549.359 8 110195768.569 8      -216.316          48.000    20969547.555 6  85866869.811 6      -168.558          40.000
G26  21964990.086 8 115426798.325 8     -2962.621          48.000    21964994.844 8  89942942.319 8     -2308.536          48.000
R07  21703884.523 5 116182572.163 5      -246.602          32.000    21703892.992 4  90364254.032 4      -191.798          29.000
R08  21787050.125 6 116668655.319 6      3089.043          38.000    21787050.594 5  90742294.499 5      2402.592          32.000
R13  21060536.812 6 112462091.538 6     -3095.883          38.000    21060538.531 6  87470500.433 6     -2407.915          40.000
C05  39611571.234 5 206267845.277 5        -2.840          34.000    39611575.516 6 159499399.422 6        -2.117          36.000
C27  22196199.656 5 115581423.919 5      1316.922          30.000
C28  22185775.250 7 115527140.321 7     -1251.293          43.000
E11  22560183.930 8 118554589.336 8      -108.262          48.000    22560183.281 8  90840490.932 8       -82.957          49.000
E24  24994665.773 6 131347782.158 6     -3163.684          40.000
E25  24400456.242 8 128225277.700 8     -1314.062          51.000    24400459.875 8  98250544.351 8     -1006.867          51.000
E36                                                                  25399431.133 5 102272985.664 5      1449.840          33.000
> 2020 05 04 16 01 30.0000000  0 15        .000000000000
G10  21628863.648 8 113660454.231 8      2089.062          51.000    21628867.117 8  88566631.442 8      1627.844          51.000
G16  20667311.336 8 108607453.795 8     -1189.023          49.000    20667311.188 8  84629151.819 8      -926.512          48.000
G20  20970855.430 7 110202631.866 7      -238.156          47.000    20970853.406 6  85872217.824 6      -185.576          39.000
G26  21981950.203 8 115515923.603 8     -2975.973          48.000    21981955.398 8  90012390.565 8     -2318.940          48.000
G27  20762994.500 5 109110272.508 5      1412.102          30.000
R08  21769807.609 5 116576325.184 5      3070.164          35.000    21769808.703 5  90670482.188 5      2387.908          32.000
R13  21077998.109 6 112555330.203 6     -3116.586          37.000    21077999.125 6  87543019.299 6     -2424.014          40.000
R23  19629686.164 6 105005593.592 6       195.645          36.000
R24  21260312.320 4 113688451.843 4      2282.695          27.000
C05  39611603.656 5 206268014.749 5        -4.887          35.000    39611608.031 5 159499530.492 5        -4.174          35.000
C28  22193018.703 6 115564858.618 6     -1260.164          41.000
E11  22560837.133 8 118558021.395 8      -117.164          48.000    22560836.312 8  90843120.696 8       -89.802          48.000
E24  25012751.391 6 131442822.667 6     -3169.246          40.000
E25  24408012.844 8 128264987.183 8     -1330.070          51.000    24408016.484 8  98280971.088 8     -1019.154          51.000
E36                                                                  25388658.195 5 102229605.653 5      1444.500          33.000
> 2020 05 04 16 02  0.0000000  0 17        .000000000000
G10  21616977.586 8 113597993.211 8      2072.199          51.000    21616980.766 8  88517960.573 8      1614.701          51.000
G16  20674148.320 8 108643383.114 8     -1209.152          48.000    20674148.453 8  84657148.660 8      -942.197          48.000
G18  23120810.133 5 121500695.567 5     -3062.188          33.000
G20  20972265.656 7 110210043.275 7      -258.910          47.000    20972264.516 6  85877992.980 6      -201.748          36.000
G21  23155196.625 4 121681393.461 4     -2524.895          29.000
G26  21998966.805 8 115605345.368 8     -2988.238          49.000    21998972.453 8  90082069.832 8     -2328.497          49.000
R07  21706972.078 5 116199074.318 5      -303.473          32.000
R08  21752651.328 6 116484459.199 6      3051.645          39.000    21752654.141 5  90599030.895 5      2373.501          32.000
R13  21095556.164 6 112649089.308 6     -3136.418          37.000    21095557.117 6  87615943.035 6     -2439.436          40.000
R22  22190985.656 5 118456956.437 5     -2796.539          32.000
R23  19628611.281 6 104999851.318 6       183.996          36.000
C05  39611629.812 5 206268150.512 5        -6.246          35.000    39611634.305 6 159499636.245 6        -5.349          36.000
C28  22200294.359 7 115602742.293 7     -1268.102          42.000
E11  22561519.930 8 118561609.833 8      -125.051          48.000    22561518.961 8  90845870.270 8       -95.737          49.000
E24  25030848.047 7 131537921.609 7     -3173.465          42.000
E25  24415640.242 8 128305067.890 8     -1344.758          51.000    24415644.219 8  98311682.270 8     -1030.387          51.000
E36  25377909.812 5 133361815.482 5      1879.293          32.000    25377902.320 5 102186302.326 5      1440.047          33.000
> 2020 05 04 16 02 30.0000000  0 16        .000000000000
G10  21605153.047 8 113535854.287 8      2057.707          51.000    21605155.695 8  88469540.668 8      1603.411          51.000
G16  20681064.469 8 108679727.519 8     -1226.598          48.000    20681064.539 8  84685468.954 8      -955.790          48.000
G18  23138264.781 5 121592412.401 5     -3064.895          34.000
G20  20973758.734 7 110217890.067 7      -276.969          46.000    20973757.336 5  85884107.353 5      -215.823          34.000
G26  22016018.305 8 115694949.147 8     -2998.098          50.000    22016023.797 8  90151890.931 8     -2336.180          50.000
R08  21735560.867 5 116392947.580 5      3036.289          34.000    21735568.305 5  90527855.366 5      2361.567          33.000
R13  21113189.078 6 112743250.030 6     -3153.316          37.000    21113189.891 6  87689179.058 6     -2452.582          39.000
R23  19627565.773 4 104994275.756 4       174.910          29.000
R24  21234742.750 4 113551671.231 4      2267.992          28.000
C05  39611628.469 5 206268143.418 5        -5.734          35.000    39611633.070 6 159499631.717 6        -4.498          36.000
C28  22207580.625 7 115640680.066 7     -1273.637          44.000
E11  22562211.344 8 118565241.930 8      -129.957          48.000    22562210.062 8  90848653.293 8       -99.545          49.000
E12  23954230.688 5 125880329.881 5     -2083.395          33.000
E24  25048934.141 7 131632965.092 7     -3175.477          42.000
E25  24423316.758 8 128345406.812 8     -1357.109          51.000    24423321.352 8  98342591.289 8     -1039.881          51.000
E36  25367157.023 5 133305296.652 5      1876.512          35.000    25367141.344 5 102142989.642 5      1437.547          33.000
> 2020 05 04 16 03  0.0000000  0 16        .000000000000
G10  21593430.133 8 113474248.333 8      2042.199          51.000    21593432.359 8  88421536.043 8      1591.327          51.000
G16  20688099.453 8 108716695.195 8     -1245.059          49.000    20688099.156 8  84714274.918 8      -970.176          48.000
G20  20975374.234 7 110226380.895 7      -296.203          42.000    20975373.758 5  85890723.649 5      -230.802          33.000
G21  23184004.078 6 121832742.131 6     -2527.543          39.000
G26  22033143.984 8 115784941.485 8     -3008.715          51.000    22033148.742 8  90222014.791 8     -2344.453          51.000
G27  20739046.016 5 108984409.757 5      1381.129          32.000
R13  21130935.781 6 112838020.925 6     -3171.848          36.000    21130937.312 6  87762889.674 6     -2466.996          40.000
R23  19626591.539 5 104989043.773 5       164.191          33.000
C05  39611639.266 5 206268199.305 5        -4.863          35.000    39611643.859 6 159499674.954 6        -4.431          36.000
C27  22166149.273 5 115424955.561 5      1289.539          30.000
C28  22214916.695 7 115678878.651 7     -1280.012          45.000
E11  22562950.773 8 118569126.006 8      -136.000          48.000    22562949.320 8  90851629.398 8      -104.238          49.000
E12  23966117.602 5 125942797.299 5     -2084.582          31.000
E24  25067048.664 6 131728160.208 6     -3178.191          41.000
E25  24431081.992 8 128386211.827 8     -1370.484          51.000    24431086.922 8  98373857.445 8     -1050.153          51.000
E36  25356440.258 5 133248987.361 5      1871.875          33.000    25356420.039 5 102099827.565 5      1434.207          34.000
> 2020 05 04 16 03 30.0000000  0 16        .000000000000
G10  21581871.352 8 113413505.150 8      2020.148          51.000    21581873.562 8  88374203.711 8      1574.142          51.000
G16  20695315.234 8 108754612.857 8     -1270.184          49.000    20695314.805 8  84743821.140 8      -989.753          49.000
G20  20977174.492 7 110235843.138 7      -322.031          42.000    20977175.148 6  85898096.970 6      -250.930          36.000
G21  23198492.391 6 121908883.539 6     -2535.840          38.000
G26  22050405.484 8 115875647.891 8     -3025.672          50.000    22050409.305 8  90292695.047 8     -2357.669          50.000
R08  21701769.969 5 116211940.971 5      2995.422          35.000    21701770.164 5  90387111.364 5      2329.773          30.000
R13  21148858.500 6 112933730.586 6     -3196.422          37.000    21148862.008 7  87837330.497 7     -2486.109          42.000
R22  22238188.188 6 118708932.952 6     -2810.242          36.000
R23  19625754.141 5 104984560.474 5       147.969          32.000
R24  21209397.336 6 113416216.309 6      2248.145          36.000
C05  39611724.531 5 206268643.203 5       -11.535          35.000    39611729.188 6 159500018.173 6        -8.899          36.000
C28  22222365.320 7 115717662.764 7     -1292.961          46.000
E11  22563800.141 8 118573589.433 8      -148.812          48.000    22563798.719 8  90855049.440 8      -113.965          48.000
E24  25085254.477 7 131823833.030 7     -3187.531          42.000
E25  24438998.000 8 128427809.851 8     -1390.004          51.000    24439002.898 8  98405731.220 8     -1065.026          51.000
E36  25345822.547 5 133193195.355 5      1861.250          31.000    25345801.156 5 102057037.250 5      1426.129          32.000
> 2020 05 04 16 04  0.0000000  0 14        .000000000000
G10  21570336.719 8 113352889.617 8      2011.012          51.000    21570339.234 8  88326970.872 8      1567.022          51.000
G16  20702571.203 8 108792742.532 8     -1281.859          50.000    20702570.633 8  84773532.551 8      -998.851          49.000
G20  20979019.680 6 110245539.508 6      -334.449          41.000    20979019.406 6  85905652.580 6      -260.607          37.000
G21  23212926.289 6 121984743.183 6     -2531.348          38.000
G26  22067661.727 8 115966328.942 8     -3029.613          50.000    22067664.844 8  90363355.546 8     -2360.741          50.000
R08  21684987.445 6 116122073.305 6      2985.285          38.000    21684984.906 5  90317214.372 5      2321.888          31.000
R13  21166817.359 6 113029626.347 6     -3207.102          40.000    21166821.664 7  87911916.057 7     -2494.415          42.000
C05  39611744.180 5 206268744.684 5        -5.258          35.000    39611748.648 6 159500096.587 6        -3.688          36.000
C27  22151410.781 4 115348208.415 4      1276.020          28.000
C28  22229785.820 7 115756301.792 7     -1292.926          46.000
E11  22564619.219 8 118577894.598 8      -148.289          48.000    22564617.719 8  90858348.212 8      -113.651          48.000
E24  25103411.055 6 131919244.668 6     -3183.379          41.000
E25  24446924.242 8 128469462.891 8     -1396.793          51.000    24446928.531 8  98437647.159 8     -1070.255          51.000
E36                                                                  25335145.156 5 102014113.976 5      1427.799          34.000
> 2020 05 04 16 04 30.0000000  0 15        .000000000000
G10  21558863.211 8 113292595.611 8      1994.734          51.000    21558865.953 8  88279988.561 8      1554.338          51.000
G16  20709903.906 8 108831274.972 8     -1300.836          51.000    20709903.156 8  84803557.813 8     -1013.638          50.000
G18  23208384.273 5 121960811.929 5     -3078.621          35.000
G20  20980945.570 6 110255660.757 6      -354.172          41.000    20980945.211 6  85913539.242 6      -275.981          39.000
G21  23227343.797 6 122060511.603 6     -2533.598          38.000
G26  22084948.898 8 116057174.177 8     -3040.504          50.000    22084951.695 8  90434143.967 8     -2369.227          50.000
R08  21668274.016 6 116032568.138 6      2967.375          38.000    21668268.836 5  90247599.366 5      2307.967          31.000
R13  21184847.148 6 113125898.444 6     -3225.109          40.000    21184850.898 6  87986794.291 6     -2508.421          40.000
R23  19624099.727 6 104975680.985 6       132.684          38.000
C05  39611734.508 5 206268695.792 5        -5.164          35.000    39611738.773 6 159500057.283 6        -4.289          36.000
C28  22237214.609 7 115794985.683 7     -1299.844          47.000
E11  22565444.828 8 118582232.889 8      -154.727          48.000    22565442.984 8  90861672.359 8      -118.485          48.000
E24  25121554.344 6 132014585.283 6     -3186.469          41.000
E25  24454897.086 8 128511361.818 8     -1410.359          51.000    24454900.711 8  98469751.496 8     -1080.605          51.000
E36  25324509.383 5 133081153.724 5      1858.504          33.000    25324484.508 5 101971202.556 5      1424.524          31.000
> 2020 05 04 16 05  0.0000000  0 15        .000000000000
G10  21547561.164 8 113233202.707 8      1987.945          51.000    21547563.680 8  88233708.355 8      1549.048          51.000
G16  20717423.164 8 108870787.089 8     -1310.078          51.000    20717422.188 8  84834346.477 8     -1020.840          50.000
G20  20983062.344 6 110266784.084 6      -364.227          41.000    20983062.609 6  85922206.760 6      -283.813          41.000
G21  23241830.570 6 122136631.428 6     -2526.180          36.000
G26  22102376.695 8 116148758.807 8     -3041.680          50.000    22102379.531 8  90505508.564 8     -2370.143          50.000
R08  21651737.906 6 115944018.167 6      2959.410          39.000    21651732.781 5  90178727.287 5      2301.763          30.000
R13  21203055.938 6 113223129.686 6     -3233.172          39.000    21203058.477 6  88062418.542 6     -2514.689          39.000
R22  22285511.445 5 118961520.950 5     -2803.191          34.000
C05  39611805.430 5 206269064.943 5         3.211          35.000    39611809.555 6 159500342.696 6         2.836          36.000
C27  22136785.992 5 115272039.429 5      1272.434          31.000
C28  22244761.766 7 115834286.616 7     -1297.215          46.000
E11  22566386.742 8 118587181.349 8      -151.715          48.000    22566384.758 8  90865464.036 8      -116.279          49.000
E24  25139793.984 6 132110430.604 6     -3179.773          41.000
E25  24463026.414 8 128554083.324 8     -1414.469          51.000    24463029.992 8  98502486.131 8     -1083.775          51.000
E36  25313944.562 5 133025670.670 5      1863.742          33.000
> 2020 05 04 16 05 30.0000000  0 14        .000000000000
G10  21536251.086 8 113173768.433 8      1961.004          51.000    21536253.406 8  88187395.943 8      1528.055          51.000
G16  20724948.656 8 108910333.627 8     -1339.574          51.000    20724947.859 8  84865161.940 8     -1043.824          50.000
G20  20985190.031 7 110277965.088 7      -394.477          42.000    20985190.266 7  85930919.212 7      -307.384          42.000
G21  23256277.922 6 122212534.878 6     -2539.562          40.000
G26  22119765.109 8 116240136.186 8     -3063.242          50.000    22119768.078 8  90576711.669 8     -2386.942          50.000
R08  21635201.688 6 115855465.529 6      2930.289          40.000    21635196.688 5  90109853.131 5      2279.117          33.000
R13  21221263.047 6 113320356.016 6     -3261.727          38.000    21221265.500 6  88138038.987 6     -2536.901          40.000
R24  21159065.172 5 113147025.768 5      2223.406          34.000
C05  39611777.289 5 206268918.385 5        -7.605          34.000    39611781.367 6 159500229.364 6        -5.452          36.000
C27  22129470.625 5 115233940.287 5      1254.617          32.000
C28  22252247.359 7 115873268.676 7     -1314.711          45.000
E11  22567264.906 7 118591795.267 7      -169.172          47.000    22567263.078 8  90868999.381 8      -129.655          49.000
E24  25157949.406 6 132205834.662 6     -3193.645          38.000
E25  24471132.461 8 128596682.078 8     -1438.723          51.000    24471136.344 8  98535126.711 8     -1102.392          51.000
> 2020 05 04 16 06  0.0000000  0 17        .000000000000
G10  21525113.938 8 113115242.949 8      1943.520          51.000    21525116.164 8  88141791.702 8      1514.431          51.000
G16  20732660.742 8 108950861.510 8     -1359.477          51.000    20732660.398 8  84896742.064 8     -1059.332          51.000
G18  23261190.469 5 122238370.642 5     -3091.387          35.000
G20  20987509.312 7 110290151.205 7      -414.945          44.000    20987508.922 7  85940414.822 7      -323.337          43.000
G21  23270793.289 5 122288814.846 5     -2543.090          35.000
G26  22137294.102 8 116332252.203 8     -3074.871          49.000    22137297.203 8  90648490.321 8     -2396.003          49.000
R07  21725240.148 5 116296910.152 5      -518.305          30.000
R08  21618846.109 6 115767880.619 6      2911.320          40.000    21618843.781 5  90041731.643 5      2264.360          34.000
R13  21239648.828 6 113418537.188 6     -3280.461          37.000    21239652.328 6  88214402.094 6     -2551.470          41.000
R23  19622142.078 5 104965143.940 5        98.840          34.000
C05  39611830.500 5 206269195.649 5        -8.688          35.000    39611834.641 6 159500443.807 6        -6.766          36.000
C27  22122267.664 4 115196460.339 4      1247.027          29.000
C28  22259851.867 7 115912871.290 7     -1322.723          45.000
E11  22568259.469 7 118597022.267 7      -176.691          47.000    22568257.891 8  90873004.494 8      -135.426          49.000
E24  25176201.094 6 132301743.925 6     -3197.770          36.000
E25  24479395.570 8 128640105.350 8     -1453.348          51.000    24479399.648 8  98568399.074 8     -1113.649          51.000
E36  25292764.156 5 132914373.504 5      1841.793          33.000
> 2020 05 04 16 06 30.0000000  0 17        .000000000000
G10  21514048.375 8 113057094.386 8      1935.207          51.000    21514050.688 8  88096481.153 8      1507.954          51.000
G16  20740457.898 8 108991836.158 8     -1370.043          51.000    20740457.773 8  84928670.325 8     -1067.566          51.000
G18  23278831.500 6 122331069.226 6     -3086.289          36.000
G20  20989918.188 7 110302808.094 7      -426.629          44.000    20989918.102 7  85950277.351 7      -332.435          44.000
G21  23285301.062 6 122365046.515 6     -2536.895          36.000
G26  22154861.539 8 116424570.706 8     -3077.090          48.000    22154864.844 8  90720426.761 8     -2397.732          48.000
R07  21728197.570 5 116312737.299 5      -536.363          33.000    21728192.391 4  90465442.967 4      -417.171          29.000
R08  21602569.844 6 115680723.611 6      2901.375          38.000    21602569.008 5  89973942.877 5      2256.619          32.000
R13  21258109.664 5 113517126.046 5     -3289.277          34.000    21258115.312 7  88291082.294 7     -2558.327          42.000
R22  22332973.570 5 119214912.586 5     -2815.715          32.000    22332988.820 4  92722742.282 4     -2190.000          26.000
R24  21134207.141 5 113014067.967 5      2215.047          32.000    21134221.727 4  87899934.158 4      1722.817          25.000
C05  39611863.633 5 206269367.969 5         -.684          35.000    39611867.766 6 159500576.999 6         -.335          36.000
C28  22267474.008 7 115952565.410 7     -1321.379          45.000
E11  22569269.062 7 118602328.052 7      -174.723          47.000    22569267.422 8  90877069.972 8      -133.881          48.000
E24  25194447.781 6 132397622.691 6     -3192.164          37.000
E25  24487714.078 8 128683818.341 8     -1458.645          51.000    24487717.750 8  98601893.448 8     -1117.690          51.000
E36  25282246.164 6 132859089.517 6      1845.910          36.000    25282254.406 6 101801145.302 6      1414.213          36.000
> 2020 05 04 16 07  0.0000000  0 17        .000000000000
G10  21503067.562 8 112999391.661 8      1913.590          50.000    21503070.352 8  88051517.989 8      1491.109          50.000
G16  20748352.523 8 109033323.478 8     -1393.863          51.000    20748352.523 8  84960998.085 8     -1086.127          50.000
G18  23296481.961 6 122423821.939 6     -3094.773          37.000
G20  20992429.047 7 110316002.128 7      -451.281          45.000    20992428.547 7  85960558.394 7      -351.648          43.000
G21  23299811.602 5 122441296.208 5     -2544.695          35.000
G26  22172479.664 7 116517156.322 7     -3093.004          47.000    22172483.203 8  90792571.351 8     -2410.133          48.000
R07  21731297.547 5 116329334.863 5      -568.098          32.000    21731288.664 4  90478351.999 4      -441.860          29.000
R13  21276660.438 6 113616187.481 6     -3312.312          37.000    21276666.242 7  88368130.049 7     -2576.246          42.000
R22  22348822.875 5 119299541.027 5     -2824.453          32.000    22348834.062 4  92788564.165 4     -2196.809          29.000
R23  19621114.977 5 104959733.757 5        80.105          30.000
R24  21121819.367 4 112947862.909 4      2202.926          29.000
C05  39611889.219 5 206269501.659 5        -6.066          34.000    39611893.633 6 159500680.385 6        -4.791          36.000
C28  22275126.898 7 115992417.156 7     -1333.457          47.000
E11  22570306.297 7 118607779.238 7      -186.699          47.000    22570304.602 8  90881246.846 8      -143.028          48.000
E12  24061662.992 5 126444892.482 5     -2098.871          31.000
E25  24496100.477 8 128727887.074 8     -1477.250          51.000    24496103.406 8  98635660.393 8     -1131.916          51.000
E36  25271745.039 5 132803899.020 5      1835.672          35.000    25271751.758 5 101758856.470 5      1406.844          35.000
> 2020 05 04 16 07 30.0000000  0 17        .000000000000
G10  21492189.383 8 112942227.603 8      1899.234          51.000    21492192.305 8  88006974.590 8      1479.923          51.000
G16  20756361.859 8 109075413.415 8     -1410.293          51.000    20756361.789 8  84993795.429 8     -1098.930          50.000
G18  23314159.344 6 122516718.416 6     -3096.496          36.000
G20  20995059.414 7 110329823.651 7      -468.289          45.000    20995058.500 7  85971328.396 7      -364.904          43.000
G21  23314341.180 4 122517684.091 4     -2544.211          29.000
G26  22190165.578 8 116610097.675 8     -3101.215          48.000    22190169.234 8  90864993.155 8     -2416.531          48.000
R07  21734542.000 5 116346711.562 5      -593.215          30.000    21734553.414 5  90491920.444 5      -461.389          32.000
R13  21295317.422 6 113715808.299 6     -3327.078          40.000    21295321.953 7  88445612.812 7     -2587.730          42.000
R22  22364703.977 5 119384304.142 5     -2825.234          35.000    22364708.836 5  92854491.136 5     -2197.405          31.000
R23  19620683.938 5 104957447.723 5        71.062          30.000
R24  21109473.305 5 112881810.328 5      2197.219          32.000
C05  39611924.688 5 206269686.525 5        -4.559          34.000    39611929.578 5 159500823.671 5        -3.232          34.000
C28  22282827.891 7 116032516.654 7     -1338.023          47.000
E11  22571388.227 7 118613466.310 7      -190.801          47.000    22571386.891 8  90885604.465 8      -146.198          49.000
E12  24073658.516 5 126507927.954 5     -2098.980          30.000
E25  24504571.742 8 128772401.568 8     -1488.430          51.000    24504574.047 8  98669768.882 8     -1140.458          51.000
E36  25261280.562 5 132748909.908 5      1833.215          32.000    25261282.422 5 101716716.144 5      1404.614          33.000
> 2020 05 04 16 08  0.0000000  0 17        .000000000000
G10  21481405.117 8 112885555.841 8      1881.555          51.000    21481407.938 8  87962814.813 8      1466.147          51.000
G16  20764476.367 8 109118056.573 8     -1429.977          50.000    20764476.008 8  85027023.833 8     -1114.270          49.000
G18  23331854.938 5 122609708.807 5     -3100.574          35.000
G20  20997799.641 7 110344223.449 7      -488.824          46.000    20997799.281 6  85982549.026 6      -380.902          41.000
G26  22207909.898 8 116703344.210 8     -3112.684          50.000    22207913.430 8  90937652.768 8     -2425.468          50.000
G27  20663188.602 5 108585788.079 5      1274.457          30.000
R07  21737965.625 5 116365003.955 5      -620.395          30.000    21737961.094 5  90506104.261 5      -482.523          33.000
R08  21554344.711 6 115422544.889 6      2841.680          37.000    21554350.375 4  89773099.174 4      2210.201          26.000
R13  21314069.688 6 113815936.300 6     -3345.402          39.000    21314072.477 7  88523490.063 7     -2601.983          42.000
R22  22380601.086 5 119469153.107 5     -2828.785          35.000    22380610.008 5  92920484.557 5     -2200.169          33.000
R23  19620336.930 5 104955571.658 5        60.230          31.000
R24  21097183.828 5 112816059.553 5      2188.859          34.000
C05  39611961.047 5 206269875.080 5        -5.340          35.000    39611966.211 6 159500972.906 6        -4.425          36.000
C28  22290567.242 7 116072815.961 7     -1345.961          47.000
E11  22572505.914 7 118619340.524 7      -198.137          47.000    22572505.039 8  90890105.484 8      -151.858          49.000
E25  24513118.328 8 128817312.536 8     -1502.910          51.000    24513120.047 8  98704181.160 8     -1151.604          51.000
E36  25250847.305 5 132694097.892 5      1827.363          32.000    25250838.367 5 101674666.133 5      1400.319          34.000
> 2020 05 04 16 08 30.0000000  0 14        .000000000000
G10  21470709.227 8 112829346.601 8      1865.027          51.000    21470711.836 8  87919015.423 8      1453.268          51.000
G16  20772690.227 8 109161220.382 8     -1448.340          50.000    20772689.289 8  85060657.945 8     -1128.580          49.000
G18  23349562.461 5 122702759.971 5     -3102.926          35.000
G20  21000643.914 7 110359169.784 7      -508.164          44.000    21000643.047 6  85994195.464 6      -395.975          40.000
G26  22225706.148 8 116796861.877 8     -3122.664          51.000    22225709.164 8  91010523.633 8     -2433.245          51.000
G27  20655927.953 5 108547658.617 5      1263.609          32.000    20655923.922 5  84582552.497 5       984.634          32.000
R08  21538477.742 6 115337561.211 6      2823.102          36.000
R13  21332909.266 6 113916534.466 6     -3361.637          36.000    21332911.086 7  88601732.986 7     -2614.609          42.000
R24  21084931.664 5 112750499.531 5      2181.648          31.000
C05  39611992.203 5 206270036.599 5        -5.723          35.000    39611997.000 6 159501097.776 6        -4.643          36.000
C28  22298338.805 7 116113283.542 7     -1352.625          47.000
E11  22573653.258 7 118625369.756 7      -204.121          47.000    22573652.742 8  90894725.289 8      -156.545          49.000
E25  24521733.914 8 128862587.289 8     -1516.078          51.000    24521735.164 8  98738872.175 8     -1161.682          51.000
E36  25240425.469 5 132639336.297 5      1822.977          33.000    25240418.703 5 101632703.132 5      1396.940          34.000
> 2020 05 04 16 09  0.0000000  0 12        .000000000000
G10  21460112.633 8 112773658.500 8      1846.848          51.000    21460115.211 8  87875622.115 8      1439.102          51.000
G16  20781013.844 8 109204960.303 8     -1468.434          50.000    20781012.438 8  85094741.000 8     -1144.234          48.000
G20  21003602.422 7 110374718.343 7      -529.285          42.000    21003601.648 6  86006311.225 6      -412.427          39.000
G26  22243564.484 8 116890705.135 8     -3134.367          51.000    22243566.672 8  91083648.188 8     -2442.367          51.000
G27  20648741.648 5 108509899.578 5      1252.184          32.000    20648743.016 5  84553129.807 5       975.727          32.000
R08  21522715.086 6 115253163.767 6      2802.617          38.000    21522713.570 4  89641334.667 4      2179.816          28.000
R13  21351844.180 5 114017655.824 5     -3380.398          33.000    21351847.594 7  88680382.927 7     -2629.199          43.000
C05  39612028.820 5 206270227.935 5        -7.398          35.000    39612033.461 6 159501243.940 6        -5.951          36.000
C28  22306153.281 8 116153975.481 8     -1360.984          48.000
E11  22574840.852 7 118631610.354 7      -212.508          47.000    22574840.453 8  90899507.043 8      -162.786          49.000
E25  24530429.227 8 128908281.616 8     -1530.984          51.000    24530430.125 8  98773884.686 8     -1173.068          51.000
E36  25230032.797 5 132584723.020 5      1816.805          33.000    25230028.930 5 101590863.589 5      1391.750          31.000
> 2020 05 04 16 09 30.0000000  0 12        .000000000000
G10  21449623.414 8 112718534.564 8      1834.324          51.000    21449625.898 8  87832668.427 8      1429.344          51.000
G16  20789454.570 8 109249316.659 8     -1482.500          48.000    20789452.938 8  85129304.380 8     -1155.198          48.000
G20  21006683.438 6 110390910.095 6      -544.230          41.000    21006683.195 6  86018928.133 6      -424.079          39.000
G26  22261492.094 8 116984912.777 8     -3139.973          51.000    22261493.453 8  91157056.680 8     -2446.732          51.000
R07  21749073.453 5 116424476.449 5      -697.867          32.000    21749091.250 4  90552445.150 4      -542.776          29.000
R08  21507074.438 6 115169398.596 6      2788.043          38.000    21507072.297 4  89576183.967 4      2168.478          29.000
R13  21370884.492 6 114119338.379 6     -3392.277          36.000    21370890.109 7  88759469.352 7     -2638.438          44.000
R24  21060547.102 6 112620223.658 6      2168.984          37.000    21060552.578 4  87593501.970 4      1686.991          26.000
C05  39612078.750 5 206270488.410 5        -3.988          34.000    39612083.062 6 159501443.948 6        -2.670          36.000
C28  22314018.750 7 116194932.504 7     -1363.531          47.000
E11  22576076.531 7 118638103.043 7      -214.359          47.000    22576075.883 8  90904481.960 8      -164.327          49.000
E25  24539211.664 8 128954435.679 8     -1539.719          51.000    24539212.992 8  98809249.472 8     -1179.799          51.000
> 2020 05 04 16 10  0.0000000  0 14        .000000000000
G10  21439212.766 8 112663824.312 8      1819.562          51.000    21439214.961 8  87790037.078 8      1417.841          51.000
G16  20797983.375 8 109294135.825 8     -1498.898          49.000    20797981.742 8  85164228.397 8     -1167.973          48.000
G20  21009857.633 6 110407591.869 6      -561.625          41.000    21009856.812 5  86031926.820 5      -437.639          35.000
G26  22279459.328 8 117079330.194 8     -3147.949          49.000    22279460.484 8  91230628.604 8     -2452.947          49.000
R08  21491522.812 5 115086114.368 5      2771.094          33.000    21491520.875 4  89511407.227 4      2155.292          29.000
R13  21390002.320 6 114221422.817 6     -3406.266          38.000    21390008.141 7  88838868.289 7     -2649.321          44.000
R22  22444345.711 5 119809407.610 5     -2835.930          34.000    22444345.047 5  93185105.058 5     -2205.720          31.000
R23  19619458.125 5 104950858.325 5        22.496          35.000    19619464.477 4  81628473.072 4        17.497          24.000
C05                                                                  39612117.273 6 159501581.186 6        -1.743          36.000
C27  22065902.141 5 114902946.738 5      1201.320          31.000
C28  22321905.977 7 116236003.609 7     -1368.270          47.000
E11  22577331.125 8 118644695.072 8      -218.402          48.000    22577330.086 8  90909532.985 8      -167.341          49.000
E12  24133707.844 5 126823490.630 5     -2103.715          30.000
E25  24548051.969 8 129000896.148 8     -1551.082          50.000    24548054.250 8  98844849.032 8     -1188.473          51.000
> 2020 05 04 16 10 30.0000000  0 14        .000000000000
G10  21428867.945 8 112609462.418 8      1798.379          51.000    21428870.312 8  87747677.164 8      1401.334          51.000
G16  20806587.305 8 109339349.637 8     -1521.715          51.000    20806585.977 8  85199459.935 8     -1185.752          48.000
G18  23420555.781 6 123075821.639 6     -3115.535          37.000
G20  21013112.094 6 110424695.773 6      -585.113          41.000    21013113.680 6  86045254.473 6      -455.939          36.000
G26  22297452.766 7 117173887.776 7     -3162.152          46.000    22297454.523 7  91304309.766 7     -2464.018          46.000
G27  20627537.977 5 108398441.004 5      1220.602          31.000    20627540.789 5  84466320.763 5       951.115          31.000
R07  21757195.633 5 116467979.371 5      -753.484          33.000
R08  21476046.500 5 115003246.741 5      2746.969          33.000    21476048.133 4  89446954.826 4      2136.540          29.000
R13  21409182.000 6 114323837.180 6     -3427.281          38.000    21409186.859 7  88918523.837 7     -2665.666          42.000
R23  19619359.688 5 104950317.330 5         7.508          31.000
C05  39612118.758 5 206270697.130 5        -6.629          35.000    39612123.398 6 159501606.132 6        -4.930          36.000
C28  22329802.188 7 116277122.121 7     -1379.395          47.000
E11  22578591.750 8 118651318.890 8      -229.203          49.000    22578590.477 8  90914608.372 8      -175.578          49.000
E25  24556937.633 8 129047594.777 8     -1568.379          50.000    24556941.078 8  98880631.081 8     -1201.802          51.000
> 2020 05 04 16 11  0.0000000  0 12        .000000000000
G10  21418646.789 8 112555752.129 8      1782.906          51.000    21418649.570 8  87705824.975 8      1389.278          51.000
G16  20815323.570 8 109385258.335 8     -1538.414          51.000    20815322.531 8  85235232.939 8     -1198.767          49.000
G18  23438347.453 6 123169314.383 6     -3116.910          37.000
G20  21016504.102 5 110442522.111 5      -602.895          35.000    21016506.773 5  86059145.110 5      -469.782          34.000
G26  22315529.062 7 117268884.625 7     -3170.547          44.000    22315532.484 7  91378333.247 7     -2470.556          43.000
R13  21428479.633 6 114426882.565 6     -3441.703          38.000    21428483.508 7  88998670.175 7     -2676.883          42.000
R23  19619344.047 5 104950241.220 5        -1.629          34.000
C05  39612153.781 5 206270878.619 5        -5.051          35.000    39612158.328 6 159501746.844 6        -3.721          37.000
C27  22052160.578 4 114831383.046 4      1185.109          28.000
C28  22337764.781 7 116318586.634 7     -1384.469          45.000
E11  22579915.727 8 118658275.515 8      -234.230          49.000    22579914.438 8  90919938.779 8      -179.406          49.000
E25  24565926.180 8 129094832.016 8     -1580.105          50.000    24565930.492 8  98916825.839 8     -1210.775          51.000
> 2020 05 04 16 11 30.0000000  0 13        .000000000000
G10  21408524.766 8 112502562.503 8      1763.621          51.000    21408528.031 8  87664378.513 8      1374.247          51.000
G16  20824166.609 8 109431727.918 8     -1559.039          51.000    20824165.883 8  85271442.986 8     -1214.839          49.000
G18  23456157.922 6 123262906.790 6     -3121.957          37.000
G20  21020008.148 6 110460938.464 6      -624.434          38.000    21020011.469 6  86073495.405 6      -486.572          36.000
G21  23430932.359 5 123130367.334 5     -2561.805          32.000
G26  22333662.719 7 117364185.676 7     -3182.586          42.000    22333668.602 7  91452593.816 7     -2479.937          42.000
R07  21765934.023 4 116514716.763 4      -807.285          29.000
R13  21447869.273 6 114530420.425 6     -3459.953          39.000    21447872.398 7  89079199.535 7     -2691.078          42.000
R23  19619391.117 6 104950494.762 6       -14.582          36.000
C05  39612192.398 5 206271080.210 5        -7.547          35.000    39612197.180 6 159501902.743 6        -5.875          37.000
C28  22345768.844 7 116360265.560 7     -1393.727          46.000
E11  22581277.672 8 118665431.788 8      -242.582          49.000    22581276.328 8  90925422.155 8      -185.884          49.000
E25  24574992.070 8 129142474.093 8     -1595.527          51.000    24574996.938 8  98953330.780 8     -1222.565          51.000
> 2020 05 04 16 12  0.0000000  0 18        .000000000000
G10  21398490.102 8 112449830.467 8      1750.855          51.000    21398493.172 8  87623288.629 8      1364.303          51.000
G16  20833103.695 8 109478692.789 8     -1573.012          50.000    20833103.320 8  85308038.964 8     -1225.726          50.000
G18  23473974.375 5 123356532.640 5     -3120.531          31.000
G20  21023612.367 5 110479878.885 5      -638.961          35.000    21023615.242 5  86088254.070 5      -497.892          33.000
G26  22351842.609 7 117459723.786 7     -3187.641          44.000    22351849.531 7  91527039.081 7     -2483.879          44.000
R07  21770516.281 5 116539252.156 5      -829.969          35.000
R08  21430347.375 6 114758526.276 6      2691.961          36.000    21430365.773 4  89256671.591 4      2093.750          27.000
R13  21467338.234 6 114634379.961 6     -3471.719          38.000    21467340.469 7  89160056.915 7     -2700.226          42.000
R22  22508273.086 5 120150721.371 5     -2847.539          32.000    22508286.242 4  93450580.048 4     -2214.756          29.000
R23  19619487.664 5 104951011.946 5       -22.020          30.000
C05  39612222.492 5 206271236.288 5        -3.941          35.000    39612227.500 6 159502024.187 6        -2.918          36.000
C27  22038608.391 4 114760838.678 4      1172.211          29.000
C28  22353801.992 7 116402094.553 7     -1396.191          45.000
E11  22582664.922 8 118672722.477 8      -244.430          48.000    22582663.516 8  90931008.536 8      -187.281          49.000
E12  24181907.891 5 127076785.798 5     -2111.574          33.000
E24  25395990.469 5 133456830.863 5     -3218.664          32.000
E25  24584122.844 8 129190455.159 8     -1604.250          51.000    24584127.844 8  98990095.465 8     -1229.290          51.000
E36                                                                  25168191.055 5 101341867.807 5      1374.426          32.000
> 2020 05 04 16 12 30.0000000  0 15        .000000000000
G10  21388552.555 8 112397608.265 8      1731.879          51.000    21388555.375 8  87582596.032 8      1349.519          51.000
G16  20842144.047 8 109526201.809 8     -1593.113          51.000    20842144.094 8  85345058.939 8     -1241.387          49.000
G18  23491807.328 5 123450240.922 5     -3125.738          34.000
G20  21027325.312 5 110499339.636 5      -660.719          35.000    21027327.547 5  86103459.574 5      -514.852          35.000
G26  22370077.578 7 117555547.118 7     -3199.395          47.000    22370084.102 7  91601706.574 7     -2493.035          47.000
R08  21415328.320 6 114678108.023 6      2670.309          36.000    21415330.367 4  89194094.418 4      2076.907          25.000
R13  21486894.250 6 114738809.039 6     -3489.195          37.000    21486896.742 7  89241279.464 7     -2713.822          42.000
R23  19619642.867 5 104951843.635 5       -33.309          34.000
R24  20988338.430 5 112234094.525 5      2122.156          33.000
C05  39612253.836 5 206271399.816 5        -5.383          35.000    39612258.711 6 159502150.867 6        -4.470          36.000
C28  22361873.328 7 116444123.606 7     -1404.570          45.000
E11  22584087.102 8 118680197.714 8      -252.723          48.000    22584085.539 8  90936736.305 8      -193.561          49.000
E24  25414380.805 5 133553469.887 5     -3222.574          34.000
E25  24593327.945 8 129238824.612 8     -1619.254          51.000    24593332.242 8  99027157.724 8     -1240.718          51.000
E36                                                                  25157985.133 5 101300779.175 5      1369.613          30.000
> 2020 05 04 16 13  0.0000000  0 14        .000000000000
G10  21378717.266 8 112345923.544 8      1714.910          51.000    21378720.234 8  87542322.291 8      1336.297          51.000
G16  20851293.008 8 109574280.065 8     -1611.078          51.000    20851292.938 8  85382522.490 8     -1255.386          49.000
G18  23509660.719 5 123544056.317 5     -3127.598          32.000
G20  21031152.609 6 110519452.114 6      -679.480          36.000    21031154.258 5  86119131.547 5      -529.462          35.000
G26  22388371.602 8 117651679.134 8     -3208.574          48.000    22388377.188 8  91676614.587 8     -2500.191          48.000
R08  21400427.531 6 114598309.952 6      2650.523          38.000    21400438.008 5  89132028.898 5      2061.521          34.000
R13  21506541.695 6 114843728.618 6     -3504.551          38.000    21506544.727 7  89322883.518 7     -2725.762          42.000
R23  19619862.305 5 104953016.342 5       -44.246          30.000
C05  39612291.273 5 206271593.659 5        -5.922          35.000    39612296.031 6 159502300.726 6        -4.486          36.000
C27  22025195.227 4 114690969.871 4      1156.770          27.000
C28  22369988.023 7 116486378.283 7     -1411.250          44.000
E11  22585549.305 8 118687882.970 8      -258.711          49.000    22585547.688 8  90942624.997 8      -198.269          49.000
E24  25432786.836 5 133650192.061 5     -3224.441          34.000
E25  24602611.898 8 129287607.229 8     -1631.816          51.000    24602614.812 8  99064536.579 8     -1250.398          51.000
> 2020 05 04 16 13 30.0000000  0 16        .000000000000
G10  21368979.367 8 112294749.331 8      1697.203          51.000    21368982.141 8  87502446.343 8      1322.496          51.000
G16  20860544.664 8 109622897.156 8     -1629.723          51.000    20860544.383 8  85420405.920 8     -1269.914          50.000
G18  23527527.672 5 123637992.129 5     -3130.750          31.000
G20  21035088.156 5 110540133.678 5      -698.543          35.000    21035089.945 6  86135247.030 6      -544.316          36.000
G21  23489436.766 5 123437841.476 5     -2566.992          34.000
G26  22406718.492 8 117748088.772 8     -3218.406          49.000    22406722.758 8  91751738.916 8     -2507.849          49.000
R08  21385637.391 6 114519107.012 6      2630.336          36.000    21385646.914 5  89070426.695 5      2045.820          35.000
R13  21526274.852 6 114949106.086 6     -3520.250          38.000    21526278.781 7  89404843.712 7     -2737.972          42.000
R23  19620140.445 5 104954500.751 5       -55.676          31.000    19620147.117 4  81631309.952 4       -43.300          26.000
R24  20964629.336 4 112107284.804 4      2106.773          29.000
C05  39612329.180 5 206271790.419 5        -6.840          35.000    39612333.906 6 159502453.868 6        -5.289          37.000
C27  22018552.227 4 114656380.585 4      1150.434          28.000
C28  22378141.094 7 116528830.050 7     -1418.324          42.000
E11  22587046.094 8 118695749.096 8      -265.270          50.000    22587044.594 8  90948652.281 8      -203.208          50.000
E24  25451202.859 6 133746967.927 6     -3226.703          37.000
E25  24611968.422 8 129336773.274 8     -1645.469          51.000    24611970.398 8  99102209.237 8     -1260.811          51.000
> 2020 05 04 16 14  0.0000000  0 15        .000000000000
G10  21359336.180 8 112244073.459 8      1678.863          51.000    21359338.711 8  87462958.681 8      1308.208          51.000
G16  20869895.883 8 109672038.035 8     -1648.762          51.000    20869895.359 8  85458697.468 8     -1284.749          50.000
G20  21039129.578 6 110561369.687 6      -719.152          39.000    21039130.148 6  86151794.525 6      -560.381          39.000
G21  23504097.727 6 123514839.072 6     -2569.211          38.000
G26  22425115.031 8 117844759.734 8     -3228.723          49.000    22425117.922 8  91827066.883 8     -2515.891          49.000
R08  21370956.703 5 114440489.360 5      2608.457          35.000    21370965.039 6  89009279.546 6      2028.797          36.000
R13  21546090.641 6 115054922.543 6     -3536.414          39.000    21546095.688 7  89487145.320 7     -2750.547          43.000
R23  19620473.102 5 104956282.123 5       -66.414          31.000    19620480.961 4  81632695.547 4       -51.652          25.000
R24  20952811.266 5 112044152.929 5      2098.285          34.000    20952819.758 4  87145454.881 4      1632.003          29.000
C05  39612364.992 5 206271978.356 5        -8.246          35.000    39612369.594 6 159502597.649 6        -6.295          37.000
C28  22386329.570 6 116571465.040 6     -1426.285          41.000
E11  22588574.648 8 118703781.820 8      -272.402          50.000    22588573.305 8  90954807.216 8      -208.742          49.000
E12  24230263.828 5 127330894.167 5     -2121.602          34.000
E24  25469626.031 6 133843781.935 6     -3229.926          38.000
E25  24621394.328 8 129386307.711 8     -1659.238          50.000    24621396.180 8  99140164.171 8     -1271.317          51.000
> 2020 05 04 16 14 30.0000000  0 16        .000000000000
G10  21349789.172 8 112193904.808 8      1663.594          50.000    21349791.883 8  87423866.245 8      1296.307          50.000
G16  20879348.195 8 109721708.715 8     -1664.703          51.000    20879347.203 8  85497401.870 8     -1297.171          49.000
G20  21043277.930 6 110583166.612 6      -736.098          38.000    21043278.227 6  86168779.082 6      -573.583          39.000
G26  22443561.883 8 117941696.831 8     -3235.859          49.000    22443564.117 8  91902602.228 8     -2521.449          49.000
R08  21356385.617 5 114362468.283 5      2590.480          35.000    21356393.703 5  88948596.426 5      2014.815          33.000
R13  21565989.680 6 115161180.572 6     -3549.453          40.000    21565995.031 7  89569790.393 7     -2760.689          42.000
R22  22588551.922 5 120579225.460 5     -2862.199          32.000    22588558.555 4  93783851.311 4     -2226.164          29.000
R23  19620862.250 6 104958367.914 6       -74.434          37.000
R24  20941046.852 5 111981267.193 5      2092.133          34.000    20941052.383 4  87096505.239 4      1627.217          25.000
C05  39612399.984 5 206272160.709 5        -6.785          35.000    39612404.688 6 159502738.627 6        -4.652          37.000
C28  22394553.930 6 116614290.364 6     -1430.852          38.000
E11  22590136.180 8 118711987.946 8      -276.785          50.000    22590134.836 8  90961095.028 8      -212.067          49.000
E12  24242370.312 5 127394507.357 5     -2121.480          32.000
E24  25488057.422 6 133940639.544 6     -3229.508          39.000
E25  24630891.242 8 129436216.638 8     -1670.094          51.000    24630893.500 8  99178406.071 8     -1279.676          51.000
E36  25117359.148 5 131992591.763 5      1769.602          34.000
> 2020 05 04 16 15  0.0000000  0 14        .000000000000
G10  21340361.953 8 112144367.949 8      1643.426          49.000    21340365.273 8  87385266.068 8      1280.588          49.000
G16  20888924.500 8 109772030.762 8     -1685.574          51.000    20888923.180 8  85536613.831 8     -1313.434          49.000
G20  21047556.008 6 110605646.235 6      -757.691          39.000    21047555.414 6  86186295.655 6      -590.409          40.000
G26  22462082.203 8 118039020.565 8     -3247.879          49.000    22462084.234 8  91978438.850 8     -2530.818          49.000
R08  21341951.633 6 114285172.233 6      2567.086          38.000    21341959.414 5  88888477.337 5      1996.622          32.000
R13  21585993.906 6 115268001.218 6     -3567.309          39.000    21585999.094 6  89652873.028 6     -2774.576          41.000
R23  19621332.727 6 104960883.074 6       -88.176          37.000
R24  20929350.438 5 111918726.182 5      2081.422          33.000    20929356.820 4  87047853.662 4      1618.884          27.000
C05  39612457.695 5 206272461.302 5        -9.730          35.000    39612462.312 6 159502971.074 6        -7.264          36.000
C28  22402838.562 5 116657427.667 5     -1440.188          34.000
E11  22591754.109 8 118720489.949 8      -285.547          50.000    22591752.461 8  90967609.552 8      -218.876          49.000
E24  25506520.367 6 134037661.968 6     -3234.156          39.000
E25  24640483.047 8 129486621.788 8     -1685.648          51.000    24640485.602 8  99217028.189 8     -1291.670          51.000
E36  25107294.992 5 131939724.403 5      1762.031          33.000
> 2020 05 04 16 15 30.0000000  0 15        .000000000000
G10  21330999.141 8 112095169.057 8      1629.590          50.000    21331002.875 8  87346929.257 8      1269.813          50.000
G16  20898568.195 8 109822707.569 8     -1699.809          51.000    20898566.812 8  85576102.237 8     -1324.526          49.000
G20  21051907.695 6 110628512.349 6      -773.473          40.000    21051906.109 6  86204113.375 6      -602.706          39.000
G26  22480619.422 8 118136433.163 8     -3253.254          50.000    22480621.898 8  92054344.715 8     -2535.003          50.000
R08  21327599.141 6 114208304.289 6      2550.512          37.000    21327604.938 5  88828691.353 5      1983.743          30.000
R13  21606046.961 6 115375079.975 6     -3578.258          39.000    21606051.312 6  89736156.445 6     -2783.092          40.000
R22  22620778.602 5 120751234.376 5     -2868.219          34.000
R23  19621826.000 5 104963526.463 5       -94.762          33.000
C05  39612481.844 5 206272587.496 5        -5.844          35.000    39612486.531 6 159503068.665 6        -4.495          37.000
C27  21992366.062 5 114520022.794 5      1123.270          32.000
C28  22411126.375 6 116700584.108 6     -1443.633          37.000
E11  22593372.094 8 118728992.004 8      -287.879          51.000    22593370.203 8  90974124.102 8      -220.609          49.000
E24  25524958.172 6 134134552.095 6     -3232.117          38.000
E25  24650113.039 8 129537226.679 8     -1694.730          51.000    24650115.695 8  99255803.357 8     -1298.533          51.000
E36  25097216.656 6 131886767.335 6      1761.277          36.000
> 2020 05 04 16 16  0.0000000  0 15        .000000000000
G10  21321749.609 8 112046562.081 8      1608.773          51.000    21321753.172 8  87309053.717 8      1253.593          51.000
G16  20908326.961 8 109873989.897 8     -1721.039          51.000    20908325.695 8  85616062.481 8     -1341.069          50.000
G20  21056380.453 6 110652016.514 6      -795.234          36.000    21056379.406 6  86222428.254 6      -619.666          36.000
G26  22499221.055 8 118234184.538 8     -3265.449          50.000    22499224.406 8  92130514.568 8     -2544.509          50.000
R08  21313386.875 5 114132184.470 5      2526.340          34.000    21313386.375 4  88769488.530 4      1964.940          25.000
R13  21626194.812 6 115482667.940 6     -3596.125          36.000    21626199.344 6  89819835.913 6     -2796.989          40.000
R22  22636909.570 5 120837334.813 5     -2874.238          32.000    22636905.414 4  93984599.736 4     -2235.528          26.000
C05  39612520.594 5 206272789.402 5        -9.527          34.000    39612525.375 6 159503224.782 6        -7.267          36.000
C27  21985917.961 4 114486447.714 4      1112.516          29.000
C28  22419468.391 4 116744009.544 4     -1453.703          29.000
E11  22595038.000 8 118737746.077 8      -297.520          50.000    22595036.211 8  90980831.756 8      -227.880          50.000
E12  24278739.930 5 127585640.579 5     -2128.762          34.000
E24  25543418.195 6 134231560.602 6     -3237.172          36.000
E25  24659828.258 8 129588282.484 8     -1710.891          50.000    24659831.641 8  99294924.018 8     -1310.975          51.000
E36  25087176.555 5 131834017.830 5      1753.172          35.000
> 2020 05 04 16 16 30.0000000  0 14        .000000000000
G10  21312587.547 8 111998413.429 8      1605.156          51.000    21312590.539 8  87271535.349 8      1250.771          51.000
G16  20918174.750 8 109925741.273 8     -1725.082          51.000    20918173.672 8  85656388.217 8     -1344.223          49.000
G20  21060948.711 5 110676022.504 5      -801.105          35.000    21060947.406 5  86241134.222 5      -624.238          33.000
G26  22517860.844 8 118332137.119 8     -3260.504          50.000    22517865.062 8  92206841.202 8     -2540.655          50.000
R07  21818417.836 6 116795678.350 6     -1056.117          36.000
R13  21646411.344 6 115590623.803 6     -3596.578          37.000    21646416.758 6  89903801.527 6     -2797.339          40.000
R23  19623010.492 5 104969895.504 5      -105.926          34.000
R24  20894445.000 5 111731986.781 5      2072.797          33.000
C05  39612548.156 5 206272932.132 5         4.191          34.000    39612552.750 6 159503335.961 6         3.187          37.000
C27  21979512.391 4 114453086.316 4      1119.949          28.000
E11  22596726.000 8 118746616.608 8      -290.047          50.000    22596724.672 8  90987628.653 8      -222.205          51.000
E24  25561875.117 5 134328550.595 5     -3225.254          35.000
