     3.02           OBSERVATION DATA    M (MIXED)           RINEX VERSION / TYPE
SAVERINEX           SC600               20200502 215931 LCL PGM / RUN BY / DATE
       G = GPS       R = GLONASS       C = COMPASS          COMMENT
       S = SBAS      J = QZSS          E = GALILEO          COMMENT
BEAN                                                        MARKER NAME
1                                                           MARKER NUMBER
GEODETIC                                                    MARKER TYPE
Unige DICCA         GTER                                    OBSERVER / AGENCY
SC60291900056       SC600               2.12(191226)        REC # / TYPE / VERS
                    HEMA45          NONE                    ANT # / TYPE
  4509407.8091   693652.4678  4442337.6214                  APPROX POSITION XYZ
        0.0000        0.0000        0.0000                  ANTENNA: DELTA H/E/N
G    8 C1C L1C D1C S1C C2Y L2Y D2Y S2Y                      SYS / # / OBS TYPES
R    8 C1C L1C D1C S1C C2P L2P D2P S2P                      SYS / # / OBS TYPES
C    8 C1I L1I D1I S1I C7I L7I D7I S7I                      SYS / # / OBS TYPES
E    8 C1C L1C D1C S1C C7Q L7Q D7Q S7Q                      SYS / # / OBS TYPES
DBHZ                                                        COMMENT
     30.000                                                 INTERVAL
  2020    05    02    19    00    0.0000000     GPS         TIME OF FIRST OBS
  2020    05    02    19    59   30.0000000     GPS         TIME OF LAST OBS
     0                                                      RCV CLOCK OFFS APPL
G L1C  0.00000                                              SYS / PHASE SHIFT
G L2Y  0.00000                                              SYS / PHASE SHIFT
R L1C  0.00000                                              SYS / PHASE SHIFT
R L2P  0.25000                                              SYS / PHASE SHIFT
C L1I  0.00000                                              SYS / PHASE SHIFT
C L7I  0.00000                                              SYS / PHASE SHIFT
E L1C  0.50000                                              SYS / PHASE SHIFT
E L7Q -0.25000                                              SYS / PHASE SHIFT
 14 R01  1 R05  1 R06 -4 R07  5 R08  6 R09 -2 R10 -5 R11  0 GLONASS SLOT / FRQ #
    R12 -1 R19  3 R20  2 R21  4 R22 -3 R23  3               GLONASS SLOT / FRQ #
 C1C   71.950 C2C   71.950 C2P   71.950                     GLONASS COD/PHS/BIS
    18                                                      LEAP SECONDS
*** Above antenna height is from mark to ANTENNA BOTTOM.    COMMENT
    17     4        0.0000        ANT MEASURE TYPE/HEIGT    COMMENT
    0.0000    0.0000    0.0458    0.0405    0.0000          COMMENT
                    BASE STATION                            COMMENT
                                                            END OF HEADER
> 2020 05 02 19 00  0.0000000  0 19        .000000000000
G03  23693871.102 6 124512137.522 6      3444.199          39.000    23693878.789 6  97022479.360 6      2683.795          39.000
G08  20615848.883 8 108337018.821 8     -1317.477          51.000    20615850.891 8  84418444.361 8     -1026.605          51.000
G11  20028693.594 7 105251512.891 7       976.465          43.000    20028691.867 6  82014134.060 6       760.882          39.000
G14  22630253.867 7 118922818.560 7      2015.566          44.000    22630252.164 6  92667132.691 6      1570.571          36.000
G22  21795394.477 8 114535586.155 8      2281.551          51.000    21795393.164 8  89248493.270 8      1777.832          48.000
G27  22393841.109 8 117680399.920 8     -3108.992          51.000    22393843.219 8  91699022.916 8     -2422.591          51.000
R06  22929445.148 5 122355912.512 5     -3998.691          30.000
R07  19722115.320 8 105574090.301 8     -1081.301          51.000    19722117.406 7  82113204.017 7      -841.012          45.000
R08  20261134.359 8 108497449.352 8      2913.070          51.000    20261137.227 8  84387003.054 8      2265.724          48.000
R22  19845371.539 8 105935935.820 8     -1188.113          51.000    19845374.234 8  82394614.752 8      -924.088          51.000
C05  39641566.500 5 206424039.333 5       -25.852          35.000    39641566.352 6 159620165.713 6       -19.733          38.000
C19  21653014.859 8 112752987.871 8       641.945          51.000
C20  23862417.031 6 124257938.933 6     -2299.371          36.000
C22  24534050.758 6 127755274.552 6      3126.938          39.000
C29  23292233.984 8 121288756.537 8     -2386.594          48.000
E07  25107685.133 7 131941779.827 7      -791.430          42.000    25107688.344 5 101098264.703 5      -606.354          35.000
E26  23596123.977 6 123998460.622 6     -1484.734          38.000    23596127.938 6  95011802.048 6     -1137.657          40.000
E31  27216517.891 6 143023745.174 6     -2382.059          41.000    27216520.078 5 109589613.133 5     -1825.366          34.000
E33  23659257.422 7 124330241.195 7       734.641          42.000    23659260.852 6  95266032.335 6       562.850          39.000
> 2020 05 02 19 00 30.0000000  0 18        .000000000000
G03  23674238.383 6 124408967.522 6      3438.344          38.000    23674245.164 6  96942087.291 6      2679.238          38.000
G08  20623427.711 8 108376847.181 8     -1333.629          51.000    20623429.969 8  84449479.415 8     -1039.194          51.000
G11  20023170.898 7 105222491.947 7       962.137          43.000    20023169.961 6  81991520.322 6       749.717          40.000
G14  22618795.789 7 118862602.697 7      2002.840          45.000    22618793.852 6  92620211.217 6      1560.651          37.000
G22  21782412.656 8 114467366.521 8      2270.535          51.000    21782411.250 7  89195335.140 7      1769.248          47.000
G27  22411627.766 8 117773869.057 8     -3118.102          50.000    22411629.883 8  91771855.980 8     -2429.693          50.000
R07  19728255.172 8 105606956.731 8     -1105.746          51.000    19728257.609 7  82138766.818 7      -860.025          46.000
R08  20244880.602 8 108410406.926 8      2893.785          51.000    20244882.891 8  84319303.406 8      2250.722          48.000
R22  19852101.914 8 105971863.517 8     -1202.910          51.000    19852104.625 8  82422558.494 8      -935.597          50.000
C05  39641723.312 5 206424855.121 5       -25.484          35.000    39641723.188 6 159620797.290 6       -19.196          38.000
C19  21649371.648 8 112734014.612 8       626.961          51.000
C20  23875705.047 6 124327122.078 6     -2308.812          40.000
C22  24516065.734 6 127661627.704 6      3120.523          39.000
C29  23306016.781 7 121360532.404 7     -2394.539          47.000
E07  25112251.773 6 131965778.273 6      -804.184          41.000    25112254.570 5 101116653.111 5      -616.136          35.000
E26  23604626.141 6 124043144.746 6     -1489.766          40.000    23604630.547 6  95046040.591 6     -1141.754          41.000
E31  27230144.555 6 143095356.615 6     -2388.016          40.000    27230147.672 6 109644484.152 6     -1829.563          36.000
E33  23655090.227 7 124308341.684 7       729.547          42.000    23655092.773 6  95249252.198 6       558.947          39.000
> 2020 05 02 19 01  0.0000000  0 18        .000000000000
G03  23654629.766 5 124305924.614 5      3430.953          35.000    23654635.922 5  96861794.255 5      2673.476          34.000
G08  20631090.477 8 108417116.441 8     -1351.383          51.000    20631093.055 8  84480858.033 8     -1053.026          51.000
G11  20017722.250 7 105193859.268 7       946.059          43.000    20017721.445 7  81969209.139 7       737.189          42.000
G14  22607401.500 7 118802723.923 7      1988.695          44.000    22607399.914 6  92573552.445 6      1549.636          38.000
G22  21769485.672 8 114399436.109 8      2257.789          51.000    21769483.906 7  89142402.404 7      1759.319          45.000
G27  22429457.695 8 117867568.482 8     -3128.785          48.000    22429460.039 8  91844868.471 8     -2438.014          48.000
R07  19734523.664 8 105640511.177 8     -1131.727          50.000    19734525.945 7  82164864.718 7      -880.232          46.000
R08  20228726.273 8 108323900.085 8      2872.855          50.000    20228728.523 8  84252020.336 8      2234.443          48.000
R22  19858907.188 8 106008190.513 8     -1219.348          51.000    19858909.828 8  82450812.828 8      -948.382          50.000
C05  39641868.055 5 206425608.824 5       -25.734          34.000    39641867.914 6 159621380.136 6       -20.066          38.000
C19  21645806.688 8 112715448.085 8       610.367          51.000
C20  23889038.148 6 124396542.661 6     -2319.531          39.000
C22  24498108.641 6 127568122.054 6      3112.875          41.000
C29  23319838.500 8 121432508.436 8     -2404.211          49.000
E07  25116883.781 7 131990120.768 7      -818.871          42.000    25116885.969 5 101135305.145 5      -627.240          35.000
E26  23613149.547 7 124087936.513 7     -1496.547          42.000    23613154.227 7  95080361.592 7     -1146.765          42.000
E31  27243795.781 6 143167102.670 6     -2395.371          38.000    27243801.367 6 109699458.318 6     -1835.609          36.000
E33  23650944.188 7 124286553.398 7       722.816          42.000    23650945.461 6  95232557.282 6       553.870          39.000
> 2020 05 02 19 01 30.0000000  0 18        .000000000000
G08  20638845.633 8 108457871.386 8     -1362.504          50.000    20638848.398 8  84512615.119 8     -1061.691          50.000
G11  20012356.695 7 105165661.605 7       936.402          45.000    20012355.297 6  81947236.936 6       729.664          41.000
G14  22596080.211 7 118743229.342 7      1980.770          42.000    22596077.750 6  92527193.017 6      1543.460          39.000
G22  21756622.656 8 114331841.022 8      2251.656          51.000    21756620.062 7  89089730.959 7      1754.540          44.000
G27  22447339.672 8 117961541.236 8     -3132.891          48.000    22447341.672 8  91918093.955 8     -2441.213          48.000
G32  22075676.422 6 116008479.833 6       664.488          36.000    22075669.414 6  90396179.109 6       517.777          36.000
R07  19740928.367 8 105674797.403 8     -1151.039          51.000    19740930.961 7  82191531.803 7      -895.253          46.000
R08  20212680.578 8 108237977.108 8      2858.516          49.000    20212682.805 7  84185191.348 7      2223.290          46.000
R22  19865795.602 8 106044962.703 8     -1229.133          51.000    19865798.492 8  82479413.415 8      -955.992          50.000
C05  39642009.289 5 206426344.991 5       -20.207          35.000    39642009.086 6 159621948.624 6       -15.897          38.000
C19  21642328.352 8 112697332.820 8       600.320          51.000
C20  23902424.062 5 124466243.175 5     -2323.895          35.000
C22  24480188.422 7 127474803.719 7      3111.625          42.000
C29  23333707.766 8 121504728.445 8     -2407.352          50.000
E07  25121590.555 6 132014851.486 6      -826.859          41.000    25121592.672 6 101154254.699 6      -633.756          36.000
E26  23621702.367 6 124132881.014 6     -1496.656          40.000    23621707.281 6  95114799.573 6     -1146.872          41.000
E31  27257481.039 6 143239026.160 6     -2396.418          38.000    27257489.984 6 109754568.406 6     -1835.962          37.000
E33  23646827.688 7 124264921.938 7       722.492          42.000    23646828.734 6  95215982.529 6       553.341          40.000
> 2020 05 02 19 02  0.0000000  0 16        .000000000000
G08  20646705.930 8 108499179.403 8     -1386.637          49.000    20646708.938 8  84544803.167 8     -1080.496          49.000
G11  20007087.023 7 105137968.376 7       914.461          45.000    20007085.461 7  81925657.797 7       712.567          42.000
G14  22584845.273 7 118684189.434 7      1959.961          45.000    22584843.586 6  92481187.940 6      1527.245          39.000
G22  21743836.914 8 114264650.259 8      2232.434          51.000    21743833.453 7  89037374.572 7      1739.562          45.000
G27  22465286.461 8 118055853.519 8     -3149.793          49.000    22465288.070 8  91991584.034 8     -2454.384          49.000
R07  19747482.938 8 105709882.568 8     -1183.316          51.000    19747485.258 7  82218820.267 7      -920.357          46.000
R08  20196756.945 8 108152710.276 8      2830.824          49.000    20196759.656 7  84118872.747 7      2201.752          46.000
R22  19872780.836 8 106082249.686 8     -1251.957          51.000    19872783.789 8  82508414.389 8      -973.744          49.000
C05  39642159.789 5 206427128.053 5       -27.301          34.000    39642159.664 6 159622554.892 6       -21.074          38.000
C19  21638949.508 8 112679736.148 8       577.422          51.000
C22  24462318.094 7 127381741.781 7      3097.273          43.000
C29  23347636.930 8 121577259.109 8     -2423.254          51.000
E07  25126383.859 6 132040037.554 6      -847.543          39.000    25126385.945 5 101173553.127 5      -649.485          35.000
E26  23630297.320 7 124178046.381 7     -1509.664          44.000    23630301.109 6  95149406.777 6     -1156.609          39.000
E31  27271213.398 6 143311193.028 6     -2410.125          39.000    27271225.828 6 109809864.995 6     -1846.435          37.000
E33  23642754.133 7 124243515.930 7       709.250          42.000    23642755.547 6  95199580.507 6       543.412          41.000
> 2020 05 02 19 02 30.0000000  0 18        .000000000000
G08  20654657.977 8 108540966.937 8     -1400.781          51.000    20654660.734 8  84577364.868 8     -1091.518          51.000
G11  20001899.703 7 105110707.718 7       901.559          46.000    20001898.047 7  81904415.729 7       702.513          43.000
G14  22573683.609 7 118625533.444 7      1948.859          46.000    22573682.438 6  92435481.996 6      1518.592          40.000
G22  21731114.344 8 114197791.769 8      2223.195          51.000    21731111.133 7  88985277.088 7      1732.360          46.000
G27  22483283.875 8 118150430.650 8     -3156.922          50.000    22483285.117 8  92065280.474 8     -2459.939          50.000
G32  22068368.695 6 115970073.994 6       622.238          37.000    22068367.133 6  90366272.021 6       484.855          37.000
R07  19754171.969 8 105745690.087 8     -1205.457          51.000    19754174.094 7  82246670.570 7      -937.575          46.000
R08  20180942.570 8 108068028.251 8      2813.137          50.000    20180945.484 7  84053008.995 7      2187.998          46.000
R22  19879848.695 8 106119977.831 8     -1264.805          51.000    19879851.438 8  82537758.472 8      -983.737          48.000
C05  39642305.930 5 206427889.656 5       -24.590          35.000    39642305.633 6 159623143.041 6       -19.196          38.000
C19  21635656.008 8 112662585.714 8       564.324          51.000
C20  23929341.703 5 124606361.644 5     -2348.270          32.000
C22  24444483.305 7 127288865.488 7      3093.250          42.000
C29  23361612.016 8 121650027.430 8     -2429.508          51.000
E07  25131248.812 6 132065605.267 6      -858.289          40.000    25131250.430 5 101193144.004 5      -657.982          35.000
E26  23638921.445 7 124223359.690 7     -1512.891          45.000    23638923.781 6  95184127.374 6     -1159.072          38.000
E31  27284978.289 6 143383528.270 6     -2414.012          40.000    27284993.078 6 109865290.608 6     -1849.664          38.000
E33  23638710.078 7 124222263.130 7       706.121          42.000    23638711.594 6  95183295.894 6       540.868          41.000
> 2020 05 02 19 03  0.0000000  0 18        .000000000000
G03  23576584.234 5 123895782.117 5      3403.086          35.000    23576582.758 5  96542167.106 5      2651.758          35.000
G08  20662717.578 8 108583317.453 8     -1420.133          51.000    20662719.797 8  84610365.285 8     -1106.597          51.000
G11  19996810.953 7 105083965.102 7       883.938          47.000    19996809.109 7  81883577.319 7       688.782          43.000
G14  22562611.258 7 118567348.065 7      1932.762          46.000    22562610.914 6  92390142.765 6      1506.048          39.000
G22  21718470.680 8 114131350.175 8      2208.723          51.000    21718468.469 7  88933504.457 7      1721.083          47.000
G27  22501347.703 8 118245354.922 8     -3169.066          50.000    22501348.484 8  92139247.411 8     -2469.405          50.000
R07  19761011.820 8 105782303.240 8     -1232.930          50.000    19761013.836 7  82275147.450 7      -958.945          46.000
R08  20165254.336 8 107984019.396 8      2790.023          50.000    20165257.273 7  83987668.815 7      2170.018          47.000
R22  19887015.383 8 106158232.715 8     -1282.957          51.000    19887017.992 8  82567512.239 8      -997.855          48.000
C05  39642463.555 5 206428710.179 5       -27.492          35.000    39642463.133 6 159623777.545 6       -21.135          38.000
C19  21632464.359 8 112645964.905 8       546.188          51.000
C20  23942910.227 5 124677031.078 5     -2359.992          31.000
C22  24426699.789 6 127196259.927 6      3083.418          38.000
C29  23375648.570 8 121723116.090 8     -2440.711          51.000
E07  25136202.695 6 132091637.910 6      -874.523          36.000    25136203.891 6 101213091.109 6      -670.350          36.000
E26  23647589.312 6 124268905.385 6     -1521.074          41.000    23647592.109 6  95219025.931 6     -1165.501          36.000
E31  27298791.031 6 143456113.825 6     -2422.438          38.000    27298806.438 6 109920908.063 6     -1856.390          39.000
E33  23634711.664 7 124201248.361 7       697.430          42.000    23634713.000 7  95167193.633 7       534.637          42.000
> 2020 05 02 19 03 30.0000000  0 19        .000000000000
G03  23557165.883 6 123793739.233 6      3399.039          36.000    23557165.289 6  96462653.292 6      2648.605          36.000
G08  20670863.891 8 108626125.978 8     -1434.371          51.000    20670866.086 8  84643722.573 8     -1117.695          51.000
G11  19991801.148 8 105057637.772 8       870.770          48.000    19991798.945 7  81863062.539 7       678.522          43.000
G14  22551608.773 7 118509530.979 7      1921.305          44.000    22551608.727 6  92345090.514 6      1497.124          38.000
G22  21705886.305 8 114065222.322 8      2199.109          49.000    21705885.062 8  88881976.286 8      1713.595          48.000
G27  22519457.328 8 118340520.137 8     -3175.992          50.000    22519458.273 8  92213402.092 8     -2474.802          50.000
G32  22061503.781 5 115933984.347 5       584.109          30.000
R07  19767981.477 8 105819613.542 8     -1255.094          50.000    19767984.023 7  82304166.585 7      -976.184          46.000
R08  20149672.820 8 107900580.355 8      2771.930          50.000    20149675.648 8  83922771.810 8      2155.945          48.000
R22  19894260.938 8 106196908.888 8     -1296.047          51.000    19894263.633 8  82597593.657 8     -1008.039          49.000
C05  39642612.711 5 206429487.289 5       -25.004          34.000    39642612.328 6 159624378.442 6       -19.329          38.000
C19  21629354.109 8 112629770.182 8       532.895          51.000
C20  23956528.648 4 124747930.610 4     -2367.684          28.000
C22  24408943.859 4 127103823.297 4      3078.836          29.000
C29  23389726.234 8 121796420.910 8     -2446.863          51.000
E07  25141225.008 6 132118030.258 6      -885.719          41.000    25141227.188 6 101233313.845 6      -678.488          36.000
E26  23656281.586 7 124314579.118 7     -1524.520          44.000    23656283.133 5  95254022.507 5     -1167.860          33.000
E31  27312631.281 6 143528843.341 6     -2426.402          38.000    27312646.438 6 109976635.814 6     -1859.188          38.000
E33  23630738.523 7 124180367.893 7       693.824          42.000    23630739.969 7  95151194.343 7       531.655          42.000
> 2020 05 02 19 04  0.0000000  0 17        .000000000000
G03  23537780.492 6 123691870.294 6      3390.938          36.000    23537781.109 5  96383275.020 5      2642.292          35.000
G08  20679100.336 8 108669409.462 8     -1452.574          51.000    20679103.008 8  84677449.938 8     -1131.873          51.000
G11  19986873.961 8 105031744.967 8       853.934          48.000    19986871.641 7  81842886.323 7       665.403          43.000
G14  22540680.039 7 118452102.438 7      1906.008          43.000    22540680.094 6  92300341.019 6      1485.204          37.000
G22  21693365.391 8 113999426.504 8      2185.699          49.000    21693364.352 7  88830706.860 7      1703.145          47.000
G27  22537615.625 8 118435942.408 8     -3186.875          48.000    22537617.016 7  92287757.086 7     -2483.279          47.000
R07  19775084.867 8 105857637.038 8     -1281.297          49.000    19775087.375 7  82333740.414 7      -996.564          45.000
R08  20134201.680 8 107817731.756 8      2749.859          49.000    20134204.445 8  83858334.028 8      2138.780          48.000
R22  19901588.609 8 106236024.683 8     -1313.035          51.000    19901591.648 8  82628017.013 8     -1021.253          49.000
C05                                                                  39642756.648 6 159624959.501 6       -20.531          38.000
C19  21626328.992 8 112614019.284 8       515.770          51.000
C22  24391222.078 5 127011508.034 5      3070.039          34.000
C29  23403847.938 8 121869958.961 8     -2456.965          49.000
E07  25146318.695 7 132144799.519 7      -900.449          42.000    25146322.750 6 101253825.359 6      -690.035          36.000
E26  23665002.141 7 124360398.904 7     -1531.633          42.000    23665002.562 5  95289157.119 5     -1173.679          35.000
E31  27326501.758 5 143601735.577 5     -2434.531          34.000    27326516.422 6 110032486.017 6     -1865.013          36.000
E33  23626794.102 6 124159640.394 6       686.359          41.000    23626795.891 7  95135312.233 7       526.049          42.000
> 2020 05 02 19 04 30.0000000  0 20        .000000000000
G03  23518443.180 6 123590253.159 6      3384.586          36.000    23518445.039 6  96304092.955 6      2637.346          36.000
G08  20687441.930 8 108713243.771 8     -1468.797          51.000    20687444.836 8  84711606.550 8     -1144.517          51.000
G10  23355484.695 5 122733901.224 5     -3068.621          33.000    23355486.828 5  95636823.354 5     -2391.121          32.000
G11  19982044.133 8 105006364.142 8       838.980          48.000    19982041.836 7  81823109.061 7       653.751          43.000
G14  22529839.352 6 118395141.212 6      1892.535          41.000    22529838.688 5  92255955.615 5      1474.703          33.000
G22  21680922.758 8 113934040.297 8      2174.184          50.000    21680921.188 7  88779756.608 7      1694.172          45.000
G27  22555836.664 8 118531696.223 8     -3195.828          48.000    22555838.805 7  92362370.453 7     -2490.253          47.000
G32  22055066.641 5 115900156.573 5       545.656          32.000
R07  19782335.023 8 105896448.936 8     -1305.320          50.000    19782337.344 7  82363927.448 7     -1015.249          45.000
R08  20118855.453 7 107735554.487 7      2729.598          47.000    20118858.656 7  83794418.409 7      2123.020          46.000
R22  19909013.203 8 106275658.229 8     -1328.215          51.000    19909016.164 8  82658843.108 8     -1033.056          50.000
C05  39642910.922 5 206431040.078 5       -26.000          35.000    39642910.531 6 159625579.186 6       -20.383          38.000
C19  21623403.680 8 112598787.690 8       500.535          51.000
C20  23983935.883 5 124890646.024 5     -2388.281          34.000
C22  24373558.672 6 126919525.071 6      3063.164          40.000
C29  23418027.273 7 121943805.091 7     -2465.133          45.000
E07  25151498.969 6 132172021.065 6      -913.406          40.000    25151502.633 5 101274683.381 5      -699.730          35.000
E26  23673763.102 6 124406441.354 6     -1537.094          37.000    23673765.242 6  95324436.381 6     -1177.896          38.000
E31  27340416.719 5 143674858.862 5     -2440.211          35.000    27340430.227 6 110088515.514 6     -1869.670          38.000
E33  23622893.016 6 124139142.900 6       680.801          41.000    23622895.617 7  95119606.336 7       521.700          43.000
> 2020 05 02 19 05  0.0000000  0 20        .000000000000
G03  23499139.258 5 123488809.673 5      3377.129          35.000    23499141.930 5  96225046.200 5      2631.532          35.000
G08  20695872.734 8 108757548.354 8     -1485.836          51.000    20695876.031 8  84746129.592 8     -1157.797          51.000
G10  23373014.734 5 122826019.476 5     -3073.234          35.000    23373016.500 5  95708603.700 5     -2394.731          35.000
G11  19977296.711 8 104981417.054 8       823.262          48.000    19977294.523 7  81803669.775 7       641.503          44.000
G14  22519072.844 6 118338569.875 6      1877.902          41.000    22519071.586 5  92211874.155 5      1463.307          33.000
G22  21668543.266 8 113868984.279 8      2161.875          51.000    21668541.211 7  88729063.645 7      1684.578          44.000
G27  22574105.500 7 118627700.102 7     -3205.496          47.000    22574108.336 7  92437178.666 7     -2497.789          47.000
G32  22052000.078 6 115884079.708 6       525.445          36.000    22052006.484 5  90299246.330 5       409.447          35.000
R07  19789717.078 8 105935966.155 8     -1330.188          49.000    19789719.625 7  82394663.081 7     -1034.587          45.000
R08  20103619.570 7 107653970.151 7      2708.426          46.000    20103622.852 7  83730963.930 7      2106.553          44.000
R22  19916519.617 8 106315728.843 8     -1344.227          51.000    19916522.734 8  82690009.137 8     -1045.510          50.000
C05  39643059.180 5 206431811.464 5       -26.180          35.000    39643058.867 6 159626170.457 6       -20.431          38.000
C19  21620562.852 8 112583996.377 8       484.523          51.000
C20  23997718.734 5 124962417.699 5     -2397.695          34.000
C22  24355933.633 7 126827730.196 7      3055.473          44.000
C29  23432251.688 7 122017879.714 7     -2474.113          47.000
E07  25156749.766 6 132199614.337 6      -927.445          37.000    25156750.789 5 101295826.323 5      -710.568          32.000
E26  23682549.750 6 124452626.937 6     -1543.195          38.000    23682554.672 6  95359825.263 6     -1182.323          40.000
E31  27354361.141 5 143748134.417 5     -2446.129          35.000    27354373.344 6 110144661.641 6     -1874.402          38.000
E33  23619020.508 6 124118796.380 6       674.332          40.000    23619024.125 7  95104016.120 7       516.905          44.000
> 2020 05 02 19 05 30.0000000  0 20        .000000000000
G03  23479876.898 5 123387581.963 5      3370.781          33.000    23479879.078 5  96146167.649 5      2626.589          31.000
G08  20704400.414 8 108802362.893 8     -1502.059          51.000    20704404.117 8  84781049.970 8     -1170.438          51.000
G10  23390575.594 6 122918300.632 6     -3078.781          37.000    23390575.633 6  95780511.094 6     -2399.050          36.000
G11  19972639.867 8 104956945.721 8       808.051          48.000    19972637.820 7  81784601.189 7       629.650          44.000
G14  22508390.016 7 118282431.055 7      1864.297          42.000    22508388.328 5  92168129.632 5      1452.699          35.000
G22  21656234.570 8 113804300.009 8      2150.219          51.000    21656232.328 7  88678660.350 7      1675.498          45.000
G27  22592429.477 8 118723992.967 8     -3214.227          49.000    22592432.672 8  92512212.019 8     -2504.592          49.000
G32  22049052.031 6 115868583.973 6       507.098          41.000    22049051.898 6  90287171.679 6       395.135          40.000
R07  19797238.125 8 105976227.519 8     -1354.191          51.000    19797240.219 7  82425977.468 7     -1053.260          45.000
R08  20088502.453 7 107573022.795 7      2687.953          47.000    20088505.867 7  83668004.874 7      2090.627          44.000
R22  19924115.789 8 106356278.076 8     -1359.332          51.000    19924118.914 8  82721547.401 8     -1057.258          50.000
C05                                                                  39643209.352 6 159626776.547 6       -20.090          38.000
C19  21617814.656 8 112569685.521 8       469.230          51.000
C20  24011557.445 5 125034483.317 5     -2406.840          31.000
C22  24338352.820 7 126736165.350 7      3048.730          46.000
C29  23446529.203 8 122092222.470 8     -2482.320          50.000
E07  25162078.781 5 132227619.150 5      -940.016          35.000
E26  23691373.344 6 124498996.303 6     -1548.508          41.000    23691378.492 6  95395355.114 6     -1186.456          40.000
E31  27368341.953 6 143821600.913 6     -2451.328          36.000    27368353.250 6 110200954.059 6     -1878.644          36.000
E33  23615185.047 6 124098642.241 6       668.801          40.000    23615188.742 7  95088573.338 7       512.461          43.000
> 2020 05 02 19 06  0.0000000  0 19        .000000000000
G03  23460654.625 5 123286571.336 5      3363.418          30.000    23460652.625 4  96067450.550 4      2620.845          29.000
G08  20713023.172 8 108847676.238 8     -1519.336          51.000    20713026.898 8  84816359.054 8     -1183.898          51.000
G10  23408164.195 6 123010731.835 6     -3084.312          37.000    23408164.445 6  95852535.329 6     -2403.360          37.000
G11  19968071.859 8 104932940.930 8       791.965          49.000    19968069.961 7  81765896.152 7       617.115          45.000
G14  22497788.188 7 118226716.327 7      1849.438          44.000    22497787.914 6  92124715.621 6      1441.123          38.000
G22  21643994.359 8 113739977.510 8      2137.434          50.000    21643992.375 7  88628538.940 7      1665.533          45.000
G27  22610806.281 8 118820561.946 8     -3224.223          51.000    22610809.281 8  92587460.568 8     -2512.381          51.000
G32  22046211.227 6 115853658.505 6       486.996          37.000    22046211.789 6  90275541.608 6       379.487          38.000
R07  19804896.094 8 106017219.445 8     -1379.133          50.000    19804897.812 7  82457860.081 7     -1072.656          46.000
R08  20073503.125 8 107492703.403 8      2666.242          48.000    20073506.750 7  83605534.294 7      2073.747          43.000
R22  19931799.703 8 106397295.237 8     -1375.715          51.000    19931802.625 8  82753449.617 8     -1070.000          50.000
C05                                                                  39643359.930 6 159627383.097 6       -20.673          38.000
C19  21615156.781 8 112555844.157 8       452.922          51.000
C22  24320813.664 7 126644821.358 7      3040.605          47.000
C29  23460856.094 8 122166821.782 8     -2491.480          49.000
E07                                                                  25167482.859 4 101339024.141 4      -730.939          29.000
E26  23700229.969 6 124545538.905 6     -1554.742          40.000    23700235.188 6  95431017.631 6     -1191.326          40.000
E31  27382356.719 6 143895245.293 6     -2458.453          38.000    27382367.930 6 110257382.823 6     -1883.609          36.000
E33  23611384.477 7 124078670.315 7       662.148          42.000    23611387.695 7  95073270.146 7       507.474          44.000
> 2020 05 02 19 06 30.0000000  0 17        .000000000000
G08  20721715.031 8 108893351.677 8     -1534.227          51.000    20721718.547 8  84851950.277 8     -1195.501          51.000
G10  23425755.664 5 123103175.571 5     -3087.500          35.000    23425755.133 6  95924569.480 6     -2405.835          36.000
G11  19963567.117 8 104909268.206 8       777.828          49.000    19963565.234 7  81747449.880 7       606.100          46.000
G14  22487242.070 7 118171292.158 7      1836.945          47.000    22487242.211 6  92081527.965 6      1431.386          40.000
G22  21631797.195 8 113675881.833 8      2127.117          50.000    21631795.242 7  88578594.254 7      1657.494          46.000
G27  22629209.555 8 118917269.666 8     -3231.598          51.000    22629212.227 8  92662817.213 8     -2518.128          51.000
G32  22043453.680 6 115839169.000 6       469.684          41.000    22043456.844 6  90264251.089 6       365.987          41.000
R07  19812663.891 8 106058801.164 8     -1401.723          50.000    19812666.047 7  82490201.438 7     -1090.229          47.000
R08  20058596.352 8 107412877.040 8      2646.887          49.000    20058599.672 7  83543447.204 7      2058.693          44.000
R22  19939545.633 8 106438642.991 8     -1389.551          51.000    19939548.461 8  82785608.935 8     -1080.762          50.000
C05  39643485.500 5 206434031.281 5       -25.527          35.000    39643484.836 6 159627886.188 6       -19.501          38.000
C19  21612563.227 8 112542337.843 8       438.977          51.000
C22  24303289.891 7 126553565.455 7      3034.742          46.000
C29  23475205.859 8 122241542.545 8     -2498.414          50.000
E26  23709093.375 6 124592119.270 6     -1559.051          41.000    23709098.125 6  95466709.052 6     -1194.600          40.000
E31  27396378.367 6 143968929.895 6     -2462.766          36.000    27396390.211 6 110313842.336 6     -1886.842          36.000
E33  23607592.688 7 124058745.635 7       657.527          42.000    23607595.570 7  95058003.187 7       503.894          44.000
> 2020 05 02 19 07  0.0000000  0 18        .000000000000
G08  20730551.914 8 108939788.714 8     -1553.773          51.000    20730555.094 8  84888134.965 8     -1210.733          51.000
G11  19959201.820 8 104886328.437 8       759.332          48.000    19959199.977 7  81729574.733 7       591.687          47.000
G14  22476827.578 7 118116560.797 7      1819.637          44.000    22476827.898 6  92038880.147 6      1417.899          40.000
G22  21619719.859 8 113612413.918 8      2111.941          51.000    21619717.094 7  88529138.755 7      1645.669          46.000
G27  22647715.125 8 119014514.254 8     -3243.508          51.000    22647716.891 8  92738592.207 8     -2527.409          51.000
G32  22040854.875 6 115825515.784 6       447.832          39.000    22040854.289 6  90253612.339 6       348.963          38.000
R07  19820617.727 8 106101378.263 8     -1428.848          49.000    19820619.648 7  82523316.957 7     -1111.326          47.000
R08  20043858.570 8 107333953.724 8      2622.609          50.000    20043861.328 7  83482062.470 7      2039.807          45.000
R22  19947429.586 8 106480727.904 8     -1408.188          51.000    19947432.094 8  82818341.618 8     -1095.257          49.000
C05                                                                  39643660.258 6 159628592.339 6       -21.781          38.000
C19  21610110.133 8 112529562.735 8       420.426          51.000
C20  24053403.023 5 125252383.933 5     -2436.590          34.000
C22  24285858.008 7 126462795.591 7      3024.492          45.000
C29  23489654.836 8 122316780.317 8     -2509.676          50.000
E07  25178520.117 5 132314015.023 5      -981.766          34.000
E26  23718040.977 7 124639137.416 7     -1567.793          42.000    23718045.047 6  95502735.957 6     -1201.326          40.000
E31  27410482.727 6 144043052.593 6     -2470.934          36.000    27410494.836 6 110370637.537 6     -1893.397          36.000
E33  23603886.078 6 124039268.957 6       648.531          41.000    23603888.891 7  95043079.515 7       496.897          44.000
> 2020 05 02 19 07 30.0000000  0 18        .000000000000
G03  23403227.859 5 122984786.589 5      3343.758          35.000    23403215.766 5  95832267.312 5      2605.526          35.000
G08  20739456.969 8 108986583.904 8     -1567.602          51.000    20739459.656 8  84924598.754 8     -1221.511          51.000
G11  19954899.727 8 104863721.218 8       746.312          49.000    19954897.984 8  81711958.716 8       581.542          48.000
G14  22466467.922 7 118062122.227 7      1807.695          42.000    22466469.039 6  91996460.484 6      1408.594          41.000
G22  21607685.562 8 113549171.966 8      2102.344          51.000    21607681.852 7  88479859.353 7      1638.190          45.000
G27  22666245.953 8 119111891.498 8     -3249.875          51.000    22666246.898 8  92814470.545 8     -2532.373          51.000
G32  22038339.281 6 115812297.781 6       431.508          41.000    22038337.266 6  90243312.545 6       336.237          41.000
R07  19828680.078 8 106144537.648 8     -1450.094          50.000    19828682.023 7  82556885.382 7     -1127.851          47.000
R08  20029213.383 8 107255526.047 8      2604.105          50.000    20029215.844 7  83421063.208 7      2025.415          46.000
R22  19955374.758 8 106523141.192 8     -1421.062          50.000    19955377.500 8  82851329.723 8     -1105.271          49.000
C05  39643809.922 5 206435721.651 5       -25.348          35.000    39643809.477 6 159629193.283 6       -19.567          38.000
C19  21607720.695 8 112517119.956 8       407.473          51.000
C20  24067452.734 6 125325553.758 6     -2443.707          36.000
C22  24268442.805 7 126372114.684 7      3019.410          46.000
C29  23504126.234 8 122392135.664 8     -2515.613          51.000
E26  23726995.773 6 124686191.214 6     -1570.871          40.000    23726999.289 6  95538790.142 6     -1203.654          39.000
E31  27424594.008 5 144117214.040 5     -2473.914          35.000    27424602.984 5 110427458.517 5     -1895.596          33.000
E33  23600188.320 6 124019838.728 6       645.172          41.000    23600190.961 7  95028191.388 7       494.308          44.000
> 2020 05 02 19 08  0.0000000  0 19        .000000000000
G03  23384151.711 6 122884573.075 6      3329.016          36.000    23384153.992 6  95754206.502 6      2594.038          36.000
G08  20748457.945 8 109033884.158 8     -1591.969          51.000    20748460.266 8  84961456.078 8     -1240.498          51.000
G11  19950689.156 8 104841595.124 8       722.711          49.000    19950687.609 8  81694717.591 8       563.151          48.000
G14  22456192.555 7 118008126.435 7      1785.703          44.000    22456193.672 6  91954385.820 6      1391.457          40.000
G22  21595722.273 8 113486304.534 8      2082.520          50.000    21595718.125 7  88430871.786 7      1622.746          46.000
G27  22684829.578 8 119209547.328 8     -3266.773          51.000    22684829.352 8  92890565.957 8     -2545.538          51.000
G32  22035935.047 6 115799663.088 6       404.812          40.000    22035934.508 6  90233467.457 6       315.438          39.000
R07  19836879.141 8 106188427.955 8     -1482.078          49.000    19836881.258 8  82591022.285 8     -1152.727          48.000
R08  20014688.930 8 107177747.358 8      2574.781          50.000    20014691.344 7  83360568.687 7      2002.608          46.000
R22  19963409.711 8 106566033.552 8     -1444.758          49.000    19963413.125 8  82884690.438 8     -1123.704          49.000
C05  39643961.227 5 206436509.229 5       -33.332          35.000    39643960.812 6 159629802.298 6       -25.711          38.000
C19  21605423.133 8 112505155.765 8       384.027          51.000
C20  24081555.000 5 125399006.652 5     -2460.867          31.000
C22  24251073.586 7 126281670.620 7      3004.254          46.000
C29  23518648.039 8 122467754.344 8     -2531.812          51.000
E07  25189857.266 5 132373609.024 5     -1013.531          32.000
E26  23735984.305 6 124733428.664 6     -1584.418          37.000    23735988.016 6  95574985.011 6     -1214.190          39.000
E31  27438739.680 5 144191549.799 5     -2487.867          33.000    27438743.758 5 110484416.965 5     -1906.243          33.000
E33  23596527.969 7 124000603.363 7       630.988          42.000    23596529.852 7  95013452.580 7       483.607          44.000
> 2020 05 02 19 08 30.0000000  0 18        .000000000000
G03  23365139.070 5 122784665.729 5      3329.457          32.000    23365143.852 5  95676356.637 5      2594.385          31.000
G08  20757564.148 8 109081737.740 8     -1600.852          51.000    20757566.008 8  84998744.562 8     -1247.417          51.000
G11  19946579.773 8 104820000.318 8       714.469          49.000    19946578.375 8  81677890.465 8       556.729          48.000
G14  22446011.523 7 117954624.344 7      1778.367          44.000    22446012.016 6  91912695.867 6      1385.744          38.000
G22  21583839.383 8 113423860.744 8      2077.820          49.000    21583835.867 7  88382214.319 7      1619.081          47.000
G27  22703474.688 8 119307528.625 8     -3268.086          49.000    22703473.453 8  92966914.955 8     -2546.564          49.000
G32  22033651.078 6 115787661.456 6       392.965          40.000    22033650.297 6  90224115.525 6       306.200          40.000
R07  19845223.227 8 106233095.721 8     -1498.410          50.000    19845225.633 8  82625763.877 8     -1165.430          48.000
R08  20000294.945 8 107100669.650 8      2561.004          50.000    20000297.594 7  83300619.397 7      1991.895          47.000
R22  19971543.766 8 106609454.593 8     -1452.664          51.000    19971547.625 8  82918462.360 8     -1129.850          49.000
C05  39644123.672 5 206437354.580 5       -25.992          34.000    39644123.344 6 159630456.762 6       -20.099          38.000
C19  21603226.477 8 112493718.234 8       375.867          51.000
C22  24233759.758 7 126191513.360 7      3003.742          46.000
C29  23533229.555 8 122543683.838 8     -2532.711          50.000
E07  25195648.797 5 132404028.428 5     -1019.406          34.000
E26  23745017.938 6 124780898.428 6     -1582.781          40.000    23745021.062 6  95611357.947 6     -1212.852          38.000
E31                                                                  27452929.672 5 110541548.610 5     -1904.684          34.000
E33  23592914.461 7 123981612.278 7       632.402          45.000    23592915.297 7  94998900.979 7       484.586          44.000
> 2020 05 02 19 09  0.0000000  0 17        .000000000000
G08  20766745.164 8 109129984.377 8     -1615.262          51.000    20766746.586 8  85036339.322 8     -1258.645          51.000
G11  19942541.562 8 104798779.192 8       700.637          50.000    19942540.086 8  81661354.514 8       545.951          48.000
G14  22435894.781 7 117901458.732 7      1765.871          45.000    22435894.297 5  91871268.168 5      1376.010          35.000
G22  21572007.203 8 113361682.513 8      2067.797          50.000    21572004.266 7  88333763.747 7      1611.270          47.000
G27  22722150.508 7 119405674.343 7     -3274.695          47.000    22722148.516 7  93043392.080 7     -2551.714          47.000
G32  22031457.656 6 115776134.295 6       375.914          37.000    22031457.500 6  90215133.339 6       292.923          38.000
R07  19853681.906 8 106278376.673 8     -1520.023          50.000    19853684.625 8  82660982.406 8     -1182.237          48.000
R08  19986002.344 8 107024133.224 8      2541.527          51.000    19986004.883 7  83241091.113 7      1976.747          47.000
R22  19979747.258 8 106653242.970 8     -1466.234          51.000    19979750.836 8  82952519.983 8     -1140.405          49.000
C05                                                                  39644266.891 6 159631034.693 6       -18.323          38.000
C19  21601100.672 8 112482649.460 8       362.328          51.000
C20  24109950.234 6 125546846.413 6     -2468.207          36.000
C22  24216470.367 7 126101486.752 7      2998.402          43.000
C29  23547840.555 8 122619765.677 8     -2539.062          51.000
E26  23754065.336 6 124828441.545 6     -1586.695          39.000    23754068.734 6  95647787.181 6     -1215.510          36.000
E31                                                                  27467129.016 5 110598729.916 5     -1907.335          33.000
E33  23589317.352 7 123962707.106 7       628.180          45.000    23589317.656 7  94984415.204 7       481.455          45.000
> 2020 05 02 19 09 30.0000000  0 19        .000000000000
G03  23327201.609 5 122585271.837 5      3316.477          32.000
G08  20776020.461 8 109178726.230 8     -1631.719          51.000    20776021.289 8  85074319.976 8     -1271.469          51.000
G10  23532046.656 5 123661734.082 5     -3114.055          33.000
G11  19938594.320 8 104778036.055 8       684.605          50.000    19938592.758 8  81645191.035 8       533.459          49.000
G14  22425861.766 7 117848734.863 7      1751.391          42.000    22425860.328 5  91830184.730 5      1364.723          33.000
G22  21560245.562 8 113299873.676 8      2055.309          51.000    21560242.570 7  88285601.007 7      1601.536          46.000
G27  22740876.039 7 119504085.680 7     -3283.680          45.000    22740874.641 7  93120076.179 7     -2558.714          45.000
G32  22029374.344 6 115765185.375 6       356.383          40.000    22029373.883 6  90206601.767 6       277.698          39.000
R07  19862274.195 8 106324373.103 8     -1543.945          51.000    19862276.859 8  82696757.398 8     -1200.846          48.000
R08  19971831.164 8 106948245.893 8      2519.934          51.000    19971833.172 7  83182067.647 7      1959.948          47.000
R22  19988039.016 8 106697503.409 8     -1482.059          51.000    19988042.469 8  82986944.736 8     -1152.712          49.000
C05  39644411.102 5 206438851.521 5       -23.488          34.000    39644410.992 6 159631615.081 6       -18.317          38.000
C19  21599065.172 8 112472051.331 8       346.523          51.000
C20  24124202.758 6 125621068.418 6     -2477.320          38.000
C22  24199223.891 6 126011694.580 6      2990.301          40.000
C29  23562500.219 8 122696101.169 8     -2547.523          51.000
E26  23763145.578 6 124876161.370 6     -1592.719          37.000    23763149.766 5  95684351.757 5     -1220.287          35.000
E31                                                                  27481361.195 5 110656038.192 5     -1911.457          34.000
E33  23585756.461 7 123943991.582 7       621.969          46.000    23585756.734 7  94970074.755 7       476.472          45.000
> 2020 05 02 19 10  0.0000000  0 20        .000000000000
G03  23308301.867 6 122485949.527 6      3306.145          37.000    23308316.680 6  95443636.315 6      2576.217          37.000
G08  20785395.250 8 109227991.987 8     -1651.145          51.000    20785396.070 8  85112708.850 8     -1286.606          51.000
G10  23549849.320 5 123755290.186 5     -3121.293          33.000    23549869.930 5  96432781.303 5     -2432.176          34.000
G11  19934743.805 8 104757801.587 8       665.855          50.000    19934742.195 8  81629423.930 8       518.848          48.000
G14  22415918.609 6 117796484.641 6      1733.902          39.000    22415916.328 5  91789470.347 5      1351.093          33.000
G22  21548559.867 8 113238464.155 8      2040.156          51.000    21548556.500 7  88237749.443 7      1589.732          46.000
G27  22759657.609 7 119602790.336 7     -3295.148          44.000    22759658.211 7  93196988.856 7     -2567.651          44.000
G32  22027406.570 6 115754845.025 6       334.582          41.000    22027405.781 6  90198544.289 6       260.710          39.000
R07  19871005.750 8 106371112.215 8     -1570.426          51.000    19871008.336 8  82733110.057 8     -1221.439          49.000
R08  19957787.000 8 106873039.988 8      2495.320          50.000    19957789.062 7  83123574.175 7      1940.805          47.000
R22  19996424.633 8 106742266.479 8     -1500.625          51.000    19996428.070 8  83021760.417 8     -1167.153          48.000
C05  39644561.422 5 206439634.664 5       -25.871          34.000    39644561.398 6 159632220.683 6       -20.893          38.000
C19  21597125.547 8 112461952.904 8       328.035          51.000
C20  24138513.562 6 125695587.710 6     -2489.234          36.000
C22  24182029.422 7 125922167.615 7      2979.586          42.000
C29  23577213.906 8 122772718.893 8     -2558.691          50.000
E07  25213433.086 5 132497488.731 5     -1058.988          35.000
E26  23772265.602 7 124924087.589 7     -1601.047          42.000    23772271.008 6  95721074.464 6     -1226.932          37.000
E31                                                                  27495631.875 5 110713494.549 5     -1917.470          33.000
E33  23582237.500 7 123925496.079 7       612.625          47.000    23582237.859 7  94955902.880 7       469.354          46.000
> 2020 05 02 19 10 30.0000000  0 19        .000000000000
G03  23289444.594 6 122386848.680 6      3299.820          39.000    23289456.492 6  95366414.973 6      2571.295          39.000
G08  20794863.727 8 109277750.042 8     -1666.516          51.000    20794865.211 8  85151481.309 8     -1298.587          51.000
G10  23567678.250 5 123848980.466 5     -3124.828          33.000    23567690.406 5  96505786.558 5     -2434.937          32.000
G11  19930984.430 8 104738046.134 8       650.707          51.000    19930982.758 8  81614030.085 8       507.044          48.000
G14  22406059.375 6 117744679.154 6      1719.605          37.000    22406057.508 5  91749102.401 5      1339.949          34.000
G22  21536944.305 8 113177423.726 8      2028.801          51.000    21536940.836 7  88190185.502 7      1580.887          47.000
G27  22778489.312 7 119701755.517 7     -3302.930          43.000    22778492.180 7  93274104.571 7     -2573.711          42.000
G32  22025548.289 6 115745082.868 6       316.090          39.000    22025550.047 5  90190937.349 5       246.304          33.000
R07  19879869.398 8 106418560.170 8     -1593.145          51.000    19879871.695 8  82770014.031 8     -1239.112          48.000
R08  19943864.586 8 106798486.454 8      2474.477          50.000    19943866.664 7  83065588.105 7      1924.593          47.000
R22  20004898.609 8 106787500.779 8     -1515.383          51.000    20004901.695 8  83056942.634 8     -1178.631          48.000
C05  39644712.109 5 206440418.800 5       -26.125          34.000    39644712.055 6 159632827.772 6       -20.060          38.000
C19  21595276.125 8 112452323.310 8       313.375          51.000
C20  24152876.055 4 125770363.589 4     -2496.094          29.000
C22  24164882.766 7 125832876.710 7      2972.734          46.000
C29  23591975.523 8 122849587.418 8     -2566.234          50.000
E26  23781419.750 7 124972189.340 7     -1606.164          44.000    23781426.172 5  95757931.621 5     -1230.769          35.000
E31                                                                  27509934.594 5 110771102.724 5     -1921.334          32.000
E33  23578754.508 7 123907190.412 7       607.258          47.000    23578754.867 7  94941876.446 7       465.319          46.000
> 2020 05 02 19 11  0.0000000  0 18        .000000000000
G03  23270630.445 6 122287977.751 6      3292.648          41.000    23270631.484 6  95289372.991 6      2565.706          41.000
G08  20804427.430 8 109328006.682 8     -1683.289          51.000    20804429.258 8  85190642.309 8     -1311.654          51.000
G10  23585533.125 5 123942810.469 5     -3129.508          35.000    23585542.578 5  96578900.776 5     -2438.587          34.000
G11  19927317.742 8 104718778.348 8       634.441          50.000    19927316.180 8  81599016.237 8       494.370          49.000
G14  22396287.141 6 117693328.102 6      1704.176          39.000    22396286.305 5  91709088.598 5      1327.926          34.000
G22  21525400.383 8 113116760.500 8      2016.090          51.000    21525397.164 7  88142915.512 7      1570.982          47.000
G27  22797372.398 7 119800986.757 7     -3311.855          44.000    22797376.891 7  93351427.612 7     -2580.667          43.000
G32  22023801.289 6 115735906.914 6       296.102          40.000    22023798.453 5  90183766.761 5       230.728          30.000
R07  19888866.383 8 106466721.714 8     -1617.031          51.000    19888868.711 8  82807473.032 8     -1257.688          49.000
R08  19930065.828 8 106724595.020 8      2452.254          49.000    19930068.148 7  83008117.035 7      1907.312          46.000
R22  20013462.000 8 106833213.910 8     -1531.465          51.000    20013465.383 8  83092497.261 8     -1191.139          48.000
C05  39644864.555 5 206441213.215 5       -26.480          34.000    39644864.508 6 159633442.080 6       -20.528          38.000
C19  21593518.375 8 112443169.596 8       297.402          50.000
C22  24147783.828 8 125743830.855 8      2964.145          48.000
C29  23606786.500 8 122926713.336 8     -2574.801          49.000
E26  23790608.664 7 125020474.274 7     -1612.371          44.000    23790611.523 4  95794933.974 4     -1234.962          29.000
E31  27524281.984 6 144641091.887 6     -2512.988          36.000    27524271.273 5 110828831.708 5     -1925.381          31.000
E33  23575309.078 7 123889082.678 7       600.461          47.000    23575309.438 7  94928001.707 7       460.037          47.000
> 2020 05 02 19 11 30.0000000  0 19        .000000000000
G03  23251858.945 7 122189333.030 7      3285.480          42.000    23251862.188 7  95212507.138 7      2560.118          42.000
G08  20814084.562 8 109378755.519 8     -1698.992          49.000    20814087.047 8  85230186.871 8     -1323.890          49.000
G10  23603414.281 6 124036773.020 6     -3133.941          36.000    23603422.727 6  96652118.328 6     -2442.032          36.000
G11  19923743.039 8 104699994.214 8       618.836          50.000    19923741.859 8  81584379.241 8       482.210          50.000
G14  22386601.359 6 117642427.744 6      1690.074          41.000    22386600.984 6  91669426.090 6      1316.944          37.000
G22  21513927.281 8 113056469.960 8      2004.363          51.000    21513924.406 7  88095935.923 7      1561.842          47.000
G27  22816304.945 7 119900476.877 7     -3319.973          44.000    22816310.562 7  93428952.369 7     -2586.992          44.000
G32  22022164.773 6 115727312.596 6       277.480          38.000    22022169.930 6  90177069.956 6       216.216          36.000
R07  19897995.320 8 106515588.567 8     -1639.762          51.000    19897997.406 8  82845480.592 8     -1275.370          48.000
R08  19916390.234 8 106651363.174 8      2430.789          50.000    19916392.508 7  82951158.952 7      1890.614          45.000
R22  20022114.375 8 106879400.690 8     -1546.590          51.000    20022117.594 8  83128420.302 8     -1202.903          49.000
C05                                                                  39645017.805 6 159634059.526 6       -19.848          38.000
C19  21591850.922 8 112434486.201 8       282.477          50.000
C22  24130731.078 8 125655026.298 8      2956.957          50.000
C29  23621645.750 8 123004090.512 8     -2582.559          49.000
E07  25231900.883 5 132594538.520 5     -1097.488          35.000    25231910.719 5 101598441.711 5      -840.876          34.000
E26  23799831.148 7 125068937.135 7     -1617.582          44.000
E31  27538643.938 6 144716561.538 6     -2517.523          36.000    27538639.836 5 110886668.999 5     -1929.098          33.000
E33  23571900.234 8 123871168.355 8       594.750          48.000    23571900.883 7  94914275.152 7       455.744          47.000
> 2020 05 02 19 12  0.0000000  0 19        .000000000000
G03  23233135.344 6 122090940.673 6      3267.277          41.000    23233141.438 6  95135837.836 6      2545.930          41.000
G08  20823839.500 8 109430020.455 8     -1725.660          49.000    20823842.945 8  85270133.601 8     -1344.670          49.000
G10  23621325.133 6 124130891.001 6     -3148.059          36.000    23621332.500 6  96725456.982 6     -2453.033          36.000
G11  19920265.383 8 104681719.766 8       592.320          50.000    19920264.359 8  81570139.410 8       461.548          49.000
G14  22377006.789 7 117592005.312 7      1664.609          42.000    22377006.867 6  91630135.927 6      1297.098          36.000
G22  21502530.117 8 112996577.500 8      1981.605          51.000    21502527.094 7  88049266.491 7      1544.108          46.000
G27  22835291.367 7 120000248.719 7     -3338.742          46.000    22835297.109 7  93506696.673 7     -2601.617          46.000
G32  22020643.938 5 115719324.916 5       247.707          35.000    22020644.742 5  90170845.838 5       193.018          34.000
R07  19907260.047 8 106565183.680 8     -1673.723          51.000    19907262.180 8  82884054.585 8     -1301.784          49.000
R08  19902843.094 8 106578818.006 8      2398.398          49.000    19902845.195 7  82894734.960 7      1865.421          44.000
R22  20030860.164 8 106926086.567 8     -1572.914          51.000    20030863.422 8  83164731.515 8     -1223.378          50.000
C05  39645176.875 5 206442838.888 5       -35.973          34.000    39645176.648 6 159634699.161 6       -28.185          38.000
C19  21590278.633 8 112426297.402 8       256.562          51.000
C22  24113729.312 8 125566489.171 8      2938.586          51.000
C29  23636557.578 8 123081742.770 8     -2601.180          49.000
E07                                                                  25238219.086 5 101623853.336 5      -858.736          34.000
E26  23809092.094 7 125117602.864 7     -1633.852          44.000
E31  27553037.844 5 144792195.952 5     -2532.340          33.000    27553041.430 6 110944634.839 6     -1940.771          36.000
E33  23568532.797 8 123853472.908 8       577.949          48.000    23568533.969 7  94900716.311 7       442.844          47.000
> 2020 05 02 19 12 30.0000000  0 18        .000000000000
G03  23214444.086 7 121992717.707 7      3277.984          43.000    23214450.602 7  95059300.448 7      2554.274          43.000
G08  20833676.633 8 109481716.325 8     -1723.582          50.000    20833680.781 8  85310416.111 8     -1343.051          50.000
G10  23639248.844 6 124225078.189 6     -3133.887          37.000    23639255.211 5  96798849.605 5     -2441.987          35.000
G11  19916868.922 8 104663871.672 8       594.562          49.000    19916867.930 8  81556231.802 8       463.295          49.000
G14  22367487.039 7 117541978.344 7      1667.867          42.000    22367487.859 5  91591153.920 5      1299.640          35.000
G22  21491192.891 8 112936999.326 8      1987.422          51.000    21491189.289 7  88002841.951 7      1548.640          46.000
G27  22854314.922 7 120100215.882 7     -3328.746          45.000    22854320.250 7  93584593.172 7     -2593.828          45.000
R07  19916644.453 8 106615417.962 8     -1678.277          51.000    19916646.438 8  82923125.698 8     -1305.327          49.000
R08  19889408.398 8 106506876.471 8      2394.836          49.000    19889410.156 7  82838780.496 7      1862.653          44.000
R22  20039683.594 8 106973185.711 8     -1570.008          51.000    20039686.906 8  83201364.162 8     -1221.117          50.000
C05  39645325.086 5 206443611.032 5       -18.086          34.000    39645324.906 6 159635294.234 6       -14.172          38.000
C19  21588785.039 8 112418519.128 8       259.035          51.000
C22  24096762.906 8 125478137.285 8      2948.629          51.000
C29  23651506.156 8 123159585.589 8     -2591.242          49.000
E07                                                                  25244591.102 5 101649518.639 5      -854.746          35.000
E26  23818375.320 7 125166387.095 7     -1621.406          42.000    23818380.344 6  95906708.165 6     -1242.451          38.000
E31                                                                  27567458.898 6 111002672.949 6     -1930.583          37.000
E33  23565191.039 8 123835912.625 8       589.770          48.000    23565192.469 8  94887261.025 8       451.952          48.000
> 2020 05 02 19 13  0.0000000  0 18        .000000000000
G03  23195821.406 7 121894853.828 7      3261.570          43.000    23195827.812 7  94983042.936 7      2541.486          43.000
