     3.02           OBSERVATION DATA    M (MIXED)           RINEX VERSION / TYPE
SAVERINEX           SC600               20200518 015932 LCL PGM / RUN BY / DATE
       G = GPS       R = GLONASS       C = COMPASS          COMMENT
       S = SBAS      J = QZSS          E = GALILEO          COMMENT
BEAN                                                        MARKER NAME
1                                                           MARKER NUMBER
GEODETIC                                                    MARKER TYPE
Unige DICCA         GTER                                    OBSERVER / AGENCY
SC60291900056       SC600               2.12(191202)        REC # / TYPE / VERS
                    HEMA45          NONE                    ANT # / TYPE
  4509407.8091   693652.4678  4442337.6214                  APPROX POSITION XYZ
        0.0000        0.0000        0.0000                  ANTENNA: DELTA H/E/N
G    8 C1C L1C D1C S1C C2Y L2Y D2Y S2Y                      SYS / # / OBS TYPES
R    8 C1C L1C D1C S1C C2P L2P D2P S2P                      SYS / # / OBS TYPES
C    8 C1I L1I D1I S1I C7I L7I D7I S7I                      SYS / # / OBS TYPES
E    8 C1C L1C D1C S1C C7Q L7Q D7Q S7Q                      SYS / # / OBS TYPES
DBHZ                                                        COMMENT
     30.000                                                 INTERVAL
  2020    05    17    23    00    0.0000000     GPS         TIME OF FIRST OBS
  2020    05    17    23    59   30.0000000     GPS         TIME OF LAST OBS
     0                                                      RCV CLOCK OFFS APPL
G L1C  0.00000                                              SYS / PHASE SHIFT
G L2Y  0.00000                                              SYS / PHASE SHIFT
R L1C  0.00000                                              SYS / PHASE SHIFT
R L2P  0.25000                                              SYS / PHASE SHIFT
C L1I  0.00000                                              SYS / PHASE SHIFT
C L7I  0.00000                                              SYS / PHASE SHIFT
E L1C  0.50000                                              SYS / PHASE SHIFT
E L7Q -0.25000                                              SYS / PHASE SHIFT
 13 R01  1 R02 -4 R07  5 R08  6 R09 -2 R10 -7 R11  0 R12 -1 GLONASS SLOT / FRQ #
    R16 -1 R17  4 R21  4 R22 -3 R23  3                      GLONASS SLOT / FRQ #
 C1C   71.950 C2C   71.950 C2P   71.950                     GLONASS COD/PHS/BIS
    18                                                      LEAP SECONDS
*** Above antenna height is from mark to ANTENNA BOTTOM.    COMMENT
    17     4        0.0000        ANT MEASURE TYPE/HEIGT    COMMENT
    0.0000    0.0000    0.0458    0.0405    0.0000          COMMENT
                    BASE STATION                            COMMENT
                                                            END OF HEADER
> 2020 05 17 23 00  0.0000000  0 15        .000000000000
G04  20786394.820 8 109233371.865 8     -1591.004          51.000    20786394.883 8  85116878.600 8     -1239.743          50.000
G07  23579982.750 7 123913646.372 7      3302.660          42.000    23579982.633 7  96556085.785 7      2573.501          42.000
G09  20367013.844 8 107029444.132 8       701.324          51.000    20367014.055 8  83399593.015 8       546.486          51.000
G19  23800728.211 7 125073646.624 7     -2924.191          46.000    23800722.773 6  97459989.229 6     -2278.591          40.000
G22  24945033.508 5 131087034.891 5     -2988.957          32.000
R01  19729484.859 6 105465399.301 6      -811.379          38.000    19729494.164 4  82028664.214 4      -631.072          28.000
R02  21577818.906 5 115143357.135 5      2483.137          32.000
R11  22126252.516 7 118235986.843 7      3431.672          46.000    22126251.508 6  91961329.187 6      2669.078          36.000
R24  20750606.094 8 110962821.767 8     -2867.285          48.000    20750607.977 7  86304414.383 7     -2230.111          47.000
C19  23268238.430 4 121163812.666 4     -1967.598          29.000
C22  21984768.555 7 114480451.698 7       393.520          46.000
E03  24293598.938 6 127663736.277 6     -1474.090          36.000    24293603.289 8  97820308.994 8     -1129.530          49.000
E07  27380508.266 5 143885542.717 5      2319.414          34.000    27380523.148 5 110250041.720 5      1777.201          35.000
E08  21839403.984 7 114766845.937 7       832.777          45.000    21839402.984 7  87938378.396 7       638.132          47.000
E15  25073354.797 7 131761390.179 7     -2750.902          46.000    25073358.945 8 100960028.616 8     -2107.789          51.000
> 2020 05 17 23 00 30.0000000  0 14        .000000000000
G04  20795508.781 8 109281265.730 8     -1602.195          51.000    20795508.812 8  85154198.476 8     -1248.464          50.000
G07  23561140.281 6 123814630.786 6      3297.984          40.000    23561140.297 6  96478930.754 6      2569.858          40.000
G09  20363048.562 8 107008605.333 8       687.629          51.000    20363048.797 8  83383355.011 8       535.815          51.000
G19  23817444.445 7 125161490.082 7     -2932.367          45.000    23817437.836 6  97528438.657 6     -2284.961          40.000
R01  19734065.406 6 105489876.576 6      -821.098          36.000    19734071.977 4  82047701.999 4      -638.635          26.000
R02  21563865.477 5 115068931.819 5      2477.238          34.000
R11  22107023.359 7 118133229.886 7      3418.586          43.000    22107021.406 5  91881407.164 5      2658.903          35.000
R24  20766747.438 8 111049139.055 8     -2887.441          49.000    20766749.648 7  86371550.062 7     -2245.785          46.000
C19  23279589.312 4 121222929.577 4     -1972.914          29.000
C22  21982521.773 7 114468751.961 7       386.117          46.000
E03  24302025.758 6 127708017.856 6     -1478.539          36.000    24302029.398 8  97854239.079 8     -1132.772          49.000
E07  27367275.922 6 143815999.033 6      2316.812          37.000    27367290.078 6 110196755.003 6      1775.256          36.000
E08  21834667.125 7 114741954.569 7       826.469          47.000    21834666.469 7  87919305.805 7       633.187          47.000
E15  25089079.344 8 131844023.323 8     -2758.277          48.000    25089084.664 8 101023344.913 8     -2113.416          51.000
> 2020 05 17 23 01  0.0000000  0 14        .000000000000
G03  22638102.812 5 118964043.993 5     -2610.039          35.000    22638107.672 5  92699243.536 5     -2033.794          34.000
G04  20804687.234 8 109329498.837 8     -1613.586          51.000    20804687.375 8  85191782.721 8     -1257.340          50.000
G07  23542325.688 6 123715763.803 6      3292.809          39.000    23542327.484 6  96401891.521 6      2565.825          38.000
G09  20359162.602 8 106988184.439 8       673.637          51.000    20359163.133 8  83367442.627 8       524.912          51.000
G19  23834208.500 7 125249586.307 7     -2940.789          44.000    23834202.188 6  97597085.044 6     -2291.524          40.000
R01  19738702.078 5 105514656.285 5      -831.055          35.000    19738704.680 4  82066980.103 4      -646.373          27.000
R02  21549950.062 6 114994690.115 6      2471.949          37.000    21549953.133 4  89440301.921 4      1922.624          26.000
R11  22087866.711 6 118030868.619 6      3405.270          38.000    22087867.453 6  91801792.893 6      2648.546          37.000
R24  20783002.734 8 111136062.766 8     -2907.707          50.000    20783004.492 7  86439157.399 7     -2261.550          45.000
C22  21980317.438 7 114457275.513 7       378.656          45.000
E03  24310477.031 6 127752428.040 6     -1482.328          38.000    24310480.266 8  97888267.711 8     -1135.983          48.000
E07  27354056.430 6 143746538.451 6      2313.781          37.000    27354073.008 5 110143532.009 5      1772.891          35.000
E08  21829967.883 8 114717258.396 8       819.816          48.000    21829967.195 7  87900382.744 7       628.228          47.000
E15  25104847.203 8 131926881.186 8     -2765.750          49.000    25104853.227 8 101086833.408 8     -2119.238          51.000
> 2020 05 17 23 01 30.0000000  0 14        .000000000000
G04  20813933.680 8 109378089.168 8     -1623.973          51.000    20813933.844 8  85229645.325 8     -1265.433          51.000
G07  23523543.648 6 123617067.065 6      3288.750          40.000    23523547.844 6  96324984.972 6      2562.662          40.000
G09  20355359.727 8 106968200.797 8       660.527          51.000    20355360.516 8  83351870.955 8       514.697          51.000
G19  23851023.523 7 125337951.658 7     -2948.230          44.000    23851018.500 6  97665941.142 6     -2297.325          41.000
R01  19743395.734 5 105539758.045 5      -839.910          33.000    19743400.375 4  82086503.722 4      -653.263          28.000
R08  22116518.219 5 118432880.422 5     -2774.234          33.000
R09  23536390.641 4 125683014.827 4     -2641.520          29.000
R11  22068789.016 6 117928927.666 6      3392.410          41.000    22068793.148 6  91722505.469 6      2638.541          39.000
R24  20799374.602 8 111223608.842 8     -2926.777          51.000    20799375.375 7  86507248.789 7     -2276.382          45.000
C22  21978159.188 7 114446042.017 7       371.855          43.000
E03  24318956.867 6 127796985.912 6     -1486.078          39.000    24318959.453 8  97922409.437 8     -1138.632          48.000
E07  27340856.117 6 143677180.802 6      2312.156          36.000    27340874.625 6 110090387.868 6      1771.443          38.000
E08  21825309.250 8 114692776.769 8       814.090          48.000    21825308.414 7  87881624.079 7       623.780          47.000
E15  25120661.438 8 132009981.741 8     -2772.375          50.000    25120667.641 8 101150507.853 8     -2124.287          51.000
> 2020 05 17 23 02  0.0000000  0 14        .000000000000
G03  22667985.930 5 119121093.376 5     -2627.887          34.000
G04  20823239.617 8 109426992.079 8     -1639.367          51.000    20823239.836 8  85267751.492 8     -1277.429          51.000
G07  23504786.773 7 123518500.513 7      3279.129          42.000    23504794.438 6  96248179.802 6      2555.162          41.000
G09  20351631.891 8 106948611.089 8       642.359          51.000    20351632.609 8  83336606.262 8       500.540          51.000
G19  23867880.984 7 125426539.799 7     -2960.758          43.000    23867876.891 7  97734970.878 7     -2307.084          42.000
R01  19748142.625 5 105565137.395 5      -854.547          31.000    19748148.562 4  82106243.158 4      -664.657          28.000
R02  21522232.000 4 114846747.504 4      2455.773          29.000
R11  22049784.328 6 117827367.878 6      3374.828          41.000    22049789.203 6  91643514.517 6      2624.866          38.000
R24  20815854.359 8 111311729.764 8     -2951.070          51.000    20815854.562 7  86575787.233 7     -2295.280          45.000
C22  21976039.875 7 114435009.038 7       360.312          45.000
E03  24327456.242 6 127841647.691 6     -1494.754          40.000    24327458.523 8  97956630.822 8     -1145.214          48.000
E07  27327667.852 5 143607863.289 5      2305.359          33.000    27327688.266 6 110037289.810 6      1766.100          39.000
E08  21820682.914 7 114668466.434 7       803.289          47.000    21820682.578 7  87862996.698 7       615.501          47.000
E15  25136513.484 8 132093280.265 8     -2783.992          50.000    25136519.211 8 101214333.981 8     -2133.222          51.000
> 2020 05 17 23 02 30.0000000  0 14        .000000000000
G03  22682991.117 5 119199919.380 5     -2629.941          33.000    22683007.734 5  92883123.764 5     -2049.305          31.000
G04  20832620.758 8 109476290.173 8     -1646.555          51.000    20832621.164 8  85306165.600 8     -1283.027          50.000
G07  23486071.516 7 123420150.948 7      3277.945          45.000    23486085.453 6  96171543.718 6      2554.240          38.000
G09  20347994.875 8 106929499.336 8       632.484          51.000    20347995.539 8  83321714.009 8       492.845          51.000
G19  23884796.461 7 125515431.685 7     -2964.906          44.000    23884792.211 6  97804237.267 6     -2310.317          41.000
R01  19752959.469 6 105590879.439 6      -860.867          36.000    19752964.258 4  82126264.753 4      -669.557          28.000
R02  21508448.570 5 114773142.521 5      2453.684          32.000
R11  22030867.625 5 117726279.383 5      3365.148          35.000    22030872.273 6  91564890.071 6      2617.335          39.000
R24  20832456.984 8 111400507.411 8     -2966.793          51.000    20832456.633 7  86644836.474 7     -2307.509          45.000
C22  21973976.156 7 114424260.310 7       356.875          46.000
E03  24335991.180 6 127886497.094 6     -1494.953          39.000    24335993.508 8  97990995.943 8     -1145.382          48.000
E07                                                                  27314529.109 6 109984302.488 6      1766.920          40.000
E08  21816105.508 8 114644411.455 8       800.895          48.000    21816105.734 7  87844564.967 7       613.714          47.000
E15  25152418.812 8 132176859.336 8     -2787.285          51.000    25152423.648 8 101278375.074 8     -2135.676          51.000
> 2020 05 17 23 03  0.0000000  0 14        .000000000000
G03  22698023.945 5 119278920.676 5     -2638.207          35.000    22698048.078 5  92944684.291 5     -2055.764          34.000
G04  20842053.508 8 109525859.319 8     -1659.168          51.000    20842054.047 8  85344790.917 8     -1292.858          50.000
G07  23467375.047 7 123321898.240 7      3271.008          45.000    23467393.859 6  96094983.053 6      2548.834          38.000
G09  20344425.422 8 106910742.706 8       616.887          51.000    20344425.992 8  83307098.471 8       480.691          51.000
G19  23901745.945 7 125604501.937 7     -2974.367          43.000    23901740.898 6  97873642.588 6     -2317.689          40.000
R01  19757820.141 6 105616858.822 6      -872.262          37.000    19757825.000 5  82146470.940 5      -678.423          30.000
R08  22163247.727 5 118683119.453 5     -2786.285          32.000
R24  20849157.500 8 111489813.286 8     -2988.043          50.000    20849156.820 7  86714296.611 7     -2324.030          44.000
C19  23336742.203 5 121520551.706 5     -1996.449          33.000
C22  21971943.758 7 114413674.668 7       347.762          46.000
E03  24344537.797 6 127931410.938 6     -1500.703          37.000    24344540.742 7  98025410.480 7     -1149.800          47.000
E07                                                                  27301373.555 6 109931332.150 6      1763.574          40.000
E08  21811553.461 8 114620489.104 8       792.781          48.000    21811553.852 7  87826234.862 7       607.501          47.000
E15  25168353.547 8 132260594.777 8     -2796.113          51.000    25168357.211 8 101342535.981 8     -2142.449          51.000
> 2020 05 17 23 03 30.0000000  0 14        .000000000000
G03  22713102.992 5 119358162.074 5     -2645.859          35.000    22713115.102 5  93006430.470 5     -2061.718          34.000
G04  20851557.414 8 109575802.080 8     -1671.414          51.000    20851557.891 8  85383707.356 8     -1302.401          50.000
G07  23448717.336 7 123223848.829 7      3264.402          46.000    23448738.688 6  96018580.870 6      2543.690          38.000
G09  20340943.422 8 106892445.093 8       601.844          51.000    20340943.969 8  83292840.603 8       468.972          51.000
G19  23918748.617 7 125693851.232 7     -2983.539          43.000    23918743.102 6  97943265.343 6     -2324.839          38.000
R01  19762745.867 5 105643181.426 5      -882.836          34.000    19762749.984 4  82166944.081 4      -686.647          29.000
R11  21993258.375 5 117525310.594 5      3333.910          34.000    21993254.664 6  91408568.562 6      2593.044          37.000
R24  20865974.938 8 111579749.395 8     -3008.848          50.000    20865975.453 7  86784246.936 7     -2340.215          44.000
C19  23348258.461 5 121580508.883 5     -2002.219          33.000
C22  21969961.969 7 114403355.493 7       338.953          46.000
E03  24353116.508 6 127976492.728 6     -1505.621          36.000    24353119.477 7  98059953.774 7     -1153.879          47.000
E07                                                                  27288242.312 6 109878458.750 6      1760.389          38.000
E08  21807046.242 7 114596803.294 7       785.148          47.000    21807046.148 7  87808086.017 7       601.664          46.000
E15  25184337.039 8 132344589.050 8     -2804.445          50.000    25184339.648 8 101406895.215 8     -2148.915          51.000
> 2020 05 17 23 04  0.0000000  0 14        .000000000000
G04  20861125.172 8 109626080.615 8     -1681.125          51.000    20861125.484 8  85422885.435 8     -1309.968          50.000
G07  23430091.891 7 123125969.208 7      3260.195          46.000    23430106.984 7  95942310.877 7      2540.406          42.000
G09  20337541.828 8 106874570.018 8       589.219          51.000    20337542.641 8  83278911.991 8       459.131          51.000
G19  23935796.617 7 125783439.646 7     -2989.828          44.000    23935792.461 6  98013074.463 6     -2329.739          37.000
R01  19767727.703 6 105669809.592 6      -892.273          36.000    19767731.344 4  82187654.895 4      -693.990          26.000
R02  21467233.984 5 114553267.619 5      2433.316          30.000
R11  21974572.789 6 117425464.149 6      3321.633          37.000    21974567.703 5  91330910.257 5      2583.492          34.000
R24  20882903.227 8 111670275.155 8     -3026.902          51.000    20882904.148 7  86854655.818 7     -2354.260          44.000
C19  23359796.844 5 121640608.154 5     -2005.406          35.000
C22  21968024.141 7 114393267.167 7       332.934          46.000
E03  24361720.547 6 128021705.903 6     -1508.828          40.000    24361722.797 7  98094597.675 7     -1156.223          46.000
E07                                                                  27275128.039 5 109825654.659 5      1759.102          34.000
E08  21802577.078 8 114573317.640 8       779.945          48.000    21802576.242 7  87790090.557 7       597.623          46.000
E15  25200362.125 8 132428804.285 8     -2810.438          49.000    25200364.211 8 101471423.766 8     -2153.500          51.000
> 2020 05 17 23 04 30.0000000  0 14        .000000000000
G03  22743376.664 6 119517274.531 6     -2657.719          37.000    22743387.781 5  93130330.654 5     -2070.965          35.000
G04  20870752.406 8 109676671.901 8     -1692.535          51.000    20870752.586 8  85462307.207 8     -1318.859          50.000
G07  23411495.117 7 123028240.539 7      3254.113          45.000    23411502.609 7  95866158.583 7      2535.670          45.000
G09  20334216.484 8 106857095.750 8       574.844          51.000    20334217.594 8  83265295.690 8       447.930          51.000
G19  23952885.430 7 125873242.268 7     -2997.980          44.000    23952883.414 6  98083050.535 6     -2336.089          36.000
R01  19772762.508 6 105696720.919 6      -903.094          37.000    19772765.242 4  82208592.970 4      -702.403          26.000
R11  21955964.750 5 117326029.839 5      3306.785          35.000    21955953.812 4  91253572.464 4      2571.941          25.000
R24  20899937.727 8 111761364.731 8     -3046.625          51.000    20899938.781 7  86925503.207 7     -2369.600          45.000
C19  23371361.672 5 121700828.023 5     -2010.301          35.000
C22  21966126.672 7 114383388.741 7       324.898          46.000
E03  24370345.008 6 128067028.388 6     -1513.410          41.000    24370346.852 7  98129325.305 7     -1159.680          46.000
E07                                                                  27262027.297 5 109772903.595 5      1756.522          33.000
E08  21798142.297 8 114550010.555 8       773.027          48.000    21798140.805 7  87772231.906 7       592.224          46.000
E15  25216424.695 8 132513217.396 8     -2817.953          49.000    25216426.922 8 101536103.939 8     -2159.220          51.000
> 2020 05 17 23 05  0.0000000  0 14        .000000000000
G03  22758567.133 6 119597118.706 6     -2664.633          38.000    22758568.977 6  93192546.640 6     -2076.340          37.000
G04  20880445.227 8 109727608.026 8     -1703.512          51.000    20880445.367 8  85501997.680 8     -1327.412          50.000
G07  23392933.984 7 122930698.831 7      3248.242          42.000    23392935.664 7  95790152.042 7      2531.098          42.000
G09  20330973.828 8 106840055.730 8       560.887          51.000    20330974.781 8  83252017.737 8       437.055          51.000
G19  23970021.039 7 125963289.989 7     -3005.684          45.000    23970020.828 6  98153217.603 6     -2342.091          38.000
R01  19777856.539 6 105723949.233 6      -912.930          36.000    19777859.484 4  82229769.589 4      -710.053          24.000
R11  21937441.398 6 117227046.440 6      3291.945          40.000    21937453.328 4  91176608.915 4      2560.402          29.000
R24  20917083.250 8 111853048.390 8     -3065.883          51.000    20917085.320 7  86996812.706 7     -2384.572          46.000
C19  23382955.523 5 121761201.664 5     -2015.051          35.000
C22  21964276.195 7 114373753.877 7       317.297          47.000
E03  24378996.570 6 128112493.318 6     -1517.539          41.000    24378998.078 7  98164162.075 7     -1162.900          46.000
E07                                                                  27248948.133 5 109720231.602 5      1754.502          34.000
E08  21793747.594 7 114526915.554 7       766.426          47.000    21793746.219 7  87754535.743 7       587.225          47.000
E15  25232531.227 8 132597860.416 8     -2825.105          50.000    25232533.938 8 101600960.285 8     -2164.712          51.000
> 2020 05 17 23 05 30.0000000  0 16        .000000000000
G03  22773798.125 6 119677166.390 6     -2671.051          36.000    22773798.719 6  93254921.299 6     -2081.344          36.000
G04  20890201.164 8 109778875.613 8     -1713.926          51.000    20890201.305 8  85541946.435 8     -1335.527          50.000
G06  21200672.133 5 111410338.162 5      1000.922          34.000    21200673.492 5  86813219.625 5       779.942          35.000
G07  23374406.836 6 122833334.824 6      3242.953          40.000    23374406.188 6  95714283.999 6      2526.976          40.000
G09  20327811.523 8 106823437.823 8       547.332          51.000    20327812.125 8  83239068.728 8       426.492          51.000
G19  23987200.523 7 126053567.668 7     -3012.625          44.000    23987200.523 6  98223563.842 6     -2347.500          40.000
R01  19783007.148 6 105751482.054 6      -922.395          36.000
R02  21426345.844 5 114335077.909 5      2414.477          30.000
R11  21919001.297 7 117128506.375 7      3277.730          43.000    21919007.781 5  91099966.616 5      2549.346          32.000
R24  20934336.000 8 111945310.512 8     -3084.523          49.000    20934339.195 7  87068572.140 7     -2399.074          45.000
C19  23394577.992 5 121821717.318 5     -2019.102          33.000
C22  21962470.641 8 114364351.125 8       310.051          48.000
E03  24387672.875 6 128158088.371 6     -1521.551          40.000    24387674.289 7  98199098.539 7     -1165.819          46.000
E07  27235874.688 5 143125485.771 5      2288.289          32.000    27235884.391 5 109667629.802 5      1752.850          34.000
E08  21789390.289 7 114504020.632 7       760.273          46.000    21789389.836 7  87736992.882 7       582.535          46.000
E15  25248679.672 8 132682719.917 8     -2831.746          51.000    25248682.516 8 101665982.500 8     -2169.753          51.000
> 2020 05 17 23 06  0.0000000  0 15        .000000000000
G03  22789067.492 5 119757407.836 5     -2677.547          35.000    22789068.141 5  93317447.019 5     -2086.400          31.000
G04  20900018.039 8 109830463.791 8     -1724.992          51.000    20900018.117 8  85582145.017 8     -1344.150          51.000
G06  21195016.789 5 111380620.682 5       981.016          34.000    21195019.953 5  86790063.077 5       764.428          32.000
G07  23355912.547 6 122736142.061 6      3237.047          37.000    23355910.156 6  95638549.352 6      2522.371          37.000
G09  20324727.922 8 106807232.499 8       533.355          51.000    20324728.211 8  83226441.221 8       415.602          51.000
G19  24004421.391 7 126144062.591 7     -3020.148          46.000    24004420.297 6  98294079.323 6     -2353.365          39.000
R01  19788212.875 5 105779309.444 5      -932.730          34.000
R11  21900642.539 7 117030404.819 7      3262.699          43.000    21900640.781 5  91023665.229 5      2537.652          34.000
R24  20951694.805 8 112038137.442 8     -3103.719          50.000    20951697.922 7  87140770.882 7     -2414.003          45.000
C19  23406225.039 5 121882354.729 5     -2023.809          30.000
C22  21960708.242 8 114355171.641 8       302.234          49.000
E03  24396372.406 7 128203803.736 7     -1526.039          42.000    24396373.641 7  98234127.187 7     -1169.228          46.000
E07  27222829.539 5 143056933.733 5      2283.738          33.000    27222836.312 5 109615091.335 5      1750.102          34.000
E08  21785069.344 7 114481316.382 7       753.547          47.000    21785069.734 7  87719596.100 7       577.378          46.000
E15  25264867.875 8 132767785.003 8     -2839.023          51.000    25264870.211 8 101731162.228 8     -2175.341          51.000
> 2020 05 17 23 06 30.0000000  0 15        .000000000000
G03  22804380.492 5 119837821.074 5     -2682.277          31.000    22804376.008 4  93380110.092 4     -2090.086          29.000
G04  20909895.508 8 109882370.488 8     -1734.324          51.000    20909895.492 8  85622591.794 8     -1351.421          50.000
G06  21189469.188 5 111351464.373 5       963.953          32.000    21189470.695 5  86767343.859 5       751.132          31.000
G09  20321722.789 8 106791438.980 8       520.781          51.000    20321722.781 8  83214134.583 8       405.804          51.000
G19  24021682.875 7 126234771.082 7     -3025.887          46.000    24021680.648 6  98364761.214 6     -2357.834          41.000
R01  19793472.164 5 105807430.432 5      -941.141          32.000
R08  22272954.164 4 119270563.240 4     -2806.758          29.000
R11  21882366.109 6 116932745.464 6      3249.305          39.000    21882365.898 6  90947708.079 6      2527.243          37.000
R24  20969158.734 8 112131524.737 8     -3120.984          50.000    20969161.273 7  87213405.446 7     -2427.432          45.000
C19  23417897.516 4 121943134.855 4     -2026.363          29.000
C22  21958988.766 8 114346215.188 8       295.965          49.000
E03  24405094.602 7 128249638.402 7     -1528.637          44.000    24405095.797 7  98269247.258 7     -1171.305          46.000
E07                                                                  27209802.781 5 109562615.887 5      1749.144          31.000
E08  21780785.023 7 114458802.109 7       748.422          47.000    21780785.875 7  87702344.900 7       573.604          46.000
E15  25281094.953 8 132853053.478 8     -2844.484          51.000    25281096.367 8 101796497.801 8     -2179.561          50.000
> 2020 05 17 23 07  0.0000000  0 13        .000000000000
G03  22819724.844 5 119918460.265 5     -2689.246          31.000    22819713.352 5  93442931.624 5     -2095.516          32.000
G04  20919834.062 8 109934598.053 8     -1743.543          51.000    20919834.062 8  85663288.596 8     -1358.605          51.000
G09  20318796.523 8 106776060.863 8       508.504          51.000    20318796.414 8  83202151.622 8       396.237          51.000
G19  24038984.867 7 126325693.719 7     -3031.520          45.000    24038982.828 6  98435609.990 6     -2362.223          41.000
R01  19798787.445 5 105835848.462 5      -949.402          34.000    19798790.102 4  82316784.689 4      -738.415          25.000
R02  21385802.742 5 114118683.432 5      2398.238          34.000    21385788.781 4  88758975.608 4      1865.299          29.000
R11  21864175.070 6 116835537.049 6      3235.586          39.000    21864174.539 6  90872101.593 6      2516.570          36.000
R24  20986727.688 8 112225472.752 8     -3138.180          49.000    20986730.023 7  87286476.094 7     -2440.806          46.000
C22  21957312.734 8 114337485.897 8       289.883          49.000
E03  24413840.180 7 128295595.781 7     -1531.098          45.000    24413841.250 7  98304461.334 7     -1173.227          46.000
E07  27196777.875 5 142920032.097 5      2281.273          33.000    27196787.141 5 109510191.614 5      1747.806          31.000
E08  21776537.602 7 114436481.559 7       743.578          47.000    21776538.469 7  87685242.180 7       569.773          45.000
E15  25297360.875 8 132938527.607 8     -2849.699          51.000    25297361.156 8 101861990.951 8     -2183.542          49.000
> 2020 05 17 23 07 30.0000000  0 13        .000000000000
G04  20929839.961 8 109987179.628 8     -1758.195          51.000    20929840.078 8  85704261.264 8     -1370.022          51.000
G07  23300626.172 6 122445645.101 6      3217.301          37.000    23300615.969 5  95412146.678 5      2506.991          35.000
G09  20315955.766 8 106761132.660 8       490.512          51.000    20315956.023 8  83190519.262 8       382.217          51.000
G19  24056333.359 7 126416861.992 7     -3042.773          45.000    24056332.461 7  98506650.247 7     -2370.992          42.000
R01  19804165.508 6 105864598.614 6      -963.434          36.000    19804170.367 4  82339160.464 4      -749.334          26.000
R11  21846077.477 5 116738819.482 5      3216.199          35.000    21846075.320 5  90796876.786 5      2501.488          35.000
R24  21004406.883 7 112320012.425 7     -3160.652          47.000    21004409.711 7  87360006.951 7     -2458.285          47.000
C19  23441320.688 5 122065144.402 5     -2038.906          31.000
C22  21955686.523 8 114329018.507 8       278.250          49.000
E03  24422615.586 7 128341710.033 7     -1539.438          47.000    24422616.484 7  98339795.643 7     -1179.593          45.000
E07                                                                  27183795.711 4 109457879.397 4      1742.185          28.000
E08  21772333.617 7 114414389.290 7       732.992          47.000    21772333.703 7  87668314.353 7       561.667          44.000
E15  25313671.664 8 133024240.471 8     -2860.711          51.000    25313670.789 8 101927667.024 8     -2191.928          48.000
> 2020 05 17 23 08  0.0000000  0 13        .000000000000
G03  22850530.703 5 120080326.822 5     -2700.840          32.000    22850527.875 5  93569084.960 5     -2104.541          32.000
G04  20939897.992 8 110040035.454 8     -1764.594          51.000    20939898.383 8  85745447.634 8     -1375.008          50.000
G07  23282267.062 6 122349163.091 6      3215.547          40.000    23282259.078 6  95336966.029 6      2505.630          38.000
G09  20313185.805 8 106746575.775 8       480.730          51.000    20313186.172 8  83179176.233 8       374.595          51.000
G19  24073713.320 7 126508194.670 7     -3045.320          46.000    24073713.672 6  98577818.626 6     -2372.977          41.000
R01  19809590.953 6 105893600.893 6      -969.406          37.000    19809597.273 4  82361719.755 4      -753.986          28.000
R24  21022180.945 7 112415060.234 7     -3174.715          47.000    21022184.383 7  87433933.042 7     -2469.223          47.000
C19  23453077.172 5 122126323.133 5     -2039.004          34.000
C22  21954095.484 7 114320735.847 7       274.785          47.000
E03  24431405.875 7 128387902.485 7     -1539.348          46.000    24431406.797 7  98375189.861 7     -1179.512          45.000
E07  27170799.812 6 142783529.954 6      2275.441          36.000
E08  21768158.672 8 114392446.981 8       730.613          48.000    21768157.273 7  87651501.415 7       559.800          43.000
E15  25330012.242 8 133110112.195 8     -2863.273          51.000    25330010.641 8 101993464.834 8     -2193.976          48.000
> 2020 05 17 23 08 30.0000000  0 12        .000000000000
G04  20950028.000 8 110093269.410 8     -1779.414          51.000    20950028.633 8  85786928.655 8     -1386.556          50.000
G07  23263955.055 6 122252930.572 6      3204.977          40.000    23263949.711 6  95261979.709 6      2497.384          40.000
G09  20310506.508 8 106732495.310 8       462.711          51.000    20310506.633 8  83168204.444 8       360.554          51.000
G19  24091144.117 7 126599793.475 7     -3056.414          47.000    24091144.844 6  98649194.357 6     -2381.618          38.000
R01  19815083.523 5 105922962.075 5      -983.289          35.000    19815091.516 4  82384556.203 4      -764.780          26.000
R11  21810121.469 5 116546721.415 5      3184.973          34.000
R24  21040070.289 8 112510719.612 8     -3197.531          49.000    21040072.883 7  87508334.761 7     -2486.969          47.000
C22  21952560.141 8 114312742.705 8       262.910          48.000
E03  24440230.812 7 128434278.114 7     -1547.617          45.000    24440232.469 7  98410724.428 7     -1185.777          44.000
E07  27157844.180 5 142715430.093 5      2268.562          35.000    27157840.320 5 109353368.777 5      1738.165          31.000
E08  21764032.133 7 114370759.930 7       720.016          47.000    21764030.352 7  87634884.054 7       551.730          44.000
E15  25346402.758 8 133196246.591 8     -2874.176          51.000    25346401.133 8 102059463.899 8     -2202.258          48.000
> 2020 05 17 23 09  0.0000000  0 13        .000000000000
G04  20960211.797 8 110146785.919 8     -1788.129          51.000    20960212.406 8  85828629.844 8     -1393.347          50.000
G07  23245672.453 6 122156855.479 6      3200.160          38.000    23245669.141 6  95187116.032 6      2493.634          38.000
G09  20307899.750 8 106718797.008 8       450.770          51.000    20307900.008 8  83157530.439 8       351.252          51.000
G19  24108607.156 7 126691561.248 7     -3061.293          47.000    24108607.539 6  98720701.745 6     -2385.423          39.000
R01  19820624.828 5 105952585.732 5      -991.426          35.000    19820633.477 4  82407596.842 4      -771.106          25.000
R11  21792286.984 6 116451383.393 6      3171.246          37.000    21792284.484 5  90573242.370 5      2466.525          32.000
R24  21058055.906 8 112606890.962 8     -3213.727          50.000    21058057.172 7  87583134.680 7     -2499.565          47.000
C19  23476690.000 5 122249207.279 5     -2050.926          34.000
C22  21951063.000 8 114304946.238 8       256.992          49.000
E03  24449072.453 7 128480742.391 7     -1549.734          45.000    24449075.148 7  98446326.946 7     -1187.576          44.000
E07  27144900.930 5 142647400.472 5      2267.441          35.000    27144904.297 5 109301247.338 5      1737.037          33.000
E08  21759935.531 7 114349233.952 7       715.203          45.000    21759935.062 7  87618390.145 7       548.112          44.000
E15  25362825.141 8 133282547.986 8     -2879.023          51.000    25362824.000 8 102125590.930 8     -2206.023          48.000
> 2020 05 17 23 09 30.0000000  0 15        .000000000000
G03  22897010.156 5 120324609.961 5     -2724.070          34.000    22897003.727 5  93759404.166 5     -2122.652          33.000
G04  20970443.359 8 110200553.279 8     -1799.543          51.000    20970443.812 8  85870526.488 8     -1402.241          49.000
G07  23227414.391 6 122060910.496 6      3192.535          37.000    23227411.414 6  95112353.674 6      2487.690          37.000
G09  20305359.852 8 106705450.373 8       435.832          51.000    20305360.453 8  83147130.459 8       339.609          51.000
G19  24126095.961 7 126783464.811 7     -3068.707          45.000    24126095.602 6  98792314.909 6     -2391.200          40.000
R01  19826209.250 6 105982441.095 6     -1002.266          37.000
R11  21774526.273 7 116356455.155 7      3154.379          42.000    21774520.719 5  90499409.290 5      2453.406          35.000
R23  23465290.852 5 125523451.376 5     -4599.301          31.000
R24  21076130.008 8 112703539.395 8     -3232.742          49.000    21076130.953 7  87658305.656 7     -2514.355          47.000
C19  23488493.703 5 122310760.177 5     -2056.609          34.000
C22  21949598.148 8 114297316.874 8       248.441          49.000
E03  24457925.195 7 128527264.697 7     -1554.887          45.000    24457928.836 7  98481973.897 7     -1191.266          42.000
E07  27131962.539 5 142579396.208 5      2263.309          35.000    27131970.656 5 109249140.233 5      1734.086          32.000
E08  21755863.750 7 114327838.709 7       707.781          45.000    21755864.633 7  87601996.423 7       542.494          44.000
E15  25379273.219 8 133368984.557 8     -2886.551          51.000    25379273.086 8 102191821.530 8     -2211.758          49.000
> 2020 05 17 23 10  0.0000000  0 15        .000000000000
G03  22912582.719 5 120406469.727 5     -2731.316          35.000    22912584.430 5  93823191.011 5     -2128.298          35.000
G04  20980753.570 8 110254733.806 8     -1810.543          51.000    20980753.969 8  85912745.091 8     -1410.813          49.000
G07  23209213.164 6 121965262.151 6      3185.562          40.000    23209210.211 6  95037822.520 6      2482.260          39.000
G09  20302918.078 8 106692618.947 8       421.469          51.000    20302918.664 8  83137131.939 8       328.417          51.000
G19  24143640.875 7 126875664.516 7     -3075.910          43.000    24143639.422 6  98864158.799 6     -2396.816          41.000
R01  19831868.688 6 106012694.196 6     -1012.973          38.000    19831876.203 4  82454353.430 4      -787.859          24.000
R11  21756871.117 7 116262108.212 7      3137.523          45.000    21756865.719 6  90426028.279 6      2440.296          37.000
R23  23491091.820 5 125661481.636 5     -4600.516          31.000
R24  21094323.055 8 112800827.696 8     -3251.355          50.000    21094324.133 7  87733974.337 7     -2528.832          46.000
C19  23500344.836 4 122372463.211 4     -2061.648          28.000
C22  21948196.641 8 114290017.357 8       240.008          49.000
E03  24466820.281 7 128574008.473 7     -1559.543          45.000    24466824.203 6  98517790.545 6     -1194.843          41.000
E07                                                                  27119068.469 5 109197249.217 5      1731.410          31.000
E08  21751848.312 7 114306738.074 7       700.504          45.000    21751849.828 7  87585828.396 7       536.902          43.000
E15  25395777.812 8 133455718.584 8     -2893.824          49.000    25395778.859 8 102258280.054 8     -2217.379          49.000
> 2020 05 17 23 10 30.0000000  0 15        .000000000000
G03  22928189.766 5 120488492.094 5     -2739.066          35.000    22928192.352 5  93887104.527 5     -2134.334          35.000
G04  20991116.992 8 110309193.706 8     -1822.414          51.000    20991117.219 8  85955181.391 8     -1420.063          48.000
G07  23191044.125 7 121869780.661 7      3177.066          43.000    23191041.586 7  94963421.362 7      2475.636          43.000
G09  20300549.188 8 106680170.140 8       405.988          51.000    20300549.695 8  83127431.572 8       316.355          51.000
G19  24161216.266 7 126968025.162 7     -3083.727          42.000    24161213.719 6  98936128.121 6     -2402.904          41.000
R01  19837577.688 6 106043210.209 6     -1024.227          39.000    19837582.648 4  82478083.594 4      -796.621          26.000
R02  21292422.750 5 113620407.361 5      2348.918          30.000
R11  21739299.188 7 116168212.320 7      3119.762          43.000    21739295.570 6  90352998.180 6      2426.481          36.000
R23  23516895.977 5 125799481.884 5     -4602.484          30.000
R24  21112609.945 8 112898617.192 8     -3270.539          50.000    21112610.922 7  87810032.828 7     -2543.753          45.000
C19  23512220.977 5 122434356.936 5     -2067.859          35.000
C22  21946833.078 8 114282916.942 8       230.820          49.000
E03  24475732.438 7 128620840.934 7     -1564.945          45.000    24475735.727 6  98553675.162 6     -1199.156          38.000
E08  21747863.570 7 114285799.500 7       692.715          43.000    21747865.234 7  87569784.556 7       530.829          42.000
E15  25412313.320 8 133542616.086 8     -2901.762          48.000    25412315.648 8 102324863.851 8     -2223.464          49.000
> 2020 05 17 23 11  0.0000000  0 12        .000000000000
G03  22943844.633 5 120570693.514 5     -2744.883          31.000
G04  21001545.844 8 110363997.827 8     -1831.461          51.000    21001545.859 7  85997885.893 7     -1427.112          46.000
G07  23172920.383 7 121774534.775 7      3172.023          46.000    23172917.875 7  94889203.795 7      2471.707          46.000
G09  20298265.570 8 106668169.981 8       393.680          51.000    20298266.281 8  83118080.809 8       306.763          51.000
G19  24178834.414 7 127060609.531 7     -3088.527          43.000    24178830.945 7  99008271.764 7     -2406.648          42.000
R01  19843347.625 6 106074056.452 6     -1032.840          38.000    19843351.742 4  82502075.086 4      -803.320          28.000
R11  21721824.188 7 116074839.612 7      3104.641          45.000    21721822.711 6  90280375.003 6      2414.724          37.000
R24  21131002.453 8 112996971.437 8     -3286.824          50.000    21131003.273 7  87886530.570 7     -2556.419          45.000
C22  21945520.188 8 114276081.749 8       224.383          48.000
E03  24484674.000 7 128667828.097 7     -1567.777          45.000    24484676.789 6  98589678.293 6     -1201.152          36.000
E08  21743922.023 7 114265089.265 7       687.664          44.000    21743924.141 7  87553915.729 7       526.923          42.000
E15  25428891.820 7 133629741.803 7     -2906.875          46.000    25428895.914 8 102391622.535 8     -2227.373          49.000
> 2020 05 17 23 11 30.0000000  0 13        .000000000000
G04  21012020.836 8 110419044.247 8     -1844.945          51.000    21012020.820 7  86040779.188 7     -1437.620          45.000
G07  23154822.867 8 121679426.869 8      3161.918          48.000    23154820.516 8  94815093.739 8      2463.832          48.000
G09  20296048.141 8 106656517.800 8       376.531          51.000    20296049.047 8  83109001.207 8       293.401          51.000
G19  24196475.742 7 127153314.323 7     -3098.125          45.000    24196471.609 7  99080509.214 7     -2414.123          42.000
R01  19849160.539 6 106105130.167 6     -1045.766          40.000    19849165.617 5  82526243.524 5      -813.373          32.000
R02  21266068.164 5 113479791.940 5      2332.898          34.000    21266062.492 4  88262052.547 4      1814.483          27.000
R11  21704429.461 7 115981892.386 7      3085.082          45.000    21704428.875 5  90208082.755 5      2399.508          35.000
R24  21149480.836 8 113095784.281 8     -3307.492          48.000    21149481.992 7  87963385.000 7     -2572.494          44.000
C22  21944239.180 8 114269412.629 8       213.652          48.000
E02  27761283.477 7 145886531.552 7      2897.918          42.000    27761286.352 8 111783188.409 8      2220.833          48.000
E03  24493625.688 7 128714869.073 7     -1574.930          44.000    24493630.148 5  98625722.648 5     -1206.893          35.000
E08  21740005.539 7 114244506.951 7       677.961          45.000    21740007.742 7  87538144.863 7       519.498          43.000
E15  25445494.094 7 133716993.674 7     -2916.586          44.000    25445500.086 8 102458477.916 8     -2234.664          49.000
> 2020 05 17 23 12  0.0000000  0 12        .000000000000
G04  21022565.617 8 110474457.690 8     -1851.246          51.000    21022565.680 7  86083958.505 7     -1442.529          45.000
G07  23136775.742 8 121584585.660 8      3158.758          48.000    23136773.844 8  94741191.506 8      2461.370          48.000
G09  20293920.992 8 106645339.498 8       366.617          51.000    20293921.820 8  83100290.846 8       285.676          51.000
G19  24214163.492 7 127246262.360 7     -3100.293          45.000    24214159.023 7  99152936.223 7     -2415.816          43.000
R01  19855040.023 6 106136559.602 6     -1051.609          40.000    19855046.180 5  82550688.596 5      -817.918          34.000
R11  21687139.273 7 115889503.529 7      3072.289          42.000    21687138.102 5  90136224.813 5      2389.561          33.000
R24  21168067.414 7 113195179.963 7     -3320.883          46.000    21168069.516 7  88040692.781 7     -2582.906          44.000
C22  21943014.266 7 114263035.106 7       209.633          47.000
E02  27744720.180 6 145799500.267 6      2901.852          39.000    27744725.406 8 111716502.088 8      2223.560          49.000
E03  24502611.406 7 128762089.711 7     -1574.832          45.000    24502618.898 5  98661904.624 5     -1206.782          34.000
E08  21736137.758 7 114224178.647 7       675.430          44.000    21736139.789 7  87522568.630 7       517.447          43.000
E15  25462145.531 7 133804496.376 7     -2918.957          45.000    25462151.555 8 102525525.489 8     -2236.657          48.000
> 2020 05 17 23 12 30.0000000  0 14        .000000000000
G04  21033159.930 8 110530131.132 8     -1859.797          51.000    21033159.906 7  86127340.414 7     -1449.192          44.000
G07  23118759.266 8 121489907.810 8      3153.348          48.000    23118757.930 8  94667416.552 8      2457.151          48.000
G09  20291863.805 8 106634529.187 8       354.531          51.000    20291864.664 8  83091867.243 8       276.258          51.000
G19  24231876.805 7 127339345.034 7     -3104.680          44.000    24231872.445 7  99225468.131 7     -2419.231          42.000
R01  19860966.586 6 106168236.691 6     -1059.820          41.000    19860971.828 5  82575326.352 5      -824.302          34.000
R11  21669932.562 5 115797570.105 5      3056.980          35.000    21669933.016 5  90064721.057 5      2377.651          35.000
R24  21186742.070 7 113295046.951 7     -3336.605          47.000    21186745.844 7  88118367.117 7     -2595.138          45.000
C19  23560052.914 4 122683380.129 4     -2082.664          28.000
C21  24303950.445 5 126557057.913 5      2301.473          34.000
C22  21941825.359 8 114256844.975 8       203.480          48.000
E02  27728148.031 6 145712431.211 6      2903.281          38.000    27728157.094 8 111649786.784 8      2224.490          48.000
E03  24511610.945 7 128809384.106 7     -1577.445          44.000    24511620.922 5  98698143.103 5     -1208.824          34.000
E08  21732297.523 7 114203998.692 7       670.324          43.000    21732299.477 7  87507106.038 7       513.730          42.000
E15  25478825.383 8 133892142.793 8     -2923.664          48.000    25478829.797 8 102592683.130 8     -2240.258          48.000
> 2020 05 17 23 13  0.0000000  0 15        .000000000000
G03  23006786.727 5 120901484.577 5     -2768.891          33.000    23006787.641 5  94208939.312 5     -2157.595          31.000
G04  21043814.930 8 110586123.499 8     -1871.250          50.000    21043814.977 7  86170970.817 7     -1458.117          45.000
G07  23100785.578 7 121395457.177 7      3144.988          47.000    23100784.977 7  94593818.628 7      2450.640          47.000
G09  20289888.109 8 106624147.015 8       339.391          51.000    20289889.062 8  83083777.241 8       264.460          51.000
G19  24249626.547 7 127432619.558 7     -3111.809          43.000    24249622.305 7  99298149.547 7     -2424.786          43.000
R01  19866950.891 6 106200222.810 6     -1070.766          38.000    19866954.719 5  82600204.457 5      -832.821          35.000
R02  21226814.539 5 113270312.474 5      2318.020          33.000
R11  21652822.633 6 115706158.059 6      3038.668          37.000    21652827.039 6  89993622.897 6      2363.408          37.000
R24  21205516.469 8 113395442.867 8     -3354.934          48.000    21205521.008 7  88196452.822 7     -2609.393          44.000
C21  24290707.398 4 126488087.588 4      2297.043          28.000
C22  21940684.102 8 114250902.471 8       194.379          48.000
E02  27711583.008 6 145625387.009 6      2901.527          38.000    27711593.164 7 111583090.493 7      2223.272          47.000
E03  24520635.852 7 128856812.238 7     -1582.750          44.000    24520646.688 5  98734484.127 5     -1212.858          34.000
E08  21728496.539 7 114184027.463 7       662.719          43.000    21728498.422 7  87491803.363 7       507.863          42.000
E15  25495544.016 8 133979991.703 8     -2931.227          49.000    25495546.047 7 102659995.896 7     -2245.975          47.000
> 2020 05 17 23 13 30.0000000  0 14        .000000000000
G04  21054520.266 8 110642380.193 8     -1882.293          49.000    21054520.586 7  86214807.213 7     -1466.719          46.000
G07  23082845.094 7 121301182.828 7      3136.840          47.000    23082845.281 7  94520358.063 7      2444.288          47.000
G09  20287983.750 8 106614139.557 8       324.645          51.000    20287984.648 8  83075979.228 8       252.970          51.000
G19  24267401.773 7 127526029.530 7     -3118.645          42.000    24267397.367 7  99370936.556 7     -2430.113          42.000
R01  19872982.148 6 106232463.472 6     -1081.242          36.000    19872985.336 5  82625280.538 5      -840.969          35.000
R02  21213802.078 6 113200844.702 6      2310.355          37.000
R11  21635801.961 6 115615217.803 6      3020.812          37.000    21635809.383 6  89922891.538 6      2349.518          37.000
R24  21224379.422 7 113496309.625 7     -3372.852          47.000    21224383.320 7  88274904.730 7     -2623.329          44.000
C19  23584107.414 5 122808629.700 5     -2093.133          32.000
C22  21939580.602 8 114245155.395 8       185.695          49.000
E02  27695014.672 6 145538316.837 6      2899.965          41.000    27695024.250 7 111516374.320 7      2222.216          47.000
E03  24529676.125 7 128904320.610 7     -1587.645          45.000    24529686.008 5  98770886.628 5     -1216.288          34.000
E08  21724725.664 7 114164211.802 7       655.262          42.000    21724727.523 7  87476619.966 7       501.805          42.000
E15  25512290.508 8 134067988.350 8     -2938.238          49.000    25512290.508 7 102727421.860 7     -2251.473          46.000
> 2020 05 17 23 14  0.0000000  0 15        .000000000000
G04  21065291.930 8 110698985.675 8     -1891.836          49.000    21065292.195 7  86258915.388 7     -1474.158          45.000
G07  23064955.305 8 121207173.051 8      3130.117          48.000    23064955.672 8  94447103.665 8      2439.052          48.000
G09  20286166.883 8 106604592.302 8       311.504          51.000    20286167.641 8  83068539.810 8       242.730          51.000
G19  24285218.227 7 127619657.886 7     -3123.598          43.000    24285213.336 6  99443893.711 6     -2433.972          41.000
R01  19879076.906 5 106265045.850 5     -1090.992          35.000    19879079.992 6  82650622.320 6      -848.553          36.000
R02  21200833.062 5 113131621.751 5      2304.395          35.000    21200842.648 4  87991370.236 4      1792.307          25.000
R11  21618888.891 6 115524841.056 6      3004.074          40.000    21618897.156 6  89852598.456 6      2336.499          40.000
R24  21243345.688 7 113597730.322 7     -3388.996          47.000    21243349.016 7  88353787.507 7     -2635.886          44.000
C19  23596180.234 6 122871485.978 6     -2097.668          36.000
C22  21938531.141 8 114239689.229 8       178.359          49.000
E02  27678458.680 7 145451308.786 7      2900.176          44.000    27678467.023 7 111449705.822 7      2222.147          46.000
E03  24538748.047 7 128951994.761 7     -1590.957          45.000    24538757.625 5  98807416.172 5     -1219.084          33.000
E07  27016370.312 5 141971984.437 5      2235.781          33.000
E08  21721001.141 7 114144637.439 7       649.312          43.000    21721002.297 6  87461621.446 6       497.606          41.000
E15  25529080.672 8 134156216.975 8     -2943.895          49.000    25529080.008 7 102795025.567 7     -2255.687          46.000
> 2020 05 17 23 14 30.0000000  0 15        .000000000000
G04  21076120.758 8 110755891.353 8     -1902.648          48.000    21076120.656 7  86303257.465 7     -1482.583          45.000
G07  23047107.961 8 121113383.675 8      3121.875          50.000    23047107.742 8  94374021.038 8      2432.630          50.000
G09  20284428.727 8 106595457.882 8       296.730          51.000    20284429.336 8  83061422.091 8       231.219          51.000
G19  24303066.844 7 127713454.239 7     -3130.133          44.000    24303061.336 6  99516981.750 6     -2439.065          40.000
R01  19885227.453 6 106297921.800 6     -1101.547          37.000    19885229.688 6  82676192.534 6      -856.756          36.000
R02  21187889.836 4 113062660.440 4      2296.625          28.000
R11  21602074.617 7 115434984.284 7      2985.793          43.000    21602082.266 6  89782709.866 6      2322.283          39.000
R24  21262406.195 8 113699653.169 8     -3406.488          48.000    21262407.961 7  88433060.798 7     -2649.491          43.000
C19  23608276.859 4 122934479.431 4     -2103.523          28.000
C22  21937526.516 8 114234457.754 8       169.641          49.000
E02  27661906.133 7 145364318.122 7      2898.457          45.000    27661912.430 7 111383050.669 7      2220.941          44.000
E03  24547842.500 7 128999787.233 7     -1595.859          45.000    24547852.539 5  98844028.378 5     -1222.771          32.000
E07  27003615.742 5 141904960.683 5      2231.613          35.000
E08  21717313.266 6 114125257.259 6       641.680          41.000    21717313.273 6  87446771.754 6       491.769          41.000
E15  25545904.945 7 134244628.895 7     -2950.914          46.000    25545905.453 7 102862769.744 7     -2261.165          47.000
> 2020 05 17 23 15  0.0000000  0 16        .000000000000
G03  23070320.711 5 121235309.873 5     -2792.738          32.000    23070316.875 5  94469098.931 5     -2176.172          31.000
G04  21087003.492 8 110813079.820 8     -1908.781          48.000    21087003.203 7  86347819.901 7     -1487.362          45.000
G07  23029300.141 8 121019801.133 8      3118.332          51.000    23029298.797 8  94301099.613 8      2429.872          51.000
G09  20282766.086 8 106586720.013 8       286.859          51.000    20282766.617 8  83054613.370 8       223.530          51.000
G19  24320944.102 7 127807399.609 7     -3131.695          43.000    24320938.430 6  99590185.882 6     -2440.282          39.000
R01  19891429.258 6 106331074.619 6     -1107.527          36.000    19891431.430 6  82701978.096 6      -861.410          36.000
R02  21174993.133 5 112993811.408 5      2294.238          35.000
R11  21585355.867 7 115345635.803 7      2972.090          44.000    21585361.977 6  89713216.615 6      2311.625          37.000
R24  21281557.359 8 113802057.687 8     -3419.113          49.000    21281557.203 7  88512708.748 7     -2659.310          44.000
C19  23620392.672 5 122997595.011 5     -2102.895          35.000
C22  21936563.797 8 114229445.580 8       165.672          49.000
E02  27645354.070 7 145277331.163 7      2901.723          46.000    27645356.992 7 111316398.395 7      2223.326          42.000
E03  24556956.469 7 129047681.742 7     -1595.895          45.000    24556966.484 5  98880728.682 5     -1223.140          31.000
E07  26990876.734 6 141838013.656 6      2232.262          36.000
E08  21713658.938 6 114106055.215 6       639.375          40.000    21713657.555 6  87432058.537 6       489.950          41.000
E15  25562760.047 7 134333206.533 7     -2952.953          45.000    25562763.031 8 102930640.935 8     -2262.748          48.000
> 2020 05 17 23 15 30.0000000  0 16        .000000000000
G04  21097940.430 8 110870553.794 8     -1920.859          48.000    21097940.477 7  86392604.822 7     -1496.770          45.000
G07  23011532.852 8 120926432.298 8      3108.430          50.000    23011530.234 8  94228344.752 8      2422.156          51.000
G09  20281179.602 8 106578382.540 8       270.949          51.000    20281180.086 8  83048116.642 8       211.129          51.000
G19  24338850.086 6 127901494.824 6     -3139.285          41.000    24338844.891 6  99663506.843 6     -2446.190          38.000
R01  19897682.305 5 106364508.263 5     -1119.199          33.000    19897686.734 6  82727982.048 6      -870.488          36.000
R02  21162128.031 5 112925156.180 5      2284.770          30.000
R08  22559017.438 5 120802432.734 5     -2863.496          31.000
R11  21568732.992 7 115256804.189 7      2952.184          42.000    21568737.109 6  89644125.379 6      2296.146          36.000
R24  21300797.867 8 113904944.076 8     -3437.840          49.000    21300797.820 7  88592731.456 7     -2673.878          46.000
C19  23632536.523 5 123060835.070 5     -2110.855          35.000
C22  21935643.977 8 114224657.279 8       155.555          49.000
E02  27628803.773 7 145190354.437 7      2898.602          46.000    27628803.336 6 111249753.953 6      2220.797          41.000
E03  24566090.930 7 129095682.105 7     -1602.098          45.000
E07  26978153.414 6 141771147.892 6      2227.316          38.000
E08  21710039.609 6 114087035.541 6       630.734          40.000    21710037.695 7  87417485.022 7       483.167          42.000
E15  25579646.703 7 134421952.507 7     -2961.371          43.000    25579652.445 8 102998641.124 8     -2269.085          48.000
> 2020 05 17 23 16  0.0000000  0 15        .000000000000
G04  21108936.344 8 110928338.044 8     -1930.543          49.000    21108936.711 7  86437631.506 7     -1504.319          45.000
G07  22993811.312 8 120833305.977 8      3100.875          49.000    22993808.305 8  94155778.820 8      2416.266          49.000
G09  20279674.195 8 106570471.336 8       257.402          51.000    20279674.516 8  83041952.065 8       200.573          51.000
G19  24356788.891 6 127995762.943 6     -3144.109          36.000    24356784.555 6  99736962.516 6     -2449.952          36.000
R01  19903992.945 5 106398249.364 5     -1128.727          35.000    19903999.117 5  82754225.092 5      -877.901          35.000
R08  22575075.867 4 120888403.359 4     -2866.672          29.000
R11  21552212.805 7 115168520.577 7      2934.453          42.000    21552214.742 5  89575460.289 5      2282.349          34.000
R24  21320132.164 8 114008334.950 8     -3453.828          49.000    21320132.938 7  88673146.597 7     -2686.311          46.000
C19  23644709.859 5 123124226.373 5     -2114.875          35.000
C22  21934772.242 8 114220119.244 8       147.961          50.000
E02  27612260.648 7 145103416.378 7      2897.953          45.000    27612258.789 7 111183139.124 7      2220.605          42.000
E03  24575250.648 7 129143814.168 7     -1605.766          44.000
E07  26965450.406 6 141704389.861 6      2224.262          38.000
E08  21706460.156 6 114068224.320 6       624.539          41.000    21706459.117 7  87403071.208 7       478.435          44.000
E15  25596570.398 7 134510891.422 7     -2966.941          43.000    25596577.891 7 103066789.148 7     -2273.434          47.000
> 2020 05 17 23 16 30.0000000  0 14        .000000000000
G04  21119993.195 8 110986441.798 8     -1941.086          49.000    21119993.328 7  86482907.147 7     -1512.534          45.000
G07  22976138.078 8 120740435.401 8      3092.453          49.000    22976135.531 8  94083412.137 8      2409.704          49.000
G09  20278251.812 8 106562996.728 8       242.953          51.000    20278251.938 8  83036127.705 8       189.314          51.000
G19  24374760.641 5 128090211.926 5     -3150.074          31.000    24374758.719 5  99810559.226 5     -2454.600          30.000
