     3.02           OBSERVATION DATA    M (MIXED)           RINEX VERSION / TYPE
SAVERINEX           SC600               20200515 115930 LCL PGM / RUN BY / DATE
       G = GPS       R = GLONASS       C = COMPASS          COMMENT
       S = SBAS      J = QZSS          E = GALILEO          COMMENT
BEAN                                                        MARKER NAME
1                                                           MARKER NUMBER
GEODETIC                                                    MARKER TYPE
Unige DICCA         GTER                                    OBSERVER / AGENCY
SC60291900056       SC600               2.12(191202)        REC # / TYPE / VERS
                    HEMA45          NONE                    ANT # / TYPE
  4509407.8091   693652.4678  4442337.6214                  APPROX POSITION XYZ
        0.0000        0.0000        0.0000                  ANTENNA: DELTA H/E/N
G    8 C1C L1C D1C S1C C2Y L2Y D2Y S2Y                      SYS / # / OBS TYPES
R    8 C1C L1C D1C S1C C2P L2P D2P S2P                      SYS / # / OBS TYPES
C    8 C1I L1I D1I S1I C7I L7I D7I S7I                      SYS / # / OBS TYPES
E    8 C1C L1C D1C S1C C7Q L7Q D7Q S7Q                      SYS / # / OBS TYPES
DBHZ                                                        COMMENT
     30.000                                                 INTERVAL
  2020    05    15    09    00    0.0000000     GPS         TIME OF FIRST OBS
  2020    05    15    09    59   30.0000000     GPS         TIME OF LAST OBS
     0                                                      RCV CLOCK OFFS APPL
G L1C  0.00000                                              SYS / PHASE SHIFT
G L2Y  0.00000                                              SYS / PHASE SHIFT
R L1C  0.00000                                              SYS / PHASE SHIFT
R L2P  0.25000                                              SYS / PHASE SHIFT
C L1I  0.00000                                              SYS / PHASE SHIFT
C L7I  0.00000                                              SYS / PHASE SHIFT
E L1C  0.50000                                              SYS / PHASE SHIFT
E L7Q -0.25000                                              SYS / PHASE SHIFT
 12 R01  1 R02 -4 R03  5 R08  6 R09 -2 R10 -5 R11  0 R12 -1 GLONASS SLOT / FRQ #
    R13 -2 R21  4 R22 -3 R23  3                             GLONASS SLOT / FRQ #
 C1C   71.950 C2C   71.950 C2P   71.950                     GLONASS COD/PHS/BIS
    18                                                      LEAP SECONDS
*** Above antenna height is from mark to ANTENNA BOTTOM.    COMMENT
    17     4        0.0000        ANT MEASURE TYPE/HEIGT    COMMENT
    0.0000    0.0000    0.0458    0.0405    0.0000          COMMENT
                    BASE STATION                            COMMENT
                                                            END OF HEADER
> 2020 05 15 09 00  0.0000000  0 16        .000000000000
G12  20170327.609 8 105995770.437 8      -691.348          51.000    20170326.016 8  82594107.868 8      -538.712          51.000
G24  21432607.023 8 112629101.073 8     -2437.656          51.000    21432611.188 8  87762937.762 8     -1899.472          51.000
G25  20532712.344 5 107900135.302 5      1240.551          35.000    20532713.328 5  84078026.256 5       966.660          35.000
G29  22951003.266 7 120608312.953 7      3517.000          43.000    22951008.953 7  93980569.889 7      2740.519          43.000
G32  22175228.969 6 116531582.862 6       512.496          36.000    22175226.609 5  90803834.555 5       399.332          32.000
R03  22896739.727 7 122568042.624 7     -3525.480          47.000    22896742.352 7  95330703.169 7     -2742.043          42.000
R12  21305567.273 4 113810512.665 4     -2377.906          28.000    21305578.016 4  88519298.329 4     -1849.480          29.000
R22  20701824.836 6 110507745.951 6     -1808.062          40.000    20701827.039 6  85950489.966 6     -1406.274          37.000
R23  20487074.570 8 109592036.477 8      3179.746          50.000    20487078.930 6  85238272.654 6      2473.133          36.000
R24  23250950.375 5 124333293.181 5      4575.207          35.000    23250952.789 4  96703661.646 4      3558.503          29.000
C27  22246879.047 8 115845345.774 8        69.473          51.000
C28  25244865.398 6 131456636.611 6     -2630.930          38.000
C30  23365439.008 8 121670017.124 8      2879.684          51.000
E15  24727515.617 7 129943956.281 7      1325.695          42.000    24727517.516 6  99567475.510 6      1015.930          39.000
E27  23520431.828 8 123600688.105 8      -589.414          51.000    23520434.766 8  94707041.557 8      -451.704          51.000
E30  25714376.828 5 135129942.729 5     -2163.641          33.000
> 2020 05 15 09 00 30.0000000  0 14        .000000000000
G12  20174327.820 8 106016791.520 8      -707.977          51.000    20174326.359 8  82610487.931 8      -551.670          51.000
G24  21446577.883 8 112702516.146 8     -2454.508          51.000    21446580.609 8  87820144.259 8     -1912.607          51.000
G25  20525682.703 6 107863192.697 6      1224.230          38.000    20525684.398 6  84049239.787 6       953.943          38.000
G29  22930969.047 7 120503028.682 7      3503.992          43.000    22930972.391 7  93898530.201 7      2730.384          43.000
R03  22916545.914 7 122674065.551 7     -3540.445          46.000    22916548.406 7  95413165.381 7     -2753.683          42.000
R12  21318982.562 5 113882194.609 5     -2393.223          32.000    21318982.945 5  88575034.595 5     -1861.389          30.000
R22  20712076.344 6 110562468.974 6     -1838.477          39.000    20712080.516 6  85993052.408 6     -1429.923          36.000
R23  20469317.625 8 109497052.121 8      3154.629          50.000    20469321.570 5  85164395.926 5      2453.600          35.000
R24  23225307.758 5 124196194.245 5      4567.059          35.000    23225315.867 4  96597029.402 4      3552.166          27.000
C27  22246548.961 8 115843627.075 8        47.230          50.000
C30  23348896.078 8 121583878.017 8      2865.160          48.000
E15  24720006.062 7 129904494.352 7      1307.051          42.000    24720008.852 6  99537238.394 6      1001.728          41.000
E27  23523832.445 8 123618559.441 8      -599.805          51.000    23523835.648 8  94720735.171 8      -459.585          51.000
E30  25726754.961 5 135195010.581 5     -2170.820          32.000
> 2020 05 15 09 01  0.0000000  0 13        .000000000000
G12  20178394.445 8 106038162.215 8      -717.477          51.000    20178393.281 8  82627140.432 8      -559.073          51.000
G24  21460616.398 8 112776286.046 8     -2464.273          51.000    21460617.352 8  87877627.270 8     -1920.213          51.000
G25  20518717.742 6 107826589.941 6      1215.465          37.000    20518718.781 6  84020718.167 6       947.115          37.000
G29  22910982.180 7 120397992.156 7      3497.609          44.000    22910983.469 7  93816683.588 7      2725.413          44.000
R03  22936408.078 7 122780389.085 7     -3548.359          46.000    22936410.828 7  95495861.408 7     -2759.838          42.000
R22  20722472.352 6 110617961.120 6     -1861.930          41.000    20722471.836 5  86036193.847 5     -1448.174          33.000
R23  20451674.086 8 109402671.209 8      3136.707          51.000    20451677.125 5  85090988.603 5      2439.664          34.000
R24  23199687.531 5 124059194.411 5      4565.727          35.000
C27  22246318.805 8 115842430.462 8        31.840          51.000
C30  23332406.891 7 121498025.378 7      2857.562          45.000
E15  24712574.758 6 129865445.346 6      1295.496          41.000    24712579.781 7  99507317.780 7       992.581          43.000
E27  23527263.625 8 123636591.177 8      -603.164          51.000    23527267.102 8  94734551.686 8      -462.093          51.000
E30  25739141.469 5 135260107.081 5     -2170.426          33.000
> 2020 05 15 09 01 30.0000000  0 13        .000000000000
G12  20182533.273 8 106059912.073 8      -731.770          51.000    20182532.195 8  82644088.367 8      -570.210          51.000
G24  21474727.930 8 112850440.026 8     -2478.691          51.000    21474727.891 8  87935409.552 8     -1931.448          51.000
G25  20511823.414 6 107790357.544 6      1201.066          39.000    20511823.898 6  83992485.216 6       935.902          39.000
G29  22891048.836 7 120293235.649 7      3486.840          42.000    22891048.719 7  93735055.191 7      2717.018          42.000
R03  22956331.250 7 122887039.301 7     -3560.750          44.000    22956333.805 6  95578811.522 6     -2769.472          40.000
R12  21345947.141 5 114026218.350 5     -2411.270          32.000    21345950.914 4  88687059.175 4     -1875.435          29.000
R22  20733017.297 5 110674250.256 5     -1890.512          34.000    20733017.422 5  86079974.216 5     -1470.398          35.000
R23  20434150.203 8 109308928.675 8      3113.598          51.000    20434152.469 6  85018077.812 6      2421.690          36.000
R24  23174092.766 6 123922328.358 6      4559.840          36.000
C27  22246195.141 8 115841785.906 8        11.789          51.000
C30  23315978.906 7 121412491.158 7      2845.527          46.000
E15  24705228.195 6 129826840.844 6      1278.801          41.000    24705234.344 7  99477737.713 7       979.902          44.000
E27  23530731.211 8 123654813.731 8      -611.000          51.000    23530734.836 8  94748514.416 8      -468.184          51.000
> 2020 05 15 09 02  0.0000000  0 14        .000000000000
G02  23233846.492 5 122094686.785 5      1317.113          31.000
G12  20186722.859 8 106081928.342 8      -738.336          51.000    20186721.609 8  82661243.890 8      -575.327          51.000
G24  21488891.008 8 112924865.146 8     -2485.324          51.000    21488890.531 8  87993403.106 8     -1936.619          51.000
G25  20504978.266 6 107754383.798 6      1194.691          40.000    20504978.109 6  83964453.714 6       930.928          39.000
G29  22871148.227 6 120188649.885 6      3483.508          39.000    22871147.156 6  93653559.822 6      2714.425          38.000
R03  22976292.766 7 122993897.815 7     -3565.344          43.000    22976294.258 6  95661923.652 6     -2773.045          38.000
R12  21359501.852 4 114098583.419 4     -2415.109          29.000
R22  20743689.414 6 110731219.569 6     -1910.383          39.000    20743692.008 5  86124283.843 5     -1485.856          34.000
R23  20416725.016 8 109215714.191 8      3098.320          50.000    20416727.516 6  84945577.758 6      2409.808          36.000
R24  23148502.234 5 123785486.185 5      4560.539          35.000
C27  22246155.781 8 115841582.128 8         -.566          51.000
C30  23299592.930 7 121327166.334 7      2840.594          47.000
E15  24697945.094 6 129788569.907 6      1270.121          39.000    24697952.227 7  99448413.217 7       973.081          45.000
E27  23534213.828 8 123673115.123 8      -611.395          51.000    23534217.625 8  94762537.543 8      -468.465          51.000
> 2020 05 15 09 02 30.0000000  0 13        .000000000000
G12  20190982.781 8 106104313.982 8      -750.984          51.000    20190981.250 8  82678687.232 8      -585.183          51.000
G24  21503125.195 8 112999664.520 8     -2498.199          51.000    21503124.273 8  88051688.299 8     -1946.652          51.000
G25  20498200.883 5 107718772.732 5      1181.984          34.000    20498199.688 5  83936704.808 5       921.027          34.000
G29  22851300.719 5 120084340.828 5      3473.121          31.000    22851298.336 5  93572280.031 5      2706.322          30.000
R03  22996312.008 7 123101065.646 7     -3575.961          44.000    22996312.250 6  95745276.329 6     -2781.306          37.000
R12  21373082.484 4 114171172.617 4     -2424.703          29.000
R22  20754508.398 5 110788972.347 5     -1936.789          35.000    20754509.117 5  86169202.579 5     -1506.391          32.000
R23  20399418.445 7 109123137.418 7      3076.508          47.000    20399421.195 6  84873573.631 6      2392.839          36.000
R24  23122935.961 5 123648777.362 5      4556.023          30.000    23122947.602 4  96171268.990 4      3543.583          28.000
C27  22246220.812 8 115841921.966 8       -19.023          51.000
C30  23283267.867 8 121242155.858 8      2829.672          48.000
E15  24690744.242 5 129750737.716 5      1254.746          34.000    24690754.109 7  99419424.885 7       961.671          45.000
E27  23537731.289 8 123691599.449 8      -617.941          51.000    23537735.227 8  94776700.836 8      -473.446          51.000
> 2020 05 15 09 03  0.0000000  0 12        .000000000000
G12  20195312.859 8 106127068.781 8      -770.797          51.000    20195311.359 8  82696418.232 8      -600.621          51.000
G24  21517429.984 8 113074836.709 8     -2518.086          51.000    21517428.922 8  88110264.017 8     -1962.148          51.000
G25  20491492.789 5 107683525.123 5      1162.480          35.000    20491491.125 5  83909239.116 5       905.826          30.000
G29  22831495.656 5 119980314.060 5      3456.848          35.000    22831499.758 6  93491162.520 6      2693.648          36.000
R03  23016388.641 7 123208538.954 7     -3593.715          45.000    23016388.719 6  95828866.605 6     -2795.112          38.000
R22  20765473.125 6 110847505.528 6     -1970.520          38.000    20765475.750 5  86214728.328 5     -1532.629          32.000
R23  20382229.914 7 109031202.590 7      3047.477          45.000    20382235.703 6  84802068.806 6      2370.260          38.000
R24  23097395.750 5 123512156.207 5      4544.027          34.000    23097406.500 4  96065047.119 4      3534.243          24.000
C27  22246390.836 8 115842805.632 8       -44.566          51.000
C30  23267003.445 8 121157462.175 8      2811.781          48.000
E15  24683627.055 5 129713341.716 5      1233.035          35.000    24683638.086 7  99390773.796 7       944.641          42.000
E27  23541283.656 8 123710267.180 8      -631.527          51.000    23541287.594 8  94791004.668 8      -483.868          51.000
> 2020 05 15 09 03 30.0000000  0 12        .000000000000
G12  20199695.859 8 106150101.820 8      -776.160          51.000    20199694.500 8  82714366.042 8      -604.800          51.000
G24  21531787.922 8 113150290.441 8     -2523.551          48.000    21531787.523 8  88169059.118 8     -1966.403          49.000
G25  20484837.781 6 107648550.651 6      1157.301          37.000    20484835.359 5  83881986.250 5       901.790          32.000
G29  22811737.695 6 119876475.183 6      3454.434          41.000    22811728.727 6  93410249.208 6      2691.773          41.000
R03  23036504.297 7 123316220.986 7     -3596.555          43.000    23036505.484 6  95912619.260 6     -2797.320          39.000
R12  21400427.156 5 114317290.821 5     -2445.305          31.000    21400445.688 5  88913475.934 5     -1901.904          31.000
R23  20365145.586 7 108939821.631 7      3033.027          47.000    20365153.922 6  84730994.731 6      2359.021          40.000
R24  23071865.734 5 123375635.033 5      4545.703          33.000
C27  22246647.594 8 115844143.301 8       -55.945          51.000
C30  23250782.945 7 121072997.747 7      2807.973          47.000
E15  24676579.805 6 129676300.564 6      1224.957          38.000    24676587.156 6  99362391.532 6       938.726          41.000
E27  23544853.812 8 123729028.026 8      -630.664          51.000    23544857.664 8  94805379.854 8      -483.275          51.000
> 2020 05 15 09 04  0.0000000  0 12        .000000000000
G12  20204157.711 8 106173549.218 8      -784.984          51.000    20204156.492 8  82732636.724 8      -611.676          51.000
G24  21546225.125 7 113226162.625 7     -2532.453          47.000    21546226.062 7  88228180.280 7     -1973.340          47.000
G25  20478261.086 6 107613987.266 6      1149.090          37.000    20478261.148 6  83855053.757 6       895.398          36.000
G29  22792042.867 7 119772967.911 7      3448.082          45.000    22792034.562 7  93329594.321 7      2686.820          45.000
R03  23056683.227 7 123424247.604 7     -3602.988          42.000    23056686.836 6  95996639.977 6     -2802.324          38.000
R22  20787815.156 6 110966808.588 6     -2012.145          36.000    20787813.211 4  86307474.375 4     -1565.007          29.000
R23  20348193.758 8 108849138.501 8      3014.676          50.000    20348202.203 6  84660463.407 6      2344.748          41.000
R24  23046372.102 5 123239307.703 5      4544.340          34.000
C27  22247017.719 8 115846071.185 8       -70.672          51.000
C30  23234633.234 8 120988901.049 8      2800.590          48.000
E15  24669625.562 6 129639748.998 6      1213.750          41.000    24669632.508 6  99334384.569 6       929.986          41.000
E27  23548467.977 8 123748019.883 8      -633.375          51.000    23548471.719 8  94819932.038 8      -485.307          51.000
> 2020 05 15 09 04 30.0000000  0 13        .000000000000
G12  20208669.969 8 106197261.157 8      -796.641          51.000    20208668.664 8  82751113.542 8      -620.759          51.000
G24  21560713.125 8 113302302.534 8     -2544.164          48.000    21560715.312 8  88287510.061 8     -1982.466          48.000
G25  20471733.898 6 107579685.887 6      1137.211          37.000    20471737.359 6  83828325.395 6       886.135          37.000
G29  22772382.500 7 119669644.566 7      3439.293          47.000    22772376.242 7  93249082.684 7      2679.969          47.000
R03  23076897.430 7 123532461.916 7     -3612.086          44.000    23076902.484 6  96080806.630 6     -2809.400          37.000
R22  20799201.867 5 111027535.622 5     -2036.961          34.000    20799190.273 5  86354713.131 5     -1584.303          31.000
R23  20331345.406 8 108759004.753 8      2993.395          51.000    20331353.164 7  84590359.385 7      2328.196          42.000
R24  23020886.664 4 123103025.953 4      4539.945          29.000
C27  22247473.125 8 115848441.003 8       -88.176          51.000
C30  23218526.414 8 120905025.919 8      2790.258          50.000
E13  26415920.703 7 138816602.483 7      3099.934          44.000    26415930.312 6 106366000.766 6      2375.355          40.000
E15  24662736.070 7 129603538.851 7      1199.449          43.000    24662742.648 6  99306639.190 6       919.154          39.000
E27  23552097.617 8 123767093.360 8      -639.004          51.000    23552101.164 8  94834546.772 8      -489.584          51.000
> 2020 05 15 09 05  0.0000000  0 12        .000000000000
G12  20213251.922 8 106221338.942 8      -810.648          51.000    20213250.359 8  82769875.434 8      -631.677          51.000
G24  21575271.828 8 113378810.690 8     -2558.418          48.000    21575274.703 8  88347126.787 8     -1993.572          48.000
G25  20465275.531 5 107545748.606 5      1123.141          33.000    20465277.703 5  83801880.751 5       875.168          34.000
G29  22752775.945 7 119566609.458 7      3427.598          45.000    22752770.516 7  93168795.636 7      2670.855          46.000
R03  23097166.328 7 123640963.160 7     -3623.527          45.000    23097170.781 6  96165196.437 6     -2818.302          36.000
R22  20810708.492 5 111089011.742 5     -2064.105          31.000    20810705.750 5  86402536.097 5     -1605.428          31.000
R23  20314619.875 8 108669528.149 8      2969.613          51.000    20314626.859 7  84520766.494 7      2309.699          43.000
C27  22248032.227 8 115851353.457 8      -108.047          49.000
C30  23202482.398 8 120821475.338 8      2777.633          51.000
E13  26398235.266 7 138723663.337 7      3093.789          44.000    26398246.711 6 106294787.671 6      2370.626          39.000
E15  24655930.734 7 129567773.030 7      1182.648          43.000    24655935.609 6  99279234.268 6       906.263          36.000
E27  23555762.273 8 123786350.615 8      -647.016          51.000    23555765.516 8  94849302.321 8      -495.765          51.000
> 2020 05 15 09 05 30.0000000  0 13        .000000000000
G12  20217911.898 8 106245826.707 8      -818.871          51.000    20217910.156 8  82788956.801 8      -638.081          51.000
G24  21589909.438 8 113455731.113 8     -2566.715          49.000    21589912.578 8  88407064.736 8     -2000.038          49.000
G25  20458895.180 6 107512220.589 6      1114.844          36.000    20458894.055 5  83775755.152 5       868.706          34.000
G29  22733232.508 7 119463909.848 7      3422.039          43.000    22733228.094 7  93088770.002 7      2666.527          44.000
R03  23117497.695 7 123749792.885 7     -3628.621          46.000    23117500.375 6  96249841.722 6     -2822.264          36.000
R22  20822380.453 5 111151272.232 5     -2085.309          35.000    20822376.703 5  86450981.660 5     -1621.904          30.000
R23  20298026.008 8 108580758.124 8      2951.453          51.000    20298032.906 7  84451723.185 7      2295.575          43.000
C27  22248703.797 7 115854852.938 7      -122.176          47.000
C28  25415042.188 6 132342794.148 6     -2733.527          38.000
C30  23186509.828 8 120738295.964 8      2770.711          51.000
E13  26380583.156 7 138630899.357 7      3093.453          46.000    26380596.211 6 106223708.803 6      2370.518          38.000
E15  24649218.328 7 129532497.681 7      1171.832          42.000    24649222.609 6  99252205.173 6       898.215          37.000
E27  23559470.508 8 123805836.761 8      -649.027          51.000    23559473.617 8  94864233.245 8      -497.337          51.000
> 2020 05 15 09 06  0.0000000  0 13        .000000000000
G12  20222624.453 8 106270591.020 8      -826.336          51.000    20222622.727 8  82808253.663 8      -643.898          51.000
G24  21604600.133 8 113532929.744 8     -2574.180          49.000    21604603.297 8  88467219.448 8     -2005.854          49.000
G25  20452568.688 6 107478969.445 6      1107.461          36.000    20452567.516 6  83749845.209 6       862.957          36.000
G29  22713726.398 6 119361415.367 6      3416.582          40.000    22713724.398 6  93008904.187 6      2662.272          40.000
R03  23137864.555 7 123858811.237 7     -3633.242          47.000    23137866.234 6  96334633.708 6     -2825.858          38.000
R12  21469695.227 5 114687241.621 5     -2483.633          32.000    21469707.352 4  89201234.429 4     -1931.720          27.000
R22  20834206.078 5 111214309.582 5     -2106.539          34.000    20834171.539 5  86499971.959 5     -1638.416          30.000
R23  20281538.883 8 108492563.496 8      2934.008          51.000    20281546.117 7  84383127.398 7      2282.006          43.000
C27  22249462.352 7 115858807.524 7      -135.598          45.000
C30  23170583.586 8 120655358.169 8      2764.277          51.000
E13  26362939.141 7 138538179.814 7      3093.484          46.000    26362953.586 6 106152664.004 6      2370.102          36.000
E15  24642574.312 6 129497581.185 6      1161.578          40.000    24642579.703 6  99225451.079 6       889.989          40.000
E27  23563197.117 8 123825419.186 8      -650.723          51.000    23563200.203 8  94879237.949 8      -498.600          51.000
> 2020 05 15 09 06 30.0000000  0 15        .000000000000
G02  23169609.977 5 121757121.273 5      1174.574          33.000
G12  20227372.250 8 106295540.463 8      -850.898          51.000    20227370.609 8  82827694.787 8      -663.038          51.000
G24  21619326.414 8 113610315.250 8     -2598.969          51.000    21619329.414 8  88527519.810 8     -2025.170          51.000
G25  20446277.289 5 107445904.767 5      1082.594          35.000    20446278.062 5  83724080.589 5       843.583          35.000
G29  22694241.406 6 119259037.574 6      3393.988          40.000    22694242.750 6  92929129.217 6      2644.663          39.000
G32  22146993.852 6 116383220.543 6       242.684          36.000    22147005.125 5  90688282.431 5       189.104          34.000
R03  23158248.336 7 123967921.722 7     -3655.102          46.000    23158249.836 6  96419497.332 6     -2842.860          38.000
R12  21483662.703 5 114761867.104 5     -2506.398          33.000
R22  20846109.359 5 111277934.590 5     -2143.773          33.000    20846073.070 4  86549390.139 4     -1667.376          28.000
R23  20265142.383 8 108404855.534 8      2898.895          50.000    20265149.602 7  84314910.106 7      2254.696          42.000
C27  22250291.602 7 115863127.286 7      -166.215          47.000
C30  23154686.477 8 120572574.248 8      2740.801          51.000
E13  26345286.430 7 138445416.221 7      3076.332          47.000    26345302.672 5 106081585.454 5      2357.082          33.000
E15  24635980.836 5 129462933.982 5      1134.109          34.000    24635986.445 6  99198903.306 6       868.673          39.000
E27  23566924.828 8 123845007.559 8      -669.426          51.000    23566927.773 8  94894247.215 8      -512.919          51.000
> 2020 05 15 09 07  0.0000000  0 14        .000000000000
G12  20232227.344 8 106321053.989 8      -870.344          51.000    20232225.922 8  82847575.447 8      -678.190          51.000
G24  21634160.016 8 113688265.878 8     -2618.324          50.000    21634162.828 8  88588260.537 8     -2040.253          50.000
G25  20440092.188 5 107413409.665 5      1063.684          31.000    20440094.188 5  83698757.261 5       828.841          30.000
G29  22674853.406 7 119157158.266 7      3377.035          43.000    22674856.141 7  92849742.697 7      2631.453          43.000
G32  22145630.742 6 116376056.644 6       214.566          37.000
R03  23178720.320 7 124077506.229 7     -3671.418          47.000    23178721.508 6  96504729.647 6     -2855.550          38.000
R12  21497726.469 4 114836995.738 4     -2523.531          27.000    21497739.000 4  89317710.707 4     -1962.756          27.000
R22  20858189.109 5 111342424.140 5     -2176.316          34.000
R23  20248909.945 8 108318024.373 8      2868.957          51.000    20248916.844 6  84247374.751 6      2231.408          41.000
C27  22251263.602 7 115868187.959 7      -191.324          47.000
C30  23138890.844 8 120490322.319 8      2722.359          51.000
E13  26327698.141 7 138352990.301 7      3064.691          47.000    26327689.812 5 106010697.004 5      2348.064          34.000
E15  24629511.062 5 129428936.766 5      1111.938          35.000    24629514.172 6  99172853.454 6       851.947          38.000
E27  23570725.805 8 123864981.567 8      -682.789          51.000    23570728.609 8  94909551.971 8      -523.173          51.000
> 2020 05 15 09 07 30.0000000  0 13        .000000000000
G12  20237123.742 8 106346784.703 8      -862.133          51.000    20237122.461 8  82867625.328 8      -671.792          51.000
G24  21649034.875 8 113766433.902 8     -2609.859          49.000    21649038.094 8  88649170.666 8     -2033.660          49.000
G29  22655496.289 7 119055433.522 7      3387.316          46.000    22655498.875 7  92770476.667 7      2639.467          46.000
R03  23199213.672 7 124187207.582 7     -3659.336          47.000    23199214.445 6  96590052.856 6     -2846.150          39.000
R12  21511826.258 5 114912309.903 5     -2512.402          34.000    21511838.766 4  89376295.851 4     -1954.091          24.000
R22  20870374.844 5 111407418.638 5     -2181.223          30.000    20870362.203 4  86650195.193 4     -1696.513          29.000
R23  20232776.742 8 108231721.664 8      2867.137          51.000    20232783.414 6  84180250.426 6      2229.995          40.000
R24  22868539.023 4 122288355.771 4      4513.457          28.000    22868530.859 4  95113138.169 4      3510.461          25.000
C27  22252311.922 8 115873646.159 8      -189.383          48.000
C30  23123131.062 8 120408261.259 8      2731.355          50.000
E13  26310108.828 7 138260557.925 7      3080.215          47.000    26310102.352 6 105939872.257 6      2360.069          37.000
E15  24623099.656 6 129395244.386 6      1117.387          36.000    24623102.352 6  99147037.183 6       856.081          40.000
E27  23574534.203 8 123884995.205 8      -668.566          51.000    23574536.922 8  94924887.086 8      -512.251          51.000
> 2020 05 15 09 08  0.0000000  0 15        .000000000000
G02  23149739.609 5 121652731.864 5      1139.422          34.000
G12  20242109.352 8 106372984.617 8      -874.738          51.000    20242108.062 8  82888040.829 8      -681.614          51.000
G24  21663999.203 8 113845071.551 8     -2622.684          50.000    21664002.828 8  88710446.748 8     -2043.650          50.000
G25  20427898.172 5 107349329.406 5      1059.156          33.000    20427897.102 5  83648819.059 5       825.326          32.000
G29  22636217.531 8 118954118.657 8      3376.770          49.000    22636219.711 8  92691530.029 8      2631.249          49.000
G32  22143214.891 6 116363384.742 6       192.305          36.000
R03  23219775.984 7 124297279.214 7     -3668.582          46.000    23219776.531 6  96675664.075 6     -2853.342          40.000
R12  21525984.969 5 114987976.433 5     -2522.758          34.000
R22  20882719.969 5 111473376.400 5     -2206.918          31.000    20882728.852 5  86701551.207 5     -1716.492          31.000
R23  20216791.602 8 108146208.140 8      2843.840          51.000    20216797.461 6  84113739.950 6      2211.878          39.000
C27  22253485.094 8 115879752.249 8      -207.953          49.000
C30  23107456.414 8 120326643.779 8      2719.492          48.000
E13  26292567.070 7 138168374.139 7      3075.184          47.000    26292560.906 6 105869237.968 6      2356.256          38.000
E15  24616794.141 6 129362110.818 6      1101.148          37.000    24616797.508 6  99121649.176 6       843.989          37.000
E27  23578398.328 8 123905301.647 8      -675.258          51.000    23578400.930 8  94940446.564 8      -517.453          51.000
> 2020 05 15 09 08 30.0000000  0 15        .000000000000
G02  23143285.648 6 121618789.887 6      1126.137          39.000    23143287.828 5  94767888.600 5       877.509          30.000
G12  20247147.781 8 106399461.933 8      -884.406          51.000    20247146.273 8  82908672.492 8      -689.148          51.000
G24  21679016.531 8 113923986.154 8     -2632.203          50.000    21679020.219 8  88771938.635 8     -2051.067          50.000
G25  20421899.602 6 107317807.938 6      1048.746          37.000    20421897.805 5  83624257.122 5       817.208          30.000
G29  22616980.773 8 118853024.830 8      3368.816          50.000    22616982.555 8  92612755.646 8      2625.055          50.000
R03  23240370.383 7 124407521.969 7     -3674.641          46.000    23240370.969 6  96761408.405 6     -2858.054          40.000
R12  21540186.070 6 115063849.782 6     -2529.539          39.000    21540198.852 4  89494101.071 4     -1967.422          27.000
R23  20200918.211 8 108061293.082 8      2823.398          51.000    20200922.867 6  84047694.943 6      2195.980          40.000
R24  22817994.289 5 122018032.960 5      4503.957          34.000    22817993.609 5  94902928.062 5      3503.081          30.000
C27  22254746.000 8 115886316.553 8      -223.613          49.000
C30  23091830.430 7 120245282.478 7      2710.629          46.000
E13  26275036.570 7 138076249.967 7      3072.586          44.000    26275029.383 6 105798649.357 6      2354.397          38.000
E15  24610559.516 5 129329346.072 5      1088.828          35.000    24610559.008 5  99096543.605 5       834.581          34.000
E21  24668874.578 5 129635810.688 5      1483.633          32.000
E27  23582281.984 8 123925710.009 8      -679.160          51.000    23582284.398 8  94956084.132 8      -520.360          51.000
> 2020 05 15 09 09  0.0000000  0 14        .000000000000
G02  23136918.484 6 121585329.080 6      1107.766          39.000
G12  20252247.086 8 106426259.173 8      -898.988          51.000    20252245.430 8  82929553.452 8      -700.510          51.000
G24  21694094.656 8 114003219.991 8     -2646.836          51.000    21694098.227 8  88833679.272 8     -2062.470          51.000
G25  20415963.477 5 107286612.623 5      1034.355          33.000    20415967.211 5  83599949.050 5       805.979          32.000
G29  22597794.453 8 118752197.232 8      3355.930          51.000    22597795.656 8  92534188.709 8      2615.010          51.000
R03  23261003.898 7 124517975.087 7     -3685.727          45.000    23261004.008 6  96847316.337 6     -2866.679          39.000
R12  21554437.391 6 115139972.912 6     -2542.195          36.000
R23  20185165.141 8 107977023.828 8      2797.676          51.000    20185169.297 6  83982152.220 6      2175.970          41.000
R24  22792761.602 6 121883094.678 6      4494.695          36.000    22792758.430 5  94797976.099 5      3495.877          33.000
C27  22256102.602 8 115893381.252 8      -244.406          49.000
C30  23076262.484 7 120164221.934 7      2696.574          47.000
E13  26257525.844 6 137984230.447 6      3065.074          41.000    26257517.602 6 105728140.941 6      2348.557          39.000
E15  24604401.523 5 129297004.913 5      1070.996          33.000    24604402.016 5  99071730.473 5       820.394          34.000
E27  23586193.273 8 123946263.422 8      -688.141          51.000    23586195.547 8  94971832.855 8      -527.238          51.000
> 2020 05 15 09 09 30.0000000  0 14        .000000000000
G12  20257409.523 8 106453387.981 8      -910.352          51.000    20257407.938 8  82950692.797 8      -709.365          51.000
G24  21709235.617 8 114082784.476 8     -2658.184          51.000    21709238.977 8  88895677.539 8     -2071.315          51.000
G25  20410090.938 5 107255755.160 5      1022.035          32.000    20410095.805 5  83575904.992 5       796.391          33.000
G29  22578661.539 8 118651650.542 8      3346.262          51.000    22578661.578 8  92455840.685 8      2607.480          51.000
R03  23281677.711 7 124628646.860 7     -3693.227          44.000    23281677.016 6  96933394.307 6     -2872.513          37.000
R12  21568740.695 6 115216292.986 6     -2550.996          40.000    21568742.000 4  89612717.430 4     -1984.108          27.000
R22  20920568.883 5 111675392.254 5     -2280.137          31.000    20920571.297 5  86858667.067 5     -1773.440          34.000
R23  20169535.922 8 107893417.103 8      2775.273          50.000    20169540.195 6  83917124.778 6      2158.546          41.000
R24  22767556.367 5 121748318.229 5      4489.164          35.000    22767553.070 5  94693150.100 5      3491.578          33.000
C27  22257558.023 8 115900958.426 8      -261.703          50.000
C30  23060756.234 8 120083476.531 8      2685.664          49.000
E13  26240038.672 6 137892330.253 6      3060.922          37.000    26240030.133 6 105657723.976 6      2345.298          40.000
E15  24598325.953 6 129265075.292 6      1056.438          38.000    24598327.766 5  99047268.012 5       809.580          34.000
E27  23590134.578 8 123966974.703 8      -693.578          51.000    23590136.797 8  94987702.536 8      -531.503          51.000
> 2020 05 15 09 10  0.0000000  0 15        .000000000000
G02  23124434.031 5 121519720.971 5      1079.992          31.000
G12  20262631.312 8 106480828.513 8      -918.562          51.000    20262629.898 8  82972075.020 8      -715.763          51.000
G24  21724435.469 8 114162658.434 8     -2666.301          51.000    21724438.516 8  88957916.948 8     -2077.640          51.000
G25  20404279.227 5 107225213.397 5      1013.344          33.000    20404283.570 5  83552110.094 5       789.619          33.000
G29  22559578.875 8 118551368.141 8      3339.688          51.000    22559577.258 8  92377698.602 8      2602.357          51.000
R03  23302388.172 7 124739513.345 7     -3697.289          43.000    23302386.602 6  97019623.697 6     -2875.672          37.000
R12  21583087.539 5 115292921.534 5     -2556.160          30.000    21583090.633 4  89672317.489 4     -1988.125          28.000
R22  20933465.625 5 111744266.649 5     -2301.188          33.000
R23  20154027.211 8 107810456.511 8      2755.926          51.000    20154032.031 6  83852599.867 6      2143.498          41.000
R24  22742380.141 6 121613688.177 6      4486.742          38.000    22742375.492 5  94588437.872 5      3489.691          33.000
C27  22259107.820 8 115909028.610 8      -275.836          49.000
C30  23045308.023 8 120003029.140 8      2677.863          51.000
E13  26222567.578 5 137800522.408 5      3059.555          30.000    26222563.273 7 105587385.286 7      2344.322          43.000
E15  24592328.531 6 129233557.765 6      1045.543          36.000    24592328.820 5  99023118.248 5       800.912          32.000
E27  23594102.211 8 123987824.746 8      -696.004          51.000    23594104.398 8  95003678.527 8      -533.290          51.000
> 2020 05 15 09 10 30.0000000  0 15        .000000000000
G12  20267898.273 8 106508506.359 8      -922.207          51.000    20267897.031 8  82993642.163 8      -718.603          51.000
G24  21739680.188 8 114242768.050 8     -2669.934          51.000    21739682.602 8  89020339.982 8     -2080.468          51.000
G25  20398515.156 5 107194923.136 5      1009.801          34.000    20398519.688 5  83528507.340 5       786.858          33.000
G29  22540532.664 8 118451278.367 8      3337.309          51.000    22540529.883 8  92299706.626 8      2600.503          51.000
G32  22139173.969 5 116342131.613 5       100.789          31.000
R03  23323122.258 7 124850495.126 7     -3696.965          42.000    23323122.414 6  97105942.823 6     -2875.414          38.000
R12  21597460.180 5 115369746.577 5     -2558.625          34.000
R22  20946451.883 5 111813614.764 5     -2317.422          34.000
R23  20138626.070 8 107728070.974 8      2740.910          51.000    20138631.227 6  83788522.257 6      2131.819          41.000
R24  22717220.023 5 121479133.720 5      4488.309          34.000    22717212.992 5  94483784.402 5      3490.907          34.000
C27  22260738.398 8 115917518.553 8      -285.750          51.000
C30  23029903.250 8 119922808.870 8      2674.449          51.000
E13  26205099.469 6 137708710.405 6      3062.699          39.000    26205103.078 7 105517070.191 7      2346.702          45.000
E15  24586394.727 6 129202375.781 6      1038.293          37.000    24586393.250 5  98999225.616 5       795.458          33.000
E27  23598082.281 8 124008740.316 8      -694.000          51.000    23598084.477 8  95019704.739 8      -531.769          51.000
> 2020 05 15 09 11  0.0000000  0 13        .000000000000
G02  23112296.547 6 121455949.920 6      1055.293          36.000
G12  20273253.969 8 106536650.995 8      -934.855          51.000    20273252.914 8  83015573.064 8      -728.459          51.000
G24  21755013.125 8 114323341.533 8     -2682.410          51.000    21755014.484 8  89083124.482 8     -2090.190          51.000
G29  22521566.758 8 118351613.797 8      3325.938          50.000    22521564.094 8  92222045.960 8      2591.640          50.000
G32  22138714.328 6 116339714.069 6        79.652          36.000
R03  23343919.031 6 124961817.345 6     -3705.418          41.000    23343922.766 6  97192533.620 6     -2881.995          39.000
R12  21611911.008 5 115446930.059 5     -2568.500          31.000    21611927.961 4  89792122.963 4     -1997.722          28.000
R23  20123376.836 8 107646498.305 8      2716.781          51.000    20123381.859 6  83725076.880 6      2113.052          41.000
C27  22262493.305 8 115926655.867 8      -304.418          50.000
C30  23014585.836 8 119843045.738 8      2662.172          51.000
E13  26187691.047 7 137617206.243 7      3056.824          45.000    26187692.516 7 105446956.616 7      2342.248          47.000
E15  24580569.359 6 129171760.562 6      1022.234          38.000    24580568.953 5  98975767.239 5       783.124          35.000
E27  23602118.672 8 124029951.730 8      -700.922          51.000    23602120.789 8  95035957.621 8      -537.079          51.000
> 2020 05 15 09 11 30.0000000  0 13        .000000000000
G12  20278645.062 8 106564981.792 8      -953.840          51.000    20278643.992 8  83037649.005 8      -743.252          51.000
G24  21770380.531 8 114404098.278 8     -2701.234          50.000    21770381.391 8  89146051.790 8     -2104.858          50.000
G29  22502627.898 8 118252096.657 8      3308.469          48.000    22502626.703 8  92144500.123 8      2578.028          48.000
G32  22138340.672 5 116337750.936 5        51.426          34.000    22138338.602 5  90652783.450 5        40.072          31.000
R03  23364726.266 6 125073200.455 6     -3720.363          40.000    23364731.719 6  97279164.906 6     -2893.616          40.000
R12  21626393.148 4 115524309.702 4     -2585.957          25.000
R22  20972848.969 5 111954445.241 5     -2374.062          32.000    20972838.461 4  87075668.607 4     -1846.493          27.000
R23  20108226.523 8 107565456.817 8      2686.027          51.000    20108231.648 6  83662044.628 6      2089.132          40.000
C27  22264319.141 8 115936162.630 8      -329.363          50.000
C30  22999302.961 8 119763464.235 8      2643.441          50.000
E13  26170278.031 8 137525687.168 8      3044.402          48.000    26170278.773 8 105376831.642 8      2332.757          49.000
E15  24574797.703 5 129141432.960 5       999.609          33.000    24574800.297 6  98952529.245 6       766.042          36.000
E27  23606158.180 8 124051179.197 8      -714.195          51.000    23606160.211 8  95052222.809 8      -547.250          51.000
> 2020 05 15 09 12  0.0000000  0 15        .000000000000
G02  23100517.234 5 121394034.199 5      1016.273          34.000
G12  20284138.586 8 106593850.570 8      -964.406          51.000    20284137.266 8  83060144.143 8      -751.485          51.000
G24  21785848.914 7 114485389.245 7     -2711.746          47.000    21785850.672 7  89209395.377 7     -2113.049          46.000
G25  20381681.211 6 107106444.353 6       966.641          36.000    20381680.484 5  83459566.290 5       753.220          35.000
G29  22483784.992 8 118153081.885 8      3298.895          49.000    22483785.406 8  92067345.765 8      2570.570          49.000
R03  23385609.031 6 125184993.939 6     -3726.508          37.000    23385616.406 6  97366115.413 6     -2898.395          39.000
R12  21640957.859 6 115602121.943 6     -2594.004          36.000    21640953.430 5  89912745.052 5     -2017.559          33.000
R22  20986276.562 4 112026099.612 4     -2397.145          29.000    20986268.875 4  87131400.034 4     -1864.449          29.000
R23  20093243.594 8 107485309.173 8      2663.578          51.000    20093248.234 6  83599707.583 6      2071.675          40.000
R24  22641980.727 6 121076836.627 6      4460.469          36.000    22641990.211 6  94170905.084 6      3469.257          36.000
C27  22266282.938 8 115946387.911 8      -346.090          49.000
C30  22984122.500 8 119684415.774 8      2632.645          51.000
E13  26152928.594 8 137434508.022 8      3040.344          50.000    26152929.500 8 105306967.125 8      2329.569          50.000
E15  24569149.062 5 129111746.620 5       985.598          34.000    24569151.562 5  98929782.627 5       754.896          35.000
E27  23610267.891 8 124072775.671 8      -719.254          51.000    23610270.016 8  95068770.735 8      -551.126          51.000
> 2020 05 15 09 12 30.0000000  0 12        .000000000000
G12  20289658.609 8 106622858.494 8      -973.906          51.000    20289657.055 8  83082747.717 8      -758.888          51.000
G24  21801342.539 7 114566814.770 7     -2720.926          44.000    21801345.273 7  89272843.842 7     -2120.202          44.000
G29  22464962.977 8 118054172.680 8      3290.605          51.000    22464964.617 8  91990273.681 8      2564.111          51.000
R03  23406492.219 6 125296787.785 6     -3731.363          38.000    23406500.578 6  97453066.172 6     -2902.171          38.000
R12  21655522.875 5 115679982.164 5     -2601.883          30.000    21655528.672 5  89973303.081 5     -2023.681          34.000
R23  20078352.672 8 107405652.814 8      2642.238          51.000    20078357.203 6  83537752.685 6      2055.077          40.000
R24  22616962.336 6 120943019.886 6      4456.027          40.000    22616965.320 6  94066825.427 6      3465.802          37.000
C27  22268308.875 8 115956936.182 8      -361.535          49.000
C30  22968969.055 8 119605507.264 8      2623.340          51.000
E13  26135567.703 8 137343272.229 8      3037.594          51.000    26135568.852 8 105237059.199 8      2327.549          49.000
E15  24563546.500 5 129082304.160 5       972.859          34.000    24563548.773 6  98907222.643 6       745.578          37.000
E27  23614371.906 8 124094342.719 8      -722.957          51.000    23614374.352 8  95085296.112 8      -553.990          51.000
> 2020 05 15 09 13  0.0000000  0 13        .000000000000
G12  20295259.203 8 106652290.070 8      -979.645          51.000    20295257.609 8  83105681.396 8      -763.359          51.000
G24  21816916.242 7 114648659.838 7     -2726.738          44.000    21816919.727 7  89336619.217 7     -2124.728          44.000
G29  22446216.219 8 117955657.864 8      3285.699          50.000    22446218.727 8  91913508.900 8      2560.285          50.000
G32  22137974.562 5 116335837.276 5        -1.316          31.000
R03  23427430.156 6 125408868.604 6     -3731.906          40.000    23427438.320 5  97540240.118 5     -2902.594          35.000
R12  21670172.375 5 115758190.305 5     -2604.410          34.000    21670167.141 5  90034134.640 5     -2025.646          30.000
R23  20063608.789 8 107326782.499 8      2624.492          51.000    20063613.078 6  83476409.139 6      2041.272          40.000
R24  22591993.836 7 120809492.839 7      4454.648          42.000    22591994.812 6  93962971.147 6      3464.730          36.000
C27  22270451.133 7 115968090.568 7      -373.566          47.000
C30  22953896.953 8 119527024.200 8      2617.359          49.000
E13  26118250.266 8 137252268.116 8      3038.051          50.000    26118251.617 8 105167328.795 8      2327.797          48.000
E15  24558043.609 6 129053394.353 6       963.426          36.000    24558048.578 6  98885069.397 6       738.173          38.000
E27  23618524.742 8 124116166.756 8      -723.301          51.000    23618527.562 8  95102018.406 8      -554.206          51.000
> 2020 05 15 09 13 30.0000000  0 13        .000000000000
G12  20300941.094 8 106682148.938 8      -997.539          51.000    20300939.555 8  83128948.024 8      -777.303          51.000
G24  21832570.922 7 114730927.480 7     -2744.352          44.000    21832574.477 7  89400723.849 7     -2138.456          44.000
G25  20365418.672 5 107021016.500 5       932.492          30.000
G29  22427545.867 8 117857543.617 8      3268.770          51.000    22427548.617 8  91837056.243 8      2547.093          51.000
R03  23448422.602 6 125521236.265 6     -3745.371          39.000    23448429.195 5  97627637.121 5     -2913.069          32.000
R12  21684874.305 5 115836775.298 5     -2620.680          34.000    21684882.000 5  90095256.538 5     -2038.297          33.000
R23  20049013.352 8 107248706.183 8      2594.277          51.000    20049017.711 6  83415683.161 6      2017.771          40.000
R24  22567079.312 6 120676263.759 6      4440.887          41.000    22567079.055 5  93859348.614 5      3454.029          34.000
C27  22272710.180 7 115979854.424 7      -397.363          46.000
C30  22938907.297 8 119448972.407 8      2599.395          49.000
E13  26100977.594 8 137161501.786 8      3026.500          49.000    26100979.203 7 105097780.590 7      2319.012          46.000
E15  24552643.859 6 129025018.121 6       941.973          38.000    24552648.773 6  98863326.530 6       721.559          38.000
E27  23622727.367 8 124138251.935 8      -735.590          51.000    23622730.281 8  95118940.799 8      -563.634          51.000
> 2020 05 15 09 14  0.0000000  0 13        .000000000000
G12  20306643.938 8 106712117.889 8     -1009.320          51.000    20306642.547 8  83152300.442 8      -786.483          51.000
G24  21848246.023 8 114813299.250 8     -2755.902          48.000    21848249.062 8  89464909.582 8     -2147.456          48.000
G25  20360112.312 6 106993109.077 6       919.691          36.000    20360118.812 6  83371250.953 6       716.640          36.000
G29  22408892.195 8 117759515.269 8      3257.715          51.000    22408894.086 8  91760670.554 8      2538.479          51.000
R03  23469415.805 6 125633614.682 6     -3752.074          38.000    23469404.461 4  97715006.748 4     -2918.280          28.000
R12  21699612.555 5 115915415.162 5     -2630.566          32.000
R23  20034506.211 8 107171104.370 8      2570.070          48.000    20034510.648 6  83355326.166 6      1998.947          41.000
R24  22542161.039 7 120543014.312 7      4433.355          43.000    22542160.648 5  93755710.263 5      3448.168          34.000
C27  22275025.961 7 115991913.399 7      -415.453          45.000
C30  22923940.578 8 119371039.884 8      2587.340          49.000
E13  26083689.352 7 137070658.509 7      3020.812          47.000    26083691.148 6 105028173.417 6      2314.810          41.000
E15  24547286.055 6 128996861.494 6       926.539          39.000    24547291.680 6  98841751.992 6       709.772          40.000
E27  23626919.523 8 124160281.752 8      -741.941          51.000    23626922.359 8  95135820.771 8      -568.468          51.000
> 2020 05 15 09 14 30.0000000  0 12        .000000000000
G12  20312427.836 8 106742512.368 8     -1018.703          51.000    20312426.625 8  83175984.435 8      -793.795          51.000
G24  21864001.180 8 114896089.914 8     -2765.008          50.000    21864003.906 8  89529421.728 8     -2154.555          50.000
G25  20354887.203 5 106965643.960 5       910.363          35.000    20354891.406 6  83349849.523 6       709.371          36.000
G29  22390315.539 8 117661891.402 8      3248.863          51.000    22390315.539 8  91684600.105 8      2531.585          51.000
R03  23490458.336 5 125746219.643 5     -3756.285          35.000
R23  20020148.250 8 107094302.398 8      2548.293          49.000    20020153.781 7  83295591.303 7      1982.009          43.000
R24  22517300.000 6 120410070.657 6      4427.922          41.000    22517300.062 5  93652309.746 5      3443.942          33.000
C27  22277458.305 7 116004580.240 7      -430.855          44.000
C30  22909057.883 8 119293541.891 8      2577.543          50.000
E13  26066445.703 7 136980056.640 7      3017.711          46.000    26066443.555 6 104958751.357 6      2312.242          40.000
E15  24542030.648 6 128969241.785 6       913.289          41.000    24542036.945 6  98820588.872 6       699.766          39.000
E27  23631161.305 8 124182572.648 8      -745.773          51.000    23631164.203 8  95152900.790 8      -571.425          51.000
> 2020 05 15 09 15  0.0000000  0 13        .000000000000
G06  23491312.914 6 123447679.118 6      -376.668          36.000
G12  20318273.742 8 106773232.330 8     -1030.391          51.000    20318272.609 8  83199922.062 8      -802.902          51.000
G24  21879817.383 8 114979199.968 8     -2776.625          51.000    21879819.328 8  89594182.795 8     -2163.607          51.000
G25  20349723.898 5 106938522.260 5       897.023          33.000    20349726.297 5  83328715.743 5       698.979          31.000
G29  22371797.180 8 117564574.745 8      3237.711          51.000    22371796.047 8  91608769.035 8      2522.895          51.000
R03  23511525.805 4 125858996.407 4     -3762.840          27.000
R23  20005921.953 8 107018202.545 8      2523.859          49.000    20005928.289 7  83236402.527 7      1963.008          43.000
R24  22492478.117 7 120277335.756 7      4419.922          42.000    22492477.750 5  93549071.616 5      3437.720          33.000
C27  22279988.812 7 116017756.127 7      -448.883          44.000
C30  22894240.781 8 119216382.014 8      2565.262          51.000
E13  26049230.211 8 136889599.089 8      3011.770          48.000    26049227.766 7 104889439.787 7      2307.645          45.000
E15  24536859.039 6 128942060.632 6       897.520          39.000    24536863.758 5  98799761.792 5       687.554          35.000
E27  23635433.914 8 124205025.659 8      -752.180          51.000    23635437.023 8  95170105.024 8      -576.322          51.000
> 2020 05 15 09 15 30.0000000  0 15        .000000000000
G06  23493492.781 6 123459140.720 6      -387.840          36.000    23493514.555 6  96202007.435 6      -302.210          36.000
G12  20324160.672 8 106804167.805 8     -1032.543          51.000    20324159.453 8  83224027.617 8      -804.579          51.000
G24  21895673.008 8 115062517.906 8     -2778.660          51.000    21895674.289 8  89659105.826 8     -2165.190          51.000
G25  20344606.812 6 106911635.056 6       894.809          37.000    20344607.867 6  83307764.659 6       697.253          36.000
G29  22353316.578 8 117467458.259 8      3236.012          51.000    22353315.539 8  91533093.901 8      2521.568          51.000
G32  22139581.875 5 116344281.421 5      -100.309          33.000    22139594.297 4  90657906.727 4       -78.156          26.000
R12  21744082.852 5 116152984.678 5     -2646.742          31.000
R22  21083674.672 6 112546040.693 6     -2547.719          36.000
R23  19991807.078 8 106942697.033 8      2509.105          51.000    19991813.477 7  83177676.009 7      1951.526          42.000
R24  22467675.391 6 120144702.486 6      4421.457          37.000    22467674.055 5  93445912.533 5      3438.917          34.000
C27  22282595.805 7 116031332.203 7      -457.102          45.000
C30  22879468.242 8 119139453.908 8      2562.484          51.000
E13  26032023.094 8 136799178.596 8      3015.445          50.000    26032023.047 8 104820156.589 8      2310.494          48.000
E15  24531749.859 6 128915209.551 6       891.730          37.000    24531749.734 5  98779190.652 5       683.475          30.000
E27  23639716.734 8 124227531.809 8      -748.980          51.000    23639719.906 8  95187349.976 8      -573.897          51.000
> 2020 05 15 09 16  0.0000000  0 15        .000000000000
G06  23495803.055 6 123471284.247 6      -416.141          39.000    23495830.898 4  96211469.974 4      -324.262          27.000
G12  20330127.172 8 106835521.556 8     -1052.238          51.000    20330125.867 8  83248459.099 8      -819.926          51.000
G24  21911606.352 8 115146246.160 8     -2797.867          51.000    21911607.211 8  89724348.575 8     -2180.156          51.000
G25  20339573.320 5 106885185.793 5       874.238          32.000    20339573.891 4  83287154.930 4       681.231          29.000
G29  22334912.586 8 117370747.406 8      3216.789          49.000    22334912.305 8  91457734.835 8      2506.589          49.000
G32  22140247.680 5 116347779.940 5      -128.191          35.000
R12  21759018.438 5 116232746.186 5     -2664.891          32.000    21759020.727 4  90403284.698 4     -2072.696          28.000
R23  19977842.625 8 106867995.786 8      2476.387          51.000    19977848.984 6  83119575.068 6      1926.079          41.000
R24  22442930.273 5 120012381.991 5      4405.574          32.000    22442929.148 5  93342996.725 5      3426.561          34.000
C27  22285318.172 7 116045509.338 7      -482.668          46.000
C30  22864779.000 8 119062960.863 8      2542.324          51.000
E13  26014862.906 8 136709000.681 8      3001.652          51.000    26014865.055 8 104751059.253 8      2299.997          51.000
E15  24526743.492 6 128888892.880 6       868.363          36.000
E21                                                                  24544403.062 5  98830148.104 5      1090.425          34.000
E27  23644048.422 8 124250294.613 8      -763.227          51.000    23644051.641 8  95204791.591 8      -584.813          51.000
> 2020 05 15 09 16 30.0000000  0 11        .000000000000
G06  23498227.242 5 123484026.767 5      -434.480          35.000    23498231.273 5  96221301.781 5      -338.556          34.000
G12  20336157.250 8 106867209.487 8     -1060.805          51.000    20336156.086 8  83273150.985 8      -826.601          51.000
G24  21927601.453 8 115230300.735 8     -2806.191          50.000    21927602.422 8  89789845.616 8     -2186.643          50.000
G25  20334607.016 5 106859063.181 5       865.191          31.000    20334608.828 5  83266824.332 5       674.175          30.000
G29  22316570.375 8 117274361.504 8      3208.379          49.000    22316570.547 8  91382628.959 8      2500.039          49.000
R23  19964013.570 8 106794017.929 8      2454.863          51.000    19964019.406 6  83062036.783 6      1909.338          40.000
C27  22288140.273 7 116060204.650 7      -497.492          47.000
C30  22850157.539 8 118986822.479 8      2532.992          51.000
E13  25997733.742 8 136618984.441 8      2998.871          51.000    25997737.359 8 104682085.790 8      2297.842          51.000
E21                                                                  24536278.812 5  98797437.998 5      1089.435          33.000
E27  23648413.242 8 124273231.321 8      -766.387          51.000    23648416.227 8  95222366.458 8      -587.255          51.000
> 2020 05 15 09 17  0.0000000  0 13        .000000000000
G06  23500760.203 6 123497341.115 6      -453.324          37.000    23500762.836 6  96231676.598 6      -353.240          37.000
G12  20342245.648 8 106899204.401 8     -1071.648          51.000    20342244.766 8  83298082.077 8      -835.051          51.000
G24  21943652.633 7 115314652.827 7     -2816.746          47.000    21943654.164 7  89855574.497 7     -2194.870          47.000
G25  20329705.773 5 106833297.016 5       853.480          35.000    20329708.781 5  83246746.575 5       665.044          34.000
G29  22298285.680 8 117178275.518 8      3197.703          49.000    22298285.484 8  91307756.776 8      2491.720          49.000
R12  21789029.453 5 116393099.732 5     -2680.191          34.000
R22  21127320.930 5 112779086.504 5     -2621.480          33.000
R23  19950315.156 8 106720738.783 8      2430.910          51.000    19950320.227 6  83005041.935 6      1890.708          40.000
C27  22291056.289 7 116075390.728 7      -514.551          47.000
C30  22835599.305 8 118911013.805 8      2521.387          51.000
E13  25980630.617 8 136529104.826 8      2993.621          51.000    25980634.812 8 104613217.006 8      2293.817          51.000
E21                                                                  24528177.586 5  98764794.942 5      1086.448          33.000
E27  23652806.102 8 124296315.158 8      -771.973          51.000    23652808.820 8  95240054.053 8      -591.500          51.000
> 2020 05 15 09 17 30.0000000  0 14        .000000000000
G06  23503404.211 5 123511237.997 5      -472.879          35.000    23503406.070 6  96242505.378 6      -368.474          36.000
G12  20348394.273 8 106931515.830 8     -1081.727          51.000    20348393.453 8  83323259.806 8      -842.904          51.000
G24  21959762.344 8 115399312.095 8     -2826.484          48.000    21959764.328 7  89921542.734 7     -2202.458          47.000
G25  20324870.148 6 106807870.614 6       842.926          37.000    20324869.531 6  83226933.717 6       656.822          37.000
G29  22280060.844 8 117082502.322 8      3187.801          50.000    22280059.930 8  91233128.347 8      2484.001          50.000
R12  21804104.938 5 116473634.951 5     -2688.438          30.000
R13  19495958.445 6 104107331.583 6       206.648          36.000    19495959.781 6  80972366.200 6       160.727          38.000
R22  21142115.055 5 112858052.718 5     -2641.961          31.000
R23  19936750.008 8 106648172.644 8      2407.512          51.000    19936754.094 6  82948601.604 6      1872.509          41.000
C27  22294068.430 8 116091077.560 8      -530.695          48.000
C30  22821106.594 8 118835547.372 8      2510.477          50.000
