     3.02           OBSERVATION DATA    M (MIXED)           RINEX VERSION / TYPE
SAVERINEX           SC600               20200515 135930 LCL PGM / RUN BY / DATE
       G = GPS       R = GLONASS       C = COMPASS          COMMENT
       S = SBAS      J = QZSS          E = GALILEO          COMMENT
BEAN                                                        MARKER NAME
1                                                           MARKER NUMBER
GEODETIC                                                    MARKER TYPE
Unige DICCA         GTER                                    OBSERVER / AGENCY
SC60291900056       SC600               2.12(191202)        REC # / TYPE / VERS
                    HEMA45          NONE                    ANT # / TYPE
  4509407.8091   693652.4678  4442337.6214                  APPROX POSITION XYZ
        0.0000        0.0000        0.0000                  ANTENNA: DELTA H/E/N
G    8 C1C L1C D1C S1C C2Y L2Y D2Y S2Y                      SYS / # / OBS TYPES
R    8 C1C L1C D1C S1C C2P L2P D2P S2P                      SYS / # / OBS TYPES
C    8 C1I L1I D1I S1I C7I L7I D7I S7I                      SYS / # / OBS TYPES
E    8 C1C L1C D1C S1C C7Q L7Q D7Q S7Q                      SYS / # / OBS TYPES
DBHZ                                                        COMMENT
     30.000                                                 INTERVAL
  2020    05    15    11    00    0.0000000     GPS         TIME OF FIRST OBS
  2020    05    15    11    59   30.0000000     GPS         TIME OF LAST OBS
     0                                                      RCV CLOCK OFFS APPL
G L1C  0.00000                                              SYS / PHASE SHIFT
G L2Y  0.00000                                              SYS / PHASE SHIFT
R L1C  0.00000                                              SYS / PHASE SHIFT
R L2P  0.25000                                              SYS / PHASE SHIFT
C L1I  0.00000                                              SYS / PHASE SHIFT
C L7I  0.00000                                              SYS / PHASE SHIFT
E L1C  0.50000                                              SYS / PHASE SHIFT
E L7Q -0.25000                                              SYS / PHASE SHIFT
 12 R01  1 R02 -4 R03  5 R08  6 R10 -5 R11  0 R12 -1 R13 -2 GLONASS SLOT / FRQ #
    R14 -7 R17  4 R22 -3 R23  3                             GLONASS SLOT / FRQ #
 C1C   71.950 C2C   71.950 C2P   71.950                     GLONASS COD/PHS/BIS
    18                                                      LEAP SECONDS
*** Above antenna height is from mark to ANTENNA BOTTOM.    COMMENT
    17     4        0.0000        ANT MEASURE TYPE/HEIGT    COMMENT
    0.0000    0.0000    0.0458    0.0405    0.0000          COMMENT
                    BASE STATION                            COMMENT
                                                            END OF HEADER
> 2020 05 15 11 00  0.0000000  0 18        .000000000000
G02  24033660.781 5 126297733.651 5     -2388.047          30.000
G12  22678967.977 5 119178761.635 5     -2760.469          34.000    22678964.820 5  92866545.778 5     -2151.009          35.000
G18  23698119.086 6 124534447.965 6      3683.836          36.000
G25  20711512.281 8 108839711.903 8     -1506.270          51.000    20711513.758 8  84810206.834 8     -1173.717          51.000
G29  20213393.141 8 106222101.625 8       151.070          51.000    20213391.664 8  82770481.479 8       117.720          51.000
G32  24296516.453 6 127679057.040 6     -2947.773          40.000    24296517.680 6  99490173.769 6     -2296.969          41.000
R13  21054401.258 6 112429324.718 6     -2970.191          36.000    21054406.562 7  87445024.071 7     -2310.146          44.000
R14  19226189.102 8 102486399.744 8       675.410          51.000    19226191.750 8  79711669.617 8       525.319          49.000
R17  21601406.953 7 115593537.207 7      3819.410          42.000    21601409.266 5  89906083.718 5      2970.652          35.000
R23  20259847.664 7 108376535.634 7     -2750.691          42.000    20259850.750 4  84292862.991 4     -2139.433          27.000
R24  19204331.898 8 102694239.667 8       460.875          50.000    19204333.859 7  79873273.013 7       358.458          46.000
C13  38121007.359 5 198506089.052 5      -267.125          30.000    38121015.320 5 153497526.559 5      -205.948          31.000
C29  23161804.078 8 120609568.270 8      2489.078          50.000
C30  21552739.828 8 112230839.212 8      -468.125          51.000
E13  23555219.062 8 123783500.340 8       791.527          51.000    23555221.078 8  94847109.372 8       606.519          51.000
E21  23457428.484 8 123269606.776 8       232.953          51.000    23457429.391 8  94453351.444 8       178.494          51.000
E26  25152803.562 7 132178867.791 7      2983.422          44.000    25152809.266 6 101279934.225 6      2285.945          40.000
E27  25254429.656 6 132712903.506 6     -2004.316          40.000    25254429.078 6 101689113.278 6     -1535.709          39.000
> 2020 05 15 11 00 30.0000000  0 17        .000000000000
G12  22694657.602 5 119261200.694 5     -2742.430          35.000    22694656.883 5  92930814.563 5     -2136.967          35.000
G18  23677009.328 5 124423513.999 5      3705.137          35.000
G25  20720053.859 8 108884598.702 8     -1492.352          51.000    20720055.086 8  84845183.536 8     -1162.871          51.000
G29  20212486.352 8 106217337.137 8       160.250          51.000    20212484.875 8  82766768.907 8       124.870          51.000
G32  24313269.641 6 127767094.023 6     -2927.348          39.000    24313270.453 6  99558773.986 6     -2281.053          39.000
R13  21071037.203 5 112518165.427 5     -2959.484          35.000    21071043.773 7  87514122.460 7     -2301.824          44.000
R14  19222353.234 8 102465952.208 8       681.352          51.000    19222355.625 8  79695765.984 8       529.940          49.000
R17  21579940.344 7 115478671.135 7      3832.035          43.000    21579941.570 6  89816743.419 6      2980.472          36.000
R23  20275234.883 6 108458847.067 6     -2743.184          41.000    20275240.227 5  84356883.055 5     -2133.587          30.000
R24  19201728.133 8 102680317.875 8       460.758          49.000    19201730.516 7  79862444.947 7       358.367          46.000
C29  23147404.188 8 120534582.356 8      2503.809          51.000
C30  21555388.766 8 112244632.798 8      -457.574          51.000
E13  23550651.820 8 123759499.359 8       802.266          51.000    23550653.977 8  94828719.013 8       614.765          51.000
E15  25300598.633 5 132955537.924 5     -1989.543          34.000
E21  23456033.172 8 123262274.380 8       249.637          51.000    23456034.086 8  94447733.114 8       191.340          51.000
E26  25135699.023 7 132088982.608 7      3002.543          43.000    25135704.148 6 101211061.177 6      2300.967          40.000
E27  25265800.703 7 132772656.906 7     -1985.441          42.000    25265801.727 6 101734898.260 6     -1521.600          40.000
> 2020 05 15 11 01  0.0000000  0 16        .000000000000
G18  23655876.969 5 124312464.033 5      3695.848          34.000
G25  20728614.617 8 108929586.335 8     -1509.000          51.000    20728615.969 8  84880238.810 8     -1175.844          51.000
G29  20211625.195 8 106212812.511 8       139.141          51.000    20211624.094 8  82763243.224 8       108.421          51.000
G32  24330001.961 6 127855020.889 6     -2935.953          37.000    24330002.961 5  99627288.375 5     -2287.759          35.000
R13  21087711.297 6 112607202.507 6     -2978.938          40.000    21087717.203 7  87583373.463 7     -2316.951          43.000
R14  19218581.984 8 102445849.958 8       656.570          51.000    19218584.375 8  79680130.899 8       510.669          49.000
R17  21558501.586 7 115363951.335 7      3813.688          44.000    21558502.180 6  89727516.943 6      2966.204          36.000
R23  20290678.617 6 108541457.143 6     -2766.500          40.000    20290683.961 4  84421135.316 4     -2151.725          26.000
R24  19199222.781 8 102666923.504 8       429.945          50.000    19199225.797 7  79852027.125 7       334.402          46.000
C29  23133017.695 8 120459665.274 8      2488.512          51.000
C30  21558075.438 8 112258623.306 8      -477.188          51.000
E13  23546122.008 8 123735695.375 8       782.516          51.000    23546124.375 8  94810479.617 8       599.608          51.000
E15  25312000.312 6 133015420.967 6     -2005.285          36.000
E21  23454641.039 8 123254959.350 8       235.855          51.000    23454642.070 8  94442128.089 8       180.738          51.000
E26  25118582.234 6 131999033.754 6      2991.766          41.000    25118586.836 6 101142139.395 6      2292.392          40.000
E27  25277164.469 7 132832369.268 7     -1997.309          44.000    25277166.258 6 101780651.832 6     -1530.312          40.000
> 2020 05 15 11 01 30.0000000  0 16        .000000000000
G18  23634780.312 5 124201608.193 5      3694.930          31.000
G25  20737252.984 8 108974981.848 8     -1517.301          51.000    20737254.625 8  84915611.930 8     -1182.312          51.000
G29  20210867.945 8 106208834.249 8       126.055          51.000    20210867.469 8  82760143.288 8        98.224          51.000
G32  24346771.219 5 127943142.138 5     -2937.316          35.000    24346771.805 5  99695954.265 5     -2288.821          34.000
R13  21104481.266 7 112696747.478 7     -2990.652          43.000    21104485.680 7  87653019.534 7     -2326.066          43.000
R14  19214934.508 8 102426406.577 8       639.727          51.000    19214937.023 8  79665008.269 8       497.565          49.000
R17  21537149.445 7 115249693.606 7      3803.668          46.000    21537149.383 5  89638649.876 5      2958.411          34.000
R23  20306235.508 6 108624674.819 6     -2781.609          36.000    20306238.164 4  84485869.094 4     -2163.474          28.000
R24  19196874.664 8 102654368.936 8       407.219          50.000    19196877.906 7  79842262.465 7       316.726          46.000
C29  23118703.328 8 120385122.727 8      2481.070          51.000
C30  21560858.555 8 112273114.364 8      -488.789          51.000
E13  23541688.312 8 123712396.005 8       770.859          51.000    23541690.500 8  94792626.872 8       590.661          51.000
E15  25323470.516 6 133075716.164 6     -2012.844          38.000
E21  23453310.930 8 123247969.847 8       230.184          51.000    23453312.039 8  94436772.504 8       176.419          51.000
E26  25101512.172 6 131909330.260 6      2988.809          39.000    25101517.070 6 101073405.594 6      2290.168          40.000
E27  25288578.375 6 132892347.980 6     -2001.035          41.000    25288581.117 7 101826609.487 7     -1533.270          42.000
> 2020 05 15 11 02  0.0000000  0 18        .000000000000
G14  23542699.016 6 123717742.847 6     -2002.996          37.000    23542704.875 5  96403437.832 5     -1560.782          35.000
G18  23613647.211 4 124090552.838 4      3690.578          29.000
G25  20745894.680 8 109020395.159 8     -1528.266          49.000    20745896.656 8  84950998.895 8     -1190.856          49.000
G29  20210140.531 8 106205011.875 8       110.660          51.000    20210140.367 8  82757164.821 8        86.229          51.000
R13  21121271.344 7 112786401.927 7     -3004.637          42.000    21121275.242 7  87722750.702 7     -2336.943          44.000
R14  19211336.781 8 102407228.642 8       620.457          51.000    19211339.297 8  79650092.101 8       482.578          50.000
R17  21515810.734 7 115135504.069 7      3790.711          46.000    21515809.672 5  89549835.885 5      2948.334          33.000
R23  20321829.234 6 108708099.266 6     -2798.551          37.000    20321835.961 5  84550754.911 5     -2176.648          30.000
R24  19194609.430 8 102642257.013 8       381.961          51.000    19194612.562 7  79832842.108 7       297.081          46.000
C13  38126894.461 5 198536737.959 5      -266.863          30.000
C27  24626443.953 5 128236359.591 5     -2907.527          34.000
C29  23104386.305 8 120310569.385 8      2471.176          49.000
C30  21563663.195 8 112287718.556 8      -502.695          51.000
E13  23537276.414 8 123689211.574 8       756.699          51.000    23537278.227 8  94774862.182 8       579.788          51.000
E15  25334936.078 5 133135974.021 5     -2022.484          35.000
E21  23451968.805 8 123240916.802 8       221.941          51.000    23451970.039 8  94431368.233 8       170.014          51.000
E26  25084413.758 5 131819483.677 5      2983.633          34.000    25084420.109 6 101004562.183 6      2285.783          39.000
E27  25299969.078 6 132952202.954 6     -2006.984          39.000    25299971.852 7 101872472.344 7     -1537.945          42.000
> 2020 05 15 11 02 30.0000000  0 17        .000000000000
G14  23554215.508 6 123778263.456 6     -2025.445          37.000    23554223.508 5  96450596.719 5     -1578.269          35.000
G18  23592638.758 5 123980150.775 5      3675.719          34.000
G25  20754699.203 8 109066663.268 8     -1550.113          50.000    20754701.297 8  84987051.955 8     -1207.880          50.000
G29  20209602.086 8 106202182.295 8        84.262          51.000    20209601.984 8  82754959.959 8        65.662          51.000
R13  21138240.914 7 112877015.620 7     -3029.941          43.000    21138244.375 7  87793227.957 7     -2356.621          42.000
R14  19207948.445 8 102389167.454 8       589.988          51.000    19207951.266 8  79636044.517 8       458.880          50.000
R17  21494644.789 7 115022238.043 7      3766.746          47.000    21494642.453 5  89461740.194 5      2929.694          35.000
R23  20337622.023 6 108792579.785 6     -2827.062          37.000    20337628.758 4  84616461.935 4     -2198.829          26.000
R24  19192586.430 8 102631439.102 8       345.562          51.000    19192589.711 7  79824428.204 7       268.771          47.000
C13  38128494.188 5 198545058.562 5      -282.660          32.000    38128493.625 4 153527643.500 4      -218.365          29.000
C27  24643255.766 5 128323909.479 5     -2923.129          35.000
C29  23090225.016 7 120236836.011 7      2450.469          47.000
C30  21566648.562 8 112303264.604 8      -527.461          51.000
E13  23533045.578 8 123666979.615 8       731.648          51.000    23533047.508 8  94757827.332 8       560.596          51.000
E21  23450774.062 8 123234638.315 8       202.836          51.000    23450775.523 8  94426557.446 8       155.411          51.000
E26  25067444.727 5 131730311.052 5      2966.629          31.000    25067455.969 6 100936251.927 6      2273.113          37.000
E27                                                                  25311497.539 7 101918882.009 7     -1551.076          42.000
> 2020 05 15 11 03  0.0000000  0 17        .000000000000
G14  23565751.055 6 123838879.985 6     -2024.422          36.000    23565758.797 6  96497830.343 6     -1577.469          36.000
G18  23571604.492 5 123869609.737 5      3684.922          34.000
G25  20763516.195 8 109112996.487 8     -1547.957          51.000    20763518.406 8  85023155.754 8     -1206.200          51.000
G29  20209101.859 8 106199554.469 8        81.754          51.000    20209101.898 8  82752912.323 8        63.704          51.000
R13  21155239.344 6 112967785.220 6     -3030.578          41.000    21155242.539 6  87863826.506 6     -2357.116          41.000
R14  19204619.625 8 102371424.053 8       583.598          51.000    19204622.883 8  79622244.080 8       453.909          50.000
R17  21473501.891 8 114909094.579 8      3766.875          48.000    21473500.766 6  89373739.816 6      2929.795          39.000
R23  20353460.844 5 108877308.309 5     -2830.938          35.000    20353464.266 4  84682351.884 4     -2201.840          27.000
R24  19190655.305 8 102621111.613 8       333.570          51.000    19190658.609 7  79816395.731 7       259.444          47.000
C13  38130071.906 5 198553272.746 5      -274.090          32.000    38130070.672 5 153533995.189 5      -211.935          30.000
C27  24660047.227 5 128411345.988 5     -2915.914          35.000
C29  23076070.594 7 120163141.404 7      2453.520          47.000
C30  21569664.680 8 112318969.265 8      -528.512          51.000
E13  23528845.812 8 123644910.925 8       730.426          51.000    23528848.023 8  94740917.590 8       559.593          51.000
E21  23449576.625 8 123228345.772 8       207.457          51.000    23449578.367 8  94421735.891 8       158.946          51.000
E26                                                                  25050474.375 6 100867871.121 6      2278.609          36.000
E27  25323003.734 6 133073308.775 6     -2017.664          36.000    25323008.969 7 101965233.460 7     -1546.086          42.000
> 2020 05 15 11 03 30.0000000  0 19        .000000000000
G02  24129844.609 5 126803180.329 5     -2435.551          31.000
G12  22789269.633 5 119758424.891 5     -2770.062          31.000
G14  23577347.242 6 123899816.956 6     -2028.273          37.000    23577353.867 5  96545313.657 5     -1580.470          35.000
G18  23550588.094 6 123759159.576 6      3688.352          37.000    23550583.258 5  96435684.191 5      2874.040          31.000
G25  20772388.891 8 109159622.002 8     -1550.703          51.000    20772390.914 8  85059487.328 8     -1208.337          51.000
G29  20208683.234 8 106197355.650 8        74.418          51.000    20208683.477 8  82751198.967 8        57.988          51.000
R13  21172309.219 6 113058940.221 6     -3036.520          40.000    21172312.547 6  87934724.789 6     -2361.737          41.000
R14  19201394.180 8 102354231.307 8       572.383          51.000    19201397.445 8  79608871.956 8       445.187          50.000
R17  21452425.719 8 114796308.123 8      3761.996          48.000    21452426.453 7  89286017.078 7      2925.997          42.000
R23  20369388.742 6 108962512.993 6     -2839.527          39.000    20369393.672 4  84748622.182 4     -2208.521          29.000
R24  19188859.023 8 102611505.259 8       316.688          50.000    19188862.398 7  79808924.141 7       246.312          47.000
C13  38131671.852 5 198561605.518 5      -271.016          32.000    38131670.875 4 153540436.637 4      -209.192          29.000
C27  24676860.289 6 128498892.556 6     -2911.895          38.000
C29  23061968.328 8 120089711.877 8      2451.449          48.000
C30  21572754.102 8 112335056.879 8      -534.418          50.000
E13  23524720.477 8 123623233.203 8       724.348          51.000    23524722.375 8  94724307.383 8       555.065          51.000
E21  23448419.922 8 123222267.412 8       207.359          51.000    23448421.914 8  94417078.452 8       158.883          51.000
E26                                                                  25033518.227 5 100799595.312 5      2280.524          33.000
E27  25334543.461 7 133133952.888 7     -2015.770          42.000    25334548.820 7 102011700.916 7     -1544.371          42.000
> 2020 05 15 11 04  0.0000000  0 19        .000000000000
G02  24143811.797 5 126876572.652 5     -2450.211          35.000
G12  22805131.641 4 119841785.185 4     -2779.730          28.000    22805134.891 4  93383214.229 4     -2166.030          25.000
G14  23588992.883 6 123961014.281 6     -2044.215          38.000    23588998.328 4  96592999.887 4     -1592.895          29.000
G18  23529578.742 6 123648745.889 6      3679.879          39.000    23529570.961 4  96349647.639 4      2867.441          28.000
G25  20781306.164 8 109206482.170 8     -1565.836          51.000    20781308.070 8  85096001.740 8     -1220.132          51.000
G29  20208335.367 8 106195527.637 8        54.809          51.000    20208335.812 8  82749774.565 8        42.711          51.000
R13  21189440.539 6 113150420.831 6     -3054.582          41.000    21189443.844 7  88005876.337 7     -2375.789          43.000
R14  19198261.445 8 102337533.091 8       548.449          51.000    19198264.875 8  79595884.452 8       426.575          50.000
R17  21431405.836 7 114683823.208 7      3744.574          47.000    21431407.594 7  89198528.828 7      2912.447          43.000
R23  20385395.141 5 109048131.333 5     -2860.348          35.000    20385399.445 4  84815214.165 4     -2224.712          26.000
R24  19187186.891 8 102602561.311 8       287.238          50.000    19187189.961 7  79801967.747 7       223.408          47.000
C13  38133283.414 5 198569999.722 5      -280.523          33.000
C27  24693683.617 6 128586490.619 6     -2920.680          39.000
C29  23047907.391 8 120016491.597 8      2437.332          50.000
C30  21575905.789 8 112351469.578 8      -552.348          50.000
E13  23520658.461 8 123601889.240 8       706.109          50.000    23520660.094 8  94707952.924 8       541.015          51.000
E21  23447293.148 8 123216346.704 8       194.918          51.000    23447295.469 8  94412541.804 8       149.353          51.000
E26                                                                  25016572.445 5 100731374.620 5      2273.101          31.000
E27  25346103.125 7 133194690.908 7     -2025.996          45.000    25346106.766 6 102058240.393 6     -1552.369          41.000
> 2020 05 15 11 04 30.0000000  0 19        .000000000000
G02  24157860.703 5 126950392.914 5     -2466.375          34.000
G12  22821044.531 5 119925404.264 5     -2791.801          33.000    22821049.242 5  93448387.515 5     -2175.429          33.000
G14  23600723.984 6 124022662.919 6     -2061.387          37.000    23600729.391 5  96641037.760 5     -1606.275          34.000
G18  23508613.094 6 123538564.664 6      3670.305          36.000    23508605.219 5  96263792.252 5      2859.993          35.000
G25  20790304.750 8 109253769.937 8     -1582.125          51.000    20790306.859 8  85132849.359 8     -1232.825          51.000
G29  20208094.891 8 106194262.959 8        33.953          51.000    20208095.359 8  82748789.098 8        26.457          51.000
R13  21206669.844 7 113242422.068 7     -3073.812          43.000    21206673.406 7  88077432.823 7     -2390.743          44.000
R14  19195258.625 8 102321527.178 8       523.227          51.000    19195262.367 8  79583435.403 8       406.954          50.000
R17  21410478.734 8 114571839.353 8      3725.641          48.000    21410481.266 7  89111430.297 7      2897.720          44.000
R23  20401514.211 5 109134356.093 5     -2882.875          34.000    20401517.680 4  84882280.882 4     -2242.233          27.000
R24  19185675.156 8 102594475.678 8       256.473          50.000    19185677.992 7  79795678.929 7       199.479          47.000
C13  38134943.766 5 198578646.442 5      -290.992          32.000
C27  24710553.047 6 128674329.951 6     -2930.840          37.000
C29  23033924.469 8 119943673.168 8      2421.750          51.000
C30  21579156.555 8 112368397.818 8      -571.719          50.000
E13  23516696.930 8 123581072.443 8       686.320          50.000    23516698.742 8  94692002.415 8       525.879          51.000
E21  23446233.344 8 123210777.667 8       181.039          51.000    23446235.820 8  94408274.620 8       138.667          51.000
E26  24999678.891 7 131374194.875 7      2954.812          45.000    24999674.945 5 100663339.434 5      2263.742          32.000
E27  25357716.852 7 133255716.096 7     -2037.711          44.000    25357717.703 6 102104999.896 6     -1561.309          39.000
> 2020 05 15 11 05  0.0000000  0 19        .000000000000
G02  24171969.727 5 127024537.787 5     -2476.207          33.000
G14  23612521.312 6 124084659.154 6     -2072.059          36.000    23612524.992 5  96689346.445 5     -1614.591          30.000
G18  23487672.734 5 123428517.694 5      3666.008          35.000    23487665.758 5  96178041.414 5      2856.629          33.000
G25  20799365.414 8 109301383.971 8     -1592.215          51.000    20799367.586 8  85169951.194 8     -1240.687          51.000
G29  20207942.086 8 106193459.593 8        19.367          51.000    20207942.602 8  82748163.111 8        15.091          51.000
R13  21223977.148 6 113334839.788 6     -3087.367          41.000    21223980.711 7  88149313.238 7     -2401.286          44.000
R14  19192366.922 8 102306112.971 8       504.211          51.000    19192370.703 8  79571446.578 8       392.164          50.000
R17  21389626.547 8 114460256.609 8      3712.895          48.000    21389629.422 7  89024643.733 7      2887.807          45.000
R23  20417726.234 6 109221081.247 6     -2898.902          36.000    20417732.633 4  84949733.741 4     -2254.702          28.000
R24  19184304.922 8 102587144.920 8       232.160          50.000    19184307.086 7  79789977.212 7       180.569          47.000
C13  38136633.391 5 198587457.308 5      -296.668          30.000
C27  24727449.000 5 128762308.617 5     -2934.828          33.000
C29  23019999.883 8 119871157.330 8      2412.480          51.000
C30  21582486.625 8 112385740.341 8      -584.645          50.000
E13  23512816.844 8 123560681.889 8       672.910          51.000    23512818.844 8  94676378.502 8       515.615          51.000
E15  25405217.727 5 133505308.095 5     -2079.453          34.000
E21  23445221.570 8 123205459.990 8       173.410          51.000    23445223.883 8  94404200.043 8       132.876          51.000
E26  24982824.062 7 131285622.343 7      2949.922          44.000    24982813.859 5 100595439.262 5      2260.165          32.000
E27  25369364.961 7 133316927.311 7     -2043.113          43.000    25369364.914 6 102151901.956 6     -1565.625          39.000
> 2020 05 15 11 05 30.0000000  0 15        .000000000000
G14  23624394.547 6 124147056.449 6     -2097.949          36.000    23624396.539 5  96737967.714 5     -1634.760          32.000
G18  23466769.352 5 123318664.269 5      3647.562          32.000    23466762.695 5  96092441.365 5      2842.260          32.000
G25  20808498.914 8 109349380.284 8     -1617.422          51.000    20808501.062 8  85207350.920 8     -1260.329          51.000
G29  20207887.578 8 106193173.240 8       -10.363          51.000    20207887.992 8  82747939.988 8        -8.075          51.000
R13  21241372.156 6 113427729.625 6     -3115.551          40.000    21241375.914 7  88221560.875 7     -2423.206          44.000
R14  19189597.305 8 102291349.540 8       469.969          51.000    19189601.094 8  79559963.919 8       365.531          50.000
R17  21368860.508 8 114349134.999 8      3684.938          48.000    21368863.672 7  88938215.870 7      2866.066          45.000
R24  19183086.414 8 102580625.710 8       192.406          51.000    19183087.922 7  79784906.732 7       149.649          47.000
C27  24744380.875 4 128850484.257 4     -2952.375          29.000
C29  23006143.961 8 119799000.999 8      2388.078          51.000
C30  21585906.953 8 112403551.978 8      -612.617          51.000
E13  23509028.828 8 123540774.083 8       644.398          51.000    23509030.750 8  94661124.498 8       493.829          51.000
E21  23444268.492 8 123200450.866 8       150.676          51.000    23444270.531 8  94400361.897 8       115.537          51.000
E26  24966013.086 7 131197283.998 7      2929.605          42.000    24966002.648 5 100527751.566 5      2244.604          34.000
E27  25381058.438 6 133378380.753 6     -2063.891          39.000    25381058.680 6 102198989.582 6     -1581.300          37.000
> 2020 05 15 11 06  0.0000000  0 14        .000000000000
G14  23636341.344 6 124209839.744 6     -2095.656          37.000    23636341.023 5  96786889.710 5     -1632.976          35.000
G25  20817702.594 8 109397745.924 8     -1614.676          51.000    20817704.883 8  85245038.424 8     -1258.189          51.000
G29  20207928.930 8 106193390.408 8       -11.816          51.000    20207929.156 8  82748109.218 8        -9.208          51.000
R13  21258852.867 6 113521077.805 6     -3115.391          40.000    21258856.836 7  88294165.017 7     -2423.079          43.000
R14  19186947.688 8 102277225.813 8       463.969          51.000    19186951.445 8  79548978.805 8       360.865          49.000
R17  21348178.664 8 114238464.368 8      3685.328          49.000    21348182.031 7  88852138.780 7      2866.369          45.000
R24  19182017.039 8 102574904.397 8       181.246          51.000    19182017.891 7  79780456.831 7       140.969          46.000
C27  24761346.805 5 128938830.646 5     -2944.758          30.000
C29  22992353.734 8 119727192.621 8      2391.418          50.000
C30  21589414.984 8 112421819.103 8      -612.793          51.000
E13  23505330.500 8 123521336.507 8       643.758          51.000    23505332.297 8  94646230.777 8       493.248          51.000
E21  23443371.680 8 123195738.413 8       155.789          51.000    23443373.641 8  94396751.065 8       119.353          51.000
E26  24949243.789 6 131109168.744 6      2937.484          39.000    24949237.188 6 100460234.761 6      2250.500          37.000
E27  25392795.023 6 133440063.623 6     -2055.918          38.000    25392796.375 6 102246252.991 6     -1575.610          36.000
> 2020 05 15 11 06 30.0000000  0 16        .000000000000
G14  23648332.766 6 124272855.835 6     -2108.766          36.000    23648329.875 4  96835993.079 4     -1643.200          29.000
G18  23425028.172 5 123099347.660 5      3649.707          32.000
G25  20826947.875 8 109446330.335 8     -1627.281          51.000    20826950.125 8  85282896.397 8     -1268.011          51.000
G29  20208037.477 8 106193959.925 8       -28.988          51.000    20208037.711 8  82748553.013 8       -22.588          51.000
R13  21276390.312 6 113614729.499 6     -3131.012          39.000    21276394.633 7  88367005.197 7     -2435.231          44.000
R14  19184390.102 8 102263591.608 8       442.137          51.000    19184393.617 8  79538374.429 8       343.887          49.000
R17  21327553.336 8 114128094.714 8      3669.832          49.000    21327556.789 7  88766295.783 7      2854.317          46.000
R23  20466966.758 5 109484449.165 5     -2951.160          33.000
R24  19181067.836 8 102569827.260 8       154.289          51.000    19181068.312 7  79776507.963 7       120.003          46.000
C27  24778318.266 4 129027205.347 4     -2950.941          28.000
C29  22978600.672 8 119655584.146 8      2379.531          49.000
C30  21592981.398 8 112440391.659 8      -628.145          51.000
E13  23501692.945 8 123502218.940 8       627.844          51.000    23501695.078 8  94631582.277 8       481.084          51.000
E21  23442502.695 8 123191173.129 8       145.641          51.000    23442504.805 8  94393252.992 8       111.595          51.000
E26  24932487.164 6 131021127.858 6      2929.152          37.000    24932487.250 6 100392774.861 6      2244.529          41.000
E27  25404546.195 6 133501825.356 6     -2064.066          37.000    25404548.148 5 102293576.964 5     -1581.605          35.000
> 2020 05 15 11 07  0.0000000  0 14        .000000000000
G14  23660395.406 5 124336244.931 5     -2114.934          34.000    23660390.570 4  96885387.200 4     -1647.988          28.000
G18  23404202.188 6 122989895.635 6      3648.988          38.000    23404205.164 6  95836304.851 6      2843.374          37.000
G25  20836261.898 8 109495276.067 8     -1633.516          50.000    20836264.156 8  85321035.942 8     -1272.869          50.000
G29  20208240.109 8 106195023.977 8       -39.613          51.000    20208240.148 8  82749382.165 8       -30.867          51.000
R13  21294012.125 6 113708828.723 6     -3139.875          40.000    21294016.719 7  88440193.460 7     -2442.125          43.000
R14  19181951.656 8 102250593.466 8       426.715          50.000    19181955.188 8  79528264.775 8       331.889          48.000
R17  21307012.344 8 114018174.156 8      3660.586          50.000    21307015.602 7  88680802.062 7      2847.122          47.000
R24  19180266.039 8 102565539.052 8       133.898          51.000    19180266.359 7  79773172.707 7       104.143          47.000
C29  22964914.648 8 119584318.160 8      2373.867          50.000
C30  21596633.734 8 112459410.196 8      -637.328          51.000
E13  23498143.484 8 123483564.459 8       618.141          51.000    23498145.648 8  94617288.596 8       473.646          51.000
E21  23441689.102 8 123186898.709 8       141.703          51.000    23441691.352 8  94389977.789 8       108.542          51.000
E26  24915773.055 6 130933305.767 6      2927.883          39.000    24915779.062 7 100325482.606 7      2243.404          44.000
E27  25416341.539 6 133563809.126 6     -2065.695          40.000    25416343.234 6 102341071.019 6     -1582.913          37.000
> 2020 05 15 11 07 30.0000000  0 16        .000000000000
G14  23672505.688 5 124399884.892 5     -2130.387          34.000    23672500.070 5  96934976.718 5     -1660.048          33.000
G18  23383388.977 6 122880509.257 6      3639.777          39.000    23383388.844 6  95751068.770 6      2836.193          38.000
G25  20845621.812 8 109544463.253 8     -1649.035          49.000    20845624.211 8  85359363.607 8     -1284.966          49.000
G29  20208513.727 8 106196461.819 8       -59.582          51.000    20208513.484 8  82750502.558 8       -46.428          51.000
R13  21311694.711 6 113803251.468 6     -3158.121          38.000    21311699.195 7  88513633.355 7     -2456.316          42.000
R14  19179609.750 8 102238111.854 8       401.879          51.000    19179613.516 8  79518556.836 8       312.572          48.000
R17  21286532.844 8 113908583.825 8      3641.914          50.000    21286536.188 8  88595565.171 8      2832.603          48.000
R24  19179588.555 8 102561917.087 8       104.125          51.000    19179589.406 8  79770355.656 8        80.986          48.000
C13                                                                  38145545.195 4 153596321.141 4      -249.948          27.000
C27  24812332.617 5 129204333.101 5     -2958.676          31.000
C29  22951272.547 8 119513277.040 8      2358.914          51.000
C30  21600348.812 8 112478755.112 8      -655.629          51.000
E13  23494659.312 8 123465253.458 8       599.172          51.000    23494661.250 8  94603258.098 8       459.121          51.000
E21  23440908.266 8 123182796.271 8       128.449          51.000    23440910.766 8  94386834.363 8        98.440          51.000
E26  24899080.492 7 130845584.194 7      2916.980          42.000    24899089.227 7 100258267.376 7      2235.053          46.000
E27  25428157.070 6 133625895.061 6     -2076.578          41.000    25428160.359 6 102388643.308 6     -1591.081          40.000
> 2020 05 15 11 08  0.0000000  0 17        .000000000000
G14  23684691.742 6 124463923.739 6     -2138.953          39.000    23684686.133 5  96984877.054 5     -1666.723          35.000
G18  23362616.977 6 122771341.640 6      3637.426          41.000    23362615.938 6  95666003.159 6      2834.361          38.000
G25  20855056.305 8 109594042.157 8     -1656.965          49.000    20855058.578 8  85397996.513 8     -1291.141          49.000
G29  20208887.031 8 106198423.598 8       -71.801          51.000    20208886.938 8  82752031.202 8       -55.949          51.000
R13  21329465.953 6 113898150.060 6     -3168.742          37.000    21329470.203 6  88587443.409 6     -2464.577          40.000
R14  19177394.391 8 102226301.240 8       384.762          51.000    19177397.531 8  79509370.830 8       299.259          48.000
R17  21266143.930 8 113799479.811 8      3631.027          51.000    21266147.328 8  88510706.497 8      2824.135          48.000
R23  20516972.992 5 109751958.840 5     -2994.977          33.000    20516962.289 4  85362599.589 4     -2329.420          26.000
R24  19179064.234 8 102559113.864 8        82.188          51.000    19179065.367 8  79768175.365 8        63.924          48.000
C13  38147451.406 4 198643784.535 4      -325.031          28.000
C27  24829384.422 5 129293124.935 5     -2961.094          31.000
C29  22937702.312 8 119442611.069 8      2351.613          51.000
C30  21604154.945 8 112498574.530 8      -666.352          51.000
E13  23491269.094 8 123447436.753 8       587.953          51.000    23491271.164 8  94589606.353 8       450.462          51.000
E21  23440189.008 8 123179017.287 8       122.809          51.000    23440191.930 8  94383938.772 8        94.076          51.000
E26  24882437.023 7 130758115.375 7      2913.703          45.000    24882446.742 7 100191245.863 7      2232.542          47.000
E27  25440020.836 7 133688233.668 7     -2079.953          44.000    25440025.523 6 102436409.228 6     -1593.868          41.000
> 2020 05 15 11 08 30.0000000  0 16        .000000000000
G14  23696926.812 6 124528217.730 6     -2136.742          40.000    23696920.781 5  97034976.248 5     -1664.997          32.000
G18  23341859.211 6 122662254.597 6      3645.527          40.000    23341857.406 6  95581000.301 6      2840.671          38.000
G25  20864538.570 8 109643871.547 8     -1654.445          50.000    20864540.477 8  85436824.586 8     -1289.178          50.000
G29  20209332.992 8 106200767.079 8       -73.762          51.000    20209333.047 8  82753857.300 8       -57.474          51.000
R13  21347299.789 6 113993379.895 6     -3168.883          40.000    21347302.695 6  88661511.004 6     -2464.690          38.000
R14  19175278.031 8 102215020.572 8       377.984          51.000    19175281.195 7  79500596.975 7       293.988          47.000
R17  21245819.578 8 113690721.266 8      3630.465          51.000    21245823.086 8  88426116.554 8      2823.695          48.000
R23  20533826.211 5 109842089.994 5     -2997.094          33.000
R24  19178665.797 8 102556985.088 8        70.637          51.000    19178667.688 8  79766519.681 8        54.940          48.000
C27  24846447.062 5 129381970.941 5     -2952.078          33.000
C29  22924177.219 8 119372181.543 8      2354.340          51.000
C30  21608025.305 8 112518727.635 8      -666.668          51.000
E13  23487946.000 8 123429973.377 8       586.938          51.000    23487948.250 8  94576225.336 8       449.782          51.000
E21  23439504.648 8 123175421.568 8       127.582          51.000    23439507.906 8  94381183.604 8        97.770          51.000
E26  24865815.328 7 130670759.833 7      2920.691          46.000    24865825.016 7 100124311.134 7      2237.968          47.000
E27  25451905.617 7 133750683.827 7     -2072.848          42.000    25451910.445 6 102484260.653 6     -1588.145          40.000
> 2020 05 15 11 09  0.0000000  0 16        .000000000000
G14  23709244.258 6 124592944.549 6     -2163.617          41.000    23709238.227 5  97085412.712 5     -1685.939          32.000
G18  23321151.109 6 122553431.626 6      3624.254          40.000    23321149.422 6  95496203.233 6      2824.094          37.000
G25  20874102.883 8 109694131.684 8     -1681.500          49.000    20874104.516 8  85475988.311 8     -1310.263          49.000
G29  20209885.984 8 106203672.116 8      -105.148          51.000    20209885.664 8  82756120.980 8       -81.934          51.000
R13  21365230.125 7 114089122.417 7     -3198.859          42.000    21365231.641 6  88735977.280 6     -2488.005          39.000
R14  19173295.938 8 102204454.741 8       341.410          51.000    19173299.250 7  79492379.106 7       265.541          47.000
R17  21225594.711 8 113582494.815 8      3599.773          51.000    21225598.016 8  88341940.460 8      2799.827          48.000
R23  20550749.328 5 109932621.650 5     -3030.125          32.000
R24  19178427.781 8 102555713.479 8        29.199          51.000    19178430.047 8  79765530.648 8        22.711          48.000
C27  24863553.422 5 129471048.464 5     -2971.930          34.000
C29  22910731.914 8 119302168.309 8      2327.926          51.000
C30  21611993.805 8 112539392.300 8      -696.203          51.000
E13  23484724.336 8 123413044.013 8       556.508          51.000    23484726.625 8  94563253.496 8       426.439          51.000
E21  23438889.719 8 123172190.483 8       102.746          51.000    23438893.047 8  94378707.830 8        78.728          51.000
E26  24849249.406 7 130583699.645 7      2898.223          47.000    24849258.445 7 100057602.747 7      2220.668          46.000
E27  25463845.148 7 133813426.095 7     -2095.070          42.000    25463850.672 6 102532335.834 6     -1605.382          40.000
> 2020 05 15 11 09 30.0000000  0 17        .000000000000
G12  22982036.367 5 120771406.879 5     -2846.719          35.000    22982038.953 5  94107584.169 5     -2218.213          34.000
G14  23721608.539 6 124657917.764 6     -2170.629          40.000    23721602.305 5  97136041.191 5     -1691.402          34.000
G18  23300457.430 6 122444733.316 6      3622.406          39.000
G25  20883714.117 8 109744638.490 8     -1688.590          50.000    20883715.453 8  85515344.239 8     -1315.784          50.000
G29  20210510.625 8 106206953.901 8      -116.453          51.000    20210510.070 8  82758678.213 8       -90.743          51.000
R13  21383221.039 6 114185189.486 6     -3208.668          41.000    21383222.648 6  88810695.992 6     -2495.634          41.000
R14  19171413.453 8 102194419.317 8       324.805          51.000    19171416.578 7  79484573.764 7       252.623          47.000
R17  21205435.141 8 113474615.941 8      3589.227          51.000    21205438.062 8  88258034.719 8      2791.624          48.000
R23  20567773.102 4 110023645.714 4     -3041.676          29.000
R24  19178314.766 8 102555111.217 8         8.078          51.000    19178317.406 8  79765062.226 8         6.283          49.000
C27  24880668.719 5 129560173.563 5     -2972.473          34.000
C29  22897330.867 8 119232390.156 8      2321.188          49.000
C30  21616025.297 8 112560385.200 8      -706.004          51.000
E13  23481569.211 8 123396464.887 8       545.949          51.000    23481571.680 8  94550550.027 8       418.262          51.000
E21  23438309.344 8 123169140.987 8        97.730          51.000    23438312.594 8  94376371.201 8        74.866          51.000
E26  24832704.727 7 130496752.548 7      2895.469          47.000    24832712.195 7  99990980.999 7      2218.516          46.000
E27  25475805.281 7 133876276.406 7     -2097.613          45.000    25475810.500 6 102580493.847 6     -1607.229          41.000
> 2020 05 15 11 10  0.0000000  0 17        .000000000000
G12  22998306.211 6 120856912.166 6     -2852.824          37.000    22998302.234 6  94174211.624 6     -2222.980          36.000
G14  23734036.031 7 124723222.775 7     -2181.918          42.000    23734030.133 6  97186928.203 6     -1700.199          36.000
G18  23279797.031 6 122336167.027 6      3616.441          38.000    23279797.242 6  95326873.304 6      2818.009          38.000
G25  20893388.930 8 109795479.536 8     -1699.547          49.000    20893390.219 8  85554960.613 8     -1324.322          49.000
G29  20211223.516 8 106210699.630 8      -131.957          51.000    20211223.000 8  82761596.959 8      -102.824          51.000
R13  21401288.148 6 114281668.811 6     -3222.258          38.000    21401291.102 7  88885735.430 7     -2506.204          44.000
R14  19169647.375 8 102185004.965 8       304.031          51.000    19169650.508 7  79477251.480 7       236.469          47.000
R17  21185358.062 8 113367176.964 8      3574.512          51.000    21185360.469 7  88174471.118 7      2780.179          47.000
R23  20584880.016 5 110115208.842 5     -3057.312          30.000
R24  19178343.438 8 102555266.792 8       -17.152          51.000    19178346.656 8  79765183.228 8       -13.341          49.000
C27  24897809.961 5 129649431.833 5     -2977.074          35.000
C29  22883991.125 8 119162935.206 8      2310.266          48.000
C30  21620136.570 8 112581792.467 8      -719.859          51.000
E13  23478497.516 8 123380324.058 8       531.320          51.000    23478500.344 8  94538182.383 8       407.068          51.000
E21  23437780.305 8 123166361.889 8        88.688          51.000    23437783.617 8  94374241.753 8        67.922          51.000
E26  24816198.391 8 130410008.039 8      2888.613          48.000    24816203.773 7  99924514.502 7      2213.362          46.000
E27  25487802.633 7 133939322.750 7     -2104.383          43.000    25487807.258 6 102628802.057 6     -1612.389          40.000
> 2020 05 15 11 10 30.0000000  0 17        .000000000000
G12  23014607.906 5 120942588.086 5     -2859.434          33.000
G14  23746524.266 7 124788847.978 7     -2193.066          42.000    23746518.914 6  97238064.685 6     -1708.883          37.000
G18  23259168.047 6 122227769.334 6      3610.289          36.000    23259167.383 6  95242407.586 6      2813.218          36.000
G25  20903125.414 8 109846645.790 8     -1711.195          49.000    20903126.945 8  85594830.385 8     -1333.402          49.000
G29  20212022.953 8 106214900.086 8      -147.816          51.000    20212022.281 8  82764870.047 8      -115.182          51.000
R13  21419429.062 5 114378550.303 5     -3236.129          34.000    21419435.266 7  88961087.722 7     -2516.989          45.000
R14  19167996.453 8 102176204.615 8       282.766          51.000    19167999.719 7  79470406.743 7       219.929          47.000
R17  21165361.625 8 113260171.938 8      3559.312          49.000    21165364.062 7  88091245.050 7      2768.354          46.000
R24  19178512.195 8 102556170.313 8       -42.785          50.000    19178515.445 8  79765885.950 8       -33.277          48.000
C13  38157142.695 4 198694254.802 4      -351.020          28.000    38157139.898 4 153642990.185 4      -270.763          29.000
C27  24914975.094 6 129738812.783 6     -2981.531          37.000
C29  22870713.148 8 119093795.630 8      2299.059          50.000
C30  21624325.266 8 112603604.192 8      -734.035          51.000
E13  23475507.500 8 123364612.726 8       516.336          51.000    23475510.680 8  94526143.838 8       395.583          51.000
E21  23437301.188 8 123163845.158 8        79.215          51.000    23437304.500 8  94372313.335 8        60.748          51.000
E26  24799728.961 8 130323458.757 8      2881.438          48.000    24799732.250 7  99858197.612 7      2207.915          46.000
E27  25499835.922 7 134002556.122 7     -2111.223          44.000    25499839.469 6 102677253.551 6     -1617.669          41.000
> 2020 05 15 11 11  0.0000000  0 19        .000000000000
G02  24345977.133 5 127938973.332 5     -2597.004          32.000
G12  23030949.305 5 121028462.204 5     -2861.430          35.000    23030975.234 5  94307978.910 5     -2229.695          34.000
G14  23759078.406 7 124854819.232 7     -2200.434          42.000    23759073.305 5  97289470.839 5     -1714.624          35.000
G18  23238576.445 6 122119570.922 6      3607.352          36.000    23238577.422 5  95158097.161 5      2810.923          35.000
G25  20912929.195 8 109898165.254 8     -1718.785          50.000    20912930.953 8  85634975.416 8     -1339.313          49.000
G29  20212914.023 8 106219582.031 8      -159.727          51.000    20212913.078 8  82768518.307 8      -124.462          51.000
R13  21437650.938 5 114475861.086 5     -3246.277          35.000    21437659.047 7  89036773.881 7     -2524.882          46.000
R14  19166466.609 8 102168048.645 8       265.551          51.000    19166469.633 8  79464063.199 8       206.536          48.000
R17  21145452.086 8 113153632.085 8      3547.934          49.000    21145454.359 7  88008380.777 7      2759.504          45.000
R23  20619350.586 5 110299562.805 5     -3084.234          30.000
R24  19178826.219 8 102557849.341 8       -64.504          51.000    19178829.453 8  79767191.872 8       -50.170          48.000
C13  38159174.094 4 198704832.395 4      -351.781          27.000
C27  24932168.930 6 129828342.881 6     -2982.707          38.000
C29  22857502.789 8 119025000.365 8      2291.750          51.000
C30  21628596.797 8 112625847.293 8      -744.336          51.000
E13  23472604.609 8 123349359.262 8       505.156          51.000    23472607.922 8  94514456.117 8       387.065          51.000
E21  23436877.758 8 123161619.869 8        73.664          51.000    23436880.773 8  94370608.239 8        56.417          51.000
E26  24783302.094 7 130237134.587 7      2877.941          47.000    24783303.594 7  99792053.207 7      2205.311          46.000
E27  25511909.805 7 134066004.748 7     -2114.148          43.000    25511913.070 6 102725869.999 6     -1619.929          41.000
> 2020 05 15 11 11 30.0000000  0 16        .000000000000
G12  23047305.141 5 121114409.705 5     -2867.754          33.000    23047304.758 5  94374850.219 5     -2234.623          33.000
G14  23771674.008 7 124921008.985 7     -2211.711          42.000    23771669.867 6  97341047.238 6     -1723.414          38.000
G18  23218000.250 6 122011450.469 6      3600.973          38.000    23218003.492 6  95073847.493 6      2805.956          36.000
G25  20922776.469 8 109949913.449 8     -1730.535          50.000    20922778.250 8  85675298.669 8     -1348.472          50.000
G29  20213872.992 8 106224620.768 8      -175.734          51.000    20213871.891 8  82772444.618 8      -136.933          51.000
R13  21455930.461 6 114573472.555 6     -3260.574          36.000    21455938.922 7  89112693.949 7     -2535.999          46.000
R14  19165033.977 8 102160412.586 8       244.012          51.000    19165037.109 8  79458124.023 8       189.787          48.000
R17  21125606.625 8 113047433.622 8      3532.375          50.000    21125608.594 7  87925782.074 7      2747.406          45.000
R24  19179261.578 8 102560176.508 8       -90.305          51.000    19179264.484 8  79769001.892 8       -70.237          48.000
C27  24949367.695 6 129917897.337 6     -2987.051          38.000
C29  22844335.578 8 118956427.320 8      2280.238          51.000
C30  21632927.414 8 112648397.594 8      -758.648          51.000
E13  23469765.211 8 123334439.439 8       489.969          51.000    23469768.414 8  94503024.058 8       375.425          51.000
E21  23436486.484 8 123159562.689 8        63.934          51.000    23436489.141 8  94369031.951 8        49.030          51.000
E26  24766893.930 7 130150912.808 7      2870.590          45.000    24766895.070 7  99725987.233 7      2199.522          46.000
E27  25524000.227 6 134129544.283 6     -2121.336          41.000    25524003.047 6 102774556.084 6     -1625.424          39.000
> 2020 05 15 11 12  0.0000000  0 16        .000000000000
G12  23063699.914 5 121200558.896 5     -2874.258          32.000    23063702.781 5  94441980.885 5     -2239.691          33.000
G14  23784335.656 7 124987545.847 7     -2222.953          43.000    23784332.547 5  97392894.100 5     -1732.171          35.000
G18  23197465.414 6 121903541.600 6      3593.922          39.000    23197469.203 6  94989762.682 6      2800.462          36.000
G25  20932692.156 8 110002020.813 8     -1742.203          50.000    20932693.852 8  85715901.802 8     -1357.561          50.000
G29  20214924.336 8 106230145.817 8      -191.547          51.000    20214923.133 8  82776749.864 8      -149.257          51.000
R13  21474291.453 6 114671516.741 6     -3274.488          37.000    21474299.422 7  89188950.556 7     -2546.821          44.000
R14  19163724.367 8 102153431.217 8       222.469          51.000    19163727.422 8  79452694.062 8       173.031          49.000
R17  21105850.508 8 112941712.440 8      3516.773          50.000    21105852.703 7  87843554.596 7      2735.271          45.000
R24  19179842.945 8 102563283.971 8      -115.910          50.000    19179845.438 8  79771418.798 8       -90.152          48.000
C27  24966595.117 5 130007604.153 5     -2992.008          35.000
C29  22831235.211 8 118888206.939 8      2268.711          49.000
C30  21637341.281 8 112671383.496 8      -772.750          51.000
E13  23467014.289 8 123319984.048 8       474.805          51.000    23467017.383 8  94491947.859 8       363.766          51.000
E21  23436152.203 8 123157805.124 8        54.262          51.000    23436154.805 8  94367685.249 8        41.538          51.000
E26  24750528.914 7 130064925.730 7      2862.957          43.000    24750532.070 7  99660101.033 7      2193.679          47.000
E27  25536133.102 6 134193305.386 6     -2128.402          41.000    25536134.008 6 102823411.981 6     -1631.069          40.000
> 2020 05 15 11 12 30.0000000  0 15        .000000000000
G14  23797056.086 7 125054390.712 7     -2232.809          44.000    23797053.883 6  97444980.987 6     -1739.848          37.000
G18  23176965.148 6 121795811.025 6      3588.512          39.000    23176968.891 6  94905816.820 6      2796.246          37.000
G25  20942669.188 8 110054450.833 8     -1752.672          49.000    20942671.609 8  85756756.349 8     -1365.721          49.000
G29  20216061.211 8 106236120.274 8      -206.238          51.000    20216059.859 8  82781405.291 8      -160.705          51.000
R13  21492726.133 6 114769954.120 6     -3287.246          38.000    21492733.516 6  89265512.966 6     -2556.750          40.000
R14  19162530.883 8 102147069.237 8       202.086          51.000    19162533.812 8  79447745.847 8       157.178          49.000
R17  21086176.805 8 112836434.298 8      3502.230          49.000    21086179.672 7  87761671.657 7      2723.960          44.000
R24  19180563.070 8 102567133.798 8      -140.289          50.000    19180565.305 7  79774413.114 7      -109.114          47.000
C27  24983844.070 5 130097425.845 5     -2995.430          34.000
C29  22818194.289 8 118820304.377 8      2258.613          48.000
C30  21641832.062 8 112694768.078 8      -785.695          51.000
E13  23464344.773 8 123305956.954 8       460.902          51.000    23464348.016 8  94481199.850 8       353.096          51.000
E21  23435868.172 8 123156311.862 8        45.754          51.000    23435870.789 8  94366541.061 8        35.025          51.000
E26  24734202.344 7 129979138.654 7      2856.559          45.000    24734207.695 8  99594368.059 8      2188.789          48.000
E27  25548301.219 6 134257251.762 6     -2134.008          40.000    25548301.992 6 102872409.808 6     -1635.385          41.000
> 2020 05 15 11 13  0.0000000  0 17        .000000000000
G14  23809834.445 7 125121540.007 7     -2249.578          44.000    23809832.930 6  97497305.101 6     -1752.918          38.000
G18  23156498.695 6 121688260.859 6      3575.801          40.000    23156502.531 5  94822011.535 5      2786.341          35.000
G21  23110976.766 6 121448992.353 6      3286.738          38.000    23110974.875 5  94635604.875 5      2561.098          31.000
G25  20952707.469 8 110107202.410 8     -1769.922          50.000    20952710.094 8  85797861.448 8     -1379.160          50.000
G29  20217283.195 8 106242542.268 8      -227.699          51.000    20217281.883 8  82786409.435 8      -177.428          51.000
R13  21511234.492 6 114868783.219 6     -3306.957          40.000    21511240.211 6  89342379.943 6     -2572.081          36.000
R14  19161453.898 8 102141327.232 8       174.773          51.000    19161456.633 8  79443279.859 8       135.938          50.000
R17  21066585.562 7 112731601.317 7      3480.715          47.000    21066589.523 7  87680134.939 7      2707.223          44.000
R24  19181421.562 8 102571723.680 8      -171.562          51.000    19181423.352 7  79777983.010 7      -133.438          46.000
C13  38167560.586 4 198748579.196 4      -380.508          29.000
C27  25001113.938 5 130187359.902 5     -3005.973          32.000
C29  22805214.062 8 118752719.623 8      2241.410          49.000
C30  21646398.992 8 112718549.267 8      -805.395          51.000
E13  23461756.719 8 123292357.225 8       439.980          51.000    23461759.836 8  94470779.298 8       337.116          51.000
E21  23435634.406 8 123155082.795 8        30.340          51.000    23435636.992 8  94365599.298 8        23.250          51.000
E26  24717915.406 7 129893552.149 7      2843.375          47.000    24717921.508 8  99528788.806 8      2178.690          48.000
E27  25560505.133 7 134321382.426 7     -2147.051          43.000    25560506.016 7 102921548.834 7     -1644.981          42.000
> 2020 05 15 11 13 30.0000000  0 17        .000000000000
G14  23822680.648 7 125189046.672 7     -2251.684          46.000    23822679.984 6  97549907.681 6     -1754.562          38.000
G18  23136077.484 6 121580949.758 6      3577.578          41.000    23136082.250 5  94738392.501 5      2787.720          35.000
G21  23092207.438 6 121350366.443 6      3286.852          38.000    23092207.305 4  94558753.557 4      2561.180          28.000
G25  20962817.711 8 110160330.906 8     -1772.707          50.000    20962819.891 8  85839260.268 8     -1381.330          50.000
G29  20218600.914 8 106249466.758 8      -234.625          51.000    20218599.562 8  82791805.145 8      -182.825          51.000
R13  21529826.352 6 114968058.479 6     -3311.910          40.000    21529829.617 6  89419593.882 6     -2575.936          39.000
R14  19160504.062 8 102136263.606 8       162.066          51.000    19160507.047 8  79439341.476 8       126.052          50.000
R17  21047087.258 7 112627272.743 7      3473.887          45.000    21047092.891 7  87598990.507 7      2701.915          43.000
R24  19182428.914 8 102577109.285 8      -188.199          51.000    19182430.359 7  79782171.824 7      -146.377          46.000
C13  38169740.539 5 198759848.322 5      -376.906          30.000    38169744.680 4 153693742.908 4      -292.010          28.000
C27  25018415.617 5 130277459.890 5     -3001.578          31.000
C29  22792306.953 8 118685508.816 8      2238.602          51.000
C30  21651052.320 8 112742781.161 8      -810.758          51.000
E13  23459260.797 8 123279240.634 8       433.766          51.000    23459263.625 8  94460728.931 8       332.390          51.000
E21  23435461.711 8 123154174.487 8        29.551          51.000    23435464.281 8  94364903.324 8        22.619          51.000
E26  24701678.195 8 129808223.503 8      2844.562          49.000    24701684.180 8  99463407.162 8      2179.657          48.000
E27  25572754.953 7 134385752.993 7     -2144.914          43.000    25572756.289 6 102970871.714 6     -1643.673          41.000
> 2020 05 15 11 14  0.0000000  0 19        .000000000000
G02  24435980.438 5 128411937.909 5     -2652.273          33.000    24435984.930 5 100061283.657 5     -2066.707          31.000
G12  23129559.383 5 121546654.057 5     -2890.926          31.000    23129554.750 4  94711671.150 4     -2252.679          28.000
G14  23835527.727 7 125256558.559 7     -2257.305          44.000    23835527.938 6  97602514.349 6     -1758.936          39.000
G18  23115635.484 6 121473531.203 6      3575.383          41.000    23115642.062 5  94654689.741 5      2786.003          32.000
G21  23073425.609 6 121251671.534 6      3283.758          37.000    23073426.672 5  94481848.607 5      2558.781          33.000
G25  20972933.125 8 110213486.724 8     -1779.242          49.000    20972935.008 8  85880680.380 8     -1386.422          49.000
G29  20219947.664 8 106256543.551 8      -245.496          51.000    20219946.102 8  82797319.523 8      -191.296          51.000
R13  21548434.297 6 115067423.973 6     -3320.914          38.000    21548437.547 7  89496878.121 7     -2582.933          42.000
R14  19159615.273 8 102131525.621 8       145.441          51.000    19159618.320 8  79435656.384 8       113.121          50.000
R17  21027617.867 7 112523095.514 7      3462.918          46.000    21027623.930 6  87517963.763 6      2693.381          41.000
R24  19183518.094 8 102582933.829 8      -208.516          51.000    19183519.164 7  79786702.045 7      -162.179          45.000
C13  38171893.414 5 198771049.558 5      -377.254          31.000
C27  25035683.242 5 130367378.043 5     -3001.473          30.000
C29  22779406.031 8 118618326.628 8      2231.969          51.000
