     3.02           OBSERVATION DATA    M (MIXED)           RINEX VERSION / TYPE
SAVERINEX           SC600               20200507 175516 LCL PGM / RUN BY / DATE
       G = GPS       R = GLONASS       C = COMPASS          COMMENT
       S = SBAS      J = QZSS          E = GALILEO          COMMENT
BEAN                                                        MARKER NAME
1                                                           MARKER NUMBER
GEODETIC                                                    MARKER TYPE
Unige DICCA         GTER                                    OBSERVER / AGENCY
SC60291900056       SC600               2.12(191226)        REC # / TYPE / VERS
                    HEMA45          NONE                    ANT # / TYPE
  4509407.8091   693652.4678  4442337.6214                  APPROX POSITION XYZ
        0.0000        0.0000        0.0000                  ANTENNA: DELTA H/E/N
G    8 C1C L1C D1C S1C C2Y L2Y D2Y S2Y                      SYS / # / OBS TYPES
R    8 C1C L1C D1C S1C C2P L2P D2P S2P                      SYS / # / OBS TYPES
C    8 C1I L1I D1I S1I C7I L7I D7I S7I                      SYS / # / OBS TYPES
E    8 C1C L1C D1C S1C C7Q L7Q D7Q S7Q                      SYS / # / OBS TYPES
DBHZ                                                        COMMENT
     30.000                                                 INTERVAL
  2020    05    07    15    00    0.0000000     GPS         TIME OF FIRST OBS
  2020    05    07    15    55    0.0000000     GPS         TIME OF LAST OBS
     0                                                      RCV CLOCK OFFS APPL
G L1C  0.00000                                              SYS / PHASE SHIFT
G L2Y  0.00000                                              SYS / PHASE SHIFT
R L1C  0.00000                                              SYS / PHASE SHIFT
R L2P  0.25000                                              SYS / PHASE SHIFT
C L1I  0.00000                                              SYS / PHASE SHIFT
C L7I  0.00000                                              SYS / PHASE SHIFT
E L1C  0.50000                                              SYS / PHASE SHIFT
E L7Q -0.25000                                              SYS / PHASE SHIFT
 13 R01  1 R02 -4 R03  5 R08  6 R10 -5 R12 -1 R13 -2 R14 -7 GLONASS SLOT / FRQ #
    R15  0 R16 -1 R17  4 R18 -3 R23  3                      GLONASS SLOT / FRQ #
 C1C   71.950 C2C   71.950 C2P   71.950                     GLONASS COD/PHS/BIS
    18                                                      LEAP SECONDS
*** Above antenna height is from mark to ANTENNA BOTTOM.    COMMENT
    17     4        0.0000        ANT MEASURE TYPE/HEIGT    COMMENT
    0.0000    0.0000    0.0458    0.0405    0.0000          COMMENT
                    BASE STATION                            COMMENT
                                                            END OF HEADER
> 2020 05 07 15 00  0.0000000  0 13        .000000000000
G10  23163127.508 8 121723067.232 8      3232.961          51.000    23163131.969 8  94849151.673 8      2519.190          51.000
G16  20531885.711 6 107895791.312 6       691.973          37.000    20531884.070 5  84074647.799 5       539.199          35.000
G18  21475761.398 7 112855901.263 7     -2350.941          45.000    21475760.961 7  87939681.352 7     -1831.902          42.000
G20  21368933.344 8 112294505.962 8      1613.270          51.000    21368933.055 7  87502227.744 7      1257.093          47.000
G21  21839481.094 8 114767310.939 8     -2083.914          50.000    21839479.586 7  89429084.510 7     -1623.829          44.000
G26  20681028.781 8 108679521.041 8     -1575.066          51.000    20681031.570 8  84685349.746 8     -1227.328          51.000
R15  21783670.117 6 116405288.002 6     -4132.172          37.000    21783673.312 6  90537452.630 6     -3213.914          40.000
C12  22966017.883 4 119590088.682 4      1759.875          28.000
C22  25216828.227 8 131310663.801 8      2889.434          48.000
C24  23477858.914 7 122255366.311 7     -1282.918          42.000
E11  23115920.992 8 121475024.113 8     -1361.418          51.000    23115920.039 8  93078264.925 8     -1043.131          51.000
E25  24574039.625 8 129137434.168 8     -2159.859          51.000    24574043.703 8  98949468.018 8     -1654.951          51.000
E36  23675433.484 8 124415249.879 8      1048.852          51.000    23675435.117 8  95331187.634 8       803.654          48.000
> 2020 05 07 15 00 30.0000000  0 13        .000000000000
G10  23144705.273 8 121626256.885 8      3224.949          51.000    23144709.953 8  94773715.055 8      2512.950          51.000
G16  20527998.039 6 107875361.030 6       673.965          36.000    20527996.500 5  84058728.125 5       525.164          35.000
G18  21489225.047 7 112926654.308 7     -2361.926          45.000    21489225.211 7  87994813.604 7     -1840.465          42.000
G20  21359785.094 8 112246432.171 8      1595.594          51.000    21359785.125 7  87464767.667 7      1243.320          47.000
G21  21851410.797 8 114830002.003 8     -2091.480          51.000    21851409.148 7  89477934.666 7     -1629.725          43.000
G26  20690081.344 8 108727092.865 8     -1592.445          51.000    20690084.141 8  84722418.658 8     -1240.866          51.000
R15  21806909.344 6 116529482.158 6     -4143.418          38.000    21806915.258 6  90634048.047 6     -3222.658          38.000
C12  22955898.797 5 119537408.967 5      1754.641          30.000    22955912.062 5  92433899.763 5      1356.452          30.000
C22  25200209.820 7 131224126.391 7      2883.574          47.000
C24  23485306.109 6 122294153.793 6     -1298.629          39.000
E11  23123721.773 8 121516016.753 8     -1367.555          51.000    23123720.555 8  93109674.856 8     -1047.849          51.000
E25  24586413.367 8 129202457.316 8     -2171.070          51.000    24586418.266 8  98999290.926 8     -1663.526          51.000
E36  23669481.000 8 124383968.279 8      1040.539          50.000    23669482.148 8  95307218.652 8       797.254          49.000
> 2020 05 07 15 01  0.0000000  0 13        .000000000000
G10  23126315.266 8 121529616.967 8      3214.703          51.000    23126319.758 8  94698411.259 8      2504.963          51.000
G16  20524203.961 6 107855426.250 6       652.168          36.000    20524203.945 5  84043194.464 5       508.180          35.000
G18  21502737.383 7 112997662.965 7     -2374.895          46.000    21502737.641 6  88050145.018 6     -1850.567          39.000
G20  21350725.328 8 112198822.482 8      1575.566          51.000    21350725.531 8  87427669.215 8      1227.714          48.000
G21  21863371.000 8 114892852.920 8     -2101.391          51.000    21863369.398 7  89526909.386 7     -1637.447          43.000
G26  20699220.523 8 108775118.811 8     -1612.164          51.000    20699223.297 8  84759841.457 8     -1256.232          51.000
R15  21830200.445 6 116653944.463 6     -4156.598          37.000    21830207.438 6  90730852.029 6     -3232.912          38.000
C12                                                                  22945820.289 4  92393308.404 4      1350.879          29.000
C22  25183612.312 7 131137698.897 7      2875.438          46.000
C24  23492831.750 6 122333353.403 6     -1317.426          36.000
E11  23131545.570 8 121557130.321 8     -1375.957          51.000    23131543.984 8  93141177.452 8     -1054.350          51.000
E25  24598838.586 8 129267750.606 8     -2184.672          51.000    24598843.359 8  99049320.816 8     -1673.993          51.000
E36  23663563.141 8 124352869.831 8      1029.977          49.000    23663564.555 8  95283389.998 8       789.215          49.000
> 2020 05 07 15 01 30.0000000  0 13        .000000000000
G10  23107973.094 8 121433228.070 8      3210.109          51.000    23107976.852 8  94623303.060 8      2501.387          51.000
G16  20520519.344 6 107836065.950 6       637.289          37.000    20520519.125 5  84028108.436 5       496.583          34.000
G18  21516312.914 7 113069002.899 7     -2382.133          45.000    21516312.992 6  88105734.544 6     -1856.210          39.000
G20  21341768.859 8 112151756.303 8      1561.199          51.000    21341769.234 7  87390994.281 7      1216.519          47.000
G21  21875376.102 8 114955939.960 8     -2105.566          50.000    21875374.602 7  89576068.110 7     -1640.701          44.000
G26  20708460.578 8 108823675.547 8     -1626.055          51.000    20708463.516 8  84797677.841 8     -1267.059          51.000
R15  21853555.320 5 116778749.883 5     -4164.750          32.000    21853563.789 6  90827922.865 6     -3239.253          36.000
R18  19657827.625 4 104934817.380 4       257.070          29.000
C22  25167049.914 7 131051460.887 7      2872.742          46.000
C24  23500452.758 6 122373040.681 6     -1329.867          39.000
E11  23139406.875 8 121598441.554 8     -1379.141          51.000    23139405.180 8  93172831.504 8     -1056.690          51.000
E25  24611329.719 8 129333390.533 8     -2192.332          51.000    24611333.906 8  99099616.305 8     -1679.824          51.000
E36  23657694.680 8 124322031.985 8      1024.980          49.000    23657696.812 8  95259761.011 8       785.378          50.000
> 2020 05 07 15 02  0.0000000  0 13        .000000000000
G10  23089664.930 8 121337017.434 8      3204.945          51.000    23089668.312 8  94548333.795 8      2497.363          51.000
G16  20516930.289 5 107817205.718 5       621.656          35.000    20516929.391 5  84013412.225 5       484.401          34.000
G18  21529936.703 7 113140596.240 7     -2389.707          44.000    21529936.789 6  88161521.556 6     -1862.109          38.000
G20  21332901.508 8 112105159.631 8      1546.348          50.000    21332902.047 7  87354685.184 7      1204.946          46.000
G21  21887411.234 8 115019185.007 8     -2109.992          50.000    21887409.773 7  89625349.955 7     -1644.150          44.000
G26  20717787.180 8 108872686.409 8     -1640.160          51.000    20717790.164 8  84835868.103 8     -1278.047          51.000
C19  24238836.133 5 126217980.850 5       679.441          30.000
C22  25150510.477 7 130965340.041 7      2869.672          47.000
C24  23508154.344 7 122413139.475 7     -1342.676          43.000
C26  24755713.375 5 128909494.565 5     -3224.711          31.000
E11  23147291.172 8 121639873.880 8     -1382.223          51.000    23147289.602 8  93204578.351 8     -1059.058          51.000
E25  24623871.703 8 129399300.304 8     -2200.629          50.000    24623875.750 8  99150118.573 8     -1686.157          51.000
E36  23651861.414 8 124291378.873 8      1019.547          49.000    23651864.070 8  95236273.547 8       781.325          50.000
> 2020 05 07 15 02 30.0000000  0 15        .000000000000
G10  23071404.391 8 121241057.084 8      3194.535          51.000    23071408.016 8  94473559.546 8      2489.248          51.000
G16  20513449.945 6 107798915.831 6       599.812          37.000    20513448.406 5  83999160.334 5       467.383          35.000
G18  21543621.539 7 113212510.297 7     -2402.516          45.000    21543622.039 6  88217558.460 6     -1872.093          38.000
G20  21324137.227 8 112059103.428 8      1526.195          51.000    21324137.562 7  87318797.240 7      1189.243          46.000
G21  21899489.594 8 115082657.103 8     -2119.465          51.000    21899488.125 7  89674808.730 7     -1651.531          44.000
G26  20727213.141 8 108922219.450 8     -1659.816          51.000    20727215.789 8  84874465.266 8     -1293.363          51.000
R15  21900443.398 5 117029331.751 5     -4185.590          31.000    21900429.852 5  91022775.871 5     -3255.465          30.000
R18  19655083.305 4 104920134.383 4       232.910          29.000
C19  24234981.078 5 126197912.045 5       660.000          30.000
C22  25134008.445 8 130879407.453 8      2861.250          49.000
C24  23515948.594 7 122453716.815 7     -1360.438          44.000
C26  24774317.812 5 129006367.858 5     -3231.164          34.000
E11  23155211.430 8 121681495.519 8     -1390.367          51.000    23155210.000 8  93236470.254 8     -1065.319          51.000
E25  24636477.508 8 129465547.790 8     -2213.715          50.000    24636482.094 8  99200879.611 8     -1696.238          51.000
E36  23646076.383 8 124260979.322 8      1009.043          49.000    23646079.477 8  95212980.387 8       773.214          50.000
> 2020 05 07 15 03  0.0000000  0 15        .000000000000
G10  23053189.984 8 121145339.853 8      3186.480          50.000    23053194.188 8  94398974.731 8      2482.975          50.000
G16  20510076.453 6 107781187.404 6       581.527          39.000    20510074.688 6  83985346.013 6       453.141          38.000
G18  21557364.969 7 113284732.733 7     -2412.492          45.000    21557365.859 6  88273835.673 6     -1879.864          37.000
G20  21315474.484 8 112013579.361 8      1508.676          51.000    21315474.562 7  87283323.977 7      1175.595          46.000
G21  21911608.477 8 115146342.478 8     -2126.367          51.000    21911607.164 7  89724433.685 7     -1656.909          44.000
G26  20736736.062 8 108972263.571 8     -1676.512          49.000    20736738.344 8  84913460.651 8     -1306.373          49.000
R15  21923961.469 6 117155040.835 6     -4195.555          38.000    21923953.695 5  91120524.344 5     -3263.215          30.000
R17  20956871.078 5 112144467.018 5     -2510.281          32.000    20956863.078 4  87223429.315 4     -1952.444          29.000
C19  24231225.289 4 126178337.946 4       644.672          29.000
C22  25117541.625 8 130793655.753 8      2855.406          50.000
C24  23523831.812 6 122494761.394 6     -1375.879          41.000
C26  24792944.422 6 129103352.953 6     -3234.465          37.000
E11  23163165.539 8 121723295.544 8     -1396.215          51.000    23163164.242 8  93268498.837 8     -1069.788          51.000
E25  24649145.664 8 129532121.782 8     -2224.469          51.000    24649150.805 8  99251890.822 8     -1704.481          51.000
E36  23640337.508 8 124230822.998 8      1001.332          49.000    23640341.148 8  95189873.611 8       767.263          49.000
> 2020 05 07 15 03 30.0000000  0 14        .000000000000
G10  23035020.352 8 121049858.209 8      3179.285          50.000    23035024.797 8  94324573.492 8      2477.365          50.000
G16  20506808.023 6 107764011.111 6       563.887          39.000    20506805.812 6  83971961.914 6       439.392          37.000
G18  21571164.727 7 113357251.104 7     -2421.520          45.000    21571165.422 6  88330343.494 6     -1886.898          37.000
G20  21306911.375 8 111968578.860 8      1491.852          51.000    21306911.008 7  87248258.706 7      1162.482          46.000
G21  21923766.016 8 115210230.597 8     -2132.344          51.000    21923764.711 7  89774216.631 7     -1661.567          44.000
G26  20746354.000 8 109022807.287 8     -1692.637          50.000    20746356.133 8  84952845.295 8     -1318.941          50.000
R15  21947537.680 7 117281048.749 7     -4204.820          42.000    21947537.156 5  91218530.347 5     -3270.419          32.000
R17  20970963.211 5 112219856.108 5     -2514.688          33.000    20970950.156 4  87282065.267 4     -1955.865          26.000
C22  25101107.820 8 130708077.215 8      2850.289          50.000
C24  23531801.492 6 122536261.373 6     -1390.324          40.000
C26  24811589.453 6 129200437.227 6     -3237.164          38.000
E11  23171151.430 8 121765262.562 8     -1401.137          51.000    23171150.266 8  93300655.380 8     -1073.595          51.000
E25  24661874.164 8 129599010.639 8     -2234.180          51.000    24661879.539 8  99303143.288 8     -1711.949          51.000
E36  23634642.797 8 124200899.263 8       994.195          49.000    23634646.875 8  95166945.049 8       761.795          49.000
> 2020 05 07 15 04  0.0000000  0 16        .000000000000
G10  23016896.227 8 120954615.551 8      3170.410          48.000    23016900.039 8  94250358.488 8      2470.453          49.000
G16  20503644.867 6 107747388.641 6       544.598          39.000    20503642.969 6  83959009.320 6       424.359          38.000
G18  21585020.562 7 113430063.898 7     -2432.359          46.000    21585020.711 6  88387080.696 6     -1895.348          37.000
G20  21298448.273 8 111924103.789 8      1473.410          51.000    21298447.094 7  87213602.814 7      1148.115          45.000
G21  21935961.797 8 115274319.406 8     -2139.938          51.000    21935960.250 7  89824155.957 7     -1667.484          44.000
G26  20756067.156 8 109073849.973 8     -1710.031          51.000    20756069.766 8  84992618.758 8     -1332.492          51.000
R15  21971171.375 7 117407352.163 7     -4215.250          43.000    21971175.711 5  91316766.269 5     -3278.531          34.000
R17  20985074.203 4 112295415.072 4     -2522.059          29.000    20985065.250 4  87340811.293 4     -1961.601          26.000
C12                                                                  22885953.844 4  92152243.896 4      1325.174          29.000
C19  24223974.117 5 126140588.708 5       611.543          31.000
C22  25084707.242 8 130622674.920 8      2843.375          49.000
C24  23539858.039 7 122578215.923 7     -1406.363          43.000
C26  24830252.016 6 129297618.863 6     -3241.488          37.000
E11  23179169.078 8 121807396.184 8     -1407.324          51.000    23179168.055 8  93332939.576 8     -1078.351          51.000
E25  24674662.609 8 129666213.629 8     -2245.629          51.000    24674668.023 8  99354636.456 8     -1720.662          51.000
E36  23628992.750 8 124171208.354 8       985.547          49.000    23628996.789 8  95144194.873 8       755.189          48.000
> 2020 05 07 15 04 30.0000000  0 14        .000000000000
G10  22998815.445 7 120859600.469 7      3163.125          47.000    22998815.625 7  94176320.925 7      2464.779          47.000
G16  20500584.773 6 107731306.585 6       526.801          40.000    20500583.367 6  83946477.882 6       410.497          39.000
G18  21598929.461 7 113503154.677 7     -2441.188          45.000    21598929.109 6  88444034.523 6     -1902.227          37.000
G20  21290082.602 8 111880141.879 8      1456.742          51.000    21290081.531 7  87179346.814 7      1135.127          47.000
G21  21948192.742 8 115338593.286 8     -2145.590          51.000    21948191.109 7  89874239.487 7     -1671.888          43.000
G26  20765872.625 8 109125376.242 8     -1725.625          51.000    20765875.414 8  85032769.082 8     -1344.643          51.000
R15  21994857.641 7 117533932.184 7     -4224.293          42.000    21994865.742 5  91415217.307 5     -3285.564          35.000
R17  20999220.555 5 112371127.450 5     -2526.324          32.000    20999220.812 4  87399712.679 4     -1964.916          28.000
C22  25068338.180 8 130537437.320 8      2838.305          48.000
C24  23547999.898 7 122620609.423 7     -1420.691          45.000
C26  24848929.047 5 129394881.267 5     -3243.633          35.000
E11  23187215.586 8 121849681.310 8     -1412.172          51.000    23187214.672 8  93365339.861 8     -1082.069          51.000
E25  24687507.773 8 129733715.227 8     -2255.152          51.000    24687513.023 8  99406358.448 8     -1727.929          51.000
E36  23623384.695 8 124141735.649 8       978.594          50.000    23623388.188 8  95121611.923 8       749.784          48.000
> 2020 05 07 15 05  0.0000000  0 15        .000000000000
G10  22980786.727 7 120764860.811 7      3153.375          44.000    22980785.148 7  94102497.955 7      2457.178          45.000
G16  20497636.188 6 107715811.179 6       506.891          40.000    20497634.820 6  83934403.514 6       394.980          39.000
G18  21612899.414 7 113576566.322 7     -2452.402          44.000    21612899.070 6  88501238.377 6     -1910.963          37.000
G20  21281823.195 8 111836739.620 8      1437.258          51.000    21281822.953 7  87145526.928 7      1119.944          47.000
G21  21960467.141 8 115403095.836 8     -2153.926          51.000    21960465.656 7  89924501.201 7     -1678.384          42.000
G26  20775778.289 8 109177429.929 8     -1743.910          51.000    20775781.383 8  85073330.384 8     -1358.894          51.000
R03  23608520.578 7 126378259.283 7      3977.070          42.000    23608524.750 6  98294216.296 6      3093.280          38.000
R15  22018605.023 7 117660830.466 7     -4235.168          42.000    22018615.297 6  91513915.838 6     -3294.023          37.000
C19  24217113.336 5 126104846.634 5       578.277          34.000
C22  25052009.633 7 130452411.530 7      2830.574          47.000
C24  23556234.352 7 122663484.939 7     -1437.414          43.000
C26  24867629.281 5 129492266.599 5     -3247.574          31.000
E11  23195299.281 8 121892161.939 8     -1419.555          51.000    23195298.445 8  93397889.945 8     -1087.648          51.000
E25  24700417.953 8 129801559.143 8     -2267.336          51.000    24700423.062 8  99458342.745 8     -1737.288          51.000
E36  23617826.789 8 124112525.822 8       969.262          50.000    23617829.859 8  95099230.413 8       742.642          49.000
> 2020 05 07 15 05 30.0000000  0 15        .000000000000
G10  22962799.727 7 120670342.676 7      3147.062          44.000    22962800.891 7  94028847.498 7      2452.256          44.000
G16  20494788.359 6 107700846.934 6       490.234          41.000    20494787.234 6  83922743.055 6       381.998          38.000
G18  21626919.109 7 113650240.025 7     -2459.941          43.000    21626919.117 6  88558646.456 6     -1916.837          38.000
G20  21273659.711 8 111793841.906 8      1421.715          51.000    21273659.883 7  87112100.159 7      1107.833          46.000
G21  21972773.867 8 115467768.144 8     -2158.312          50.000    21972772.438 7  89974895.201 7     -1681.802          42.000
G26  20785773.031 8 109229953.118 8     -1758.379          51.000    20785776.523 8  85114257.523 8     -1370.165          51.000
R03  23586231.969 7 126258947.130 7      3976.281          42.000    23586235.148 6  98201418.060 6      3092.666          37.000
R15  22042401.672 6 117787985.273 6     -4242.410          41.000    22042411.781 6  91612813.947 6     -3299.655          36.000
R17  21027626.703 6 112523071.272 6     -2536.855          36.000    21027624.430 5  87517934.399 5     -1973.107          31.000
C22  25035710.766 7 130367543.959 7      2826.418          47.000
C24  23564548.859 7 122706784.836 7     -1450.191          42.000
C26  24886339.594 4 129589688.621 4     -3249.617          29.000
E11  23203409.336 8 121934780.425 8     -1422.738          51.000    23203408.477 8  93430545.671 8     -1090.105          51.000
E25  24713382.492 8 129869687.371 8     -2275.457          51.000    24713387.461 8  99510544.890 8     -1743.499          51.000
E36  23612307.969 8 124083521.919 8       963.578          51.000    23612310.938 8  95077006.660 8       738.326          50.000
> 2020 05 07 15 06  0.0000000  0 16        .000000000000
G10  22944859.477 7 120576072.479 7      3136.590          43.000    22944863.922 7  93955390.160 7      2444.096          44.000
G16  20492046.383 7 107686438.155 7       469.395          42.000    20492045.500 6  83911515.419 6       365.762          40.000
G18  21640992.797 7 113724197.262 7     -2471.543          44.000    21640992.805 6  88616275.408 6     -1925.881          36.000
G20  21265596.883 8 111751473.962 8      1401.820          50.000    21265597.156 7  87079086.175 7      1092.328          46.000
G21  21985117.125 8 115532632.617 8     -2166.859          51.000    21985115.352 7  90025438.920 7     -1688.462          42.000
G26  20795861.445 8 109282968.095 8     -1776.895          51.000    20795864.812 8  85155567.878 8     -1384.593          51.000
R03  23563959.680 6 126139728.177 6      3970.473          37.000    23563962.633 5  98108692.283 5      3088.148          35.000
R15  22066250.891 6 117915416.074 6     -4254.117          38.000    22066259.742 5  91711926.774 5     -3308.755          35.000
R17  21041866.625 6 112599283.067 6     -2544.801          37.000    21041865.992 5  87577210.297 5     -1979.286          32.000
R18  19647587.602 5 104880169.170 5       146.023          35.000    19647588.188 4  81573456.341 4       113.571          29.000
C19  24210618.867 5 126071037.386 5       544.836          31.000
C22  25019447.078 7 130282860.434 7      2818.234          47.000
C24  23572948.406 7 122750530.806 7     -1467.148          43.000
E11  23211549.977 8 121977559.306 8     -1430.074          51.000    23211549.141 8  93463324.293 8     -1095.813          51.000
E25  24726405.594 8 129938122.127 8     -2287.867          51.000    24726410.477 8  99562981.891 8     -1753.017          51.000
E36  23606832.492 8 124054747.112 8       953.816          50.000    23606835.867 8  95054958.430 8       730.775          50.000
> 2020 05 07 15 06 30.0000000  0 15        .000000000000
G10  22926969.828 7 120482063.764 7      3131.105          46.000    22926975.898 7  93882136.576 7      2439.822          46.000
G16  20489412.438 7 107672596.713 7       453.469          42.000    20489412.203 7  83900729.894 7       353.349          42.000
G18  21655122.109 6 113798446.636 6     -2477.809          41.000    21655122.148 6  88674132.059 6     -1930.760          37.000
G20  21257637.555 8 111709648.134 8      1387.051          51.000    21257637.750 7  87046494.617 7      1080.819          47.000
G21  21997498.633 8 115597697.908 8     -2170.242          51.000    21997496.484 6  90076139.123 6     -1691.098          41.000
G26  20806045.391 8 109336484.414 8     -1790.254          51.000    20806048.344 8  85197268.910 8     -1395.003          51.000
R03  23541706.656 5 126020617.976 5      3970.684          31.000    23541712.344 6  98016050.992 6      3088.309          37.000
R15  22090152.930 5 118043129.971 5     -4259.836          33.000    22090162.633 5  91811259.789 5     -3313.206          33.000
R17  21056137.094 5 112675666.592 5     -2546.945          35.000    21056138.031 5  87636619.764 5     -1980.951          32.000
C19  24207512.789 5 126054870.972 5       531.637          30.000
C22  25003221.430 7 130198374.198 7      2814.633          47.000
C24  23581435.859 7 122794732.061 7     -1479.148          43.000
E11  23219723.062 8 122020508.621 8     -1432.648          51.000    23219722.281 8  93496233.519 8     -1097.789          51.000
E25  24739488.867 8 130006872.925 8     -2294.980          51.000    24739493.445 8  99615661.052 8     -1758.471          51.000
E36  23601402.391 8 124026211.864 8       949.109          50.000    23601406.211 8  95033093.775 8       727.150          50.000
> 2020 05 07 15 07  0.0000000  0 15        .000000000000
G10  22909121.461 8 120388267.072 8      3118.758          49.000    22909127.547 8  93809048.250 8      2430.201          49.000
G16  20486876.602 7 107659271.423 7       431.457          43.000    20486877.055 6  83890346.509 6       336.200          41.000
G18  21669296.414 6 113872933.821 6     -2491.305          38.000    21669296.719 6  88732174.013 6     -1941.273          37.000
G20  21249771.812 8 111668313.680 8      1365.410          50.000    21249772.234 7  87014285.986 7      1063.956          46.000
G21  22009908.242 8 115662910.676 8     -2180.301          50.000    22009906.344 7  90126954.251 7     -1698.936          42.000
G26  20816314.609 8 109390448.637 8     -1810.430          51.000    20816317.289 8  85239318.948 8     -1410.724          51.000
R03  23519466.555 6 125901567.520 6      3963.008          36.000    23519473.773 6  97923456.143 6      3082.336          38.000
R15  22114094.391 5 118171069.566 5     -4272.660          34.000    22114108.977 4  91910843.489 4     -3323.174          25.000
R17  21070457.555 5 112752206.507 5     -2555.969          32.000    21070439.172 5  87696130.637 5     -1987.976          33.000
C19  24204494.203 5 126039154.000 5       511.754          32.000
C22  24987024.656 7 130114035.990 7      2804.613          46.000
C24  23590001.242 7 122839335.218 7     -1497.508          44.000
E11  23227918.406 8 122063575.038 8     -1441.758          51.000    23227917.617 8  93529232.459 8     -1104.697          51.000
E25  24752622.055 8 130075886.238 8     -2309.043          51.000    24752626.086 8  99668541.340 8     -1769.225          51.000
E36  23596007.727 8 123997863.586 8       937.711          49.000    23596011.141 8  95011372.383 8       718.452          49.000
> 2020 05 07 15 07 30.0000000  0 15        .000000000000
G10  22891323.078 8 120294731.141 8      3111.562          50.000    22891328.703 8  93736163.133 8      2424.594          50.000
G16  20484447.969 7 107646508.920 7       414.156          43.000    20484448.406 7  83880401.680 7       322.719          42.000
G18  21683524.062 6 113947702.594 6     -2499.238          39.000    21683524.062 6  88790435.406 6     -1947.455          36.000
G20  21242008.742 8 111627517.916 8      1348.898          51.000    21242009.070 7  86982497.119 7      1051.090          46.000
G21  22022354.281 8 115728314.470 8     -2185.273          49.000    22022352.828 7  90177918.236 7     -1702.810          44.000
G26  20826677.641 8 109444905.328 8     -1825.391          51.000    20826680.242 8  85281752.715 8     -1422.382          51.000
R03  23497248.828 6 125782627.821 6      3961.035          39.000    23497255.555 6  97830947.529 6      3080.808          39.000
R15  22138086.164 6 118299277.275 6     -4279.957          37.000    22138104.711 4  92010573.572 4     -3328.859          27.000
R18  19645404.156 5 104868500.664 5       110.793          30.000    19645398.281 4  81564365.399 4        86.172          28.000
C19  24201576.836 5 126023939.671 5       497.094          34.000
C22  24970865.633 7 130029893.838 7      2799.430          46.000
C24  23598652.539 7 122884384.194 7     -1511.051          43.000
E11  23236144.516 8 122106803.511 8     -1445.488          51.000    23236143.688 8  93562355.581 8     -1107.630          51.000
E25  24765813.664 8 130145206.522 8     -2317.699          51.000    24765817.117 8  99721656.849 8     -1775.926          51.000
E36  23590657.156 8 123969747.837 8       931.383          49.000    23590659.867 8  94989829.155 8       713.645          49.000
> 2020 05 07 15 08  0.0000000  0 15        .000000000000
G10  22873575.477 8 120201462.287 8      3105.816          51.000    22873580.250 8  93663486.146 8      2420.120          51.000
G16  20482127.562 7 107634313.849 7       398.367          44.000    20482127.898 7  83870899.032 7       310.419          43.000
G18  21697805.680 6 114022754.359 6     -2505.008          38.000    21697805.711 6  88848917.295 6     -1951.954          37.000
G20  21234349.250 8 111587266.066 8      1333.988          51.000    21234349.023 7  86951132.059 7      1039.471          45.000
G21  22034837.016 8 115793911.197 8     -2188.457          48.000    22034835.797 7  90229032.561 7     -1705.294          44.000
G26  20837134.898 8 109499856.710 8     -1838.520          51.000    20837137.469 8  85324571.958 8     -1432.616          51.000
R03  23475052.703 6 125663806.778 6      3960.188          40.000    23475059.523 6  97738531.230 6      3080.146          40.000
R15  22162128.352 6 118427752.378 6     -4285.875          36.000
R17  21099110.641 5 112905618.601 5     -2562.648          35.000    21099106.930 4  87815455.237 4     -1993.168          25.000
C12  22807967.961 4 118767129.047 4      1671.617          27.000    22807966.438 4  91838227.850 4      1291.815          29.000
C22  24954745.438 7 129945953.764 7      2795.965          45.000
C24  23607388.742 6 122929880.831 6     -1522.801          40.000
E11  23244402.031 8 122150196.705 8     -1447.902          51.000    23244401.016 8  93595604.917 8     -1109.468          51.000
E25  24779063.883 8 130214836.006 8     -2324.996          51.000    24779066.836 8  99775009.273 8     -1781.482          51.000
E36  23585351.430 8 123941867.801 8       926.727          48.000    23585354.344 8  94968466.545 8       709.999          49.000
> 2020 05 07 15 08 30.0000000  0 17        .000000000000
G10  22855877.805 8 120108456.073 8      3095.582          51.000    22855881.352 8  93591013.795 8      2412.145          51.000
G16  20479913.875 7 107622679.770 7       377.984          46.000    20479913.656 7  83861833.512 7       294.536          42.000
G18  21712139.656 6 114098079.814 6     -2515.781          39.000    21712139.438 6  88907612.437 6     -1960.349          37.000
G20  21226792.094 8 111547552.254 8      1314.441          50.000    21226791.461 7  86920186.269 7      1024.243          44.000
G21  22047354.734 8 115859692.533 8     -2196.117          48.000    22047353.656 7  90280290.731 7     -1711.260          43.000
G26  20847684.531 8 109555294.255 8     -1856.297          51.000    20847687.133 8  85367770.005 8     -1446.468          51.000
R03  23452877.969 6 125545101.668 6      3954.520          41.000    23452885.023 6  97646205.113 6      3075.740          39.000
R15  22186216.977 6 118556483.477 6     -4295.961          36.000
R17  21113497.211 5 112982602.890 5     -2568.977          32.000    21113496.461 4  87875337.916 4     -1998.099          27.000
R18  19644262.828 5 104862410.505 5        88.277          34.000    19644280.883 3  81559685.193 3        68.663          23.000
C12                                                                  22798365.461 5  91799568.991 5      1286.357          31.000
C19  24196022.164 5 125995036.585 5       465.383          30.000
C22  24938663.609 7 129862211.094 7      2787.703          44.000
C24  23616208.594 6 122975816.376 6     -1538.797          39.000
E11  23252689.344 8 122193746.400 8     -1454.727          51.000    23252688.109 8  93628974.158 8     -1114.613          50.000
E25  24792370.852 8 130284766.031 8     -2336.227          51.000    24792373.648 8  99828591.982 8     -1790.054          51.000
E36  23580089.109 8 123914215.848 8       917.652          48.000    23580093.023 8  94947278.705 8       703.103          49.000
> 2020 05 07 15 09  0.0000000  0 18        .000000000000
G10  22838222.695 8 120015673.977 8      3079.137          51.000    22838225.258 8  93518716.089 8      2399.330          51.000
G16  20477799.312 7 107611566.093 7       352.121          47.000    20477798.820 7  83853173.505 7       274.380          44.000
G18  21726517.641 6 114173635.495 6     -2532.117          40.000    21726517.148 5  88966487.018 5     -1973.084          35.000
G20  21219329.492 8 111508336.629 8      1289.078          50.000    21219328.688 7  86889628.681 7      1004.476          44.000
G21  22059899.234 8 115925614.975 8     -2209.543          48.000    22059898.430 7  90331658.869 7     -1721.722          42.000
G26  20858318.305 8 109611175.238 8     -1879.887          51.000    20858320.703 8  85411313.588 8     -1464.850          51.000
R03  23430718.086 7 125426474.657 7      3942.879          43.000    23430724.531 6  97553939.696 6      3066.687          38.000
R15  22210347.117 6 118685424.373 6     -4311.480          39.000    22210353.016 4  92310850.850 4     -3353.380          29.000
R16  20142199.672 6 107596008.120 6     -1195.082          37.000    20142206.062 5  83685806.707 5      -929.505          32.000
R17  21127907.328 6 113059700.268 6     -2581.992          36.000    21127905.703 4  87935302.356 4     -2008.216          26.000
C12                                                                  22788787.438 5  91761011.799 5      1275.782          31.000
C19  24193377.805 5 125981285.769 5       440.680          31.000
C22  24922612.688 7 129778627.344 7      2773.785          44.000
C24  23625107.133 7 123022148.200 7     -1560.703          43.000
C26  25017760.875 5 130274034.025 5     -3275.277          32.000
E11  23260998.359 8 122237410.336 8     -1467.059          51.000    23260997.008 8  93662430.934 8     -1124.080          50.000
E25  24805726.578 8 130354953.911 8     -2353.770          51.000    24805729.453 8  99882372.281 8     -1803.502          51.000
E36  23574862.367 7 123886750.254 7       902.531          47.000    23574866.703 8  94926233.674 8       691.703          48.000
> 2020 05 07 15 09 30.0000000  0 17        .000000000000
G10  22820613.820 8 119923137.006 8      3078.152          50.000    22820615.266 8  93446609.376 8      2398.560          50.000
G16  20475787.164 7 107600992.095 7       341.168          46.000    20475786.758 7  83844934.021 7       265.845          44.000
G18  21740942.742 6 114249437.483 6     -2533.000          40.000    21740941.469 5  89025553.464 5     -1973.763          35.000
G20  21211965.383 8 111469638.948 8      1278.922          51.000    21211964.852 7  86859474.672 7       996.566          44.000
G21  22072473.734 7 115991695.088 7     -2207.621          47.000    22072473.102 7  90383149.874 7     -1720.224          43.000
G26  20869039.430 8 109667516.567 8     -1888.012          51.000    20869041.406 8  85455215.886 8     -1471.178          51.000
R03  23408577.102 7 125307948.569 7      3946.898          44.000    23408582.633 6  97461752.822 6      3069.813          36.000
R15  22234520.195 7 118814589.311 7     -4311.551          42.000    22234527.836 5  92411312.320 5     -3353.431          34.000
R16  20148928.664 6 107631955.309 6     -1213.105          37.000    20148933.164 5  83713765.725 5      -943.523          31.000
R18  19643381.914 5 104857743.079 5        64.715          30.000    19643385.305 5  81556009.157 5        50.334          30.000
C12                                                                  22779240.109 5  91722570.328 5      1278.047          32.000
C22  24906596.375 7 129695223.174 7      2774.895          45.000
C24  23634086.156 7 123068892.785 7     -1567.383          45.000
C26  25036577.453 5 130372020.824 5     -3269.398          34.000
E11  23269332.383 8 122281205.801 8     -1464.133          51.000    23269330.938 8  93695988.491 8     -1121.901          50.000
E25  24819134.680 8 130425416.504 8     -2355.516          51.000    24819137.695 8  99936363.072 8     -1804.888          51.000
E36  23569674.789 8 123859488.941 8       903.039          48.000    23569678.242 7  94905345.156 7       691.948          47.000
> 2020 05 07 15 10  0.0000000  0 17        .000000000000
G10  22803072.656 8 119830963.230 8      3068.723          48.000    22803072.891 8  93374785.626 8      2391.212          48.000
G16  20473899.648 7 107591073.695 7       322.016          47.000    20473899.258 7  83837205.390 7       250.921          44.000
G18  21755436.055 6 114325598.840 6     -2542.430          37.000    21755434.406 5  89084900.006 5     -1981.111          33.000
G20  21204722.117 8 111431575.533 8      1260.562          51.000    21204721.633 7  86829814.894 7       982.256          44.000
G21  22085100.102 7 116058046.928 7     -2213.773          47.000    22085099.422 7  90434852.619 7     -1725.018          42.000
G26  20879869.414 8 109724432.085 8     -1904.262          49.000    20879871.281 8  85499565.611 8     -1483.840          49.000
G27  21559518.234 5 113296032.709 5      2108.539          31.000
R03  23386477.375 7 125189645.259 7      3942.043          45.000    23386481.086 5  97369739.202 5      3066.036          34.000
R15  22258756.617 7 118944091.165 7     -4320.102          42.000    22258762.359 6  92512035.885 6     -3360.082          36.000
R16  20155823.984 6 107668790.223 6     -1240.332          40.000    20155829.023 4  83742415.065 4      -964.706          29.000
C12                                                                  22769743.938 4  91684322.454 4      1273.227          29.000
C22  24890637.281 7 129612115.245 7      2767.645          44.000
C24  23643165.312 7 123116162.597 7     -1582.188          43.000
C26  25055424.039 5 130470165.938 5     -3271.668          35.000
E11  23277713.141 8 122325247.119 8     -1469.969          51.000    23277711.641 8  93729734.422 8     -1126.400          50.000
E25  24832617.125 8 130496267.683 8     -2365.973          51.000    24832620.188 8  99990651.584 8     -1812.846          51.000
E36  23564547.711 7 123832546.764 7       895.082          46.000    23564550.664 8  94884701.150 8       685.782          48.000
> 2020 05 07 15 10 30.0000000  0 15        .000000000000
G10  22785579.250 8 119739040.258 8      3059.527          50.000    22785576.383 8  93303157.420 8      2384.050          49.000
G16  20472115.305 7 107581696.851 7       303.152          47.000    20472114.914 7  83829898.751 7       236.226          45.000
G18  21769975.125 6 114402002.553 6     -2551.273          38.000    21769974.266 5  89144435.332 5     -1988.002          34.000
G20  21197577.891 8 111394032.669 8      1242.355          50.000    21197577.391 7  86800560.765 7       968.072          46.000
G21  22097755.961 7 116124553.238 7     -2219.746          47.000    22097755.148 6  90486675.718 6     -1729.672          41.000
G26  20890786.258 7 109781805.387 7     -1920.355          47.000    20890788.539 7  85544272.060 7     -1496.384          47.000
R03  23364398.305 7 125071451.800 7      3937.688          45.000    23364400.148 6  97277811.063 6      3062.649          37.000
R15  22283032.812 7 119073808.948 7     -4327.766          42.000    22283036.031 6  92612927.384 6     -3366.043          36.000
R16  20162864.109 6 107706394.332 6     -1266.426          39.000    20162865.367 4  83771662.586 4      -985.001          25.000
C22  24874713.391 7 129529192.050 7      2760.688          45.000
C24  23652321.406 7 123163841.883 7     -1596.477          42.000
C26  25074280.352 6 130568353.056 6     -3274.074          36.000
E11  23286118.586 8 122369418.253 8     -1475.043          51.000    23286117.094 8  93763579.827 8     -1130.246          50.000
E25  24846151.664 8 130567391.017 8     -2375.656          51.000    24846154.719 8 100045148.624 8     -1820.284          51.000
E36  23559459.062 7 123805808.274 7       887.508          46.000    23559462.523 8  94864213.248 8       679.979          49.000
> 2020 05 07 15 11  0.0000000  0 17        .000000000000
G10  22768144.062 8 119647418.689 8      3049.758          51.000    22768140.531 8  93231764.110 8      2376.441          51.000
G16  20470443.266 7 107572910.183 7       283.766          47.000    20470442.594 7  83823051.975 7       221.116          45.000
G18  21784568.820 6 114478694.299 6     -2560.734          36.000    21784569.156 5  89204195.115 5     -1995.390          32.000
G20  21190542.305 8 111357060.098 8      1223.664          51.000    21190541.805 7  86771750.985 7       953.504          46.000
G21  22110450.016 7 116191260.279 7     -2226.102          47.000    22110449.070 6  90538655.218 6     -1734.625          40.000
G26  20901799.297 8 109839682.916 8     -1936.824          48.000    20901802.055 8  85589371.443 8     -1509.214          48.000
R03  23342349.523 7 124953421.424 7      3932.301          43.000    23342351.172 6  97186009.735 6      3058.456          38.000
R15  22307357.055 6 119203787.185 6     -4335.957          38.000    22307358.227 5  92714021.416 5     -3372.417          35.000
R16  20170056.219 6 107744814.176 6     -1293.309          37.000    20170055.258 4  83801522.680 4     -1005.904          28.000
R17  21185845.352 5 113369760.377 5     -2594.906          33.000
R18  19642617.547 5 104853631.114 5        28.492          33.000    19642606.531 5  81552782.519 5        22.158          31.000
C22  24858834.195 7 129446503.570 7      2752.992          46.000
C24  23661564.352 7 123211976.490 7     -1611.277          45.000
C26  25093152.953 5 130666627.276 5     -3276.707          35.000
E11  23294557.719 8 122413766.206 8     -1480.336          51.000    23294556.312 8  93797560.720 8     -1134.227          50.000
E25  24859746.891 8 130638832.957 8     -2385.953          51.000    24859750.047 8 100099889.796 8     -1828.243          51.000
E36  23554418.711 8 123779320.989 8       879.523          48.000    23554422.156 8  94843917.827 8       673.959          48.000
> 2020 05 07 15 11 30.0000000  0 15        .000000000000
G10  22750749.766 8 119556010.326 8      3041.129          51.000    22750748.398 8  93160536.896 8      2369.714          51.000
G16  20468866.250 8 107564623.526 8       265.570          48.000    20468865.180 7  83816594.839 7       206.938          45.000
G18  21799199.812 6 114555581.067 6     -2568.320          37.000    21799200.578 6  89264106.926 6     -2001.289          36.000
G20  21183598.234 8 111320567.913 8      1206.062          51.000    21183597.727 7  86743315.542 7       939.789          47.000
G21  22123164.570 7 116258075.730 7     -2231.227          46.000    22123163.344 6  90590719.188 6     -1738.618          40.000
G26  20912891.430 8 109897972.265 8     -1952.102          50.000    20912894.266 8  85634791.725 8     -1521.118          50.000
R03  23320314.391 7 124835465.753 7      3928.348          42.000    23320316.680 6  97094266.547 6      3055.385          40.000
R15  22331712.297 6 119333929.038 6     -4342.746          38.000    22331711.203 5  92815242.705 5     -3377.694          35.000
R16  20177383.492 6 107783955.857 6     -1319.121          37.000    20177384.539 5  83831966.196 5     -1025.986          33.000
C22  24842983.609 8 129363962.069 8      2746.680          48.000
C24  23670878.344 7 123260474.448 7     -1624.898          46.000
C26  25112024.664 5 130764895.897 5     -3277.383          35.000
E11  23303013.039 8 122458199.070 8     -1484.824          51.000    23303011.867 8  93831606.687 8     -1137.737          50.000
E25  24873385.156 8 130710501.046 8     -2395.039          51.000    24873388.570 8 100154804.271 8     -1835.154          51.000
E36  23549409.203 8 123752993.536 8       872.582          49.000    23549411.758 8  94823744.839 8       668.512          48.000
> 2020 05 07 15 12  0.0000000  0 18        .000000000000
G10  22733418.758 8 119464936.569 8      3030.980          51.000    22733419.781 8  93089570.378 8      2361.806          50.000
G16  20467407.133 8 107556956.057 8       246.082          49.000    20467405.789 7  83810620.192 7       191.752          45.000
G18  21813890.102 5 114632779.285 5     -2577.473          34.000    21813890.383 5  89324261.348 5     -2008.426          34.000
G20  21176768.406 8 111284675.907 8      1187.180          51.000    21176767.922 8  86715347.761 8       925.075          48.000
G21  22135921.992 7 116325116.558 7     -2237.625          44.000    22135920.547 6  90642958.792 6     -1743.604          39.000
G26  20924084.711 8 109956790.630 8     -1968.570          51.000    20924087.586 8  85680624.197 8     -1533.951          51.000
R02  21870641.266 5 116705915.492 5      1555.039          35.000
R03  23298316.695 7 124717710.030 7      3922.602          42.000    23298319.234 6  97002678.899 6      3050.918          38.000
R15  22356120.352 5 119464350.707 5     -4351.242          32.000    22356117.406 5  92916681.706 5     -3384.303          33.000
R16  20184867.602 6 107823937.930 6     -1345.797          37.000    20184870.484 5  83863063.336 5     -1046.731          33.000
R17  21214995.664 5 113525730.045 5     -2604.754          34.000
R18  19642407.641 5 104852498.781 5         5.066          32.000
C22  24827184.258 8 129281687.638 8      2738.840          48.000
C24  23680283.594 7 123309451.637 7     -1639.742          44.000
C26  25130918.086 5 130863274.156 5     -3279.867          31.000
E11  23311506.930 8 122502834.502 8     -1490.605          51.000    23311506.141 8  93865807.844 8     -1142.098          50.000
E25  24887088.586 8 130782512.486 8     -2405.277          51.000    24887092.453 8 100209981.849 8     -1843.062          51.000
E36  23544452.352 8 123726944.112 8       864.551          48.000    23544454.555 8  94803784.879 8       662.430          49.000
> 2020 05 07 15 12 30.0000000  0 16        .000000000000
G10  22716138.383 8 119374130.015 8      3022.133          49.000    22716141.164 8  93018812.031 8      2354.909          50.000
G16  20466052.664 8 107549838.391 8       227.762          48.000    20466051.445 7  83805073.951 7       177.477          47.000
G18  21828625.438 5 114710216.636 5     -2585.973          33.000    21828624.953 5  89384602.145 5     -2015.034          30.000
G20  21170039.727 8 111249315.225 8      1169.551          51.000    21170039.336 8  86687793.987 8       911.338          48.000
G21  22148708.664 7 116392310.687 7     -2242.523          45.000    22148706.984 6  90695317.848 6     -1747.421          38.000
G26  20935365.156 8 110016066.393 8     -1983.684          51.000    20935368.008 8  85726813.062 8     -1545.727          51.000
R02  21861954.414 6 116659583.766 6      1532.727          36.000    21861965.844 4  90735230.420 4      1192.124          29.000
R03  23276343.812 7 124600087.434 7      3918.121          43.000    23276346.078 6  96911194.726 6      3047.428          36.000
R16  20192495.477 6 107864686.973 6     -1371.609          36.000    20192499.289 5  83894757.072 5     -1066.804          35.000
R17  21229613.203 5 113603918.412 5     -2608.641          35.000
C22  24811421.953 7 129199613.209 7      2732.125          46.000
C24  23689766.164 7 123358836.746 7     -1653.227          44.000
C26  25149818.523 5 130961690.261 5     -3281.367          31.000
E11  23320025.844 8 122547601.354 8     -1494.688          51.000    23320025.367 8  93900109.714 8     -1145.280          51.000
E25  24900843.266 8 130854795.688 8     -2414.227          50.000    24900848.078 8 100265367.658 8     -1849.838          51.000
E36  23539534.555 7 123701102.218 7       857.680          47.000    23539537.500 8  94783983.968 8       657.210          50.000
> 2020 05 07 15 13  0.0000000  0 18        .000000000000
G10  22698914.289 8 119283619.671 8      3012.523          49.000    22698918.844 8  92948284.477 8      2347.421          48.000
G16  20464808.062 8 107543297.576 8       209.082          49.000    20464806.977 7  83799977.200 7       162.921          47.000
G18  21843411.398 6 114787917.362 6     -2594.027          37.000    21843410.266 4  89445148.151 4     -2021.320          28.000
G20  21163417.359 8 111214513.740 8      1151.344          51.000    21163417.039 8  86660675.955 8       897.151          48.000
G21  22161529.344 7 116459683.187 7     -2248.109          45.000    22161527.602 6  90747815.870 6     -1751.774          37.000
G26  20946737.289 8 110075824.319 8     -1999.180          51.000    20946740.117 8  85773377.623 8     -1557.802          51.000
R03  23254401.602 7 124482628.959 7      3913.195          43.000    23254403.344 5  96819838.214 5      3043.599          34.000
R15  22405044.461 5 119725772.297 5     -4364.840          31.000    22405050.445 5  93120064.657 5     -3394.878          32.000
R16  20200271.484 5 107906227.924 5     -1396.984          35.000    20200276.469 6  83927066.703 6     -1086.543          36.000
R17  21244260.500 5 113682320.155 5     -2612.906          34.000
C12  22713450.086 4 118274882.108 4      1612.152          29.000    22713442.578 5  91457626.468 5      1246.881          32.000
C19  24175705.242 5 125889236.340 5       317.148          31.000
C22  24795703.117 7 129117767.309 7      2725.000          45.000
C24  23699331.750 7 123408653.998 7     -1666.996          44.000
C26  25168730.602 4 131060167.705 4     -3283.668          29.000
E11  23328574.562 8 122592524.992 8     -1499.211          51.000    23328574.172 8  93934531.720 8     -1148.758          51.000
E25  24914653.758 8 130927375.434 8     -2423.590          49.000    24914659.938 8 100320980.724 8     -1857.066          51.000
E36  23534661.359 8 123675493.697 8       850.469          48.000    23534664.875 8  94764361.865 8       651.637          50.000
> 2020 05 07 15 13 30.0000000  0 17        .000000000000
G10  22681766.594 8 119193509.455 8      3005.770          49.000    22681772.102 8  92878068.709 8      2342.158          49.000
G16  20463692.648 8 107537435.722 8       193.008          49.000    20463691.172 7  83795409.518 7       150.399          46.000
G18  21858266.469 6 114865980.660 6     -2599.672          39.000    21858266.086 5  89505943.504 5     -2025.715          31.000
G20  21156920.617 8 111180373.625 8      1135.828          51.000    21156920.266 7  86634073.261 7       885.061          47.000
G21  22174402.789 7 116527333.576 7     -2250.980          43.000    22174401.438 6  90800530.455 6     -1754.011          38.000
G26  20958220.008 8 110136164.102 8     -2012.141          51.000    20958222.945 8  85820395.601 8     -1567.905          51.000
R03  23232509.828 7 124365442.082 7      3910.676          43.000    23232511.047 5  96728692.928 5      3041.637          35.000
R15  22429591.867 5 119856951.436 5     -4369.074          32.000    22429600.234 4  93222092.766 4     -3398.175          29.000
R16  20208214.234 6 107948661.513 6     -1420.176          37.000    20208221.266 5  83960070.629 5     -1104.581          35.000
R17  21258926.758 5 113760843.404 5     -2614.852          30.000
C12  22704202.273 5 118226733.970 5      1607.922          30.000
C19  24173944.617 4 125880075.052 4       303.109          27.000
C22  24780048.078 7 129036252.731 7      2720.336          45.000
C24  23709000.758 7 123459001.953 7     -1678.332          45.000
E11  23337172.195 8 122637705.755 8     -1501.473          51.000    23337171.664 8  93969150.738 8     -1150.410          51.000
E25  24928539.805 8 131000351.529 8     -2430.156          49.000    24928546.977 8 100376897.474 8     -1862.089          51.000
E36  23529851.945 7 123650219.360 7       845.793          47.000    23529855.531 8  94744995.843 8       648.036          49.000
> 2020 05 07 15 14  0.0000000  0 16        .000000000000
G10  22664639.531 8 119103505.537 8      2992.480          50.000    22664645.094 8  92807935.797 8      2331.803          50.000
G16  20462649.930 8 107531956.763 8       170.461          49.000    20462648.102 7  83791140.202 7       132.827          47.000
G18  21873133.641 6 114944107.734 6     -2610.887          39.000
G20  21150493.297 8 111146599.840 8      1113.797          48.000    21150493.383 7  86607756.025 7       867.894          47.000
G21  22187272.078 6 116594963.040 6     -2259.699          41.000    22187271.625 6  90853228.754 6     -1760.808          38.000
G26  20969756.461 8 110196787.707 8     -2031.270          51.000    20969759.109 8  85867634.749 8     -1582.807          51.000
R02  21836710.875 6 116524865.736 6      1461.734          36.000    21836710.953 4  90630448.088 4      1136.911          24.000
R03  23210613.172 6 124248228.965 6      3901.863          40.000    23210615.172 6  96637527.266 6      3034.786          37.000
R15  22454148.023 5 119988150.529 5     -4379.262          34.000    22454153.094 4  93324136.368 4     -3406.095          28.000
R16  20216268.297 6 107991684.373 6     -1449.699          38.000    20216276.195 6  83993532.897 6     -1127.544          36.000
R17  21273635.406 5 113839472.968 5     -2623.758          33.000    21273641.562 4  88541870.569 4     -2040.701          26.000
C22  24764400.805 7 128954778.070 7      2709.348          46.000
C24  23718715.609 7 123509585.008 7     -1695.734          46.000
E11  23345762.188 8 122682846.204 8     -1510.035          51.000    23345761.375 8  94003738.871 8     -1157.019          51.000
E25  24942445.352 8 131073426.004 8     -2443.320          50.000    24942452.281 8 100432889.575 8     -1872.140          51.000
E36  23525049.297 7 123624982.278 7       834.723          46.000    23525052.977 8  94725658.332 8       639.617          49.000
> 2020 05 07 15 14 30.0000000  0 18        .000000000000
G10  22647571.844 8 119013812.619 8      2985.305          51.000    22647576.570 8  92738045.219 8      2326.211          51.000
G16  20461718.641 8 107527062.985 8       154.105          50.000    20461716.969 7  83787326.863 7       120.082          47.000
G18  21888051.008 5 115022498.525 5     -2616.621          35.000
G20  21144173.914 7 111113395.434 7      1098.199          46.000    21144174.648 7  86581882.502 7       855.743          46.000
G21  22200175.695 6 116662772.257 6     -2262.602          41.000    22200175.609 6  90906067.111 6     -1763.069          37.000
G26  20981384.859 8 110257895.584 8     -2044.191          51.000    20981387.203 8  85915251.242 8     -1592.879          51.000
G27  21452932.039 5 112735938.843 5      2042.168          33.000
R02  21828540.867 5 116481305.982 5      1440.520          32.000
R03  23188750.688 6 124131199.981 6      3898.590          39.000    23188753.906 6  96546504.794 6      3032.240          39.000
R15  22478744.539 5 120119570.982 5     -4383.840          33.000    22478746.039 4  93426357.111 4     -3409.656          26.000
R16  20224470.352 5 108035499.623 5     -1472.805          35.000    20224478.516 5  84027611.406 5     -1145.518          35.000
R17  21288345.242 5 113918171.402 5     -2626.320          30.000
C19  24170661.383 5 125862962.808 5       268.828          33.000
C22  24748800.789 7 128873545.918 7      2704.387          47.000
C24  23728513.148 7 123560601.448 7     -1707.031          47.000
E11  23354382.750 8 122728147.296 8     -1511.762          51.000    23354381.578 8  94038450.089 8     -1158.348          51.000
E25  24956408.234 8 131146799.311 8     -2449.906          50.000    24956413.961 8 100489110.627 8     -1877.180          51.000
E36  23520291.953 7 123599984.012 7       830.016          47.000    23520296.172 8  94706503.805 8       636.133          50.000
> 2020 05 07 15 15  0.0000000  0 15        .000000000000
G10  22630578.281 8 118924509.127 8      2977.035          51.000    22630581.664 8  92668458.097 8      2319.771          51.000
G16  20460913.398 8 107522831.017 8       136.773          50.000    20460911.719 8  83784029.213 8       106.577          48.000
G18  21903032.375 5 115101226.528 5     -2622.824          33.000
G20  21137977.641 7 111080837.015 7      1081.180          47.000    21137978.781 7  86556512.313 7       842.481          45.000
G21  22213127.836 7 116730835.317 7     -2266.266          43.000    22213127.258 5  90959103.254 5     -1765.921          35.000
G26  20993119.375 8 110319561.889 8     -2058.164          51.000    20993121.789 8  85963302.868 8     -1603.764          51.000
R03  23166936.336 6 124014436.770 6      3894.527          40.000    23166942.344 6  96455689.049 6      3029.083          41.000
R15  22503396.438 5 120251285.246 5     -4387.918          34.000
R16  20232835.422 6 108080182.121 6     -1497.363          37.000    20232841.281 5  84062364.365 5     -1164.619          34.000
R18  19643398.891 5 104857811.887 5       -59.273          32.000    19643394.453 4  81556054.091 4       -46.105          27.000
C22  24733262.852 7 128792633.779 7      2698.426          47.000
C24  23738407.648 7 123612124.421 7     -1719.148          46.000
E11  23363048.141 8 122773683.913 8     -1514.938          51.000    23363046.648 8  94073341.775 8     -1160.844          51.000
E25  24970442.141 8 131220545.669 8     -2457.672          51.000    24970446.531 8 100545617.528 8     -1883.160          51.000
E36  23515594.867 8 123575299.859 8       824.379          49.000    23515599.570 8  94687589.979 8       631.664          50.000
> 2020 05 07 15 15 30.0000000  0 16        .000000000000
G10  22613633.500 8 118835463.387 8      2961.176          50.000    22613635.570 8  92599071.871 8      2307.413          50.000
G16  20460208.727 8 107519127.328 8       111.812          51.000    20460207.180 8  83781143.222 8        87.127          49.000
