     3.02           OBSERVATION DATA    M (MIXED)           RINEX VERSION / TYPE
SAVERINEX           SC600               20200518 205932 LCL PGM / RUN BY / DATE
       G = GPS       R = GLONASS       C = COMPASS          COMMENT
       S = SBAS      J = QZSS          E = GALILEO          COMMENT
BEAN                                                        MARKER NAME
1                                                           MARKER NUMBER
GEODETIC                                                    MARKER TYPE
Unige DICCA         GTER                                    OBSERVER / AGENCY
SC60291900056       SC600               2.12(191202)        REC # / TYPE / VERS
                    HEMA45          NONE                    ANT # / TYPE
  4509407.8091   693652.4678  4442337.6214                  APPROX POSITION XYZ
        0.0000        0.0000        0.0000                  ANTENNA: DELTA H/E/N
G    8 C1C L1C D1C S1C C2Y L2Y D2Y S2Y                      SYS / # / OBS TYPES
R    8 C1C L1C D1C S1C C2P L2P D2P S2P                      SYS / # / OBS TYPES
C    4 C1I L1I D1I S1I                                      SYS / # / OBS TYPES
E    8 C1C L1C D1C S1C C7Q L7Q D7Q S7Q                      SYS / # / OBS TYPES
DBHZ                                                        COMMENT
     30.000                                                 INTERVAL
  2020    05    18    18    00    0.0000000     GPS         TIME OF FIRST OBS
  2020    05    18    18    59   30.0000000     GPS         TIME OF LAST OBS
     0                                                      RCV CLOCK OFFS APPL
G L1C  0.00000                                              SYS / PHASE SHIFT
G L2Y  0.00000                                              SYS / PHASE SHIFT
R L1C  0.00000                                              SYS / PHASE SHIFT
R L2P  0.25000                                              SYS / PHASE SHIFT
C L1I  0.00000                                              SYS / PHASE SHIFT
E L1C  0.50000                                              SYS / PHASE SHIFT
E L7Q -0.25000                                              SYS / PHASE SHIFT
 14 R01  1 R05  1 R06 -4 R07  5 R08  6 R09 -2 R10 -5 R11  0 GLONASS SLOT / FRQ #
    R12 -1 R19  3 R20  2 R21  4 R22 -3 R23  3               GLONASS SLOT / FRQ #
 C1C   71.950 C2C   71.950 C2P   71.950                     GLONASS COD/PHS/BIS
    18                                                      LEAP SECONDS
*** Above antenna height is from mark to ANTENNA BOTTOM.    COMMENT
    17     4        0.0000        ANT MEASURE TYPE/HEIGT    COMMENT
    0.0000    0.0000    0.0458    0.0405    0.0000          COMMENT
                    BASE STATION                            COMMENT
                                                            END OF HEADER
> 2020 05 18 18 00  0.0000000  0 15        .000000000000
G03  23404477.484 5 122991379.426 5      3349.859          35.000    23404467.500 5  95837393.125 5      2610.286          35.000
G08  20704748.695 8 108804180.664 8     -1505.410          51.000    20704752.219 8  84782483.980 8     -1173.047          51.000
G10  23401133.742 6 122973737.109 6     -3081.086          37.000    23401134.812 6  95823732.362 6     -2400.849          37.000
G11  19974642.250 8 104967430.800 8       832.332          48.000    19974639.914 7  81792791.448 7       648.570          44.000
G14  22507180.086 7 118276060.617 7      1849.320          45.000    22507179.711 6  92163186.029 6      1441.029          36.000
G22  21574133.039 8 113372854.200 8      2082.031          51.000    21574129.406 7  88342466.683 7      1622.362          47.000
G27  22596770.461 8 118746817.536 8     -3217.094          49.000    22596773.570 8  92529975.686 8     -2506.826          49.000
G32  22044568.836 5 115845002.251 5       523.773          34.000    22044574.406 5  90268844.765 5       408.147          32.000
R07  19791508.031 8 105945577.126 8     -1334.766          50.000    19791510.188 7  82402041.213 7     -1038.151          46.000
R08  20100860.219 7 107639174.584 7      2702.629          47.000    20100862.789 7  83719408.068 7      2102.045          45.000
R22  19920556.477 8 106337237.904 8     -1353.812          51.000    19920559.305 8  82706771.467 8     -1052.965          51.000
C27  22487691.250 8 117099286.800 8     -1903.039          51.000
E04  25461685.523 8 133802052.610 8      2653.645          50.000    25461682.742 8 102523740.210 8      2033.369          49.000
E12  21959680.602 8 115398884.197 8      -792.391          50.000    21959679.969 8  88422525.810 8      -607.237          51.000
E19                                                                  25119421.133 6 101145485.340 6       -69.994          40.000
> 2020 05 18 18 00 30.0000000  0 15        .000000000000
G03  23385366.656 5 122890949.696 5      3345.102          31.000    23385356.453 5  95759136.308 5      2606.576          31.000
G08  20713384.508 8 108849562.306 8     -1520.219          51.000    20713387.914 8  84817846.268 8     -1184.586          51.000
G10  23418730.844 6 123066209.779 6     -3084.168          37.000    23418730.461 6  95895788.930 6     -2403.245          36.000
G11  19969929.406 8 104942665.409 8       818.254          48.000    19969927.219 7  81773493.731 7       637.600          44.000
G14  22496658.539 7 118220765.846 7      1836.777          47.000    22496657.812 6  92120099.226 6      1431.255          37.000
G22  21562276.930 8 113310548.423 8      2071.320          51.000    21562273.516 7  88293916.733 7      1614.016          47.000
G27  22615157.547 8 118843440.049 8     -3224.609          50.000    22615160.039 8  92605265.927 8     -2512.683          50.000
G32  22041627.867 6 115829549.403 6       506.090          40.000    22041628.000 6  90256803.637 6       394.353          37.000
R07  19799050.672 8 105985953.330 8     -1357.344          51.000    19799052.188 7  82433444.905 7     -1055.715          46.000
R08  20085770.570 7 107558374.850 7      2683.543          47.000    20085773.344 7  83656563.840 7      2087.200          44.000
R22  19928202.914 8 106378055.845 8     -1367.711          51.000    19928205.586 8  82738518.734 8     -1063.775          50.000
C27  22498679.672 8 117156505.336 8     -1911.844          51.000
E04  25446551.000 8 133722520.501 8      2648.004          51.000    25446549.391 8 102462800.066 8      2028.969          51.000
E12  21964218.414 8 115422729.475 8      -797.477          50.000    21964217.391 8  88440796.853 8      -611.092          51.000
E19                                                                  25119976.148 6 101147720.929 6       -79.581          41.000
> 2020 05 18 18 01  0.0000000  0 14        .000000000000
G08  20722109.695 8 108895412.678 8     -1537.289          51.000    20722112.945 8  84853573.789 8     -1197.888          51.000
G10  23436350.883 5 123158801.002 5     -3089.676          33.000    23436349.352 5  95967937.989 5     -2407.537          33.000
G11  19965299.852 8 104918337.556 8       802.262          49.000    19965298.078 7  81754536.956 7       625.139          45.000
G14  22486212.516 7 118165869.421 7      1821.914          44.000    22486211.945 6  92077322.803 6      1419.673          40.000
G22  21550485.273 8 113248582.934 8      2058.707          50.000    21550482.094 7  88245631.944 7      1604.187          46.000
G27  22633591.336 8 118940307.531 8     -3234.184          50.000    22633593.328 8  92680747.051 8     -2520.143          50.000
G32  22038789.875 6 115814637.455 6       486.902          36.000    22038788.578 6  90245184.011 6       379.407          37.000
R07  19806724.312 8 106027029.881 8     -1382.066          50.000    19806725.938 7  82465393.336 7     -1074.938          47.000
R08  20070793.375 8 107478174.292 8      2662.109          48.000    20070796.352 7  83594185.664 7      2070.533          44.000
R22  19935931.453 8 106419312.072 8     -1383.672          51.000    19935934.242 8  82770606.862 8     -1076.189          50.000
C27  22509722.828 8 117214008.951 8     -1922.730          51.000
E04  25431453.578 8 133643182.906 8      2640.145          51.000    25431453.633 8 102402008.959 8      2022.992          51.000
E12  21968788.805 8 115446747.153 8      -804.648          50.000    21968787.633 8  88459199.995 8      -616.549          51.000
E19  25120605.656 6 132009667.652 6      -118.723          37.000    25120608.281 7 101150264.064 7       -90.781          42.000
> 2020 05 18 18 01 30.0000000  0 13        .000000000000
G08  20730966.078 8 108941952.029 8     -1568.727          51.000    20730969.219 8  84889838.198 8     -1222.384          51.000
G11  19960796.055 8 104894669.895 8       771.988          49.000    19960794.516 7  81736094.621 7       601.549          46.000
G14  22475884.008 7 118111594.881 7      1792.953          42.000    22475884.414 6  92035030.944 6      1397.106          40.000
G22  21538800.211 8 113187180.166 8      2031.418          49.000    21538797.203 7  88197785.632 7      1582.923          47.000
G27  22652113.453 8 119037639.651 8     -3258.012          50.000    22652114.891 8  92756590.245 8     -2538.710          50.000
G32  22036096.570 7 115800489.011 7       453.082          42.000    22036097.836 6  90234159.302 6       353.051          39.000
R07  19814570.531 8 106069030.068 8     -1421.359          50.000    19814572.234 7  82498060.148 7     -1105.502          47.000
R08  20055971.023 8 107398801.060 8      2625.887          48.000    20055974.008 7  83532450.997 7      2042.359          45.000
R22  19943784.555 8 106461232.063 8     -1414.461          51.000    19943787.008 8  82803211.263 8     -1100.136          50.000
C27  22520862.945 8 117272016.716 8     -1947.809          51.000
E04  25416435.742 8 133564262.973 8      2617.812          51.000    25416436.812 8 102341537.877 8      2005.767          51.000
E12  21973434.008 8 115471159.115 8      -826.297          49.000    21973432.867 8  88477905.247 8      -633.125          51.000
E19  25121354.500 6 132013609.391 6      -147.711          36.000    25121358.938 7 101153284.349 7      -113.262          42.000
> 2020 05 18 18 02  0.0000000  0 14        .000000000000
G03  23328299.133 6 122591013.756 6      3325.523          39.000    23328305.570 6  95525501.064 6      2591.320          39.000
G08  20739891.852 8 108988855.635 8     -1567.797          51.000    20739894.461 8  84926386.448 8     -1221.660          51.000
G11  19956356.516 8 104871339.618 8       773.926          49.000    19956355.117 7  81717915.182 7       603.059          46.000
G14  22465612.547 7 118057620.599 7      1795.785          42.000    22465613.938 6  91992972.996 6      1399.310          40.000
G22  21527160.758 8 113126016.226 8      2036.625          50.000    21527157.891 7  88150125.425 7      1586.984          47.000
G27  22670661.844 8 119135110.269 8     -3249.539          50.000    22670662.984 8  92832541.340 8     -2532.108          50.000
G32  22033487.906 6 115786780.330 6       451.121          38.000    22033487.914 6  90223477.346 6       351.532          38.000
R07  19822526.867 8 106111620.978 8     -1427.746          50.000    19822528.438 8  82531186.418 8     -1110.469          48.000
R08  20041242.367 8 107319927.861 8      2622.531          50.000    20041245.086 7  83471105.226 7      2039.747          45.000
R22  19951700.016 8 106503486.412 8     -1412.301          50.000    19951702.461 8  82836075.729 8     -1098.456          49.000
C27  22532038.055 8 117330206.882 8     -1940.883          51.000
E04  25401435.750 8 133485438.026 8      2627.711          51.000    25401437.180 8 102281139.571 8      2013.432          51.000
E12  21978092.625 8 115495641.381 8      -815.438          49.000    21978091.664 8  88496664.382 8      -624.792          51.000
E19  25122160.844 6 132017849.350 6      -144.375          36.000    25122165.328 7 101156533.096 7      -110.499          42.000
> 2020 05 18 18 02 30.0000000  0 14        .000000000000
G03  23309348.070 6 122491416.901 6      3315.160          41.000    23309354.203 6  95447893.193 6      2583.245          41.000
G08  20748899.531 8 109036190.118 8     -1587.109          51.000    20748901.539 8  84963270.435 8     -1236.712          51.000
G11  19951994.219 8 104848415.527 8       755.184          49.000    19951992.727 8  81700052.264 8       588.458          48.000
G14  22455412.000 7 118004015.652 7      1778.355          43.000    22455413.266 6  91951202.908 6      1385.732          40.000
G22  21515580.133 8 113065159.408 8      2021.266          51.000    21515577.602 8  88102704.551 8      1575.015          48.000
G27  22689249.133 8 119232785.108 8     -3261.441          50.000    22689249.727 8  92908651.540 8     -2541.386          51.000
G32  22030975.625 6 115773579.860 6       429.168          40.000    22030972.859 6  90213191.284 6       334.417          39.000
R07  19830605.914 8 106154869.136 8     -1454.688          51.000    19830607.461 8  82564823.863 8     -1131.424          48.000
R08  20026620.703 8 107241625.322 8      2598.359          50.000    20026623.078 7  83410203.279 7      2020.946          46.000
R22  19959690.938 8 106546144.018 8     -1430.766          50.000    19959693.695 8  82869253.873 8     -1112.818          50.000
C27  22543260.766 8 117388645.984 8     -1954.172          51.000
E04  25386466.930 8 133406777.314 8      2617.137          50.000    25386468.297 8 102220867.105 8      2005.368          51.000
E12  21982777.695 8 115520261.904 8      -825.141          49.000    21982776.945 8  88515529.445 8      -632.251          51.000
E19  25123037.906 6 132022454.588 6      -161.945          36.000    25123041.883 7 101160061.757 7      -123.860          42.000
> 2020 05 18 18 03  0.0000000  0 14        .000000000000
G03  23290441.883 6 122392061.606 6      3308.121          41.000    23290442.641 6  95370473.673 6      2577.766          41.000
G08  20758005.352 8 109084040.723 8     -1603.520          51.000    20758006.672 8  85000556.597 8     -1249.496          51.000
G11  19947725.711 8 104825984.782 8       739.434          49.000    19947724.227 8  81682573.754 8       576.182          48.000
G14  22445298.562 7 117950867.979 7      1763.883          44.000    22445299.180 6  91909789.204 6      1374.454          37.000
G22  21504074.461 8 113004696.011 8      2008.891          51.000    21504072.391 8  88055590.254 8      1565.372          50.000
G27  22707891.125 8 119330748.027 8     -3270.117          50.000    22707891.359 8  92984986.216 8     -2548.146          49.000
G32  22028576.656 6 115760974.080 6       410.488          39.000    22028575.281 6  90203368.672 6       319.867          39.000
R07  19838823.547 8 106198859.113 8     -1478.617          50.000    19838825.219 8  82599038.290 8     -1150.033          48.000
R08  20012122.016 8 107163984.032 8      2577.094          50.000    20012124.250 7  83349815.618 7      2004.406          46.000
R22  19967774.047 8 106589292.380 8     -1446.340          50.000    19967777.141 8  82902813.697 8     -1124.931          49.000
C27  22554547.047 8 117447418.623 8     -1964.613          51.000
E04  25371545.602 8 133328368.182 8      2609.535          49.000    25371547.234 8 102160787.437 8      1999.520          50.000
E12  21987505.406 8 115545106.793 8      -831.879          49.000    21987504.867 8  88534566.434 8      -637.429          51.000
E19  25123999.922 5 132027510.645 5      -176.293          35.000    25124004.859 6 101163935.865 6      -134.809          41.000
> 2020 05 18 18 03 30.0000000  0 14        .000000000000
G03  23271579.859 6 122292942.828 6      3299.199          41.000    23271576.688 6  95293238.449 6      2570.808          41.000
G08  20767207.695 8 109132399.279 8     -1621.027          51.000    20767208.477 8  85038238.561 8     -1263.138          51.000
G11  19943550.055 8 104804041.761 8       722.559          49.000    19943548.672 8  81665475.282 8       563.033          49.000
G14  22435271.570 7 117898173.421 7      1748.262          43.000    22435270.195 5  91868728.586 5      1362.288          34.000
G22  21492642.461 8 112944620.071 8      1995.340          51.000    21492640.773 8  88008777.868 8      1554.813          49.000
G27  22726585.758 8 119428990.504 8     -3279.953          48.000    22726585.922 8  93061538.722 8     -2555.811          48.000
G32  22026289.812 7 115748957.207 7       389.973          42.000    22026289.555 7  90194004.879 7       303.872          42.000
R07  19847178.125 8 106243581.839 8     -1503.547          50.000    19847179.938 8  82633822.612 8     -1169.425          49.000
R08  19997745.312 8 107086999.497 8      2554.586          49.000    19997747.852 7  83289938.788 7      1986.900          47.000
R22  19975947.922 8 106632924.871 8     -1463.098          51.000    19975951.109 8  82936750.051 8     -1137.968          48.000
C27  22565895.664 8 117506517.724 8     -1976.055          51.000
E04  25356670.992 8 133250205.644 8      2600.656          48.000    25356673.008 8 102100896.673 8      1992.788          49.000
E12  21992274.578 8 115570169.792 8      -839.691          50.000    21992274.188 8  88553770.532 8      -643.442          51.000
E19  25125046.812 5 132033010.592 5      -191.254          35.000    25125051.445 6 101168150.098 6      -146.671          41.000
> 2020 05 18 18 04  0.0000000  0 14        .000000000000
G03  23252752.500 6 122194008.431 6      3288.699          40.000    23252752.547 6  95216146.871 6      2562.626          40.000
G08  20776496.273 8 109181211.789 8     -1640.730          51.000    20776496.641 8  85076274.263 8     -1278.491          51.000
G11  19939457.375 8 104782534.566 8       703.578          50.000    19939455.922 8  81648716.420 8       548.243          48.000
G14  22425320.508 6 117845880.468 6      1730.324          41.000    22425318.164 6  91827980.914 6      1348.308          36.000
G22  21481274.102 8 112884878.796 8      1979.715          51.000    21481272.453 8  87962226.240 8      1542.638          49.000
G27  22745322.445 7 119527457.281 7     -3292.086          46.000    22745323.266 7  93138265.994 7     -2565.265          46.000
G32  22024105.641 6 115737476.342 6       368.254          38.000    22024105.250 6  90185058.731 6       286.951          38.000
R07  19855658.695 8 106288979.981 8     -1530.672          50.000    19855660.695 8  82669132.278 8     -1190.523          49.000
R08  19983482.164 8 107010619.740 8      2529.730          51.000    19983484.305 7  83230532.335 7      1967.568          47.000
R22  19984202.797 8 106676987.476 8     -1482.066          51.000    19984205.617 8  82971020.952 8     -1152.718          48.000
C27  22577296.641 8 117565889.869 8     -1989.629          50.000
E04  25341833.422 8 133172237.863 8      2589.594          49.000    25341836.078 8 102041155.156 8      1984.294          50.000
E12  21997075.180 8 115595397.783 8      -849.688          51.000    21997075.031 8  88573101.053 8      -651.077          51.000
E19  25126168.133 5 132038900.773 5      -208.699          35.000    25126171.938 6 101172663.301 6      -160.038          41.000
> 2020 05 18 18 04 30.0000000  0 16        .000000000000
G01  21180583.406 5 111304692.337 5      1822.910          34.000
G03  23233982.422 6 122095376.000 6      3285.656          41.000    23233986.594 6  95139290.478 6      2560.252          41.000
G08  20785892.766 8 109230593.296 8     -1652.797          51.000    20785893.734 8  85114753.329 8     -1287.897          51.000
G11  19935470.047 8 104761580.415 8       692.023          50.000    19935468.367 8  81632388.515 8       539.239          49.000
G14  22415468.219 6 117794107.443 6      1719.797          39.000    22415464.656 5  91787638.285 5      1340.098          35.000
G22  21469991.625 8 112825588.784 8      1971.559          51.000    21469989.711 7  87916026.241 7      1536.276          47.000
G27  22764123.633 7 119626262.355 7     -3296.297          47.000    22764125.656 7  93215256.891 7     -2568.546          47.000
G32  22022045.180 6 115726648.178 6       352.930          37.000    22022044.594 6  90176621.242 6       275.010          38.000
R07  19864286.992 8 106335169.151 8     -1550.023          51.000    19864288.977 8  82705057.178 8     -1205.574          49.000
R08  19969354.648 8 106934965.271 8      2512.551          51.000    19969355.984 7  83171689.971 7      1954.206          47.000
R22  19992559.789 8 106721598.241 8     -1493.375          51.000    19992563.117 8  83005718.149 8     -1161.514          48.000
C27  22588772.320 8 117625649.588 8     -1995.699          50.000
E04  25327056.016 8 133094582.421 8      2586.004          50.000    25327059.242 8 101981652.964 8      1981.481          50.000
E12  22001929.453 8 115620907.131 8      -852.289          51.000    22001929.516 8  88592647.159 8      -653.026          51.000
E19  25127385.742 5 132045296.800 5      -218.824          34.000    25127388.852 7 101177564.090 7      -167.730          42.000
E33  27455887.977 5 144281669.957 5     -2320.141          33.000
> 2020 05 18 18 05  0.0000000  0 14        .000000000000
G03  23215245.219 6 121996915.580 6      3277.758          40.000    23215252.227 6  95062568.116 6      2554.097          40.000
G08  20795372.406 8 109280411.507 8     -1669.348          51.000    20795374.609 8  85153572.667 8     -1300.790          51.000
G11  19931563.055 8 104741049.281 8       675.855          50.000    19931561.398 8  81616390.221 8       526.641          49.000
G14  22405689.859 6 117742724.982 6      1704.730          40.000    22405688.070 5  91747599.997 5      1328.358          30.000
G22  21458770.359 8 112766619.411 8      1958.891          51.000    21458767.461 7  87870076.072 7      1526.408          47.000
G27  22782964.203 7 119725272.460 7     -3305.301          46.000    22782967.492 7  93292407.584 7     -2575.559          46.000
G32  22020083.914 6 115716342.006 6       333.289          41.000    22020083.438 6  90168590.415 6       259.703          39.000
R07  19873037.922 8 106382012.930 8     -1573.766          51.000    19873040.117 8  82741491.238 8     -1224.040          49.000
R08  19955337.945 8 106859905.014 8      2490.633          51.000    19955338.977 7  83113309.768 7      1937.159          47.000
R22  20000994.391 8 106766623.731 8     -1509.301          51.000    20000997.805 7  83040737.931 7     -1173.901          47.000
C27  22600297.445 8 117685666.086 8     -2006.293          49.000
E04  25312313.875 8 133017109.465 8      2577.996          51.000    25312317.289 8 101922290.604 8      1975.291          51.000
E12  22006812.383 8 115646566.723 8      -859.199          51.000    22006812.531 8  88612308.383 8      -658.407          51.000
E19  25128674.648 5 132052075.791 5      -233.395          31.000    25128677.133 7 101182751.455 7      -178.820          43.000
> 2020 05 18 18 05 30.0000000  0 15        .000000000000
G03  23196550.812 6 121898681.041 6      3264.234          38.000    23196558.906 6  94986021.790 6      2543.562          38.000
G08  20804945.328 8 109330717.964 8     -1691.809          50.000    20804948.180 8  85192772.499 8     -1318.292          50.000
G10  23596204.344 6 123998859.610 6     -3137.004          36.000    23596209.672 5  96622531.003 5     -2444.422          35.000
G11  19927746.695 8 104720994.531 8       653.953          51.000    19927745.102 8  81600763.143 8       509.574          48.000
G14  22395996.289 6 117691787.497 6      1684.453          38.000    22395995.594 5  91707908.439 5      1312.558          34.000
G22  21447620.328 8 112708023.851 8      1940.203          51.000    21447616.609 8  87824417.199 8      1511.850          48.000
G27  22801853.820 7 119824538.163 7     -3319.988          46.000    22801857.984 7  93369757.481 7     -2587.004          46.000
G32  22018231.688 6 115706610.825 6       308.262          40.000    22018232.469 5  90161007.525 5       240.192          35.000
R07  19881920.555 8 106429562.066 8     -1603.527          51.000    19881922.344 8  82778473.890 8     -1247.188          49.000
R08  19941442.352 8 106785494.411 8      2462.695          50.000    19941443.484 7  83055434.859 7      1915.430          47.000
R22  20009516.742 8 106812117.501 8     -1531.145          51.000    20009520.273 8  83076121.956 8     -1190.890          48.000
C27  22611881.836 8 117745990.953 8     -2022.617          50.000
E04  25297616.867 8 132939873.143 8      2563.895          51.000    25297620.273 8 101863109.538 8      1964.564          51.000
E12  22011733.922 8 115672429.398 8      -872.176          51.000    22011733.977 8  88632125.212 8      -668.261          51.000
E19                                                                  25130046.445 7 101188265.366 7      -194.369          44.000
> 2020 05 18 18 06  0.0000000  0 15        .000000000000
G03  23177912.156 6 121800738.942 6      3262.430          39.000    23177918.672 6  94909703.344 6      2542.156          39.000
G08  20814623.312 8 109381576.842 8     -1701.805          49.000    20814626.805 8  85232402.819 8     -1326.079          49.000
G10  23614102.930 6 124092902.262 6     -3134.988          38.000    23614105.250 6  96695811.004 6     -2442.854          37.000
G11  19924033.711 8 104701482.777 8       644.090          50.000    19924032.094 8  81585559.184 8       501.888          49.000
G14  22386400.000 6 117641362.070 6      1674.598          38.000    22386400.578 5  91668615.955 5      1304.881          34.000
G22  21436553.586 8 112649867.359 8      1933.934          51.000    21436549.711 8  87779100.483 8      1506.964          49.000
G27  22820804.234 7 119924122.764 7     -3322.066          46.000    22820809.078 7  93447355.841 7     -2588.623          46.000
G32  22016501.164 6 115697520.478 6       294.949          40.000    22016508.727 4  90153924.082 4       229.809          27.000
R07  19890946.836 8 106477880.161 8     -1620.598          51.000    19890948.734 8  82816054.646 8     -1260.465          49.000
R08  19927680.844 8 106711802.894 8      2447.152          49.000    19927682.547 7  82998119.281 7      1903.341          47.000
R22  20018139.344 8 106858145.862 8     -1540.449          51.000    20018142.883 8  83111921.775 8     -1198.127          49.000
C27  22623538.539 8 117806688.271 8     -2026.891          50.000
E04  25282977.516 8 132862940.175 8      2562.117          50.000    25282980.930 8 101804160.922 8      1963.166          51.000
E12  22016706.578 8 115698560.675 8      -872.785          51.000    22016706.398 8  88652147.856 8      -668.713          51.000
E19                                                                  25131508.656 7 101194155.380 7      -200.451          45.000
> 2020 05 18 18 06 30.0000000  0 16        .000000000000
G03  23159308.078 5 121702978.678 5      3254.367          34.000    23159313.344 5  94833526.581 5      2535.871          34.000
G08  20824384.742 8 109432874.845 8     -1718.109          49.000    20824388.984 8  85272375.296 8     -1338.787          49.000
G10  23632014.344 6 124187023.160 6     -3139.402          37.000    23632016.195 6  96769151.965 6     -2446.288          36.000
G11  19920402.906 8 104682403.226 8       627.707          50.000    19920401.414 8  81570691.998 8       489.122          50.000
G14  22376880.312 6 117591338.690 6      1659.609          37.000    22376881.961 5  91629636.779 5      1293.202          35.000
G22  21425548.766 8 112592038.380 8      1921.086          51.000    21425545.453 8  87734038.970 8      1496.953          49.000
G27  22839793.703 7 120023912.015 7     -3330.605          46.000    22839798.836 7  93525113.699 7     -2595.277          45.000
G32  22014871.219 6 115688959.286 6       275.391          39.000    22014876.516 6  90147252.703 6       214.590          39.000
R07  19900095.008 8 106526850.299 8     -1644.180          51.000    19900096.773 8  82854142.533 8     -1278.806          49.000
R08  19914032.375 8 106638717.783 8      2425.008          50.000    19914034.797 7  82941275.325 7      1886.117          46.000
R22  20026840.977 8 106904594.974 8     -1556.363          51.000    20026844.258 8  83148048.843 8     -1210.505          50.000
C27  22635245.539 8 117867646.323 8     -2037.227          50.000
C30  21682189.844 6 112904849.166 6       916.531          38.000
E04  25268374.586 8 132786199.904 8      2553.785          49.000    25268378.039 8 101745359.933 8      1956.766          51.000
E12  22021709.086 8 115724848.603 8      -879.832          50.000    22021708.406 8  88672290.551 8      -674.154          51.000
E19                                                                  25133043.203 7 101200335.277 7      -211.582          46.000
> 2020 05 18 18 07  0.0000000  0 16        .000000000000
G03  23140750.383 5 121605462.720 5      3247.410          33.000    23140756.727 5  94757540.226 5      2530.453          33.000
G08  20834241.555 8 109484672.419 8     -1734.203          50.000    20834246.258 8  85312737.037 8     -1351.327          50.000
G10  23649950.367 6 124281281.697 6     -3143.355          38.000    23649953.977 6  96842600.150 6     -2449.371          38.000
G11  19916866.133 8 104663818.149 8       611.922          50.000    19916864.805 8  81556210.114 8       476.822          50.000
G14  22367449.695 6 117541780.598 6      1644.402          39.000    22367451.461 6  91591020.112 6      1281.352          36.000
G22  21414618.047 8 112534599.085 8      1908.797          51.000    21414615.406 8  87689281.095 8      1487.374          48.000
G27  22858833.438 7 120123965.348 7     -3338.785          45.000    22858838.406 7  93603077.295 7     -2601.654          46.000
G32  22013353.742 6 115680988.912 6       255.430          36.000    22013360.094 6  90141042.111 6       199.036          36.000
R07  19909375.797 8 106576531.774 8     -1667.160          51.000    19909377.602 8  82892783.687 8     -1296.680          49.000
R08  19900509.781 8 106566304.194 8      2403.254          49.000    19900512.094 7  82884953.681 7      1869.197          45.000
R22  20035633.078 8 106951526.996 8     -1571.691          51.000    20035636.344 8  83184551.503 8     -1222.427          51.000
C27  22647014.047 8 117928925.364 8     -2047.410          51.000
C30  21676946.797 6 112877540.335 6       904.766          40.000
E04  25253820.328 8 132709715.149 8      2545.918          51.000    25253823.508 8 101686754.718 8      1950.798          51.000
E12  22026753.102 8 115751354.822 8      -886.559          49.000    22026752.055 8  88692600.498 8      -679.284          51.000
E19                                                                  25134661.672 7 101206851.689 7      -222.229          46.000
> 2020 05 18 18 07 30.0000000  0 17        .000000000000
G01  21119072.062 6 110981478.861 6      1770.098          36.000    21119092.141 5  86479136.846 5      1379.297          33.000
G03  23122231.383 6 121508143.994 6      3240.445          38.000    23122238.047 6  94681707.482 6      2525.022          38.000
G08  20844184.250 8 109536919.708 8     -1749.336          51.000    20844188.844 8  85353449.209 8     -1363.119          51.000
G10  23667903.242 6 124375627.248 6     -3146.652          37.000    23667907.688 6  96916116.114 6     -2451.937          36.000
G11  19913414.453 8 104645680.040 8       596.848          50.000    19913413.156 8  81542076.517 8       465.076          50.000
G14  22358098.906 6 117492640.951 6      1631.000          39.000    22358101.305 6  91552729.472 6      1270.906          36.000
G22  21403752.406 8 112477500.967 8      1897.285          51.000    21403749.984 7  87644789.067 7      1478.404          47.000
G27  22877914.047 7 120224231.953 7     -3346.117          46.000    22877918.320 7  93681207.091 7     -2607.364          46.000
G32  22011939.750 4 115673524.039 4       238.531          28.000    22011943.484 4  90135254.169 4       185.875          27.000
R07  19918780.078 8 106626872.515 8     -1689.266          51.000    19918781.742 8  82931937.592 8     -1313.873          49.000
R08  19887103.477 8 106494514.603 8      2382.148          49.000    19887104.852 7  82829117.379 7      1852.785          44.000
R22  20044506.633 8 106998892.751 8     -1586.422          51.000    20044509.641 8  83221391.519 8     -1233.881          51.000
C27  22658835.000 8 117990476.416 8     -2056.531          51.000
C30  21671765.258 6 112850556.268 6       893.539          41.000
E04  25239305.820 8 132633438.666 8      2538.781          51.000    25239308.141 8 101628309.107 8      1945.303          51.000
E12  22031829.281 8 115778030.855 8      -892.422          49.000    22031828.336 8  88713040.557 8      -683.762          51.000
E19                                                                  25136354.008 7 101213666.826 7      -232.489          46.000
> 2020 05 18 18 08  0.0000000  0 15        .000000000000
G03  23103768.625 6 121411119.908 6      3229.879          40.000    23103774.500 6  94606104.354 6      2516.792          40.000
G08  20854230.648 8 109589711.869 8     -1768.258          51.000    20854234.609 8  85394585.958 8     -1377.863          51.000
G10  23685891.352 6 124470154.264 6     -3153.266          38.000    23685895.891 6  96989773.423 6     -2457.090          36.000
G11  19910066.422 8 104628086.466 8       577.891          50.000    19910065.297 8  81528367.234 8       450.304          50.000
G14  22348846.820 7 117444018.119 7      1613.129          42.000    22348849.062 6  91514841.604 6      1256.987          37.000
G22  21392970.344 8 112420840.941 8      1881.945          51.000    21392967.422 7  87600638.425 7      1466.451          47.000
G27  22897053.031 7 120324806.209 7     -3356.895          44.000    22897056.477 7  93759576.607 7     -2615.762          43.000
R07  19928324.680 8 106677967.508 8     -1715.105          51.000    19928326.594 8  82971678.159 8     -1333.971          48.000
R08  19873832.375 8 106423449.604 8      2357.309          50.000    19873832.859 7  82773844.629 7      1833.462          44.000
R22  20053479.664 8 107046790.051 8     -1604.777          51.000    20053482.484 8  83258644.960 8     -1248.160          50.000
C27  22670726.125 8 118052394.453 8     -2069.465          51.000
C30  21666664.594 7 112823993.669 7       878.953          43.000
E04  25224849.484 8 132557468.312 8      2527.820          51.000    25224850.719 8 101570098.091 8      1936.880          51.000
E12  22036956.250 8 115804973.347 8      -902.027          50.000    22036955.570 8  88733684.791 8      -691.152          51.000
E19                                                                  25138138.789 7 101220854.120 7      -245.347          47.000
> 2020 05 18 18 08 30.0000000  0 16        .000000000000
G03  23085336.625 7 121314255.681 7      3224.504          42.000    23085340.398 6  94530625.806 6      2512.603          41.000
G08  20864354.570 8 109642911.472 8     -1781.695          51.000    20864357.688 8  85436040.198 8     -1388.334          51.000
G10  23703887.984 6 124564724.562 6     -3154.375          38.000    23703891.281 5  97063464.572 5     -2457.948          35.000
G11  19906796.320 8 104610901.941 8       564.305          50.000    19906795.375 8  81514976.691 8       439.718          50.000
G14  22339668.078 7 117395777.674 7      1599.918          43.000    22339668.625 6  91477251.614 6      1246.686          36.000
G22  21382246.039 8 112364483.102 8      1871.914          51.000    21382242.570 8  87556723.253 8      1458.637          48.000
G27  22916222.789 6 120425549.801 6     -3362.590          37.000    22916226.781 6  93838078.098 6     -2620.200          36.000
G32  22009457.047 6 115660479.822 6       199.551          40.000    22009453.016 6  90125028.602 6       155.491          40.000
R07  19937984.141 8 106729675.085 8     -1735.473          51.000    19937985.945 8  83011895.141 8     -1349.812          49.000
R08  19860671.156 8 106352971.797 8      2337.855          49.000    19860671.297 7  82719028.575 7      1818.332          46.000
R22  20062526.305 8 107095080.426 8     -1617.930          51.000    20062528.945 8  83296204.121 8     -1258.390          49.000
C27  22682661.188 8 118114543.791 8     -2077.141          51.000
C30  21661619.344 7 112797718.717 7       869.336          44.000
E04  25210425.469 8 132481669.303 8      2522.160          51.000    25210425.086 8 101512018.379 8      1932.579          49.000
E12  22042108.094 8 115832046.274 8      -906.215          50.000    22042107.633 8  88754428.960 8      -694.354          51.000
E19                                                                  25139990.070 7 101228308.866 7      -254.099          46.000
> 2020 05 18 18 09  0.0000000  0 16        .000000000000
G03  23066959.367 7 121217678.552 7      3214.832          42.000    23066961.734 7  94455370.958 7      2505.064          43.000
G08  20874579.555 8 109696643.373 8     -1799.809          51.000    20874581.781 8  85477909.192 8     -1402.448          51.000
G10  23721916.070 6 124659462.146 6     -3160.031          37.000    23721918.273 5  97137286.117 5     -2462.362          35.000
G11  19903628.320 8 104594253.845 8       546.250          51.000    19903627.484 8  81502004.135 8       425.649          50.000
G14  22330586.125 7 117348047.639 7      1582.555          43.000    22330585.055 6  91440059.357 6      1233.159          36.000
G22  21371603.422 8 112308554.091 8      1857.340          51.000    21371600.055 8  87513142.221 8      1447.278          49.000
G27  22935447.008 6 120526586.587 6     -3372.727          40.000    22935452.977 6  93916808.139 6     -2628.096          41.000
G32  22008378.109 6 115654825.193 6       177.844          40.000    22008380.281 6  90120622.398 6       138.583          41.000
R07  19947781.273 8 106782120.714 8     -1760.316          51.000    19947783.492 8  83052686.200 8     -1369.135          48.000
R08  19847643.945 8 106283212.459 8      2313.523          48.000    19847644.672 8  82664771.340 8      1799.407          48.000
R22  20071670.242 8 107143891.790 8     -1635.535          51.000    20071672.578 7  83334168.476 7     -1272.083          47.000
C27  22694664.625 8 118177048.652 8     -2089.246          51.000
C30  21656653.555 7 112771857.459 7       855.438          44.000
E04  25196058.078 8 132406169.131 8      2511.750          51.000    25196055.961 8 101454167.658 8      1924.639          48.000
E12  22047308.820 8 115859375.871 8      -915.082          50.000    22047308.508 8  88775369.798 8      -701.209          51.000
E19                                                                  25141931.242 7 101236127.060 7      -266.548          45.000
> 2020 05 18 18 09 30.0000000  0 16        .000000000000
G03  23048627.125 6 121121340.099 6      3207.414          41.000    23048629.484 6  94380302.097 6      2499.287          41.000
G08  20884895.977 8 109750856.605 8     -1814.867          51.000    20884897.508 8  85520153.249 8     -1414.182          51.000
G10  23739965.281 6 124754315.506 6     -3164.055          38.000    23739969.680 6  97211197.803 6     -2465.500          37.000
G11  19900553.133 8 104578093.587 8       530.789          50.000    19900552.320 8  81489411.724 8       413.602          50.000
G14  22321591.461 7 117300779.665 7      1568.000          42.000    22321590.352 6  91403227.233 6      1221.821          37.000
G22  21361032.914 8 112253004.630 8      1845.602          51.000    21361029.938 8  87469856.952 8      1438.131          49.000
G27  22954720.133 7 120627864.977 7     -3379.688          44.000    22954725.188 7  93995726.353 7     -2633.526          44.000
G32  22007410.688 7 115649750.900 7       159.586          43.000    22007412.414 7  90116668.457 7       124.350          43.000
R07  19957706.617 8 106835250.625 8     -1782.125          51.000    19957708.391 8  83094009.450 8     -1386.097          48.000
R08  19834741.430 8 106214122.610 8      2292.035          48.000    19834743.328 8  82611034.813 8      1782.694          48.000
R22  20080902.031 8 107193173.664 8     -1650.211          50.000    20080904.328 7  83372498.790 7     -1283.497          47.000
C27  22706727.242 8 118239859.089 8     -2098.473          51.000
C30  21651757.656 7 112746361.766 7       844.051          44.000
E04  25181738.336 8 132330919.430 8      2504.434          51.000    25181735.547 7 101396508.869 7      1918.967          47.000
E12  22052548.992 8 115886912.624 8      -921.137          50.000    22052548.719 8  88796469.361 8      -705.788          51.000
E19                                                                  25143953.562 7 101244270.314 7      -276.637          45.000
> 2020 05 18 18 10  0.0000000  0 16        .000000000000
G03  23030338.625 6 121025232.174 6      3199.020          40.000    23030341.125 6  94305412.859 6      2492.746          40.000
G08  20895302.016 8 109805540.676 8     -1831.184          51.000    20895303.102 8  85562764.165 8     -1426.896          51.000
G10  23758034.227 6 124849273.096 6     -3167.664          37.000    23758040.875 6  97285190.671 6     -2468.316          37.000
G11  19897569.031 8 104562412.348 8       514.168          49.000    19897568.305 8  81477192.567 8       400.650          50.000
G14  22312682.844 7 117253966.570 7      1552.070          42.000    22312682.195 6  91366749.569 6      1209.408          36.000
G22  21350532.570 8 112197825.839 8      1832.457          51.000    21350529.844 8  87426860.486 8      1427.886          49.000
G27  22974037.703 8 120729373.408 8     -3388.031          48.000    22974040.594 8  94074823.707 8     -2640.027          48.000
G32  22006553.266 6 115645247.978 6       140.125          40.000    22006554.219 6  90113159.693 6       109.194          40.000
R07  19967757.047 8 106889052.240 8     -1805.156          51.000    19967759.156 8  83135855.157 8     -1404.013          48.000
R08  19821962.586 8 106145695.002 8      2269.164          49.000    19821965.547 8  82557813.330 8      1764.902          48.000
R22  20090219.688 8 107242916.129 8     -1666.246          49.000    20090223.086 8  83411187.342 8     -1295.969          48.000
C27  22718846.664 8 118302965.114 8     -2109.020          51.000
C30  21646929.961 7 112721223.420 7       831.312          44.000
E04  25167464.828 8 132255912.225 8      2495.562          51.000    25167462.359 8 101339035.845 8      1912.238          48.000
E12  22057826.750 8 115914647.269 8      -928.492          50.000    22057826.336 8  88817720.559 8      -711.478          51.000
E19                                                                  25146055.242 7 101252730.705 7      -287.724          44.000
> 2020 05 18 18 10 30.0000000  0 16        .000000000000
G03  23012096.859 6 120929371.908 6      3190.906          40.000    23012099.625 6  94230716.566 6      2486.420          39.000
G08  20905800.578 8 109860710.212 8     -1847.039          51.000    20905801.391 8  85605753.354 8     -1439.254          51.000
G10  23776126.281 6 124944348.925 6     -3170.953          37.000    23776133.945 6  97359275.704 6     -2470.876          38.000
G11  19894679.375 8 104547227.156 8       497.781          49.000    19894678.734 8  81465359.939 8       387.881          50.000
G14  22303864.688 7 117207625.955 7      1536.824          42.000    22303863.805 5  91330639.977 5      1197.525          35.000
G22  21340105.414 8 112143033.157 8      1819.957          50.000    21340102.594 8  87384164.888 8      1418.148          49.000
G27  22993401.688 8 120831125.615 8     -3395.844          49.000    22993401.148 8  94154111.034 8     -2646.115          49.000
G32  22005807.875 7 115641332.541 7       120.531          44.000    22005811.961 7  90110108.780 7        93.920          44.000
R07  19977935.523 8 106943538.686 8     -1827.562          51.000    19977937.773 8  83178233.510 8     -1421.438          48.000
R08  19809311.430 8 106077947.453 8      2246.863          50.000    19809314.383 7  82505120.776 7      1747.560          47.000
R22  20099627.406 8 107293135.460 8     -1681.988          51.000    20099631.227 8  83450246.819 8     -1308.213          50.000
C27  22731025.602 8 118366381.759 8     -2119.051          51.000
C30  21642173.609 7 112696459.304 7       819.230          44.000
E04  25153240.531 8 132181164.798 8      2487.156          49.000    25153239.227 8 101281761.857 8      1905.713          49.000
E12  22063145.211 8 115942595.878 8      -935.160          50.000    22063144.688 8  88839135.709 8      -716.602          51.000
E19                                                                  25148237.625 7 101261520.034 7      -298.469          42.000
> 2020 05 18 18 11  0.0000000  0 16        .000000000000
G03  22993902.125 6 120833759.337 6      3183.312          40.000    22993905.266 6  94156213.348 6      2480.506          39.000
G08  20916391.180 8 109916362.413 8     -1863.035          51.000    20916391.430 8  85649118.657 8     -1451.716          51.000
G10  23794240.742 5 125039539.956 5     -3175.305          35.000    23794248.039 5  97433450.554 5     -2474.260          35.000
G11  19891884.156 8 104532537.849 8       481.527          50.000    19891883.438 8  81453913.720 8       375.219          49.000
G14  22295136.203 6 117161758.384 6      1521.359          40.000    22295135.852 6  91294899.067 6      1185.478          37.000
G22  21329751.836 8 112088626.035 8      1807.289          51.000    21329748.695 8  87341769.746 8      1408.277          48.000
G27  23012811.031 8 120933118.353 8     -3403.516          49.000    23012809.156 8  94233585.812 8     -2652.093          49.000
G32  22005174.305 6 115638003.645 6       101.090          38.000    22005178.562 6  90107514.900 6        78.777          38.000
R07  19988241.266 8 106998705.436 8     -1850.047          51.000    19988243.148 8  83221140.967 8     -1438.925          48.000
R08  19796787.828 8 106010880.629 8      2224.355          49.000    19796790.023 7  82452957.715 7      1730.057          47.000
R22  20109124.359 8 107343830.090 8     -1697.582          51.000    20109128.414 8  83489675.964 8     -1320.342          51.000
C27  22743263.562 8 118430107.133 8     -2129.117          51.000
C30  21637489.242 7 112672069.413 7       807.004          45.000
E04  25139065.453 8 132106677.349 8      2478.793          49.000    25139065.898 8 101224687.076 8      1899.308          50.000
E12  22068504.109 8 115970757.515 8      -942.090          50.000    22068503.797 8  88860714.085 8      -721.846          51.000
E19                                                                  25150501.250 6 101270636.932 6      -308.990          41.000
> 2020 05 18 18 11 30.0000000  0 16        .000000000000
G03  22975752.219 7 120738380.977 7      3175.012          42.000    22975755.383 7  94081892.610 7      2474.038          42.000
G08  20927070.438 8 109972481.417 8     -1878.617          51.000    20927070.211 8  85692847.717 8     -1463.858          51.000
G10  23812373.789 5 125134868.686 5     -3178.246          31.000    23812380.164 4  97507702.415 4     -2476.555          29.000
G11  19889180.617 8 104518330.545 8       465.199          49.000    19889179.875 8  81442843.097 8       362.493          49.000
G14  22286495.461 7 117116350.665 7      1505.555          42.000    22286495.008 6  91259516.448 6      1173.159          38.000
G22  21319469.188 8 112034589.986 8      1794.672          51.000    21319466.039 8  87299663.759 8      1398.449          50.000
G27  23032262.672 8 121035334.618 8     -3411.301          50.000    23032261.477 8  94313234.796 8     -2658.159          50.000
G32  22004649.852 6 115635246.458 6        82.266          39.000    22004652.234 6  90105366.520 6        64.106          39.000
R07  19998670.680 8 107054534.496 8     -1872.266          51.000    19998672.602 8  83264563.577 8     -1456.207          48.000
R08  19784388.516 8 105944481.898 8      2201.848          48.000    19784390.555 7  82401314.298 7      1712.548          47.000
R22  20118707.750 8 107394985.095 8     -1713.125          51.000    20118711.688 8  83529463.167 8     -1332.431          51.000
C27  22755557.617 8 118494125.772 8     -2139.098          51.000
C30  21632874.633 7 112648040.111 7       794.609          45.000
E04  25124937.648 8 132032436.384 8      2470.355          50.000    25124939.453 8 101167801.163 8      1892.858          51.000
E12  22073900.617 8 115999117.476 8      -948.969          50.000    22073900.555 8  88882444.421 8      -727.054          51.000
E19                                                                  25152843.836 6 101280069.413 6      -319.702          40.000
> 2020 05 18 18 12  0.0000000  0 15        .000000000000
G03  22957649.188 7 120643248.801 7      3166.652          43.000    22957652.570 7  94007763.703 7      2467.524          43.000
G08  20937840.172 8 110029076.722 8     -1894.535          51.000    20937840.172 8  85736947.943 8     -1476.261          51.000
G11  19886571.078 8 104504617.427 8       448.762          49.000    19886570.328 8  81432157.541 8       349.684          50.000
G14  22277944.047 6 117071415.416 6      1489.852          38.000    22277943.562 6  91224501.974 6      1160.923          37.000
G22  21309259.312 8 111980936.259 8      1781.926          51.000    21309256.648 8  87257855.686 8      1388.514          50.000
G27  23051758.539 8 121137783.171 8     -3418.883          50.000    23051757.906 8  94393064.814 8     -2664.065          50.000
G32  22004236.516 6 115633072.282 6        62.797          37.000    22004240.625 6  90103672.405 6        48.933          36.000
R07  20009225.406 8 107111033.678 8     -1894.551          51.000    20009226.953 8  83308507.384 8     -1473.539          48.000
R08  19772115.750 8 105878763.670 8      2179.129          48.000    19772118.266 8  82350200.137 8      1694.878          48.000
R22  20128379.438 8 107446611.205 8     -1728.832          51.000    20128383.094 8  83569616.790 8     -1344.647          51.000
C27  22767909.602 8 118558447.736 8     -2149.203          50.000
C30  21628331.641 7 112624383.251 7       782.305          46.000
E04  25110859.102 8 131958454.204 8      2461.680          50.000    25110862.047 8 101111113.548 8      1886.231          51.000
E12  22079337.086 8 116027686.815 8      -955.855          50.000    22079337.133 8  88904335.215 8      -732.427          51.000
E19                                                                  25155266.516 6 101289825.321 6      -330.806          39.000
> 2020 05 18 18 12 30.0000000  0 15        .000000000000
G03  22939593.281 7 120548365.848 7      3159.238          42.000    22939597.438 7  93933828.987 7      2461.747          42.000
G08  20948700.508 8 110086149.204 8     -1909.824          51.000    20948701.047 8  85781419.997 8     -1488.175          51.000
G11  19884056.070 8 104491401.054 8       432.789          50.000    19884055.234 8  81421859.073 8       337.238          50.000
G14  22269482.117 6 117026956.048 6      1473.855          36.000    22269483.984 5  91189858.389 5      1148.459          33.000
G22  21299122.500 8 111927667.134 8      1769.695          51.000    21299120.086 8  87216347.287 8      1378.983          49.000
G27  23071298.523 8 121240463.693 8     -3425.961          50.000    23071297.969 8  94473075.552 8     -2669.583          50.000
G32  22003934.406 6 115631482.926 6        43.797          38.000    22003938.461 6  90102433.944 6        34.124          37.000
R07  20019904.734 8 107168201.632 8     -1916.180          51.000    20019906.375 8  83352971.340 8     -1490.362          48.000
R08  19759971.086 8 105813729.692 8      2156.828          50.000    19759974.125 8  82299618.167 8      1677.533          48.000
R22  20138139.438 8 107498709.932 8     -1744.016          51.000    20138142.812 8  83610138.016 8     -1356.457          50.000
C27  22780319.625 8 118623074.080 8     -2158.793          49.000
C30  21623860.719 7 112601101.754 7       770.301          46.000
E04  25096830.406 8 131884733.936 8      2453.434          50.000    25096834.141 8 101054626.627 8      1879.871          51.000
E12  22084813.859 8 116056467.536 8      -962.379          50.000    22084814.000 8  88926387.977 8      -737.443          51.000
E19  25157770.977 5 132204967.004 5      -445.441          34.000    25157770.453 6 101299905.636 6      -341.100          39.000
> 2020 05 18 18 13  0.0000000  0 15        .000000000000
G03  22921583.875 7 120453726.714 7      3149.898          44.000    22921588.859 7  93860084.269 7      2454.466          44.000
G08  20959649.922 8 110143690.785 8     -1926.543          51.000    20959650.984 8  85826257.572 8     -1501.202          51.000
G11  19881634.484 8 104478675.339 8       415.344          50.000    19881633.641 8  81411942.937 8       323.644          50.000
G14  22261110.297 6 116982967.462 6      1457.406          39.000    22261112.719 5  91155581.649 5      1135.647          34.000
G22  21289057.828 8 111874776.213 8      1756.047          51.000    21289055.094 8  87175133.587 8      1368.348          49.000
G27  23090880.875 8 121343367.387 8     -3434.516          48.000    23090880.195 8  94553260.196 8     -2676.246          49.000
G32  22003742.117 5 115630471.783 5        23.570          32.000    22003743.914 4  90101645.999 4        18.366          29.000
R07  20030707.242 8 107226028.318 8     -1939.168          51.000    20030709.133 8  83397947.657 8     -1508.242          48.000
R08  19747953.656 8 105749375.294 8      2133.051          50.000    19747956.703 8  82249564.768 8      1659.043          48.000
R22  20147986.578 8 107551274.379 8     -1760.520          51.000    20147989.688 8  83651021.451 8     -1369.293          48.000
C27  22792786.945 8 118687997.478 8     -2169.695          50.000
C30  21619460.656 7 112578190.086 7       756.898          47.000
E04  25082850.523 8 131811270.306 8      2443.762          50.000    25082854.680 8 100998336.321 8      1872.520          51.000
E12  22090329.523 8 116085453.114 8      -970.281          50.000    22090329.844 8  88948597.705 8      -743.435          51.000
E19  25160352.539 5 132218538.467 5      -459.895          35.000    25160353.562 6 101310304.559 6      -352.381          39.000
> 2020 05 18 18 13 30.0000000  0 15        .000000000000
G03  22903624.250 7 120359348.206 7      3141.992          45.000    22903629.391 7  93786542.599 7      2448.306          45.000
G08  20970691.125 8 110201715.124 8     -1941.742          51.000    20970692.914 8  85871471.301 8     -1513.049          51.000
G11  19879309.430 8 104466457.056 8       399.137          50.000    19879308.688 8  81402422.203 8       311.016          50.000
G14  22252832.594 6 116939467.038 6      1442.125          40.000    22252833.594 5  91121685.247 5      1123.740          34.000
G22  21279068.219 8 111822279.263 8      1743.691          51.000    21279064.930 8  87134226.870 8      1358.724          48.000
G27  23110507.688 7 121446507.735 7     -3441.629          46.000    23110507.719 7  94633629.216 7     -2681.789          47.000
G32  22003662.828 5 115630027.423 5         4.496          35.000    22003665.914 6  90101320.903 6         3.500          37.000
R07  20041635.367 8 107284526.585 8     -1960.699          51.000    20041637.102 8  83443446.293 8     -1524.988          49.000
R08  19736066.555 8 105685717.926 8      2110.633          50.000    19736068.570 7  82200053.502 7      1641.603          46.000
R22  20157923.891 8 107604320.240 8     -1775.793          51.000    20157926.469 7  83692279.298 7     -1381.175          47.000
C27  22805314.688 8 118753232.635 8     -2179.359          51.000
C30  21615134.828 7 112555664.786 7       744.750          47.000
E04  25068922.836 8 131738080.250 8      2435.602          50.000    25068927.133 8 100942255.619 8      1866.201          51.000
E12  22095887.344 8 116114659.349 8      -976.836          50.000    22095887.758 8  88970976.503 8      -748.491          51.000
E19  25163016.070 6 132232540.747 6      -473.582          37.000    25163018.180 6 101321033.581 6      -362.878          40.000
> 2020 05 18 18 14  0.0000000  0 15        .000000000000
G03  22885710.195 7 120265208.536 7      3133.102          46.000    22885715.094 7  93713187.074 7      2441.381          46.000
G08  20981819.805 8 110260198.688 8     -1958.109          51.000    20981822.344 8  85917042.892 8     -1525.800          51.000
G11  19877076.719 8 104454724.294 8       381.973          49.000    19877076.180 8  81393279.793 8       297.641          49.000
G14  22244644.375 7 116896433.499 7      1425.848          42.000    22244643.742 5  91088152.642 5      1111.053          35.000
G22  21269148.898 8 111770153.563 8      1730.426          51.000    21269145.336 8  87093609.444 8      1348.384          48.000
G27  23130174.258 7 121549859.577 7     -3449.395          44.000    23130175.344 7  94714163.074 7     -2687.840          44.000
G32  22003691.734 5 115630181.397 5       -15.992          33.000    22003694.500 5  90101440.781 5       -12.468          33.000
R07  20052683.664 8 107343669.796 8     -1983.148          51.000    20052685.484 8  83489446.572 8     -1542.452          49.000
R08  19724305.266 8 105622736.080 8      2087.137          49.000    19724306.414 7  82151067.640 7      1623.332          45.000
R22  20167947.164 8 107657823.844 8     -1792.098          51.000    20167949.203 8  83733893.165 8     -1393.857          48.000
C27  22817897.875 8 118818756.084 8     -2189.883          51.000
C30  21610878.961 7 112533504.206 7       731.672          47.000
E04  25055043.438 8 131665142.198 8      2426.145          51.000    25055047.578 8 100886368.022 8      1858.994          51.000
E12  22101482.922 8 116144063.440 8      -984.367          51.000    22101483.242 8  88993506.911 8      -754.246          51.000
E19  25165758.250 6 132246949.985 6      -487.949          40.000    25165760.273 6 101332074.414 6      -373.922          40.000
> 2020 05 18 18 14 30.0000000  0 14        .000000000000
G03  22867847.953 7 120171340.834 7      3125.629          46.000    22867852.492 7  93640043.488 7      2435.558          46.000
G08  20993041.711 8 110319171.574 8     -1972.941          50.000    20993045.117 8  85962995.799 8     -1537.354          50.000
G11  19874942.633 8 104443510.045 8       366.297          49.000    19874942.188 8  81384541.413 8       285.426          49.000
G14  22236551.547 7 116853900.591 7      1410.547          42.000    22236550.664 6  91055010.163 6      1099.127          36.000
G22  21259306.266 8 111718431.459 8      1718.336          51.000    21259302.320 7  87053306.510 7      1338.963          47.000
G27  23149886.070 7 121653452.792 7     -3455.969          43.000    23149888.805 7  94794885.009 7     -2692.966          42.000
R07  20063858.078 8 107403487.032 8     -2003.984          51.000    20063859.844 8  83535971.075 8     -1558.655          49.000
R08  19712675.883 7 105560463.948 7      2064.961          47.000    19712676.625 7  82102633.819 7      1606.084          44.000
R22  20178062.031 8 107711817.457 8     -1806.793          51.000    20178063.961 8  83775888.145 8     -1405.283          48.000
C27  22830542.078 8 118884598.652 8     -2199.031          50.000
C30  21606699.422 8 112511741.073 8       719.762          48.000
E04  25041218.570 8 131592489.372 8      2417.922          51.000    25041222.109 8 100830698.978 8      1852.744          51.000
