     3.02           OBSERVATION DATA    M (MIXED)           RINEX VERSION / TYPE
SAVERINEX           SC600               20200503 015932 LCL PGM / RUN BY / DATE
       G = GPS       R = GLONASS       C = COMPASS          COMMENT
       S = SBAS      J = QZSS          E = GALILEO          COMMENT
BEAN                                                        MARKER NAME
1                                                           MARKER NUMBER
GEODETIC                                                    MARKER TYPE
Unige DICCA         GTER                                    OBSERVER / AGENCY
SC60291900056       SC600               2.12(191226)        REC # / TYPE / VERS
                    HEMA45          NONE                    ANT # / TYPE
  4509407.8091   693652.4678  4442337.6214                  APPROX POSITION XYZ
        0.0000        0.0000        0.0000                  ANTENNA: DELTA H/E/N
G    8 C1C L1C D1C S1C C2Y L2Y D2Y S2Y                      SYS / # / OBS TYPES
R    8 C1C L1C D1C S1C C2P L2P D2P S2P                      SYS / # / OBS TYPES
C    8 C1I L1I D1I S1I C7I L7I D7I S7I                      SYS / # / OBS TYPES
E    8 C1C L1C D1C S1C C7Q L7Q D7Q S7Q                      SYS / # / OBS TYPES
DBHZ                                                        COMMENT
     30.000                                                 INTERVAL
  2020    05    02    23    00    0.0000000     GPS         TIME OF FIRST OBS
  2020    05    02    23    59   30.0000000     GPS         TIME OF LAST OBS
     0                                                      RCV CLOCK OFFS APPL
G L1C  0.00000                                              SYS / PHASE SHIFT
G L2Y  0.00000                                              SYS / PHASE SHIFT
R L1C  0.00000                                              SYS / PHASE SHIFT
R L2P  0.25000                                              SYS / PHASE SHIFT
C L1I  0.00000                                              SYS / PHASE SHIFT
C L7I  0.00000                                              SYS / PHASE SHIFT
E L1C  0.50000                                              SYS / PHASE SHIFT
E L7Q -0.25000                                              SYS / PHASE SHIFT
 11 R01  1 R02 -4 R07  5 R08  6 R09 -2 R10 -7 R11  0 R12 -1 GLONASS SLOT / FRQ #
    R17  4 R22 -3 R23  3                                    GLONASS SLOT / FRQ #
 C1C   71.950 C2C   71.950 C2P   71.950                     GLONASS COD/PHS/BIS
    18                                                      LEAP SECONDS
*** Above antenna height is from mark to ANTENNA BOTTOM.    COMMENT
    17     4        0.0000        ANT MEASURE TYPE/HEIGT    COMMENT
    0.0000    0.0000    0.0458    0.0405    0.0000          COMMENT
                    BASE STATION                            COMMENT
                                                            END OF HEADER
> 2020 05 02 23 00  0.0000000  0 15        .000000000000
G01  23529285.078 7 123647228.080 7     -3536.836          45.000    23529287.094 7  96348512.056 7     -2755.976          45.000
G03  21066041.375 7 110702829.020 7     -1591.684          47.000    21066043.312 7  86261994.149 7     -1240.273          46.000
G04  20255514.445 8 106443504.575 8       188.930          51.000    20255514.461 8  82942969.798 8       147.218          51.000
G09  21433123.922 8 112631916.409 8      2374.734          49.000    21433124.641 8  87765112.874 8      1850.442          49.000
G17  22676523.297 7 119165911.644 7     -1928.387          46.000    22676522.023 7  92856551.924 7     -1502.636          46.000
R01  20776199.859 5 111060581.531 5     -2490.238          30.000
R02  19895256.914 5 106164887.673 5      1219.781          33.000
R24  21005532.195 8 112326034.006 8     -3676.527          50.000    21005533.531 7  87364688.548 7     -2859.524          44.000
C12  22994645.531 7 119739157.728 7     -2090.676          46.000    22994645.742 8  92589904.098 8     -1616.571          51.000
C21  22133679.023 5 115255854.453 5       928.836          32.000
C22  22828228.430 6 118872565.815 6     -1631.398          40.000
E04  24670024.344 8 129641963.311 8      1673.074          50.000    24670024.500 8  99335997.778 8      1281.942          51.000
E12  22115037.180 8 116215308.178 8     -1494.656          51.000    22115035.414 8  89048092.418 8     -1145.259          49.000
E19  24029843.672 8 126277718.866 8      -995.953          50.000    24029844.539 8  96758258.950 8      -763.055          51.000
E33  27159720.656 6 142725300.443 6     -3155.707          37.000
> 2020 05 02 23 00 30.0000000  0 17        .000000000000
G01  23549488.180 7 123753397.586 7     -3542.730          46.000    23549491.352 7  96431241.523 7     -2760.569          46.000
G03  21075147.211 7 110750681.658 7     -1599.949          44.000    21075149.711 7  86299281.910 7     -1246.714          44.000
G04  20254478.461 8 106438060.607 8       172.590          51.000    20254478.031 8  82938727.749 8       134.486          51.000
G09  21419598.227 8 112560836.194 8      2362.559          51.000    21419599.234 8  87709725.688 8      1840.955          51.000
G17  22687567.375 7 119223947.065 7     -1942.121          47.000    22687565.500 7  92901774.324 7     -1513.338          47.000
G22  22941520.250 5 120558489.589 5     -2417.871          30.000
G31  24068417.367 5 126480384.882 5     -2246.809          33.000
R10  22915002.016 5 122149831.292 5      -627.086          33.000
R24  21026197.250 8 112436536.389 8     -3691.707          51.000    21026197.961 7  87450634.836 7     -2871.328          44.000
C05                                                                  39727327.531 5 159965484.790 5       -23.313          35.000
C12  23006723.633 7 119802050.695 7     -2103.676          45.000    23006723.469 8  92638536.945 8     -1626.696          51.000
C21  22128342.648 5 115228074.743 5       921.535          35.000
C22  22837637.531 6 118921560.340 6     -1636.484          40.000
E04  24660488.102 8 129591853.825 8      1666.230          50.000    24660488.641 8  99297602.195 8      1276.725          51.000
E12  22123600.875 8 116260309.143 8     -1506.816          51.000    22123598.836 8  89082573.667 8     -1154.610          48.000
E19  24035543.789 8 126307673.073 8     -1002.676          49.000    24035544.617 8  96781210.867 8      -768.293          51.000
E33  27177737.156 6 142819983.899 6     -3158.199          36.000
> 2020 05 02 23 01  0.0000000  0 18        .000000000000
G01  23569710.766 7 123859667.484 7     -3553.938          47.000    23569714.406 7  96514049.228 7     -2769.299          47.000
G03  21084286.766 7 110798711.406 7     -1614.062          45.000    21084289.109 7  86336707.671 7     -1257.711          45.000
G04  20253521.766 8 106433034.410 8       150.629          51.000    20253521.523 8  82934811.251 8       117.373          51.000
G09  21406128.195 8 112490048.952 8      2344.727          51.000    21406129.727 8  87654566.814 8      1827.063          51.000
G17  22698674.984 7 119282317.738 7     -1961.211          47.000    22698672.891 7  92947257.928 7     -1528.219          46.000
G19  22330533.523 5 117347748.864 5     -1138.586          34.000
R02  19881673.359 4 106092394.850 4      1189.262          29.000
R10  22918584.156 5 122168931.039 5      -657.477          32.000
R17  19692056.133 5 105376159.880 5        70.320          35.000
R24  21046932.820 8 112547416.962 8     -3712.387          50.000    21046933.820 7  87536875.290 7     -2887.412          45.000
C05                                                                  39727482.039 5 159966106.879 5       -27.273          35.000
C12  23018864.047 7 119865265.526 7     -2122.340          47.000    23018863.672 8  92687418.654 8     -1641.234          51.000
C21  22123037.125 6 115200442.067 6       908.836          37.000
C22  22847062.273 6 118970638.356 6     -1647.047          41.000
E04  24650977.664 8 129541877.016 8      1653.691          51.000    24650978.297 8  99259308.280 8      1267.102          51.000
E12  22132220.039 8 116305601.855 8     -1524.695          51.000    22132217.219 7  89117278.467 7     -1168.279          47.000
E19  24041268.461 8 126337757.189 8     -1014.945          48.000    24041269.469 8  96804262.327 8      -777.709          51.000
E33  27195755.617 6 142914676.736 6     -3166.645          36.000    27195754.930 5 109506032.446 5     -2426.234          34.000
> 2020 05 02 23 01 30.0000000  0 18        .000000000000
G01  23590016.945 7 123966377.171 7     -3556.090          46.000    23590020.875 7  96597199.618 7     -2770.979          46.000
G03  21093524.977 7 110847259.036 7     -1618.738          45.000    21093527.336 7  86374537.010 7     -1261.355          45.000
G04  20252709.578 8 106428766.651 8       137.875          51.000    20252709.414 8  82931485.731 8       107.435          51.000
G09  21392778.602 8 112419897.043 8      2336.023          51.000    21392780.258 8  87599903.001 8      1820.278          51.000
G17  22709910.469 7 119341361.880 7     -1970.988          46.000    22709909.031 7  92993266.356 7     -1535.835          46.000
G22  22969204.188 5 120703983.414 5     -2430.512          32.000
R02  19874993.234 4 106056800.118 4      1181.375          29.000
R10  22922359.406 5 122189055.220 5      -679.398          35.000
R17  19691738.609 5 105374468.739 5        46.340          33.000    19691736.758 4  81957912.586 4        36.039          28.000
R24  21067802.758 8 112659019.061 8     -3723.660          48.000    21067804.719 7  87623676.949 7     -2896.177          45.000
C05                                                                  39727684.750 5 159966923.043 5       -24.104          35.000
C12  23031131.031 7 119929138.356 7     -2131.863          47.000    23031130.336 8  92736809.184 8     -1648.583          51.000
C21  22117824.383 6 115173294.472 6       905.137          37.000
C22  22856567.664 6 119020137.403 6     -1648.766          41.000
E04  24641557.742 8 129492374.223 8      1650.359          51.000    24641558.406 8  99221377.574 8      1264.564          51.000
E12  22140959.281 8 116351526.865 8     -1533.172          51.000    22140956.219 8  89152467.748 8     -1174.768          48.000
E19  24047082.523 8 126368311.330 8     -1017.910          48.000    24047083.742 8  96827673.948 8      -780.062          51.000
E33  27213840.906 6 143009718.800 6     -3165.566          37.000    27213842.250 5 109578856.844 5     -2425.516          35.000
> 2020 05 02 23 02  0.0000000  0 17        .000000000000
G01  23610328.539 7 124073116.258 7     -3560.105          45.000    23610332.688 7  96680372.930 7     -2774.108          46.000
G03  21102783.891 7 110895915.804 7     -1625.418          43.000    21102786.289 7  86412451.325 7     -1266.562          43.000
G04  20251963.742 8 106424848.158 8       122.965          51.000    20251963.570 8  82928432.356 8        95.817          51.000
G09  21379471.938 8 112349973.074 8      2325.195          50.000    21379472.828 8  87545416.817 8      1811.841          50.000
G17  22721195.734 8 119400668.717 8     -1982.945          48.000    22721195.398 8  93039479.484 8     -1545.152          48.000
G22  22983088.344 5 120776941.044 5     -2433.879          35.000
R10  22926249.570 5 122209787.947 5      -703.176          32.000
R17  19691550.250 5 105373470.517 5        20.156          35.000    19691551.039 5  81957136.226 5        15.680          31.000
R24  21088728.211 7 112770923.051 7     -3737.012          47.000    21088731.664 7  87710713.430 7     -2906.562          45.000
C05                                                                  39727857.859 6 159967620.343 6       -22.648          36.000
C12  23043446.305 8 119993262.470 8     -2143.441          48.000    23043445.188 8  92786394.032 8     -1657.415          51.000
C21  22112626.305 6 115146227.239 6       899.066          37.000
C22  22866075.797 6 119069652.099 6     -1652.766          40.000
E04  24632150.383 8 129442937.007 8      1644.926          51.000    24632150.828 8  99183497.122 8      1260.443          51.000
E12  22149740.609 8 116397675.021 8     -1543.809          50.000    22149738.258 8  89187827.992 8     -1182.906          49.000
E19  24052908.156 8 126398926.354 8     -1023.332          48.000    24052909.508 8  96851132.202 8      -784.013          51.000
E33  27231914.898 6 143104700.045 6     -3166.961          36.000    27231917.133 5 109651634.700 5     -2426.348          34.000
> 2020 05 02 23 02 30.0000000  0 17        .000000000000
G01  23630678.992 7 124180060.902 7     -3566.551          45.000    23630683.219 7  96763706.460 7     -2779.127          45.000
G03  21112097.711 7 110944859.216 7     -1634.680          42.000    21112099.750 6  86450589.045 6     -1273.776          41.000
G04  20251318.125 8 106421456.345 8       105.969          51.000    20251318.195 8  82925789.391 8        82.573          51.000
G09  21366242.758 8 112280456.124 8      2312.066          50.000    21366243.180 8  87491247.799 8      1801.610          50.000
G17  22732564.664 8 119460414.226 8     -1997.090          48.000    22732564.922 8  93086034.400 8     -1556.177          48.000
G22  22997009.367 5 120850084.318 5     -2439.223          35.000
R02  19861854.898 5 105986636.079 5      1157.648          31.000    19861854.586 5  82434057.130 5       900.390          32.000
R17  19691525.672 5 105373346.951 5        -8.645          33.000    19691531.250 5  81957040.123 5        -6.724          32.000
R24  21109743.328 8 112883306.656 8     -3752.363          48.000    21109747.648 7  87798122.901 7     -2918.508          44.000
C05                                                                  39728035.344 6 159968335.152 6       -22.663          36.000
C12  23055842.719 8 120057812.297 8     -2157.082          49.000    23055841.477 8  92836308.061 8     -1668.044          51.000
C21  22107478.031 5 115119416.672 5       891.512          35.000
C22  22875620.445 6 119119358.310 6     -1658.375          40.000
E04  24622789.430 8 129393743.504 8      1637.227          51.000    24622789.070 8  99145803.414 8      1254.624          50.000
E12  22158598.094 8 116444223.640 8     -1556.699          50.000    22158596.555 8  89223495.090 8     -1192.772          49.000
E19  24058779.117 8 126429779.306 8     -1030.855          48.000    24058780.492 8  96874772.782 8      -789.801          51.000
E33  27250011.414 5 143199776.125 5     -3169.750          31.000    27250012.742 5 109724501.360 5     -2429.305          35.000
> 2020 05 02 23 03  0.0000000  0 18        .000000000000
G01  23651059.617 7 124287162.957 7     -3571.180          45.000    23651063.719 7  96847162.640 7     -2782.734          45.000
G03  21121457.031 6 110994042.653 6     -1642.238          39.000    21121458.531 6  86488913.803 6     -1279.666          39.000
G04  20250763.914 8 106418544.193 8        90.508          51.000    20250764.234 8  82923520.194 8        70.526          51.000
G09  21353083.086 8 112211300.856 8      2300.734          51.000    21353083.672 8  87437360.585 8      1792.780          51.000
G17  22744008.148 8 119520549.362 8     -2009.426          48.000    22744008.000 8  93132892.904 8     -1565.786          49.000
G22  23010954.633 5 120923366.100 5     -2443.949          33.000
R02  19855383.125 4 105952127.460 4      1146.645          29.000
R10  22934466.148 5 122253582.137 5      -751.852          30.000
R17  19691657.398 6 105374051.332 6       -35.812          38.000    19691658.633 4  81957588.004 4       -27.851          29.000
R24  21130840.117 8 112996118.263 8     -3765.859          51.000    21130843.422 7  87885865.217 7     -2929.005          45.000
C05                                                                  39728208.430 6 159969032.037 6       -21.606          36.000
C12  23068311.062 8 120122739.987 8     -2169.020          48.000    23068310.133 8  92886514.224 8     -1677.181          51.000
C21  22102369.164 4 115092816.743 4       884.805          29.000
C22  22885193.453 6 119169209.370 6     -1662.637          41.000
E04  24613465.930 8 129344747.372 8      1631.527          51.000    24613465.234 8  99108260.958 8      1250.143          50.000
E12  22167523.070 8 116491125.632 8     -1567.715          51.000    22167521.797 8  89259432.977 8     -1201.233          49.000
E19  24064686.484 8 126460822.935 8     -1036.500          48.000    24064687.773 8  96898559.459 8      -794.168          51.000
E33                                                                  27268121.914 5 109797420.049 5     -2430.413          35.000
> 2020 05 02 23 03 30.0000000  0 16        .000000000000
G01  23671465.695 7 124394396.494 7     -3580.141          46.000    23671469.406 7  96930721.239 7     -2789.720          46.000
G03  21130857.297 6 111043441.672 6     -1653.215          38.000    21130858.883 6  86527406.451 6     -1288.222          38.000
G04  20250296.336 8 106416086.995 8        70.922          51.000    20250296.609 8  82921605.494 8        55.264          51.000
G09  21339988.352 8 112142484.298 8      2284.883          51.000    21339989.172 8  87383737.299 8      1780.428          51.000
G17  22755520.805 8 119581047.645 8     -2025.969          49.000    22755519.914 8  93180034.389 8     -1578.677          49.000
G19  22364329.727 6 117525325.152 6     -1233.520          36.000
G22  23024920.984 5 120996761.459 5     -2452.703          32.000
R17  19691939.906 6 105375559.454 6       -66.973          40.000    19691937.781 4  81958753.015 4       -52.087          25.000
R24  21152012.117 8 113109329.673 8     -3783.762          51.000    21152014.500 7  87973918.496 7     -2942.926          46.000
C05                                                                  39728372.500 6 159969692.568 6       -24.053          36.000
C12  23080846.586 7 120188019.609 7     -2185.203          47.000    23080846.148 8  92936992.552 8     -1689.704          51.000
C22  22894790.289 6 119219180.945 6     -1671.094          38.000
E04  24604175.297 8 129295924.660 8      1621.254          51.000    24604174.766 8  99070851.364 8      1242.212          50.000
E12  22176510.766 8 116538356.277 8     -1583.121          51.000    22176509.453 8  89295622.695 8     -1213.053          50.000
E19  24070625.461 8 126492032.049 8     -1046.398          49.000    24070626.625 8  96922472.932 8      -801.813          51.000
E33                                                                  27286239.469 5 109870371.300 5     -2434.762          35.000
> 2020 05 02 23 04  0.0000000  0 17        .000000000000
G01  23691917.656 7 124501870.833 7     -3584.871          46.000    23691920.242 7  97014467.460 7     -2793.406          46.000
G03  21140319.695 5 111093166.999 5     -1661.641          31.000    21140321.375 5  86566153.465 5     -1294.785          31.000
G04  20249936.359 8 106414195.185 8        55.312          51.000    20249936.609 8  82920131.366 8        43.101          51.000
G09  21326979.234 8 112074118.586 8      2272.965          51.000    21326980.086 8  87330465.332 8      1771.141          51.000
G17  22767123.078 8 119642017.865 8     -2038.477          48.000    22767121.922 7  93227543.641 7     -1588.423          47.000
G19  22371427.031 5 117562616.718 5     -1252.469          32.000
G22  23038931.047 5 121070380.952 5     -2456.680          30.000
R17  19692394.453 6 105377984.789 6       -94.301          41.000    19692391.852 4  81960640.407 4       -73.345          26.000
R24  21173279.195 8 113223050.005 8     -3797.391          51.000    21173281.148 7  88062367.622 7     -2953.526          47.000
C05                                                                  39728548.641 6 159970401.872 6       -23.168          36.000
C12  23093469.984 7 120253759.543 7     -2197.281          47.000    23093470.805 8  92987826.846 8     -1699.074          51.000
C21  22092279.961 4 115040352.910 4       867.434          29.000
C22  22904431.164 6 119269382.627 6     -1675.715          40.000
E04  24594938.383 8 129247386.622 8      1614.844          49.000    24594938.680 8  99033659.863 8      1237.363          50.000
E12  22185582.242 8 116586026.018 8     -1594.523          51.000    22185580.984 8  89332148.848 8     -1221.847          51.000
E19  24076617.016 8 126523516.891 8     -1052.316          50.000    24076617.977 8  96946597.675 8      -806.246          51.000
E33                                                                  27304386.281 5 109943439.201 5     -2436.091          34.000
> 2020 05 02 23 04 30.0000000  0 17        .000000000000
G01  23712399.688 7 124609502.378 7     -3590.340          47.000    23712398.148 7  97098336.101 7     -2797.670          46.000
G04  20249668.375 8 106412786.460 8        38.832          51.000    20249668.859 8  82919033.655 8        30.259          51.000
G09  21314039.922 8 112006123.094 8      2260.246          50.000    21314040.953 8  87277481.840 8      1761.231          50.000
G17  22778799.039 8 119703375.823 8     -2051.730          50.000    22778798.070 8  93275355.049 8     -1598.751          50.000
G19  22378632.602 5 117600508.334 5     -1271.711          34.000
R02  19836394.586 5 105850808.093 5      1107.148          31.000    19836388.414 4  82328395.310 4       861.112          29.000
R10  22947856.172 4 122324953.833 4      -829.910          28.000
R17  19693003.703 6 105381244.452 6      -122.723          40.000    19693007.570 5  81963175.571 5       -95.457          30.000
R24  21194624.898 8 113337192.163 8     -3811.816          50.000    21194626.648 8  88151144.851 8     -2964.746          48.000
C05                                                                  39728721.391 6 159971097.478 6       -23.050          36.000
C12  23106166.922 7 120319876.685 7     -2210.203          47.000    23106168.445 8  93038952.840 8     -1709.084          51.000
C21  22087315.266 5 115014452.045 5       859.898          32.000
C22  22914101.195 6 119319732.880 6     -1681.098          37.000
E04  24585740.039 8 129199051.594 8      1607.672          50.000    24585740.844 8  98996623.911 8      1231.900          49.000
E12  22194721.797 8 116634052.395 8     -1606.793          51.000    22194720.664 8  89368948.259 8     -1231.206          51.000
E19  24082645.391 8 126555195.015 8     -1059.160          51.000    24082646.141 8  96970870.527 8      -811.513          51.000
E33                                                                  27322546.055 5 110016560.010 5     -2438.111          34.000
> 2020 05 02 23 05  0.0000000  0 16        .000000000000
G01  23732934.914 7 124717413.269 7     -3596.496          47.000    23732930.023 7  97182422.399 7     -2802.464          46.000
G04  20249515.664 8 106411984.074 8        21.801          51.000    20249516.258 8  82918408.415 8        16.988          51.000
G09  21301194.469 8 111938622.846 8      2246.781          50.000    21301195.711 8  87224884.242 8      1750.739          50.000
G17  22790572.000 8 119765243.122 8     -2065.547          50.000    22790571.625 8  93323563.276 8     -1609.517          50.000
G19  22385969.727 5 117639064.003 5     -1291.727          34.000
R02  19830222.547 5 105817866.075 5      1095.031          31.000    19830219.211 4  82302770.833 4       851.691          28.000
R17  19693792.727 6 105385465.278 6      -151.570          40.000    19693791.805 4  81966458.378 4      -117.885          29.000
R24  21216071.945 8 113451878.752 8     -3826.637          48.000    21216073.820 8  88240345.518 8     -2976.273          48.000
C05                                                                  39728914.422 6 159971874.375 6       -23.645          36.000
C12  23118959.961 8 120386491.937 8     -2223.590          48.000    23118961.539 8  93090463.995 8     -1719.599          51.000
C21  22082408.406 5 114988890.395 5       851.711          35.000
C22  22923823.094 5 119370353.965 5     -1686.484          31.000
E04  24576604.438 8 129151043.619 8      1599.918          50.000    24576604.062 8  98959838.580 8      1225.902          48.000
E12  22203952.672 8 116682558.684 8     -1619.801          51.000    22203951.516 8  89406115.398 8     -1241.110          51.000
E19  24088733.906 8 126587189.513 8     -1066.742          51.000    24088734.516 8  96995385.796 8      -817.326          51.000
E33  27340739.648 5 143676570.184 5     -3185.449          30.000    27340741.758 5 110089827.589 5     -2440.975          34.000
> 2020 05 02 23 05 30.0000000  0 16        .000000000000
G01  23753482.773 7 124825390.304 7     -3602.102          47.000    23753479.797 7  97266560.319 7     -2806.832          47.000
G03  21169018.141 5 111243922.594 5     -1688.070          30.000    21169017.367 4  86683583.681 4     -1315.386          29.000
G04  20249438.055 8 106411576.014 8         5.340          51.000    20249438.352 8  82918090.426 8         4.161          51.000
G09  21288403.688 8 111871407.489 8      2234.047          51.000    21288404.992 8  87172508.641 8      1740.816          51.000
G17  22802401.258 8 119827405.809 8     -2078.707          50.000    22802400.750 8  93372001.701 8     -1619.772          50.000
R02  19824102.922 5 105785232.994 5      1082.023          30.000    19824098.266 4  82277364.806 4       841.574          28.000
R17  19694720.109 6 105390431.646 6      -179.598          38.000    19694720.000 5  81970321.141 5      -139.690          32.000
R24  21237578.875 7 113566890.419 7     -3840.844          46.000    21237581.477 8  88329799.059 8     -2987.323          48.000
C05                                                                  39729087.219 6 159972571.667 6       -23.077          36.000
C12  23131808.469 8 120453393.945 8     -2236.539          48.000    23131809.008 8  93142196.843 8     -1729.364          51.000
C21  22077525.336 6 114963458.075 6       844.148          37.000
C22  22933554.914 5 119421035.965 5     -1691.941          33.000
E04  24567491.203 8 129103151.471 8      1592.676          50.000    24567489.133 8  98923142.032 8      1220.482          48.000
E12  22213234.430 8 116731332.791 8     -1631.980          51.000    22213233.086 8  89443487.761 8     -1250.499          51.000
E19  24094842.164 8 126619288.217 8     -1073.488          51.000    24094842.633 8  97019980.910 8      -822.537          51.000
E33                                                                  27358932.945 5 110163078.914 5     -2442.834          34.000
> 2020 05 02 23 06  0.0000000  0 15        .000000000000
G01  23774067.633 8 124933562.502 8     -3608.012          48.000    23774067.523 8  97350850.336 8     -2811.438          48.000
G03  21178680.133 6 111294716.153 6     -1696.281          39.000    21178680.188 6  86723152.869 6     -1321.778          39.000
G04  20249460.375 8 106411692.353 8       -11.684          51.000    20249460.516 8  82918181.072 8        -9.104          51.000
G09  21275692.531 8 111804608.883 8      2220.695          51.000    21275693.766 8  87120457.797 8      1730.412          51.000
G17  22814310.914 8 119889992.324 8     -2092.332          49.000    22814310.164 8  93420770.399 8     -1630.389          49.000
R17  19695810.867 5 105396277.189 5      -208.617          35.000    19695813.438 5  81974867.650 5      -162.261          33.000
R24  21259169.797 7 113682356.380 7     -3855.496          45.000    21259173.867 7  88419605.952 7     -2998.719          47.000
C05                                                                  39729265.055 6 159973287.719 6       -23.325          36.000
C12  23144736.555 8 120520710.250 8     -2249.797          48.000    23144734.750 8  93194250.045 8     -1739.668          49.000
C21  22072690.453 5 114938284.734 5       836.262          35.000
C22  22943323.008 5 119471907.893 5     -1697.809          35.000
E04  24558424.836 8 129055506.002 8      1585.148          50.000    24558422.086 8  98886634.506 8      1214.594          48.000
E12  22222591.797 8 116780504.763 8     -1644.691          50.000    22222590.461 8  89481165.008 8     -1260.239          51.000
E19  24100994.891 8 126651620.869 8     -1080.621          51.000    24100995.133 8  97044755.283 8      -828.053          51.000
E33                                                                  27377144.242 5 110236413.124 5     -2444.953          35.000
> 2020 05 02 23 06 30.0000000  0 17        .000000000000
G01  23794679.750 8 125041879.068 8     -3612.664          48.000    23794681.570 8  97435252.852 8     -2815.063          48.000
G03  21188388.727 6 111345734.098 6     -1704.074          40.000    21188389.094 6  86762907.109 6     -1327.853          41.000
G04  20249573.016 8 106412283.447 8       -27.289          51.000    20249573.141 8  82918641.672 8       -21.264          51.000
G09  21263051.531 8 111738179.123 8      2208.430          51.000    21263052.664 8  87068694.363 8      1720.854          51.000
G17  22826291.383 8 119952951.411 8     -2104.449          49.000    22826290.547 8  93469829.443 8     -1639.831          49.000
G19  22408594.789 6 117757951.911 6     -1349.301          36.000
R02  19812078.023 5 105721034.919 5      1057.660          31.000    19812077.656 4  82227477.540 4       822.625          29.000
R17  19697057.875 5 105402952.366 5      -236.367          34.000    19697061.023 5  81980059.363 5      -183.847          33.000
R24  21280836.797 8 113798222.921 8     -3868.418          48.000    21280841.219 7  88509724.398 7     -3008.770          47.000
C05                                                                  39729438.469 6 159973985.014 6       -22.615          36.000
C12  23157734.133 7 120588390.413 7     -2261.809          47.000    23157730.039 8  93246584.583 8     -1748.968          48.000
C21  22067895.070 5 114913321.817 5       829.500          33.000
C22  22953119.227 5 119522920.735 5     -1702.531          35.000
E04  24549395.945 8 129008058.441 8      1578.586          49.000    24549393.992 8  98850278.590 8      1209.638          50.000
E12  22232014.898 8 116830024.943 8     -1656.027          50.000    22232014.102 8  89519109.070 8     -1268.973          51.000
E19  24107182.734 8 126684137.751 8     -1086.473          51.000    24107182.703 8  97069670.815 8      -832.552          51.000
E33                                                                  27395366.406 5 110309791.599 5     -2446.234          35.000
> 2020 05 02 23 07  0.0000000  0 18        .000000000000
G01  23815308.469 7 125150284.430 7     -3623.477          47.000    23815311.492 7  97519724.573 7     -2823.488          47.000
G03  21198132.133 7 111396935.438 7     -1718.250          42.000    21198132.227 7  86802804.275 7     -1338.893          42.000
G04  20249765.625 8 106413294.875 8       -49.223          51.000    20249765.547 8  82919429.792 8       -38.355          51.000
G09  21250470.672 8 111672065.465 8      2190.031          51.000    21250471.688 8  87017177.254 8      1706.521          51.000
G17  22838332.070 8 120016226.475 8     -2122.883          49.000    22838331.555 8  93519134.691 8     -1654.194          50.000
G19  22416341.883 5 117798662.486 5     -1373.402          33.000    22416345.312 5  91791186.154 5     -1070.184          35.000
G22  23123621.836 5 121515474.671 5     -2492.363          35.000
R02  19806155.266 5 105689434.720 5      1039.199          33.000    19806158.133 5  82202896.488 5       808.266          30.000
R17  19698450.195 6 105410402.230 6      -269.656          36.000    19698450.633 4  81985853.736 4      -209.736          29.000
R24  21302568.977 8 113914431.665 8     -3887.906          50.000    21302572.656 7  88600108.958 7     -3023.927          45.000
C05                                                                  39729597.367 5 159974624.472 5       -26.768          35.000
C12  23170790.602 7 120656379.154 7     -2279.910          46.000    23170786.109 8  93299157.749 8     -1762.914          50.000
C21  22063128.578 5 114888516.003 5       816.055          33.000
C22  22962933.734 5 119574020.814 5     -1712.902          33.000
E04  24540394.555 8 128960755.067 8      1565.832          49.000    24540393.781 8  98814033.158 8      1199.751          50.000
E12  22241493.539 8 116879838.895 8     -1673.918          50.000    22241493.484 8  89557278.225 8     -1282.621          51.000
E19  24113395.289 8 126716784.317 8     -1098.793          51.000    24113395.109 8  97094685.713 8      -841.923          51.000
E33                                                                  27413589.094 5 110383172.094 5     -2452.436          34.000
> 2020 05 02 23 07 30.0000000  0 18        .000000000000
G01  23835963.312 7 125258829.063 7     -3623.688          45.000    23835967.273 7  97604304.814 7     -2823.650          45.000
G03  21207920.031 6 111448372.138 6     -1722.027          40.000    21207920.586 6  86842884.863 6     -1341.836          40.000
G04  20250047.992 8 106414778.178 8       -60.750          51.000    20250047.680 8  82920585.622 8       -47.338          51.000
G09  21237960.070 8 111606321.230 8      2181.738          51.000    21237961.133 8  86965948.004 8      1700.056          51.000
G17  22850442.523 8 120079867.484 8     -2130.906          50.000    22850442.445 8  93568725.065 8     -1660.446          50.000
G19  22424194.250 5 117839934.683 5     -1388.969          34.000
G31  24256607.133 5 127469310.857 5     -2459.879          33.000    24256604.195 5  99326745.484 5     -1916.795          32.000
R02  19800297.562 5 105658180.387 5      1032.520          31.000    19800305.484 5  82178590.373 5       803.071          32.000
R17  19699997.617 6 105418680.265 6      -293.254          41.000    19699995.859 5  81992292.259 5      -228.083          32.000
R24  21324374.938 8 114031031.737 8     -3896.641          51.000    21324376.766 7  88690797.860 7     -3030.720          44.000
C05                                                                  39729751.539 6 159975246.255 6       -23.270          36.000
C12  23183915.891 7 120724726.306 7     -2287.648          47.000    23183912.016 8  93352008.087 8     -1768.964          51.000
C21  22058404.789 6 114863919.245 6       813.105          37.000
C22  22972774.141 5 119625259.529 5     -1713.977          35.000
E04  24531430.672 8 128913648.275 8      1563.441          49.000    24531430.758 8  98777938.355 8      1197.938          50.000
E12  22251038.094 8 116929998.154 8     -1681.223          50.000    22251038.352 8  89595711.961 8     -1288.239          51.000
E19  24119642.203 8 126749611.826 8     -1100.859          51.000    24119642.055 8  97119839.257 8      -843.417          51.000
E33                                                                  27431822.602 5 110456593.656 5     -2450.832          34.000
> 2020 05 02 23 08  0.0000000  0 18        .000000000000
G01  23856703.891 7 125367824.162 7     -3633.406          45.000    23856708.438 7  97689236.078 7     -2831.226          44.000
G03  21217811.969 6 111500356.966 6     -1735.023          39.000    21217813.219 6  86883392.517 6     -1351.963          39.000
G04  20250479.500 8 106417045.631 8       -81.434          51.000    20250479.148 8  82922352.477 8       -63.455          51.000
G09  21225579.383 8 111541260.386 8      2164.535          51.000    21225580.594 8  86915251.242 8      1686.651          51.000
G17  22862681.852 8 120144184.800 8     -2147.938          51.000    22862681.852 8  93618842.435 8     -1673.718          50.000
G22  23152103.562 5 121665153.644 5     -2501.996          35.000
G31  24270732.352 5 127543537.987 5     -2479.160          34.000    24270729.219 5  99384584.776 5     -1931.798          34.000
R01  21004344.719 5 112280274.400 5     -2593.449          32.000
R02  19794565.453 5 105627595.325 5      1015.547          32.000    19794575.258 5  82154802.354 5       789.873          30.000
R17  19701758.906 6 105428105.090 6      -326.082          40.000    19701758.164 5  81999622.650 5      -253.622          34.000
R24  21346312.688 8 114148337.523 8     -3914.547          50.000    21346312.695 7  88782035.627 7     -3044.651          43.000
C05                                                                  39729960.562 6 159976087.204 6       -26.282          36.000
C12  23197169.008 7 120793739.998 7     -2304.340          47.000    23197166.125 8  93405373.870 8     -1781.907          51.000
C21  22053781.727 6 114839841.718 6       801.055          37.000
C22  22982700.242 6 119676946.376 6     -1722.992          38.000
E04  24522563.469 8 128867051.134 8      1551.961          48.000    24522564.117 8  98742234.062 8      1189.150          50.000
E12  22260708.078 8 116980814.963 8     -1697.629          51.000    22260708.023 8  89634649.522 8     -1300.820          51.000
E19  24125982.961 8 126782932.564 8     -1111.820          51.000    24125982.820 8  97145370.737 8      -851.971          51.000
> 2020 05 02 23 08 30.0000000  0 19        .000000000000
G01  23877429.977 7 125476742.015 7     -3636.531          45.000    23877434.875 7  97774107.137 7     -2833.661          45.000
G03  21227708.117 6 111552363.701 6     -1741.363          37.000    21227709.594 6  86923917.242 6     -1356.906          37.000
G04  20250960.031 8 106419570.634 8       -95.570          51.000    20250959.516 8  82924320.012 8       -74.470          51.000
G09  21213228.781 8 111476358.122 8      2153.473          51.000    21213230.297 8  86864678.033 8      1678.031          51.000
G17  22874949.258 8 120208650.106 8     -2158.402          51.000    22874949.125 8  93669075.111 8     -1681.872          51.000
G22  23166366.438 5 121740077.138 5     -2505.340          32.000
G31  24284896.336 5 127617968.772 5     -2491.730          33.000    24284893.000 5  99442582.706 5     -1941.611          34.000
R02  19788857.008 5 105597136.812 5      1006.016          31.000    19788869.094 4  82131152.023 4       782.457          26.000
R10  22989848.547 5 122548788.389 5     -1035.074          34.000
R17  19703634.703 6 105438141.387 6      -352.059          40.000    19703635.195 5  82007428.628 5      -273.826          35.000
R24  21368281.086 8 114265810.288 8     -3925.793          50.000    21368280.609 7  88873403.307 7     -3053.395          45.000
C05                                                                  39730124.555 6 159976747.480 6       -24.331          36.000
C12  23210449.797 7 120862897.150 7     -2314.773          47.000    23210447.773 8  93458850.588 8     -1789.905          51.000
C21  22049158.211 5 114815762.273 5       795.109          35.000
C22  22992612.562 6 119728559.879 6     -1726.250          40.000
E04  24513692.609 8 128820437.955 8      1546.758          48.000    24513694.344 8  98706517.465 8      1185.232          51.000
E12  22270403.180 8 117031762.727 8     -1707.672          51.000    22270402.516 8  89673687.419 8     -1308.512          51.000
E19  24132317.391 8 126816219.893 8     -1116.219          51.000    24132317.156 8  97170876.605 8      -855.362          51.000
E33  27468403.617 5 144347447.012 5     -3205.023          33.000
> 2020 05 02 23 09  0.0000000  0 19        .000000000000
G01  23898198.391 7 125585881.225 7     -3639.543          43.000    23898203.281 7  97859150.659 7     -2836.008          44.000
G03  21237665.867 6 111604692.315 6     -1747.109          39.000    21237667.812 6  86964692.857 6     -1361.384          39.000
G04  20251546.523 8 106422652.841 8      -109.879          51.000    20251545.914 8  82926721.727 8       -85.620          51.000
G09  21200965.742 8 111411915.804 8      2142.523          51.000    21200967.438 8  86814463.238 8      1669.499          51.000
G17  22887301.484 8 120273561.613 8     -2168.973          49.000    22887301.188 8  93719655.512 8     -1690.109          49.000
G19  22448481.102 5 117967571.119 5     -1445.184          34.000
G31  24299155.898 5 127692901.252 5     -2504.148          30.000    24299153.883 4  99500971.627 4     -1951.288          28.000
R02  19783232.773 5 105567121.407 5       995.211          35.000    19783243.758 4  82107809.691 4       774.050          26.000
R10  22995736.320 5 122580181.244 5     -1058.094          33.000
R17  19705682.148 7 105449094.757 7      -378.211          42.000    19705683.789 5  82015947.946 5      -294.164          35.000
R24  21390336.109 8 114383751.747 8     -3936.938          49.000    21390337.266 7  88965135.573 7     -3062.062          46.000
C05                                                                  39730300.547 6 159977456.430 6       -22.983          36.000
C12  23223814.906 7 120932493.384 7     -2325.016          47.000    23223813.695 8  93512666.826 8     -1797.913          51.000
C21  22044590.172 5 114791978.807 5       790.152          31.000
C22  23002568.391 6 119780397.118 6     -1729.457          40.000
E04  24504875.688 8 128774109.211 8      1541.688          48.000    24504878.945 8  98671018.815 8      1181.245          51.000
E12  22280180.312 8 117083141.068 8     -1717.672          51.000    22280179.031 8  89713055.228 8     -1316.120          51.000
E19  24138702.367 8 126849773.090 8     -1120.578          51.000    24138702.180 8  97196586.199 8      -858.715          51.000
E33  27486703.250 5 144443600.167 5     -3205.301          33.000
> 2020 05 02 23 09 30.0000000  0 17        .000000000000
G01  23918991.664 7 125695149.205 7     -3644.848          42.000    23918996.164 7  97944294.512 7     -2840.141          42.000
G03  21247667.867 6 111657251.995 6     -1755.781          38.000    21247669.688 6  87005648.418 6     -1368.144          39.000
G04  20252221.586 8 106426200.683 8      -126.445          51.000    20252220.922 8  82929486.277 8       -98.529          51.000
G09  21188773.188 8 111347843.640 8      2129.164          51.000    21188774.641 8  86764536.891 8      1659.089          51.000
G17  22899720.672 8 120338825.787 8     -2181.656          49.000    22899720.312 8  93770510.697 8     -1699.992          49.000
R02  19777686.430 5 105537508.688 5       983.297          31.000
R10  23001759.523 5 122612299.516 5     -1082.898          32.000
R17  19707882.461 7 105460872.784 7      -406.754          42.000    19707885.305 5  82025108.616 5      -316.367          35.000
R24  21412460.500 8 114502065.439 8     -3950.312          49.000    21412463.719 7  89057157.359 7     -3072.465          47.000
C05                                                                  39730471.453 6 159978144.479 6       -23.156          36.000
C12  23237246.664 7 121002436.680 7     -2337.617          46.000    23237246.148 8  93566751.433 8     -1807.570          51.000
C21  22040061.156 6 114768401.233 6       782.352          37.000
C22  23012549.398 6 119832367.763 6     -1735.004          38.000
E04  24496096.281 8 128727974.169 8      1534.098          48.000    24496100.352 8  98635668.594 8      1175.492          51.000
E12  22290022.000 8 117134858.438 8     -1729.977          51.000    22290020.297 8  89752682.808 8     -1325.566          51.000
E19  24145120.492 8 126883500.628 8     -1127.551          51.000    24145120.453 8  97222429.374 8      -863.935          51.000
E33  27505009.938 5 144539805.949 5     -3207.543          35.000
> 2020 05 02 23 10  0.0000000  0 16        .000000000000
G01  23939804.258 7 125804517.994 7     -3650.547          42.000    23939808.477 7  98029516.918 7     -2844.585          42.000
G03  21257708.938 6 111710016.205 6     -1765.574          37.000    21257710.039 6  87046763.439 6     -1375.769          37.000
G04  20252980.180 8 106430187.310 8      -143.398          51.000    20252979.414 8  82932592.740 8      -111.739          51.000
G09  21176646.367 8 111284116.533 8      2115.242          51.000    21176647.438 8  86714879.409 8      1648.241          51.000
G17  22912201.758 8 120404413.846 8     -2194.910          50.000    22912201.180 8  93821618.299 8     -1710.320          50.000
R02  19772175.188 5 105508155.101 5       969.762          35.000
R10  23007914.305 4 122645115.181 4     -1109.367          27.000
R17  19710232.125 6 105473448.456 6      -435.852          41.000    19710235.594 6  82034889.692 6      -338.996          37.000
R24  21434649.445 8 114620720.834 8     -3964.137          49.000    21434653.703 8  89149444.946 8     -3083.217          48.000
C05                                                                  39730632.148 6 159978791.739 6       -23.279          36.000
C12  23250739.516 7 121072699.199 7     -2350.512          45.000    23250739.680 8  93621082.906 8     -1817.577          51.000
C21  22035567.281 6 114745003.686 6       773.816          39.000
C22  23022550.430 6 119884445.554 6     -1740.945          36.000
E04  24487349.180 8 128682006.865 8      1526.230          48.000    24487353.336 8  98600446.889 8      1169.452          51.000
E12  22299923.148 8 117186887.959 8     -1742.652          51.000    22299921.203 8  89792549.564 8     -1335.291          51.000
E19  24151566.711 8 126917375.716 8     -1134.941          51.000    24151566.680 8  97248385.608 8      -869.490          51.000
> 2020 05 02 23 10 30.0000000  0 16        .000000000000
G01  23960665.734 7 125914143.743 7     -3659.703          42.000    23960669.594 7  98114939.582 7     -2851.717          42.000
G03  21267818.430 6 111763142.684 6     -1778.016          36.000    21267819.727 5  87088160.681 5     -1385.464          35.000
G04  20253852.172 8 106434769.895 8      -164.016          51.000    20253851.227 8  82936163.596 8      -127.804          51.000
G09  21164615.570 8 111220893.392 8      2097.875          51.000    21164616.164 8  86665614.631 8      1634.708          51.000
G17  22924774.156 8 120470481.355 8     -2211.488          51.000    22924773.602 8  93873099.457 8     -1723.241          51.000
R10  23014233.539 5 122678797.286 5     -1138.574          31.000
R17  19712760.891 7 105486982.971 7      -468.559          44.000    19712764.336 6  82045416.464 6      -364.434          36.000
R24  21456932.273 8 114739874.968 8     -3981.352          51.000    21456936.297 7  89242120.410 7     -3096.607          47.000
C05                                                                  39730812.938 6 159979519.383 6       -26.717          36.000
C12  23264323.094 7 121143435.468 7     -2367.035          44.000    23264324.289 8  93675780.670 8     -1830.278          51.000
C21  22031138.141 6 114721942.861 6       762.043          36.000
C22  23032601.594 5 119936786.408 5     -1750.457          34.000
E04  24478663.648 7 128636365.379 7      1514.824          47.000    24478668.133 8  98565474.815 8      1160.680          51.000
E12  22309913.641 8 117239386.820 8     -1758.988          51.000    22309911.398 8  89832775.935 8     -1347.766          51.000
E19  24158070.867 8 126951555.490 8     -1145.730          51.000    24158070.859 8  97274575.317 8      -877.873          51.000
E33  27541662.812 5 144732414.751 5     -3217.438          31.000
> 2020 05 02 23 11  0.0000000  0 16        .000000000000
G01  23981554.578 6 126023914.537 6     -3657.230          39.000    23981558.375 6  98200475.259 6     -2849.790          39.000
G04  20254816.477 8 106439837.551 8      -172.848          51.000    20254815.617 8  82940112.416 8      -134.686          51.000
G09  21152659.797 8 111158065.111 8      2091.723          51.000    21152660.375 8  86616657.555 8      1629.914          51.000
G17  22937416.359 8 120536915.798 8     -2216.508          51.000    22937415.578 8  93924866.532 8     -1727.149          51.000
R02  19761422.039 5 105450770.389 5       948.492          32.000    19761431.203 4  82017269.135 4       737.719          27.000
R10  23020689.781 5 122713213.094 5     -1155.262          31.000
R17  19715447.734 7 105501363.490 7      -489.254          42.000    19715450.664 6  82056601.346 6      -380.531          36.000
R24  21479287.031 8 114859411.607 8     -3986.641          51.000    21479290.305 7  89335093.355 7     -3100.720          45.000
C05                                                                  39730992.625 6 159980243.097 6       -21.213          36.000
C12  23277976.453 7 121214534.321 7     -2371.773          45.000    23277978.430 8  93730758.789 8     -1834.105          51.000
C21  22026752.148 5 114699109.715 5       761.277          35.000
C22  23042681.531 6 119989280.836 6     -1748.406          36.000
E04  24470019.391 7 128590939.697 7      1514.801          47.000    24470023.664 8  98530668.121 8      1160.686          51.000
E12  22319972.273 8 117292244.127 8     -1763.785          51.000    22319969.828 8  89873276.957 8     -1351.442          51.000
E19  24164611.922 8 126985929.060 8     -1144.930          51.000    24164612.062 8  97300913.512 8      -877.212          51.000
E33  27560020.930 5 144828898.695 5     -3212.121          33.000
> 2020 05 02 23 11 30.0000000  0 18        .000000000000
G01  24002459.375 6 126133770.637 6     -3664.918          37.000    24002463.562 6  98286077.460 6     -2855.777          36.000
G03  21288173.766 5 111870100.104 5     -1790.594          32.000    21288172.430 5  87171505.607 5     -1395.271          30.000
G04  20255861.852 8 106445331.552 8      -191.867          51.000    20255861.484 8  82944393.470 8      -149.504          51.000
G09  21140768.156 8 111095574.713 8      2075.688          51.000    21140769.125 8  86567963.743 8      1617.419          51.000
G17  22950116.836 8 120603656.632 8     -2231.363          50.000    22950115.656 8  93976872.349 8     -1738.725          51.000
G19  22491089.539 5 118191472.492 5     -1538.594          30.000
G22  23252668.367 4 122193592.421 4     -2534.672          28.000
R01  21106838.398 5 112828146.314 5     -2628.832          32.000
R17  19718281.617 6 105516530.871 6      -520.270          40.000    19718284.688 6  82068398.172 6      -404.654          38.000
R24  21501701.617 8 114979267.972 8     -4002.129          50.000    21501703.633 7  89428314.960 7     -3112.767          43.000
C05                                                                  39731160.383 5 159980918.568 5       -22.941          35.000
C12  23291688.195 7 121285936.265 7     -2386.758          45.000    23291690.055 8  93785971.284 8     -1845.574          51.000
C21  22022399.750 6 114676446.773 6       751.012          39.000
C22  23052779.602 5 120041871.023 5     -1756.160          35.000
E04  24461405.867 8 128545671.970 8      1504.652          49.000    24461409.125 8  98495982.487 8      1152.957          51.000
E12  22330087.695 8 117345401.146 8     -1778.543          50.000    22330085.594 8  89914007.648 8     -1362.801          51.000
E19  24171178.672 8 127020437.548 8     -1154.031          51.000    24171178.961 8  97327355.097 8      -884.327          51.000
E33  27578376.148 5 144925360.606 5     -3217.062          32.000
> 2020 05 02 23 12  0.0000000  0 15        .000000000000
G01  24023406.406 6 126243849.164 6     -3669.613          36.000    24023411.297 6  98371852.997 6     -2859.436          36.000
G04  20257014.578 8 106451390.056 8      -207.973          51.000    20257014.352 8  82949114.393 8      -162.057          51.000
G09  21128967.180 8 111033562.103 8      2062.473          51.000    21128969.008 8  86519642.216 8      1607.122          51.000
G17  22962901.445 8 120670840.439 8     -2243.402          48.000    22962900.070 8  94029223.367 8     -1748.106          48.000
R01  21121613.281 4 112907127.180 4     -2634.430          27.000
R17  19721289.188 6 105532626.147 6      -548.555          40.000    19721292.234 6  82080916.779 6      -426.648          36.000
R24  21524201.266 8 115099581.416 8     -4014.500          48.000    21524201.680 6  89521892.049 6     -3122.389          40.000
C05                                                                  39731342.625 6 159981652.447 6       -22.736          36.000
C12  23305484.492 7 121357776.898 7     -2398.613          46.000    23305485.406 8  93841523.017 8     -1854.721          51.000
C21  22018107.141 6 114654091.922 6       743.555          39.000
C22  23062922.680 5 120094694.452 5     -1761.395          34.000
E04  24452849.172 8 128500701.257 8      1497.477          50.000    24452851.070 8  98461524.432 8      1147.402          51.000
E12  22340285.930 8 117398996.039 8     -1790.371          48.000    22340284.883 8  89955073.861 8     -1371.834          51.000
E19  24177797.344 8 127055219.137 8     -1160.398          51.000    24177797.602 8  97354005.941 8      -889.178          51.000
E33  27596758.602 5 145021944.966 5     -3218.754          32.000
> 2020 05 02 23 12 30.0000000  0 15        .000000000000
G01  24044367.359 6 126353996.947 6     -3674.141          38.000    24044372.094 6  98457682.463 6     -2862.967          38.000
G04  20258245.711 8 106457860.783 8      -224.078          51.000    20258245.359 8  82954156.523 8      -174.606          51.000
G09  21117228.602 8 110971876.721 8      2049.148          51.000    21117231.133 8  86471575.711 8      1596.742          51.000
G17  22975740.797 8 120738312.795 8     -2255.445          48.000    22975739.625 8  94081799.237 8     -1757.490          48.000
G22  23281665.727 5 122345962.420 5     -2544.789          34.000    23281664.438 5  95334520.454 5     -1982.953          31.000
R17  19724440.266 6 105549495.070 6      -576.762          40.000    19724443.922 6  82094037.068 6      -448.592          36.000
R24  21546756.297 7 115220194.017 7     -4026.852          45.000    21546754.953 6  89615701.769 6     -3131.999          39.000
C05                                                                  39731510.602 6 159982328.752 6       -22.521          36.000
C12  23319336.609 8 121429904.131 8     -2410.441          48.000    23319335.945 8  93897296.383 8     -1863.982          51.000
C21  22013844.820 6 114631895.116 6       735.684          39.000
C22  23073081.844 6 120147600.325 6     -1766.371          36.000
E04  24444319.852 8 128455876.218 8      1490.141          48.000    24444321.086 8  98427177.973 8      1141.796          51.000
E12  22350537.914 7 117452876.536 7     -1802.344          46.000    22350538.477 8  89996358.929 8     -1381.032          50.000
E19  24184439.000 8 127090121.759 8     -1167.043          51.000    24184439.016 8  97380749.520 8      -894.255          51.000
E33  27615138.844 5 145118535.056 5     -3221.262          32.000    27615139.828 5 111194719.375 5     -2467.883          35.000
> 2020 05 02 23 13  0.0000000  0 16        .000000000000
G01  24065360.734 6 126464314.165 6     -3679.586          38.000    24065365.086 6  98543643.917 6     -2867.210          38.000
G04  20259574.703 8 106464844.846 8      -241.012          51.000    20259574.547 8  82959598.658 8      -187.801          51.000
G09  21105572.203 8 110910621.518 8      2035.004          51.000    21105574.766 8  86423844.400 8      1585.717          51.000
G17  22988654.062 8 120806173.285 8     -2268.121          49.000    22988653.273 8  94134677.525 8     -1767.367          49.000
G22  23296208.500 5 122422393.001 5     -2550.082          33.000
R02  19740716.891 5 105340200.940 5       895.723          34.000    19740717.438 4  81931309.990 4       696.685          25.000
R17  19727756.898 6 105567240.701 6      -605.652          41.000    19727760.766 5  82107839.201 5      -471.069          35.000
R24  21569384.234 6 115341205.481 6     -4039.824          41.000    21569384.492 6  89709821.794 6     -3142.082          40.000
C05                                                                  39731683.695 5 159983025.731 5       -23.370          35.000
C12  23333262.961 8 121502416.987 8     -2423.172          48.000    23333260.953 8  93953367.879 8     -1873.717          51.000
C21  22009631.695 6 114609957.428 6       727.355          37.000
C22  23083277.086 6 120200689.329 6     -1772.316          40.000
E04  24435836.883 7 128411298.871 7      1482.191          47.000    24435838.250 8  98393021.295 8      1135.669          51.000
E12  22360863.672 7 117507143.746 7     -1815.000          46.000    22360865.211 8  90037940.328 8     -1390.732          50.000
E19  24191122.992 8 127125246.331 8     -1174.312          51.000    24191122.742 8  97407663.144 8      -899.741          51.000
E33  27633536.141 5 145215212.254 5     -3223.430          31.000    27633537.547 5 111268797.539 5     -2470.227          34.000
> 2020 05 02 23 13 30.0000000  0 17        .000000000000
G01  24086380.336 6 126574769.629 6     -3684.070          38.000    24086384.461 6  98629713.088 6     -2870.704          38.000
G03  21329460.727 6 112087081.306 6     -1824.980          36.000    21329462.672 5  87340580.347 5     -1422.063          35.000
G04  20260995.594 8 106472312.082 8      -257.008          51.000    20260995.586 8  82965417.316 8      -200.266          50.000
G09  21093992.352 8 110849768.094 8      2021.824          51.000    21093994.648 8  86376426.148 8      1575.447          51.000
G17  23001635.406 8 120874390.050 8     -2279.898          51.000    23001634.758 8  94187833.443 8     -1776.544          50.000
G22  23310780.383 5 122498976.888 5     -2555.379          30.000
R02  19735715.523 5 105313498.989 5       884.043          33.000    19735719.000 4  81910560.512 4       687.589          25.000
R17  19731232.000 7 105585833.060 7      -633.531          42.000    19731234.289 5  82122299.881 5      -492.750          34.000
R24  21592079.195 6 115462582.178 6     -4051.926          41.000    21592083.719 6  89804225.944 6     -3151.498          41.000
C05                                                                  39731856.328 6 159983720.954 6       -23.198          36.000
C12  23347257.047 8 121575284.259 8     -2434.715          48.000    23347254.438 8  94009713.441 8     -1882.724          51.000
C21  22005463.539 6 114588249.951 6       719.719          38.000
C22  23093502.602 6 120253932.031 6     -1777.203          40.000
E04  24427395.531 8 128366940.041 8      1475.102          48.000    24427396.969 8  98359032.062 8      1130.225          51.000
E12  22371258.328 8 117561767.609 8     -1826.699          48.000    22371259.523 8  90079794.995 8     -1399.679          50.000
E19  24197843.570 8 127160562.890 8     -1180.379          51.000    24197843.359 8  97434723.883 8      -904.485          51.000
E33                                                                  27651946.289 5 111342919.770 5     -2471.379          33.000
> 2020 05 02 23 14  0.0000000  0 15        .000000000000
G01  24107425.758 6 126685362.064 6     -3687.617          37.000    24107429.797 6  98715889.037 6     -2873.468          37.000
G03  21339904.742 6 112141954.407 6     -1832.328          41.000    21339903.156 6  87383338.649 6     -1427.785          41.000
G04  20262508.484 8 106480262.306 8      -272.180          51.000    20262508.086 8  82971612.298 8      -212.088          50.000
G09  21082489.234 8 110789318.013 8      2009.098          51.000    21082491.070 8  86329322.188 8      1565.531          51.000
G17  23014684.195 8 120942961.219 8     -2290.535          50.000    23014683.453 8  94241265.498 8     -1784.833          50.000
R17  19734865.445 7 105605271.941 7      -661.047          42.000    19734866.805 5  82137418.990 5      -514.148          35.000
R24  21614844.781 7 115584320.722 7     -4062.918          42.000    21614849.562 6  89898911.477 6     -3160.047          40.000
C05                                                                  39732028.695 6 159984415.127 6       -22.612          36.000
