     3.02           OBSERVATION DATA    M (MIXED)           RINEX VERSION / TYPE
SAVERINEX           SC600               20200509 125930 LCL PGM / RUN BY / DATE
       G = GPS       R = GLONASS       C = COMPASS          COMMENT
       S = SBAS      J = QZSS          E = GALILEO          COMMENT
BEAN                                                        MARKER NAME
1                                                           MARKER NUMBER
GEODETIC                                                    MARKER TYPE
Unige DICCA         GTER                                    OBSERVER / AGENCY
SC60291900056       SC600               2.12(191226)        REC # / TYPE / VERS
                    HEMA45          NONE                    ANT # / TYPE
  4509407.8091   693652.4678  4442337.6214                  APPROX POSITION XYZ
        0.0000        0.0000        0.0000                  ANTENNA: DELTA H/E/N
G    8 C1C L1C D1C S1C C2Y L2Y D2Y S2Y                      SYS / # / OBS TYPES
R    8 C1C L1C D1C S1C C2P L2P D2P S2P                      SYS / # / OBS TYPES
C    4 C1I L1I D1I S1I                                      SYS / # / OBS TYPES
E    8 C1C L1C D1C S1C C7Q L7Q D7Q S7Q                      SYS / # / OBS TYPES
DBHZ                                                        COMMENT
     30.000                                                 INTERVAL
  2020    05    09    10    00    0.0000000     GPS         TIME OF FIRST OBS
  2020    05    09    10    59   30.0000000     GPS         TIME OF LAST OBS
     0                                                      RCV CLOCK OFFS APPL
G L1C  0.00000                                              SYS / PHASE SHIFT
G L2Y  0.00000                                              SYS / PHASE SHIFT
R L1C  0.00000                                              SYS / PHASE SHIFT
R L2P  0.25000                                              SYS / PHASE SHIFT
C L1I  0.00000                                              SYS / PHASE SHIFT
E L1C  0.50000                                              SYS / PHASE SHIFT
E L7Q -0.25000                                              SYS / PHASE SHIFT
 12 R02 -4 R03  5 R04  6 R05  1 R10 -5 R12 -1 R13 -2 R14 -7 GLONASS SLOT / FRQ #
    R15  0 R17  4 R18 -3 R23  3                             GLONASS SLOT / FRQ #
 C1C   71.950 C2C   71.950 C2P   71.950                     GLONASS COD/PHS/BIS
    18                                                      LEAP SECONDS
*** Above antenna height is from mark to ANTENNA BOTTOM.    COMMENT
    17     4        0.0000        ANT MEASURE TYPE/HEIGT    COMMENT
    0.0000    0.0000    0.0458    0.0405    0.0000          COMMENT
                    BASE STATION                            COMMENT
                                                            END OF HEADER
> 2020 05 09 10 00  0.0000000  0 15        .000000000000
G02  22930791.141 5 120502149.138 5       245.352          34.000
G12  20611331.195 8 108313276.104 8     -1451.633          51.000    20611329.875 8  84399942.775 8     -1131.142          51.000
G24  22568766.797 8 118599651.225 8     -3161.270          50.000    22568768.141 8  92415315.770 8     -2463.327          50.000
G25  20199964.547 7 106151529.650 7       451.891          42.000    20199965.812 6  82715482.012 6       352.123          41.000
G29  21681963.055 8 113939483.318 8      2776.250          50.000    21681963.781 8  88784007.099 8      2163.312          50.000
R14  22326688.797 5 119013817.596 5     -2988.059          31.000    22326692.500 4  92566313.688 4     -2324.055          28.000
R15  19512470.945 8 104268733.756 8      -344.180          51.000    19512473.227 8  81097907.281 8      -267.695          48.000
R17  19506968.141 8 104385737.409 8       279.367          48.000    19506968.992 7  81188915.921 7       217.286          46.000
R18  21190033.984 8 113113912.714 8      3888.965          51.000    21190035.070 7  87977474.122 7      3024.750          46.000
C23  25868845.742 5 134705840.149 5     -2866.086          35.000
C27  22740056.914 8 118413429.210 8      2465.461          51.000
C28  22207549.211 7 115640500.176 7      -667.945          45.000
E02  25074121.477 6 131765460.848 6     -1707.742          37.000    25074121.000 6 100963096.062 6     -1308.697          36.000
E07  26664814.508 7 140124526.824 7     -2302.473          47.000    26664818.219 8 107368155.805 8     -1764.259          48.000
E30  22223373.523 8 116784606.431 8       335.785          49.000    22223374.617 8  89484308.440 8       257.332          48.000
> 2020 05 09 10 00 30.0000000  0 13        .000000000000
G12  20619643.852 8 108356959.782 8     -1461.660          51.000    20619642.516 8  84433981.991 8     -1138.956          51.000
G24  22586836.344 8 118694606.349 8     -3170.152          49.000    22586838.000 8  92489306.760 8     -2470.249          49.000
G25  20197415.609 6 106138136.899 6       439.996          39.000    20197416.969 6  82705046.124 6       342.857          38.000
G29  21666148.180 8 113856377.588 8      2763.043          49.000    21666147.961 8  88719249.395 8      2153.020          49.000
R15  19514442.148 8 104279267.706 8      -359.141          51.000    19514444.531 8  81106100.350 8      -279.332          48.000
R17  19505478.266 7 104377767.269 7       250.895          47.000    19505479.633 7  81182716.913 7       195.140          46.000
R18  21168217.000 8 112997454.091 8      3873.785          49.000    21168219.398 7  87886895.203 7      3012.944          47.000
C23  25885367.953 5 134791880.120 5     -2870.961          33.000
C27  22725885.617 8 118339632.146 8      2453.227          51.000
C28  22211442.547 7 115660774.169 7      -684.660          45.000
E02  25083883.789 5 131816698.077 5     -1712.992          35.000    25083883.570 5 101002399.983 5     -1312.331          35.000
E07  26677977.844 7 140193699.438 7     -2310.180          47.000    26677981.180 8 107421158.172 8     -1770.069          48.000
E30  22221471.070 8 116774607.867 8       329.605          49.000    22221471.852 8  89476647.209 8       252.540          48.000
> 2020 05 09 10 01  0.0000000  0 16        .000000000000
G02  22928195.367 5 120488479.154 5       212.430          33.000
G12  20628016.633 8 108400959.229 8     -1469.121          50.000    20628015.305 8  84468267.260 8     -1144.773          50.000
G24  22604958.930 8 118789840.586 8     -3176.340          48.000    22604960.578 8  92563515.256 8     -2475.067          48.000
G25  20194937.453 6 106125116.245 6       430.488          41.000    20194939.180 6  82694900.198 6       335.445          40.000
G29  21650411.648 8 113773683.852 8      2752.363          49.000    21650409.859 8  88654812.764 8      2144.702          49.000
G32  22263190.430 5 116993863.742 5      -921.102          31.000
R15  19516499.852 8 104290262.910 8      -371.402          51.000    19516502.039 8  81114652.175 8      -288.868          48.000
R17  19504150.094 8 104370663.457 8       225.055          48.000    19504152.047 7  81177191.732 7       175.043          45.000
R18  21146486.773 7 112881463.940 7      3861.426          46.000    21146490.820 7  87796680.642 7      3003.331          46.000
R24  22132827.008 5 118354171.051 5     -3433.043          31.000
C23  25901918.469 5 134878071.948 5     -2872.902          31.000
C27  22711787.688 8 118266217.275 8      2443.555          51.000
C28  22215434.391 7 115681559.934 7      -698.613          44.000
E02  25093676.367 5 131868149.455 5     -1715.137          34.000    25093673.453 5 101041825.740 5     -1314.232          33.000
E07  26691186.836 7 140263112.401 7     -2315.098          47.000    26691190.164 8 107474344.697 8     -1773.867          48.000
E30  22219606.250 8 116764808.478 8       326.121          48.000    22219607.047 8  89469138.584 8       249.834          48.000
> 2020 05 09 10 01 30.0000000  0 15        .000000000000
G02  22927023.969 5 120482348.855 5       191.230          34.000
G12  20636423.977 8 108445140.318 8     -1483.051          50.000    20636422.656 8  84502694.079 8     -1155.624          50.000
G24  22623108.711 7 118885219.271 7     -3189.016          47.000    22623110.781 7  92637836.288 7     -2484.947          47.000
G25  20192505.281 7 106112334.554 7       414.867          44.000    20192507.219 7  82684940.417 7       323.273          43.000
G29  21634728.961 8 113691270.337 8      2735.176          51.000    21634726.656 8  88590594.504 8      2131.309          50.000
R15  19518618.570 8 104301584.930 8      -390.340          51.000    19518620.852 8  81123458.199 8      -303.601          48.000
R17  19502958.844 8 104364290.162 8       192.852          48.000    19502961.055 7  81172234.727 7       149.999          44.000
R18  21124819.016 7 112765810.688 7      3842.047          46.000    21124825.109 7  87706728.132 7      2988.259          46.000
R24  22152147.875 5 118457429.116 5     -3453.500          33.000    22152146.758 5  92133592.871 5     -2686.056          33.000
C23  25918474.062 5 134964283.064 5     -2880.852          35.000
C27  22697737.797 8 118193054.116 8      2427.312          51.000
C28  22219497.883 6 115702724.290 6      -719.066          38.000
E02  25103472.266 5 131919636.950 5     -1723.965          33.000
E07  26704415.805 7 140332630.406 7     -2326.258          46.000    26704419.422 8 107527611.716 8     -1782.499          48.000
E30  22217753.789 7 116755075.305 7       315.957          47.000    22217754.805 8  89461680.687 8       242.148          49.000
> 2020 05 09 10 02  0.0000000  0 14        .000000000000
G02  22925968.625 6 120476812.667 6       176.301          36.000
G12  20644904.984 8 108489708.308 8     -1490.289          49.000    20644903.719 8  84537422.373 8     -1161.264          49.000
G24  22641324.844 7 118980947.615 7     -3195.016          46.000    22641327.516 7  92712429.766 7     -2489.626          46.000
G25  20190157.883 7 106099997.776 7       405.641          43.000    20190160.109 7  82675327.301 7       316.081          44.000
G29  21619139.438 8 113609344.770 8      2724.477          51.000    21619137.906 8  88526756.452 8      2122.972          51.000
R15  19520837.906 8 104313444.102 8      -402.480          51.000    19520840.320 8  81132681.985 8      -313.043          48.000
R17  19501942.977 8 104358856.701 8       167.250          49.000    19501945.930 7  81168008.737 7       130.083          45.000
R18  21103255.812 8 112650707.702 8      3829.422          49.000    21103262.508 7  87617203.636 7      2978.442          47.000
R24  22171547.578 4 118561190.852 4     -3466.312          29.000    22171550.477 5  92214296.388 5     -2696.021          32.000
C23  25935072.148 5 135050716.778 5     -2882.848          34.000
C27  22683775.523 8 118120348.401 8      2417.562          51.000
C28  22223673.914 6 115724470.405 6      -733.027          40.000
E07  26717703.703 7 140402457.492 7     -2330.953          46.000    26717707.586 8 107581115.574 8     -1786.082          48.000
E30  22215953.258 8 116745614.735 8       312.520          48.000    22215954.633 8  89454431.665 8       239.511          49.000
> 2020 05 09 10 02 30.0000000  0 15        .000000000000
G12  20653444.695 8 108534585.164 8     -1501.906          48.000    20653443.633 8  84572391.351 8     -1170.314          48.000
G24  22659592.195 7 119076945.302 7     -3205.242          46.000    22659594.383 7  92787233.104 7     -2497.591          46.000
G25  20187880.125 7 106088028.727 7       392.020          42.000    20187882.539 7  82666000.772 7       305.470          42.000
G29  21603628.336 8 113527831.739 8      2709.453          51.000    21603628.094 8  88463239.814 8      2111.265          51.000
G32  22279474.172 6 117079425.262 6      -981.117          37.000    22279479.062 6  91230735.873 6      -764.501          37.000
R15  19523143.383 8 104325762.954 8      -419.109          51.000    19523145.742 8  81142263.312 8      -325.974          48.000
R17  19501088.633 8 104354284.449 8       137.219          50.000    19501091.500 7  81164452.547 7       106.726          45.000
R18  21081782.852 8 112536080.294 8      3812.250          50.000    21081788.930 7  87528049.018 7      2965.083          47.000
C23  25951698.477 5 135137295.922 5     -2889.305          30.000
C27  22669886.734 8 118048025.296 8      2403.590          51.000
C28  22227947.141 6 115746720.841 6      -751.016          41.000
E02  25123169.828 6 132023151.142 6     -1731.824          36.000
E07  26731035.461 7 140472514.531 7     -2339.781          47.000    26731038.859 8 107634795.624 8     -1792.727          48.000
E30  22214190.133 8 116736349.938 8       304.879          49.000    22214191.945 8  89447332.670 8       233.555          49.000
E36  25238078.625 5 132626934.695 5      -935.609          33.000
> 2020 05 09 10 03  0.0000000  0 15        .000000000000
G02  22924151.164 5 120467226.494 5       142.914          30.000
G12  20662025.984 8 108579680.163 8     -1507.953          49.000    20662025.109 8  84607530.315 8     -1175.028          49.000
G24  22677893.539 7 119173121.809 7     -3210.047          46.000    22677894.781 7  92862175.723 7     -2501.341          47.000
G25  20185655.188 7 106076337.605 7       384.082          42.000    20185656.812 7  82656890.842 7       299.285          42.000
G29  21588178.258 8 113446642.788 8      2699.754          49.000    21588179.594 8  88399975.685 8      2103.701          50.000
G32  22285110.977 6 117109031.534 6      -996.031          36.000    22285109.078 5  91253805.780 5      -776.125          34.000
R15  19525517.883 8 104338450.810 8      -430.316          51.000    19525519.656 8  81152131.647 8      -334.691          48.000
R17  19500378.195 8 104350481.639 8       112.746          50.000    19500380.727 7  81161494.822 7        87.691          46.000
R18  21060382.969 8 112421841.431 8      3800.266          50.000    21060387.859 7  87439196.624 7      2955.762          47.000
C23  25968335.180 4 135223930.710 4     -2889.582          29.000
C27  22656054.125 8 117975997.272 8      2394.836          50.000
C28  22232299.070 6 115769385.400 6      -763.418          40.000
E02  25133051.609 5 132075076.873 5     -1733.195          34.000
E07  26744393.383 7 140542709.719 7     -2343.344          46.000    26744395.969 8 107688581.509 8     -1795.519          48.000
E30  22212447.461 8 116727191.453 8       302.383          49.000    22212449.422 8  89440315.138 8       231.627          49.000
> 2020 05 09 10 03 30.0000000  0 15        .000000000000
G02  22923399.859 5 120463269.091 5       121.621          32.000    22923389.383 4  93867446.717 4        94.770          29.000
G06  23701590.469 5 124552692.247 5     -1277.980          35.000    23701596.758 6  97054065.639 6      -995.829          36.000
G12  20670676.773 8 108625139.904 8     -1522.125          48.000    20670675.953 8  84642953.495 8     -1186.071          48.000
G24  22696256.977 7 119269622.568 7     -3222.926          46.000    22696258.719 7  92937371.062 7     -2511.371          46.000
G25  20183511.250 7 106065071.920 7       368.016          43.000    20183512.469 7  82648112.392 7       286.765          42.000
G29  21572817.742 8 113365927.116 8      2681.941          48.000    21572820.328 8  88337080.320 8      2089.824          48.000
R15  19527989.672 8 104351658.594 8      -449.613          51.000    19527991.297 8  81162404.356 8      -349.699          48.000
R17  19499839.430 8 104347598.054 8        80.074          50.000    19499841.906 7  81159252.048 7        62.280          46.000
R18  21039083.961 8 112308144.479 8      3780.133          48.000    21039088.117 7  87350765.683 7      2940.106          47.000
C23  25985012.414 4 135310776.540 4     -2897.102          29.000
C27  22642306.328 8 117904412.001 8      2378.051          49.000
C28  22236758.070 7 115792609.066 7      -784.160          42.000
E02  25142972.523 5 132127204.175 5     -1741.559          33.000    25142982.156 5 101240369.652 5     -1334.468          33.000
E07  26757805.359 7 140613188.436 7     -2354.559          47.000    26757806.945 7 107742584.632 7     -1804.229          47.000
E30  22210753.297 8 116718287.083 8       291.918          49.000    22210755.031 8  89433492.305 8       223.674          50.000
> 2020 05 09 10 04  0.0000000  0 15        .000000000000
G02  22922732.852 5 120459770.974 5       110.281          31.000    22922736.477 5  93864773.069 5        85.933          31.000
G06  23708915.078 6 124591180.607 6     -1291.008          37.000    23708921.242 6  97084056.513 6     -1005.983          37.000
G12  20679369.172 8 108670818.238 8     -1526.215          49.000    20679368.367 8  84678547.017 8     -1189.258          49.000
G24  22714654.297 7 119366301.277 7     -3225.527          45.000    22714656.992 7  93012705.085 7     -2513.401          46.000
G25  20181420.734 7 106054086.330 7       361.488          44.000    20181422.391 7  82639552.188 7       281.679          44.000
G29  21557520.672 8 113285540.892 8      2674.074          51.000    21557522.312 8  88274441.714 8      2083.694          50.000
R14  22462676.906 5 119738693.704 5     -3050.953          30.000
R15  19530531.211 8 104365239.540 8      -458.840          51.000    19530533.109 8  81172967.285 8      -356.875          48.000
R17  19499444.875 8 104345485.315 8        57.648          51.000    19499447.266 7  81157608.802 7        44.838          47.000
R18  21017858.867 8 112194845.755 8      3770.078          48.000    21017863.211 7  87262644.466 7      2932.286          47.000
C23  26001700.109 5 135397669.096 5     -2897.426          31.000
C27  22628616.594 8 117833127.001 8      2371.133          50.000
C28  22241297.523 7 115816246.920 7      -794.797          44.000
E07  26771243.148 8 140683803.421 8     -2355.930          48.000    26771244.047 7 107796692.165 7     -1805.151          47.000
E30  22209079.875 8 116709491.916 8       291.359          50.000    22209081.352 8  89426753.153 8       223.315          50.000
> 2020 05 09 10 04 30.0000000  0 16        .000000000000
G02  22922144.734 5 120456686.566 5        95.922          34.000    22922143.094 5  93862346.522 5        74.735          30.000
G06  23716327.250 5 124630130.504 5     -1306.113          33.000    23716332.430 5  97114407.052 5     -1017.751          33.000
G12  20688097.734 8 108716686.294 8     -1532.219          48.000    20688096.773 8  84714288.360 8     -1193.937          48.000
G24  22733079.570 7 119463127.271 7     -3230.164          45.000    22733083.312 7  93088153.898 7     -2517.011          45.000
G25  20179378.305 7 106043352.622 7       353.418          43.000    20179380.523 7  82631188.256 7       275.391          44.000
G29  21542281.938 8 113205457.588 8      2664.289          51.000    21542281.234 8  88212039.207 8      2076.072          51.000
G32  22302653.711 6 117201231.694 6     -1046.980          36.000    22302652.992 6  91325641.164 6      -815.820          36.000
R15  19533137.469 8 104379165.772 8      -470.109          51.000    19533139.469 8  81183798.809 8      -365.641          48.000
R17  19499188.867 8 104344114.289 8        33.152          51.000    19499191.367 7  81156542.471 7        25.785          47.000
R18  20996703.945 8 112081920.169 8      3757.840          50.000    20996708.273 7  87174813.493 7      2922.764          47.000
C23  26018393.820 5 135484589.303 5     -2898.000          31.000
C27  22614979.914 8 117762115.851 8      2362.324          51.000
C28  22245911.172 7 115840269.863 7      -807.332          44.000
E02  25162836.562 5 132231599.067 5     -1741.699          35.000    25162846.031 6 101320347.656 6     -1334.330          38.000
E07  26784701.070 7 140754524.439 7     -2359.203          47.000    26784701.719 7 107850880.956 7     -1807.701          47.000
E30  22207421.742 8 116700778.098 8       288.980          50.000    22207423.125 8  89420076.331 8       221.448          50.000
> 2020 05 09 10 05  0.0000000  0 15        .000000000000
G02  22921675.094 4 120454225.331 4        73.754          29.000    22921673.156 3  93860428.645 3        57.471          20.000
G12  20696900.359 8 108762943.951 8     -1547.012          49.000    20696899.211 8  84750333.286 8     -1205.464          49.000
G24  22751570.570 7 119560299.431 7     -3243.340          45.000    22751574.953 7  93163872.481 7     -2527.278          45.000
G25  20177421.766 7 106033071.461 7       336.566          44.000    20177424.312 7  82623176.974 7       262.260          43.000
G29  21527139.445 8 113125879.315 8      2645.668          51.000    21527137.633 8  88150030.242 8      2061.559          51.000
G32  22308710.008 6 117233064.895 6     -1070.418          37.000    22308706.367 6  91350446.316 6      -834.083          36.000
R15  19535846.469 8 104393642.069 8      -490.227          51.000    19535848.672 8  81195058.124 8      -381.287          48.000
R17  19499109.664 8 104343688.748 8         -.117          51.000    19499111.789 7  81156211.499 7         -.091          47.000
R18  20975658.562 8 111969575.720 8      3736.504          51.000    20975662.461 7  87087434.512 7      2906.170          47.000
C23  26035131.094 4 135571735.405 4     -2906.871          29.000
C27  22601434.672 8 117691578.859 8      2344.746          51.000
C28  22250636.789 7 115864875.523 7      -828.512          47.000
E02                                                                  25172830.961 6 101360547.895 6     -1341.798          38.000
E07  26798216.750 8 140825550.108 8     -2371.082          48.000    26798217.375 7 107905303.200 7     -1816.779          47.000
E30  22205817.281 8 116692346.624 8       277.742          51.000    22205818.695 8  89413615.843 8       212.836          50.000
> 2020 05 09 10 05 30.0000000  0 14        .000000000000
G02  22921305.094 5 120452270.746 5        58.762          32.000    22921304.469 4  93858905.257 4        45.801          29.000
G12  20705756.648 8 108809484.149 8     -1553.445          48.000    20705755.352 8  84786598.347 8     -1210.477          49.000
G24  22770106.914 7 119657709.945 7     -3248.453          45.000    22770111.797 7  93239776.774 7     -2531.259          45.000
G25  20175531.164 7 106023136.824 7       327.859          44.000    20175533.562 7  82615435.672 7       255.472          44.000
G29  21512072.828 8 113046701.583 8      2635.094          51.000    21512071.305 8  88088333.358 8      2053.320          51.000
G32  22314872.859 6 117265444.884 6     -1085.891          36.000    22314865.414 5  91375677.476 5      -846.149          35.000
R15  19538638.445 8 104408561.516 8      -502.137          51.000    19538640.414 8  81206662.139 8      -390.548          48.000
R17  19499186.695 8 104344100.278 8       -25.117          51.000    19499188.867 7  81156531.586 7       -19.536          47.000
R18  20954702.750 8 111857708.404 8      3723.473          51.000    20954705.992 7  87000426.630 7      2896.037          46.000
C27  22587960.320 8 117621412.407 8      2335.164          51.000
C28  22255453.992 8 115889957.723 8      -841.609          48.000
E02                                                                  25182836.227 6 101400848.490 6     -1343.118          36.000
E07  26811769.891 8 140896772.388 8     -2374.805          48.000    26811770.461 8 107959876.098 8     -1819.632          48.000
E30  22204246.414 8 116684091.813 8       274.707          51.000    22204248.008 8  89407290.720 8       210.544          51.000
> 2020 05 09 10 06  0.0000000  0 16        .000000000000
G06  23739230.953 5 124750492.226 5     -1362.105          34.000    23739237.297 5  97208195.631 5     -1061.372          34.000
G12  20714641.734 8 108856175.981 8     -1561.094          48.000    20714640.195 8  84822981.584 8     -1216.440          48.000
G24  22788663.750 7 119755227.179 7     -3254.555          45.000    22788668.711 7  93315764.237 7     -2536.017          45.000
G25  20173681.969 7 106013418.545 7       318.082          44.000    20173683.859 7  82607862.969 7       247.856          43.000
G29  21497057.141 8 112967795.691 8      2623.473          50.000    21497056.695 8  88026848.237 8      2044.264          50.000
G32  22321115.102 4 117298239.715 4     -1101.555          29.000    22321108.891 4  91401231.978 4      -858.342          28.000
R15  19541488.555 8 104423792.542 8      -515.051          51.000    19541490.625 8  81218508.472 8      -400.595          48.000
R17  19499395.164 8 104345215.604 8       -51.148          51.000    19499397.336 7  81157399.086 7       -39.779          47.000
R18  20933811.648 8 111746189.787 8      3709.062          49.000    20933814.688 7  86913689.938 7      2884.826          46.000
R24  22329728.461 6 119407075.587 6     -3578.613          36.000    22329736.609 4  92872207.453 4     -2783.366          28.000
C23  26068642.602 5 135746257.072 5     -2910.461          31.000
C27  22574532.070 8 117551489.045 8      2324.531          51.000
C28  22260337.398 7 115915386.309 7      -855.441          47.000
E02                                                                  25192843.180 6 101441149.660 6     -1344.998          38.000
E07  26825335.383 8 140968059.100 8     -2379.379          48.000    26825336.250 8 108014498.350 8     -1823.223          48.000
E30  22202684.336 8 116675883.884 8       270.605          51.000    22202686.273 8  89401001.534 8       207.341          51.000
> 2020 05 09 10 06 30.0000000  0 15        .000000000000
G06  23747118.094 6 124791929.425 6     -1384.246          38.000    23747125.898 6  97240484.246 6     -1078.639          36.000
G12  20723637.258 8 108903448.622 8     -1573.656          48.000    20723635.297 8  84859817.399 8     -1226.226          48.000
G24  22807322.648 7 119853279.092 7     -3265.473          45.000    22807327.375 7  93392168.299 7     -2544.524          45.000
G25  20171955.602 7 106004346.496 7       303.031          43.000    20171957.016 7  82600793.824 7       236.128          43.000
G29  21482174.898 8 112889593.150 8      2606.781          50.000    21482175.633 8  87965911.148 8      2031.258          50.000
R15  19544479.086 8 104439773.243 8      -533.254          51.000    19544481.258 8  81230937.890 8      -414.753          48.000
R17  19499816.734 8 104347472.043 8       -82.238          51.000    19499818.773 7  81159154.083 7       -63.963          47.000
R18  20913067.852 8 111635460.501 8      3689.801          50.000    20913071.242 7  86827567.176 7      2869.845          45.000
R24  22349902.344 6 119514954.720 6     -3596.168          38.000    22349907.344 4  92956113.448 4     -2797.020          24.000
C23  26085477.508 5 135833929.026 5     -2917.832          31.000
C27  22561232.273 8 117482236.264 8      2308.750          51.000
C28  22265369.039 8 115941586.139 8      -874.520          48.000
E02                                                                  25202935.828 6 101481780.708 6     -1350.927          39.000
E07  26838994.445 8 141039838.173 8     -2389.090          48.000    26838995.852 8 108069497.843 8     -1830.622          48.000
E30  22201213.039 8 116668153.113 8       261.477          51.000    22201215.422 8  89395077.950 8       200.370          51.000
> 2020 05 09 10 07  0.0000000  0 17        .000000000000
G06  23755020.328 5 124833452.483 5     -1391.230          34.000    23755024.133 5  97272839.753 5     -1084.076          32.000
G12  20732597.922 7 108950537.692 7     -1572.590          47.000    20732596.078 7  84896510.166 7     -1225.395          47.000
G24  22825937.766 7 119951100.443 7     -3262.977          46.000    22825941.922 7  93468392.717 7     -2542.579          46.000
G25  20170206.828 7 105995157.227 7       302.266          44.000    20170208.102 7  82593633.361 7       235.532          43.000
G29  21467282.250 8 112811331.985 8      2603.594          51.000    21467282.961 8  87904928.438 8      2028.777          51.000
G32  22333934.133 5 117365607.620 5     -1131.434          33.000    22333939.469 5  91453742.949 5      -881.637          34.000
R15  19547464.680 8 104455728.165 8      -537.609          51.000    19547466.938 8  81243347.241 8      -418.141          48.000
R17  19500305.828 8 104350091.529 8       -99.465          50.000    19500308.438 7  81161191.482 7       -77.362          47.000
R18  20892327.898 8 111524748.618 8      3683.785          51.000    20892331.195 7  86741457.946 7      2865.166          45.000
R24  22370067.375 6 119622782.426 6     -3599.281          37.000
C23  26102247.930 5 135921259.388 5     -2912.086          31.000
C27  22547916.492 8 117412899.099 8      2306.617          51.000
C28  22270403.469 8 115967799.622 8      -879.922          48.000
E02                                                                  25212964.922 5 101522156.902 5     -1346.345          35.000
E07  26852601.336 8 141111344.106 8     -2384.863          48.000    26852603.523 8 108124288.069 8     -1827.420          48.000
E30  22199687.461 8 116660136.505 8       265.945          51.000    22199690.195 8  89388935.343 8       203.797          51.000
E36  25289290.781 5 132896080.197 5     -1049.801          33.000
> 2020 05 09 10 07 30.0000000  0 16        .000000000000
G02  22920784.062 5 120449570.997 5       -24.219          35.000
G12  20741680.375 7 108998266.095 7     -1604.996          47.000    20741679.062 7  84933701.106 7     -1250.649          46.000
G24  22844665.414 7 120049512.890 7     -3293.664          47.000    22844668.742 7  93545077.673 7     -2566.495          47.000
G25  20168592.562 7 105986674.207 7       267.613          45.000    20168593.812 7  82587023.195 7       208.527          44.000
G29  21452535.820 8 112733837.006 8      2566.973          51.000    21452535.656 8  87844542.780 8      2000.241          51.000
R14  22583989.820 5 120385357.565 5     -3120.215          31.000    22583991.109 5  93633069.338 5     -2426.840          31.000
R15  19550602.391 8 104472495.227 8      -575.879          51.000    19550604.461 8  81256388.275 8      -447.906          48.000
R17  19501019.539 8 104353911.757 8      -150.742          50.000    19501022.211 7  81164162.772 7      -117.244          47.000
R18  20871748.898 8 111414894.334 8      3644.047          51.000    20871751.953 7  86656015.774 7      2834.262          46.000
R24  22390377.398 5 119731392.560 5     -3636.641          35.000
C27  22534741.328 8 117344294.820 8      2271.285          50.000
C28  22275596.578 8 115994841.371 8      -918.578          48.000
E02  25223095.195 5 132548258.773 5     -1784.016          31.000    25223085.477 5 101562912.154 5     -1367.470          32.000
E07  26866312.500 8 141183398.232 8     -2414.238          48.000    26866315.648 8 108179498.350 8     -1849.943          48.000
E30  22198264.414 8 116652657.730 8       236.938          51.000    22198267.109 8  89383204.851 8       181.541          51.000
E36  25295405.070 5 132928250.436 5     -1087.113          30.000
> 2020 05 09 10 08  0.0000000  0 17        .000000000000
G02  22920926.539 5 120450343.420 5       -26.160          34.000
G06  23771279.734 5 124918919.228 5     -1434.734          33.000    23771282.391 5  97339423.806 5     -1117.975          33.000
G12  20750827.117 7 109046331.854 7     -1598.418          47.000    20750825.938 7  84971154.940 7     -1245.520          47.000
G24  22863448.172 8 120148214.088 8     -3285.613          48.000    22863450.344 8  93621987.623 8     -2560.221          48.000
G25  20167055.477 7 105978596.470 7       271.844          44.000    20167056.883 7  82580728.839 7       211.826          44.000
G29  21437878.109 8 112656808.861 8      2569.047          51.000    21437877.031 8  87784520.918 8      2001.858          51.000
G32  22347206.281 5 117435360.738 5     -1173.457          32.000
R14  22601531.289 4 120478856.122 4     -3112.258          29.000    22601531.734 5  93705790.367 5     -2420.651          33.000
R15  19553834.984 8 104489769.473 8      -574.836          51.000    19553837.234 8  81269823.780 8      -447.095          48.000
R17  19501900.469 8 104358625.615 8      -162.531          50.000    19501903.016 7  81167829.110 7      -126.413          47.000
R18  20851273.734 8 111305595.702 8      3643.414          50.000    20851276.922 7  86571005.757 7      2833.770          47.000
R24  22410776.602 5 119840474.984 5     -3634.609          33.000
C27  22521649.820 8 117276126.741 8      2274.152          49.000
C28  22280891.391 7 116022412.076 7      -918.750          47.000
E02                                                                  25233245.156 5 101603809.702 5     -1358.526          35.000
E07  26880070.531 8 141255697.708 8     -2404.902          48.000    26880074.703 8 108234896.617 8     -1842.678          49.000
E30  22196886.500 8 116645416.335 8       246.641          51.000    22196888.977 8  89377656.242 8       188.957          51.000
> 2020 05 09 10 08 30.0000000  0 16        .000000000000
G02  22921110.305 6 120451317.601 6       -40.176          38.000
G06  23779514.328 6 124962184.279 6     -1450.117          36.000    23779517.094 5  97373136.795 5     -1129.961          35.000
G12  20759966.305 7 109094358.126 7     -1604.672          47.000    20759965.148 8  85008577.997 8     -1250.394          48.000
G24  22882213.828 7 120246826.178 7     -3290.148          46.000    22882214.781 7  93698828.123 7     -2563.758          46.000
G25  20165523.969 7 105970548.112 7       263.316          45.000    20165525.750 7  82574457.399 7       205.185          45.000
G29  21423237.500 8 112579873.119 8      2558.449          50.000    21423236.281 8  87724571.044 8      1993.597          50.000
R14  22619051.516 5 120572278.926 5     -3116.312          32.000    22619054.195 4  93778450.485 4     -2423.799          29.000
R15  19557090.820 8 104507169.265 8      -586.688          51.000    19557093.484 8  81283356.933 8      -456.312          48.000
R17  19502876.797 8 104363849.587 8      -187.172          50.000    19502879.062 7  81171892.200 7      -145.578          47.000
R18  20830831.289 8 111196474.918 8      3629.785          49.000    20830835.047 8  86486134.074 8      2823.166          48.000
R24  22431191.344 5 119949642.741 5     -3644.875          34.000
C27  22508571.359 8 117208023.801 8      2264.566          50.000
C28  22286216.016 7 116050137.990 7      -931.242          46.000
E02                                                                  25243370.148 5 101644564.629 5     -1359.293          30.000
E07  26893803.523 8 141327864.576 8     -2407.801          48.000    26893808.484 8 108290193.273 8     -1844.860          50.000
E30  22195482.156 8 116638036.767 8       243.918          51.000    22195484.477 8  89372001.769 8       186.838          51.000
> 2020 05 09 10 09  0.0000000  0 15        .000000000000
G02  22921465.695 6 120453190.505 6       -64.699          37.000
G06  23787923.898 5 125006372.743 5     -1475.836          35.000    23787928.797 5  97407569.297 5     -1149.999          35.000
G12  20769230.320 7 109143040.836 7     -1620.949          46.000    20769229.141 7  85046512.564 7     -1263.077          46.000
G24  22901094.461 7 120346044.060 7     -3304.676          47.000    22901094.344 7  93776140.662 7     -2575.075          47.000
G25  20164130.664 7 105963225.587 7       244.695          46.000    20164132.641 7  82568751.535 7       190.672          45.000
G29  21408746.867 8 112503727.909 8      2537.590          50.000    21408746.625 8  87665237.118 8      1977.343          50.000
R15  19560502.914 8 104525403.550 8      -608.848          51.000    19560505.969 8  81297539.138 8      -473.548          49.000
R17  19504080.945 8 104370292.189 8      -222.105          51.000    19504082.938 7  81176903.116 7      -172.749          47.000
R18  20810555.797 8 111088243.154 8      3605.734          51.000    20810559.531 8  86401953.842 8      2804.460          48.000
R24  22451754.180 5 120059600.476 5     -3665.688          35.000    22451764.148 4  93379744.808 4     -2851.090          24.000
C23  26169822.758 5 136273154.331 5     -2938.051          32.000
C27  22495638.359 8 117140677.607 8      2244.773          50.000
C28  22291702.688 7 116078708.054 7      -953.746          46.000
E07  26907643.477 8 141400593.264 8     -2420.926          48.000    26907648.914 8 108345920.421 8     -1855.076          50.000
E30  22194184.000 8 116631215.931 8       230.711          51.000    22194186.273 8  89366775.410 8       176.725          51.000
> 2020 05 09 10 09 30.0000000  0 15        .000000000000
G02  22921871.805 5 120455326.918 5       -80.961          34.000    22921872.500 5  93861236.003 5       -63.086          31.000
G06  23796387.547 6 125050848.110 6     -1492.301          36.000    23796394.594 6  97442225.428 6     -1162.835          36.000
G12  20778498.156 7 109191743.835 7     -1628.953          47.000    20778496.820 7  85084462.959 7     -1269.314          47.000
G24  22919969.117 7 120445230.869 7     -3310.895          47.000    22919969.156 7  93853429.008 7     -2579.921          47.000
G25  20162754.656 7 105955993.921 7       234.238          46.000    20162756.578 7  82563116.475 7       182.526          46.000
G29  21394286.484 8 112427739.453 8      2524.977          51.000    21394286.922 8  87606025.326 8      1967.514          51.000
R15  19563950.977 8 104543827.706 8      -622.699          51.000    19563954.133 8  81311869.044 8      -484.319          49.000
R17  19505391.695 8 104377305.639 8      -248.723          51.000    19505393.648 7  81182358.036 7      -193.451          47.000
R18  20790327.125 8 110980258.851 8      3589.891          51.000    20790330.500 8  86317966.065 8      2792.140          49.000
R24  22472343.641 6 120169697.924 6     -3677.922          36.000    22472353.180 4  93465375.143 4     -2860.606          27.000
C23  26186749.086 5 136361285.760 5     -2940.496          32.000
C27  22482729.625 8 117073460.296 8      2233.176          50.000
C28  22297230.312 7 116107491.820 7      -968.297          44.000
E07  26921469.062 7 141473246.746 7     -2425.691          47.000    26921474.758 8 108401589.940 8     -1858.650          49.000
E30  22192871.320 8 116624319.189 8       225.883          51.000    22192873.602 8  89361490.877 8       173.166          51.000
> 2020 05 09 10 10  0.0000000  0 15        .000000000000
G02  22922376.344 5 120457979.982 5       -99.723          34.000    22922376.906 4  93863310.376 4       -77.691          29.000
G06  23804953.656 6 125095861.984 6     -1512.543          37.000    23804960.883 6  97477301.169 6     -1178.605          37.000
G12  20787818.039 8 109240719.708 8     -1639.906          48.000    20787816.406 8  85122625.982 8     -1277.849          48.000
G24  22938885.562 7 120544637.475 7     -3319.879          47.000    22938885.867 7  93930888.650 7     -2586.919          47.000
G25  20161444.211 7 105949106.114 7       221.117          47.000    20161445.680 7  82557749.367 7       172.299          47.000
G29  21379904.898 8 112352162.441 8      2509.602          51.000    21379905.430 8  87547134.148 8      1955.534          51.000
G32  22374911.664 5 117580964.434 5     -1250.016          35.000    22374910.609 5  91621520.298 5      -974.038          35.000
R15  19567482.500 8 104562699.576 8      -639.387          50.000    19567485.617 8  81326547.169 8      -497.301          49.000
R17  19506857.102 8 104385146.760 8      -277.922          51.000    19506858.469 7  81188456.667 7      -216.164          47.000
R18  20770193.484 8 110872782.825 8      3571.188          50.000    20770196.875 8  86234373.639 8      2777.590          48.000
R24  22493006.047 5 120280188.621 5     -3692.398          34.000
C27  22469893.398 8 117006624.010 8      2218.809          49.000
C28  22302846.781 7 116136738.740 7      -985.410          43.000
E07  26935328.156 8 141546076.049 8     -2433.297          48.000    26935333.711 8 108457394.191 8     -1864.399          48.000
E30  22191592.531 8 116617599.985 8       218.262          51.000    22191594.836 8  89356342.387 8       167.284          51.000
> 2020 05 09 10 10 30.0000000  0 16        .000000000000
G02  22922996.094 6 120461234.345 6      -116.266          37.000    22922995.398 5  93865846.247 5       -90.603          30.000
G06  23813638.086 6 125141497.569 6     -1529.570          36.000    23813644.406 6  97512861.335 6     -1191.873          37.000
G12  20797205.703 7 109290052.062 7     -1648.320          47.000    20797203.914 7  85161066.771 7     -1284.405          47.000
G24  22957859.695 8 120644347.126 8     -3326.578          48.000    22957860.547 8  94008584.468 8     -2592.142          48.000
G25  20160215.156 7 105942646.827 7       210.277          47.000    20160216.477 7  82552716.158 7       163.852          47.000
G29  21365618.094 8 112277082.607 8      2496.434          51.000    21365618.609 8  87488630.383 8      1945.273          51.000
G32  22382096.500 5 117618706.647 5     -1266.809          33.000    22382103.148 5  91650949.832 5      -987.130          34.000
R15  19571114.180 8 104582106.135 8      -653.680          51.000    19571117.258 8  81341641.149 8      -508.418          49.000
R17  19508493.070 8 104393900.952 8      -304.938          51.000    19508494.422 7  81195265.502 7      -237.174          47.000
R18  20750171.273 8 110765904.410 8      3554.719          48.000    20750174.828 7  86151246.056 7      2764.784          47.000
R24  22513756.859 5 120391154.598 5     -3704.949          32.000
C23  26220679.078 5 136537956.224 5     -2948.941          31.000
C27  22457146.695 8 116940254.008 8      2206.645          49.000
C28  22308568.203 7 116166531.444 7     -1000.082          43.000
E07  26949236.523 8 141619163.763 8     -2438.371          49.000    26949241.578 8 108513396.447 8     -1868.416          48.000
E30  22190363.812 8 116611143.322 8       212.969          51.000    22190366.055 8  89351395.078 8       163.208          51.000
> 2020 05 09 10 11  0.0000000  0 15        .000000000000
G02  22923689.531 6 120464876.441 6      -125.828          37.000    22923686.094 3  93868684.158 3       -98.057          22.000
G06  23822399.570 5 125187539.562 5     -1539.543          35.000    23822405.281 6  97548738.171 6     -1199.644          37.000
G12  20806620.453 7 109339526.787 7     -1649.469          46.000    20806618.742 7  85199618.482 7     -1285.303          46.000
G24  22976850.461 8 120744144.196 8     -3325.887          48.000    22976851.680 8  94086348.352 8     -2591.600          48.000
G25  20159026.867 8 105936402.289 8       206.727          48.000    20159028.383 8  82547850.267 8       161.083          48.000
G29  21351385.359 8 112202287.739 8      2490.469          51.000    21351385.992 8  87430348.702 8      1940.625          51.000
R15  19574805.461 8 104601830.620 8      -660.699          51.000    19574808.328 8  81356982.421 8      -513.877          50.000
R17  19510258.625 8 104403349.406 8      -324.383          51.000    19510260.109 7  81202614.294 7      -252.298          47.000
R18  20730220.820 8 110659410.552 8      3545.469          48.000    20730224.430 7  86068417.520 7      2757.584          46.000
R24  22534555.422 5 120502374.125 5     -3709.887          32.000
C23  26237659.594 4 136626378.634 4     -2944.664          28.000
C27  22444450.242 8 116874139.893 8      2201.586          50.000
C28  22314353.812 7 116196656.779 7     -1007.449          43.000
E07  26963153.047 8 141692294.106 8     -2436.352          49.000    26963157.766 8 108569431.333 8     -1866.716          48.000
E30  22189144.555 8 116604735.876 8       214.824          51.000    22189146.602 8  89346485.473 8       164.582          51.000
> 2020 05 09 10 11 30.0000000  0 13        .000000000000
G06  23831270.070 6 125234154.896 6     -1567.625          36.000    23831275.148 6  97585061.797 6     -1221.526          36.000
G12  20816094.164 7 109389311.084 7     -1668.973          46.000    20816092.781 7  85238411.429 7     -1300.501          46.000
G24  22995889.844 8 120844195.278 8     -3343.590          49.000    22995890.711 8  94164310.196 8     -2605.398          49.000
G25  20157911.555 8 105930540.944 8       184.785          48.000    20157913.227 8  82543282.984 8       143.988          48.000
G29  21337238.898 8 112127947.736 8      2466.207          51.000    21337239.523 8  87372421.467 8      1921.720          51.000
R15  19578588.484 8 104622045.327 8      -686.305          51.000    19578591.359 8  81372704.957 8      -533.793          50.000
R17  19512185.781 8 104413662.636 8      -362.477          51.000    19512187.641 8  81210635.707 8      -281.926          48.000
R18  20710375.156 8 110553476.358 8      3517.488          49.000    20710379.148 7  85986024.247 7      2735.824          45.000
R24  22555433.477 5 120614014.591 5     -3732.934          30.000
C27  22431835.805 8 116808449.993 8      2178.441          51.000
C28  22320235.070 7 116227280.493 7     -1033.281          43.000
E07  26977109.188 8 141765633.479 8     -2452.410          48.000    26977114.141 8 108625626.375 8     -1879.015          48.000
E30  22187966.852 8 116598546.509 8       198.508          51.000    22187968.648 8  89341742.971 8       152.058          51.000
> 2020 05 09 10 12  0.0000000  0 17        .000000000000
G02  22925418.609 6 120473904.813 6      -168.082          37.000
G06  23840272.781 6 125281463.378 6     -1582.715          36.000    23840276.922 6  97621925.510 6     -1233.284          37.000
G12  20825649.656 7 109439525.886 7     -1675.246          45.000    20825648.977 7  85277539.826 7     -1305.387          45.000
G24  23015000.602 8 120944620.145 8     -3347.895          50.000    23015001.336 8  94242563.284 8     -2608.752          50.000
G25  20156892.211 8 105925184.026 8       176.004          48.000    20156893.797 8  82539108.784 8       137.149          48.000
G29  21323202.047 8 112054185.618 8      2454.883          50.000    21323202.586 8  87314944.524 8      1912.896          50.000
G32  22404223.930 5 117734989.395 5     -1318.750          35.000    22404225.055 5  91741546.973 5     -1027.585          34.000
R15  19582486.336 8 104642874.222 8      -698.641          51.000    19582489.180 8  81388905.207 8      -543.387          50.000
R17  19514297.586 8 104424963.256 8      -387.168          51.000    19514299.328 7  81219425.072 7      -301.134          47.000
R18  20690658.734 8 110448228.162 8      3502.730          51.000    20690662.711 7  85904164.562 7      2724.349          46.000
R24  22576412.469 5 120726219.177 5     -3742.047          30.000
C23  26271724.773 4 136803752.747 4     -2959.598          28.000
C27  22419326.312 8 116743305.800 8      2168.180          51.000
C28  22326234.906 6 116258521.353 6     -1045.859          41.000
E02                                                                  25315155.688 5 101933632.690 5     -1388.230          34.000
E07  26991127.586 7 141839301.124 7     -2455.168          47.000    26991133.195 8 108682072.974 8     -1881.286          48.000
E30  22186853.781 8 116592696.875 8       195.199          51.000    22186855.430 8  89337260.778 8       149.592          51.000
> 2020 05 09 10 12 30.0000000  0 17        .000000000000
G02  22926440.234 5 120479240.144 5      -184.379          34.000
G06  23849352.695 5 125329176.162 5     -1599.312          34.000    23849355.562 5  97659104.267 5     -1246.221          34.000
G12  20835232.242 7 109489882.974 7     -1683.277          44.000    20835231.742 7  85316779.083 7     -1311.645          45.000
G24  23034127.734 8 121045129.845 8     -3353.895          50.000    23034128.438 8  94320882.484 8     -2613.424          50.000
G25  20155914.211 8 105920044.411 8       165.449          48.000    20155915.508 8  82535103.904 8       128.925          48.000
G29  21309220.789 8 111980715.013 8      2441.875          50.000    21309221.156 8  87257694.708 8      1902.760          50.000
G32  22411796.781 5 117774786.440 5     -1335.207          34.000    22411797.023 5  91772557.668 5     -1040.421          34.000
R14  22761083.781 5 121329369.223 5     -3184.609          34.000
R15  19586444.688 8 104664025.878 8      -712.719          51.000    19586447.578 8  81405356.467 8      -554.337          50.000
R17  19516538.859 8 104436957.455 8      -413.570          51.000    19516540.820 8  81228753.904 8      -321.663          48.000
R18  20671016.945 8 110343378.085 8      3486.000          51.000    20671021.242 7  85822614.587 7      2711.336          47.000
R24  22597436.867 5 120838643.804 5     -3754.043          32.000
C27  22406867.008 8 116678424.114 8      2156.168          51.000
C28  22332297.516 6 116290093.493 6     -1059.949          38.000
E02  25325499.938 5 133086403.092 5     -1814.848          30.000    25325505.805 6 101975296.900 6     -1390.645          37.000
E07  27005153.211 7 141913007.834 7     -2459.711          47.000    27005159.555 7 108738549.517 7     -1884.785          47.000
E30  22185750.828 8 116586900.227 8       190.070          51.000    22185752.273 8  89332819.194 8       145.644          51.000
> 2020 05 09 10 13  0.0000000  0 14        .000000000000
G06  23858538.492 6 125377444.048 6     -1612.500          36.000    23858541.328 6  97696715.600 6     -1256.494          36.000
G12  20844870.820 7 109540533.882 7     -1688.555          43.000    20844870.125 7  85356247.325 7     -1315.757          43.000
G24  23053299.492 8 121145874.805 8     -3357.309          50.000    23053300.430 8  94399385.014 8     -2616.085          50.000
G25  20155006.523 8 105915274.540 8       157.500          49.000    20155007.680 8  82531387.121 8       122.727          49.000
G29  21295324.672 8 111907689.929 8      2431.496          51.000    21295324.766 8  87200792.039 8      1894.672          51.000
R15  19590492.562 8 104685656.169 8      -724.188          51.000    19590495.367 8  81422180.004 8      -563.257          50.000
R17  19518938.578 8 104449799.582 8      -437.281          51.000    19518940.977 7  81238742.229 7      -340.108          47.000
R18  20651479.695 8 110239084.543 8      3471.938          51.000    20651483.805 7  85741497.463 7      2700.399          46.000
R24  22618535.414 5 120951463.325 5     -3762.180          33.000
C27  22394486.969 8 116613957.384 8      2146.641          51.000
C28  22338453.422 6 116322146.764 6     -1071.613          38.000
E02  25335875.602 5 133140926.171 5     -1815.535          32.000    25335881.180 5 102017079.654 5     -1391.035          34.000
E07  27019214.883 7 141986904.058 7     -2461.598          46.000    27019221.375 7 108795171.248 7     -1886.195          45.000
E30  22184687.055 8 116581309.416 8       187.684          51.000    22184688.242 8  89328535.328 8       143.812          51.000
> 2020 05 09 10 13 30.0000000  0 16        .000000000000
G02  22928735.984 6 120491309.450 6      -225.629          36.000
G06  23867809.727 5 125426166.032 5     -1642.148          34.000    23867813.844 5  97734680.743 5     -1279.599          33.000
G12  20854546.219 7 109591378.808 7     -1708.402          43.000    20854545.578 7  85395866.731 7     -1331.220          43.000
G24  23072496.344 8 121246753.591 8     -3374.953          48.000    23072497.602 8  94477991.814 8     -2629.837          48.000
G25  20154150.078 8 105910774.718 8       135.336          48.000    20154151.227 8  82527880.745 8       105.454          48.000
G29  21281494.711 8 111835012.199 8      2406.559          51.000    21281494.742 8  87144160.057 8      1875.240          51.000
G32  22427243.977 5 117855964.332 5     -1377.086          32.000    22427231.484 5  91835753.771 5     -1073.060          32.000
R15  19594611.172 8 104707664.505 8      -750.285          51.000    19594613.828 8  81439297.574 8      -583.555          50.000
R17  19521477.594 8 104463386.773 8      -475.703          50.000    19521479.914 7  81249310.031 7      -369.991          47.000
R18  20632028.133 8 110135249.780 8      3443.172          51.000    20632031.594 7  85660737.185 7      2678.026          45.000
R24  22639687.375 5 121064572.189 5     -3785.848          32.000    22639691.539 4  94161359.541 4     -2944.548          28.000
C27  22382167.656 8 116549808.137 8      2122.961          51.000
C28  22344682.148 6 116354581.009 6     -1097.730          36.000
E02                                                                  25346267.102 5 102058904.652 5     -1402.564          34.000
E07  27033293.250 7 142060888.121 7     -2477.852          46.000    27033299.320 7 108851860.285 7     -1898.587          45.000
E30  22183643.547 8 116575825.211 8       170.828          51.000    22183644.500 8  89324333.151 8       130.810          51.000
> 2020 05 09 10 14  0.0000000  0 14        .000000000000
G06  23877208.492 5 125475560.682 5     -1654.027          33.000    23877214.641 5  97773170.058 5     -1288.856          33.000
G12  20864300.117 6 109642636.953 6     -1712.625          41.000    20864299.469 6  85435808.112 6     -1334.513          41.000
G24  23091759.695 7 121347984.649 7     -3377.266          47.000    23091761.539 7  94556873.121 7     -2631.636          47.000
G25  20153386.906 7 105906765.298 7       128.211          47.000    20153388.078 7  82524756.523 7        99.905          47.000
G29  21267772.859 8 111762903.490 8      2396.902          51.000    21267773.070 8  87087971.485 8      1867.716          51.000
G32  22435129.266 5 117897399.720 5     -1389.691          31.000    22435119.289 5  91868046.338 5     -1082.889          30.000
R15  19598842.688 8 104730275.667 8      -760.906          51.000    19598845.203 8  81456884.019 8      -591.816          49.000
R17  19524197.531 8 104477942.285 8      -498.434          50.000    19524199.883 7  81260630.990 7      -387.671          47.000
R18  20612704.648 8 110032101.426 8      3429.641          50.000    20612708.062 7  85580510.773 7      2667.498          46.000
C27  22369951.734 8 116486196.082 8      2114.191          51.000
C28  22351026.234 6 116387613.342 6     -1108.555          37.000
E02                                                                  25356707.789 5 102100940.671 5     -1402.471          35.000
E07  27047430.133 7 142135178.314 7     -2478.617          47.000    27047434.969 7 108908783.906 7     -1899.257          45.000
E30  22182662.289 8 116570668.428 8       169.234          51.000    22182663.180 8  89320381.848 8       129.682          51.000
> 2020 05 09 10 14 30.0000000  0 15        .000000000000
G06  23886717.398 5 125525548.175 5     -1690.438          33.000    23886725.586 5  97812108.749 5     -1317.230          32.000
G12  20874114.680 7 109694212.737 7     -1738.477          42.000    20874113.445 7  85475997.027 7     -1354.657          42.000
G24  23111071.305 7 121449472.049 7     -3400.828          45.000    23111073.906 7  94635954.164 7     -2649.999          45.000
G25  20152699.281 8 105903151.807 8        99.996          48.000    20152700.328 8  82521940.826 8        77.919          48.000
G29  21254141.602 8 111691270.636 8      2365.957          51.000    21254141.883 8  87032153.707 8      1843.603          51.000
G32  22443105.000 5 117939311.791 5     -1422.988          31.000
R14  22833141.688 5 121713521.235 5     -3234.543          33.000    22833153.688 5  94666095.567 5     -2515.756          32.000
R15  19603168.922 8 104753394.349 8      -793.203          51.000    19603171.383 8  81474865.208 8      -616.936          49.000
R17  19527080.148 8 104493368.721 8      -542.828          51.000    19527082.570 7  81272629.335 7      -422.200          47.000
R18  20593492.398 8 109929547.240 8      3394.566          49.000    20593496.117 7  85500746.421 7      2640.218          47.000
C27  22357821.836 8 116423028.882 8      2084.395          51.000
C28  22357466.195 5 116421148.689 5     -1139.641          33.000
E02  25367174.125 5 133305398.037 5     -1851.293          33.000    25367184.328 5 102143115.313 5     -1418.852          33.000
E07  27061606.961 7 142209678.069 7     -2500.773          46.000    27061610.539 7 108965868.091 7     -1916.189          46.000
E30  22181725.320 8 116565744.973 8       146.309          51.000    22181726.320 8  89316609.330 8       112.098          51.000
> 2020 05 09 10 15  0.0000000  0 12        .000000000000
G06  23896316.305 5 125575992.328 5     -1682.023          33.000    23896325.672 5  97851415.809 5     -1310.671          33.000
G12  20883970.352 7 109746003.516 7     -1722.668          43.000    20883968.742 7  85516353.474 7     -1342.339          43.000
G24  23130411.312 7 121551111.794 7     -3383.438          43.000    23130414.531 7  94715153.871 7     -2636.448          44.000
G25  20152067.734 8 105899832.120 8       113.051          48.000    20152068.547 8  82519354.059 8        88.092          48.000
G29  21240581.727 8 111620012.658 8      2376.285          51.000    21240581.914 8  86976628.038 8      1851.651          51.000
R15  19607570.852 8 104776917.402 8      -783.449          51.000    19607573.320 8  81493160.891 8      -609.349          48.000
R17  19530106.258 8 104509560.549 8      -545.074          51.000    19530108.461 7  81285222.975 7      -423.944          47.000
R18  20574372.891 8 109827486.866 8      3401.109          50.000    20574376.820 8  85421366.129 8      2645.307          48.000
C27  22345758.336 8 116360206.698 8      2095.609          51.000
C28  22363980.195 4 116455113.592 4     -1131.043          27.000
E07  27075803.969 7 142284283.307 7     -2481.195          46.000    27075806.641 7 109023033.080 7     -1901.247          46.000
E30  22180813.289 8 116560953.156 8       164.820          51.000    22180814.539 8  89312937.672 8       126.366          51.000
> 2020 05 09 10 15 30.0000000  0 12        .000000000000
G06  23905996.625 5 125626861.708 5     -1712.824          34.000    23906006.195 5  97891054.269 5     -1334.665          34.000
G12  20893857.891 6 109797962.430 6     -1745.461          40.000    20893856.828 6  85556840.935 6     -1360.099          40.000
G24  23149771.633 7 121652856.181 7     -3404.109          44.000    23149774.758 7  94794435.121 7     -2652.553          44.000
G25  20151483.141 7 105896760.178 7        87.434          47.000    20151483.586 7  82516960.345 7        68.133          47.000
G29  21227084.664 8 111549084.900 8      2347.957          51.000    21227084.648 8  86921359.657 8      1829.577          51.000
R15  19612039.836 8 104800798.396 8      -812.961          51.000    19612042.438 8  81511734.992 8      -632.303          49.000
R17  19533266.266 8 104526469.480 8      -586.605          51.000    19533268.227 8  81298374.372 8      -456.252          48.000
R18  20555337.891 8 109725877.020 8      3368.402          50.000    20555341.977 8  85342336.254 8      2619.868          48.000
C27  22333752.164 8 116297685.219 8      2068.270          51.000
C28  22370565.352 5 116489400.811 5     -1159.574          34.000
E07  27090012.016 7 142358945.915 7     -2500.430          47.000    27090014.797 7 109080242.020 7     -1915.899          46.000
E30  22179917.602 8 116556247.379 8       144.641          51.000    22179919.180 8  89309331.943 8       110.879          51.000
> 2020 05 09 10 16  0.0000000  0 12        .000000000000
G06  23915784.461 5 125678295.247 5     -1721.523          32.000    23915793.602 5  97931132.323 5     -1341.447          33.000
G12  20903803.797 6 109850229.577 6     -1744.699          39.000    20903803.305 6  85597568.525 6     -1359.509          38.000
