     3.02           OBSERVATION DATA    M (MIXED)           RINEX VERSION / TYPE
SAVERINEX           SC600               20200507 005932 LCL PGM / RUN BY / DATE
       G = GPS       R = GLONASS       C = COMPASS          COMMENT
       S = SBAS      J = QZSS          E = GALILEO          COMMENT
BEAN                                                        MARKER NAME
1                                                           MARKER NUMBER
GEODETIC                                                    MARKER TYPE
Unige DICCA         GTER                                    OBSERVER / AGENCY
SC60291900056       SC600               2.12(191226)        REC # / TYPE / VERS
                    HEMA45          NONE                    ANT # / TYPE
  4509407.8091   693652.4678  4442337.6214                  APPROX POSITION XYZ
        0.0000        0.0000        0.0000                  ANTENNA: DELTA H/E/N
G    8 C1C L1C D1C S1C C2Y L2Y D2Y S2Y                      SYS / # / OBS TYPES
R    8 C1C L1C D1C S1C C2P L2P D2P S2P                      SYS / # / OBS TYPES
C    8 C1I L1I D1I S1I C7I L7I D7I S7I                      SYS / # / OBS TYPES
E    8 C1C L1C D1C S1C C7Q L7Q D7Q S7Q                      SYS / # / OBS TYPES
DBHZ                                                        COMMENT
     30.000                                                 INTERVAL
  2020    05    06    22    00    0.0000000     GPS         TIME OF FIRST OBS
  2020    05    06    22    59   30.0000000     GPS         TIME OF LAST OBS
     0                                                      RCV CLOCK OFFS APPL
G L1C  0.00000                                              SYS / PHASE SHIFT
G L2Y  0.00000                                              SYS / PHASE SHIFT
R L1C  0.00000                                              SYS / PHASE SHIFT
R L2P  0.25000                                              SYS / PHASE SHIFT
C L1I  0.00000                                              SYS / PHASE SHIFT
C L7I  0.00000                                              SYS / PHASE SHIFT
E L1C  0.50000                                              SYS / PHASE SHIFT
E L7Q -0.25000                                              SYS / PHASE SHIFT
 15 R03  5 R04  6 R05  1 R06 -4 R07  5 R10 -5 R13 -2 R14 -7 GLONASS SLOT / FRQ #
    R15  0 R16 -1 R17  4 R18 -3 R19  3 R20  2 R21  4        GLONASS SLOT / FRQ #
 C1C   71.950 C2C   71.950 C2P   71.950                     GLONASS COD/PHS/BIS
    18                                                      LEAP SECONDS
*** Above antenna height is from mark to ANTENNA BOTTOM.    COMMENT
    17     4        0.0000        ANT MEASURE TYPE/HEIGT    COMMENT
    0.0000    0.0000    0.0458    0.0405    0.0000          COMMENT
                    BASE STATION                            COMMENT
                                                            END OF HEADER
> 2020 05 06 22 00  0.0000000  0 17        .000000000000
G01  21948517.961 8 115340226.388 8     -2769.082          48.000    21948518.016 8  89875506.164 8     -2157.726          48.000
G03  20479524.305 8 107620637.506 8      -780.480          51.000    20479525.805 8  83860257.952 8      -608.167          51.000
G04  20723799.211 7 108904367.540 7      1678.137          46.000    20723801.328 7  84860549.974 7      1307.639          46.000
G09  22875932.391 6 120213942.347 6      3310.281          40.000    22875936.242 6  93673153.369 6      2579.440          40.000
G17  22066721.797 5 115961404.835 5      -447.660          34.000
G22  21871416.234 5 114935064.252 5     -1902.504          30.000
R04  22613494.969 4 121094231.659 4     -3479.016          28.000    22613502.758 4  94184439.409 4     -2705.895          25.000
R05  19532635.078 6 104413196.985 6     -1192.496          39.000    19532635.859 5  81210253.434 5      -927.497          31.000
R06  21080134.305 5 112487643.341 5      2546.277          32.000
R20  19805802.555 6 105910535.538 6     -2071.777          38.000    19805807.445 8  82374855.371 8     -1611.382          49.000
C14                                                                  25021208.164 6 100750031.207 6     -2070.564          36.000
C27  22331440.039 6 116285650.943 6      -501.043          40.000
C28  23871682.352 8 124306124.697 8     -3104.348          50.000
E07  23727409.188 8 124688377.520 8     -1021.770          51.000    23727412.977 8  95540465.114 8      -782.902          51.000
E08  25374174.016 6 133342186.806 6     -2657.418          36.000    25374178.039 6 102171293.758 6     -2036.102          39.000
E13  27161790.906 6 142736148.643 6     -3058.898          41.000    27161797.734 5 109369266.581 5     -2343.999          32.000
E26  22745256.469 8 119527122.737 8     -1394.262          51.000    22745256.930 8  91585724.476 8     -1068.318          51.000
> 2020 05 06 22 00 30.0000000  0 16        .000000000000
G01  21964356.383 7 115423460.171 7     -2779.047          46.000    21964355.812 7  89940363.642 7     -2165.491          47.000
G03  20484007.250 8 107644195.727 8      -789.438          51.000    20484008.922 8  83878615.017 8      -615.146          51.000
G04  20714265.008 8 108854265.375 8      1662.746          48.000    20714266.859 8  84821509.318 8      1295.646          48.000
G09  22857057.398 6 120114751.913 6      3302.969          40.000    22857059.000 6  93595862.144 6      2573.742          40.000
G31  23339350.250 6 122649114.239 6      -661.258          39.000
R04  22632982.555 5 121198601.769 5     -3478.641          32.000
R05  19539365.680 6 104449176.968 6     -1205.703          39.000    19539364.938 5  81238237.845 5      -937.772          31.000
R06  21065848.734 5 112411422.415 5      2535.484          35.000
R20  19817491.719 6 105973038.143 6     -2094.688          40.000    19817495.766 8  82423468.518 8     -1629.201          48.000
C14  25036638.539 5 130372346.194 5     -2677.906          31.000    25036638.875 6 100812157.764 6     -2070.793          36.000
C27  22334374.594 6 116300933.946 6      -517.258          40.000
C28  23889585.727 8 124399357.110 8     -3110.613          48.000
E07  23733265.383 8 124719152.524 8     -1029.320          51.000    23733269.125 8  95564045.961 8      -788.697          51.000
E08  25389344.453 5 133421911.034 5     -2657.188          34.000    25389348.961 6 102232381.183 6     -2036.147          39.000
E13  27179262.336 7 142827959.311 7     -3061.180          42.000    27179269.781 5 109439653.116 5     -2345.636          33.000
E26  22753248.961 8 119569123.436 8     -1405.207          51.000    22753249.539 8  91617906.824 8     -1076.675          51.000
> 2020 05 06 22 01  0.0000000  0 18        .000000000000
G01  21980254.109 8 115507003.907 8     -2787.457          48.000    21980253.891 8  90005462.640 8     -2172.047          48.000
G03  20488543.688 8 107668034.867 8      -797.117          51.000    20488545.375 8  83897190.992 8      -621.130          51.000
G04  20704821.305 8 108804636.684 8      1648.645          50.000    20704822.547 8  84782837.575 8      1284.658          50.000
G09  22838226.367 6 120015791.731 6      3297.312          41.000    22838225.516 6  93518750.375 6      2569.337          41.000
G17  22072048.719 4 115989391.740 4      -481.574          28.000
G22  21893174.125 5 115049409.523 5     -1911.965          33.000    21893170.844 5  89648876.937 5     -1489.843          33.000
G31  23343181.789 5 122669257.930 5      -678.574          35.000    23343185.125 5  95586406.102 5      -528.762          34.000
R04  22652476.359 6 121302987.426 6     -3477.516          38.000
R05  19546170.930 6 104485551.536 6     -1216.668          38.000    19546171.414 5  81266529.224 5      -946.294          32.000
R06  21051628.648 5 112335533.701 5      2526.465          32.000
R20  19829312.203 6 106036243.410 6     -2116.207          40.000    19829315.820 8  82472628.174 8     -1645.939          49.000
C14  25052071.641 5 130452699.714 5     -2676.465          33.000    25052068.359 5 100874292.229 5     -2069.165          32.000
C27  22337403.570 6 116316710.890 6      -531.918          40.000
C28  23907526.305 7 124492788.291 7     -3115.473          44.000
E07  23739167.023 8 124750165.806 8     -1035.484          51.000    23739170.625 8  95587809.383 8      -793.459          51.000
E08  25404516.070 5 133501632.383 5     -2655.512          32.000    25404521.523 6 102293475.566 6     -2034.740          39.000
E13  27196749.094 7 142919851.250 7     -3062.133          43.000    27196755.602 6 109510063.846 6     -2346.519          37.000
E26  22761305.711 8 119611463.747 8     -1414.754          51.000    22761307.031 8  91650349.382 8     -1083.996          51.000
> 2020 05 06 22 01 30.0000000  0 16        .000000000000
G01  21996217.828 8 115590892.732 8     -2802.070          50.000    21996218.656 8  90070830.550 8     -2183.431          50.000
G03  20493140.453 8 107692190.913 8      -810.602          51.000    20493142.078 8  83916013.897 8      -631.638          51.000
G04  20695474.844 8 108755518.763 8      1628.746          51.000    20695475.742 8  84744563.876 8      1269.153          49.000
G09  22819446.344 6 119917100.166 6      3285.105          40.000    22819445.430 6  93441847.915 6      2559.822          40.000
G22  21904127.594 6 115106963.731 6     -1922.238          39.000    21904124.133 6  89693724.428 6     -1497.845          39.000
G31  23347130.969 5 122690012.425 5      -701.844          33.000    23347138.641 5  95602578.335 5      -546.891          32.000
R04  22671980.750 6 121407426.178 6     -3482.137          36.000
R05  19553056.031 6 104522355.449 6     -1234.109          36.000    19553059.359 4  81295154.681 4      -959.857          28.000
R20  19841269.992 6 106100186.291 6     -2143.918          39.000    19841273.625 8  82522361.492 8     -1667.495          48.000
C14  25067513.422 4 130533098.872 4     -2681.234          29.000    25067505.625 5 100936461.932 5     -2072.998          32.000
C27  22340535.578 7 116333017.570 7      -552.324          42.000
C28  23925509.305 6 124586452.167 6     -3126.184          39.000
E07  23745120.859 8 124781452.740 8     -1047.629          51.000    23745124.219 8  95611782.472 8      -802.663          51.000
E08                                                                  25419702.570 6 102354604.175 6     -2038.065          40.000
E13  27214257.797 7 143011859.713 7     -3068.996          42.000    27214263.008 6 109580563.796 6     -2351.760          38.000
E26  22769434.227 8 119654179.767 8     -1430.246          51.000    22769436.352 8  91683079.823 8     -1095.924          51.000
> 2020 05 06 22 02  0.0000000  0 17        .000000000000
G01  22012248.109 8 115675130.784 8     -2812.125          50.000    22012249.742 8  90136470.566 8     -2191.266          50.000
G03  20497798.461 8 107716668.840 8      -819.602          51.000    20497800.008 8  83935087.599 8      -638.651          51.000
G04  20686226.844 8 108706917.981 8      1613.055          51.000    20686227.281 8  84706693.155 8      1256.929          49.000
G09  22800718.320 6 119818684.413 6      3277.863          40.000    22800719.922 6  93365160.351 6      2554.179          40.000
G22  21915122.008 5 115164735.679 5     -1927.449          35.000    21915117.305 5  89738741.547 5     -1501.905          35.000
G31  23351197.914 5 122711382.617 5      -721.176          34.000    23351204.844 5  95619230.434 5      -561.952          34.000
R04  22691495.766 5 121511921.512 5     -3482.418          35.000
R05  19560022.930 5 104559592.808 5     -1247.164          35.000    19560022.859 4  81324078.499 4      -970.020          28.000
R06  21023402.695 5 112184895.255 5      2499.969          34.000
R20  19853365.477 6 106164870.391 6     -2166.875          38.000    19853369.641 7  82572671.327 7     -1685.347          47.000
C14                                                                  25082954.406 5 100998662.578 5     -2073.189          30.000
C27  22343771.750 7 116349859.024 7      -568.594          43.000
C28  23943539.805 6 124680351.946 6     -3132.039          40.000
E07  23751127.523 8 124813017.675 8     -1055.262          51.000    23751130.789 8  95635968.584 8      -808.565          51.000
E08                                                                  25434892.688 6 102415770.413 6     -2038.245          40.000
E13  27231789.500 6 143103988.873 6     -3071.289          41.000    27231793.258 6 109651156.224 6     -2353.463          39.000
E26  22777635.609 8 119697276.451 8     -1441.324          51.000    22777638.367 8  91716101.960 8     -1104.454          51.000
> 2020 05 06 22 02 30.0000000  0 17        .000000000000
G01  22028336.688 8 115759675.991 8     -2822.656          49.000    22028339.281 8  90202349.921 8     -2199.472          50.000
G03  20502509.891 8 107741427.524 8      -829.594          51.000    20502511.219 8  83954380.066 8      -646.437          51.000
G04  20677069.828 8 108658794.498 8      1596.641          51.000    20677069.570 8  84669194.337 8      1244.139          48.000
G09  22782035.203 6 119720505.656 6      3269.238          41.000    22782039.320 7  93288657.427 7      2547.458          42.000
G17  22080832.203 5 116035561.419 5      -539.395          35.000
G31  23355375.000 6 122733327.702 6      -740.867          37.000    23355377.664 6  95636330.490 6      -577.296          36.000
R04  22711013.438 5 121616430.448 5     -3483.367          33.000
R05  19567061.773 6 104597219.819 6     -1260.480          38.000    19567069.305 5  81353343.496 5      -980.371          33.000
R06  21009388.859 5 112110088.329 5      2488.371          33.000
R20  19865591.125 6 106230252.127 6     -2190.648          37.000    19865596.375 7  82623523.777 7     -1703.841          47.000
C14                                                                  25098407.359 5 101060878.346 5     -2073.433          33.000
C27  22347102.492 7 116367194.689 7      -585.613          44.000
C28  23961610.734 7 124774445.355 7     -3139.098          44.000
E07  23757179.016 8 124844818.850 8     -1063.504          51.000    23757182.383 8  95660335.728 8      -814.896          51.000
E08                                                                  25450083.828 6 102476942.286 6     -2038.849          39.000
E13  27249336.320 6 143196196.830 6     -3074.270          41.000    27249338.539 6 109721809.029 6     -2355.585          41.000
E26  22785901.547 8 119740712.724 8     -1453.031          51.000    22785905.008 8  91749384.299 8     -1113.392          51.000
> 2020 05 06 22 03  0.0000000  0 17        .000000000000
G01  22044487.891 8 115844552.137 8     -2834.195          49.000    22044491.273 8  90268487.179 8     -2208.464          49.000
G03  20507279.438 8 107766491.747 8      -839.887          51.000    20507280.734 8  83973910.607 8      -654.457          51.000
G04  20668008.141 8 108611174.321 8      1579.609          51.000    20668007.852 8  84632087.730 8      1230.864          48.000
G09  22763402.562 7 119622590.827 7      3260.180          44.000    22763407.578 7  93212360.155 7      2540.403          43.000
G17  22083980.305 5 116052079.048 5      -559.797          34.000
G22  21937228.570 6 115280926.066 6     -1940.742          36.000    21937208.531 5  89829248.247 5     -1512.264          35.000
G31  23359665.531 6 122755872.073 6      -760.723          37.000    23359665.484 5  95653897.523 5      -592.771          35.000
R04  22730537.148 5 121720977.266 5     -3485.148          31.000
R05  19574178.078 6 104635260.118 6     -1274.453          38.000    19574181.875 4  81382949.839 4      -991.247          27.000
R20  19877951.961 6 106296354.741 6     -2214.727          36.000    19877957.742 7  82674936.890 7     -1722.568          46.000
C14                                                                  25113866.352 6 101123120.211 6     -2074.385          37.000
C27  22350532.367 7 116385049.009 7      -603.070          44.000
C28  23979723.945 7 124868755.107 7     -3146.523          47.000
E07  23763280.188 8 124876880.420 8     -1072.441          51.000    23763283.430 8  95684902.385 8      -821.723          51.000
E08                                                                  25465280.820 6 102538138.358 6     -2039.783          38.000
E13  27266902.625 6 143288507.538 6     -3078.090          41.000    27266903.477 6 109792540.618 6     -2358.554          41.000
E26  22794236.664 8 119784513.407 8     -1465.430          51.000    22794240.719 8  91782945.855 8     -1122.898          51.000
> 2020 05 06 22 03 30.0000000  0 16        .000000000000
G01  22060702.164 7 115929761.634 7     -2846.469          47.000    22060706.211 7  90334884.264 7     -2218.022          47.000
G03  20512107.719 8 107791864.826 8      -851.516          51.000    20512109.156 8  83993681.807 8      -663.522          51.000
G04  20659042.617 8 108564062.120 8      1561.352          51.000    20659042.758 7  84595376.964 7      1216.638          47.000
G09  22744821.562 7 119524945.466 7      3249.746          46.000    22744826.234 7  93136272.898 7      2532.270          46.000
G22  21948320.523 5 115339250.170 5     -1949.203          32.000    21948313.523 5  89874708.546 5     -1518.866          32.000
G31  23364069.672 5 122779019.045 5      -781.344          31.000    23364070.766 4  95671934.194 4      -608.824          27.000
R04  22750066.000 5 121825563.846 5     -3487.762          32.000    22750072.539 4  94753238.969 4     -2712.701          29.000
R05  19581369.461 5 104673715.304 5     -1289.406          34.000    19581373.609 5  81412858.909 5     -1002.865          32.000
R20  19890448.906 6 106363179.996 6     -2240.320          37.000    19890454.344 7  82726912.080 7     -1742.471          46.000
C14                                                                  25129330.523 6 101185390.591 6     -2076.792          36.000
C27  22354060.984 7 116403425.415 7      -621.816          43.000
C28  23997878.914 7 124963282.793 7     -3155.188          46.000
E07  23769431.445 8 124909205.077 8     -1082.523          51.000    23769434.367 8  95709670.639 8      -829.442          51.000
E08                                                                  25480484.414 6 102599360.844 6     -2041.525          38.000
E13  27284488.773 6 143380923.600 6     -3082.922          40.000    27284488.805 6 109863352.900 6     -2362.257          40.000
E26  22802641.438 8 119828681.815 8     -1479.027          51.000    22802645.961 8  91816789.187 8     -1133.281          51.000
> 2020 05 06 22 04  0.0000000  0 15        .000000000000
G01  22076977.695 8 116015291.506 8     -2856.945          50.000    22076981.367 8  90401530.943 8     -2226.188          50.000
G03  20516992.469 8 107817534.601 8      -861.555          51.000    20516993.844 8  84013684.228 8      -671.341          51.000
G04  20650171.875 8 108517447.030 8      1544.629          51.000    20650172.180 8  84559053.529 8      1203.607          48.000
G09  22726290.188 7 119427559.693 7      3240.934          47.000    22726294.125 7  93060387.920 7      2525.406          47.000
G17  22090576.828 4 116086764.137 4      -598.164          27.000
G31  23368586.820 5 122802751.421 5      -803.129          32.000    23368588.031 5  95690460.653 5      -625.821          32.000
R05  19588637.516 6 104712571.855 6     -1302.688          39.000    19588644.570 5  81443080.664 5     -1013.204          31.000
R20  19903078.852 6 106430713.937 6     -2263.938          38.000    19903083.219 7  82779438.444 7     -1760.840          46.000
C14  25144803.328 4 130935584.523 4     -2687.344          28.000    25144799.797 6 101247679.955 6     -2077.152          39.000
C27  22357687.516 7 116422311.797 7      -638.844          46.000
C28  24016071.953 7 125058014.600 7     -3161.984          43.000
E07  23775630.188 8 124941779.985 8     -1090.859          51.000    23775632.906 8  95734630.637 8      -835.826          51.000
E08                                                                  25495692.367 6 102660599.992 6     -2042.366          37.000
E13  27302092.367 6 143473431.956 6     -3085.949          38.000    27302092.492 6 109934235.946 6     -2364.576          38.000
E26  22811113.570 8 119873205.791 8     -1490.926          51.000    22811118.430 8  91850904.973 8     -1142.392          51.000
> 2020 05 06 22 04 30.0000000  0 15        .000000000000
G01  22093311.578 8 116101123.678 8     -2865.211          50.000    22093314.117 8  90468413.105 8     -2232.632          50.000
G03  20521930.445 8 107843483.866 8      -869.102          51.000    20521931.789 8  84033904.436 8      -677.222          51.000
G04  20641392.445 8 108471313.038 8      1530.402          50.000    20641393.227 8  84523105.013 8      1192.524          48.000
G09  22707805.391 7 119330418.574 7      3234.570          47.000    22707808.758 7  92984693.563 7      2520.444          47.000
G17  22094039.648 6 116104964.945 6      -613.965          36.000
G31  23373212.961 6 122827061.931 6      -819.121          36.000    23373212.891 5  95709403.862 5      -638.276          34.000
R05  19595977.391 6 104751810.364 6     -1313.562          36.000    19595981.766 5  81473599.383 5     -1021.663          31.000
R20  19915837.820 6 106498936.934 6     -2284.625          39.000    19915840.336 7  82832500.749 7     -1776.931          45.000
C14                                                                  25160271.484 6 101309975.077 6     -2075.783          37.000
C27  22361409.164 7 116441691.181 7      -653.543          47.000
C28  24034298.953 6 125152931.730 6     -3166.223          41.000
E07  23781873.125 8 124974587.340 8     -1096.758          51.000    23781875.789 8  95759768.746 8      -840.358          51.000
E08                                                                  25510901.578 6 102721842.255 6     -2040.786          36.000
E13  27319709.828 6 143566014.694 6     -3086.375          36.000    27319711.172 6 110005176.030 6     -2364.960          36.000
E26  22819650.023 8 119918068.111 8     -1500.383          51.000    22819655.117 8  91885280.011 8     -1149.599          51.000
> 2020 05 06 22 05  0.0000000  0 14        .000000000000
G01  22109709.523 8 116187292.288 8     -2878.262          51.000    22109711.328 8  90535557.421 8     -2242.804          51.000
G03  20526928.352 8 107869747.756 8      -880.961          51.000    20526929.758 8  84054369.809 8      -686.463          51.000
G04  20632711.719 8 108425696.531 8      1511.559          50.000    20632712.938 8  84487559.729 8      1177.838          48.000
G09  22689373.648 7 119233559.477 7      3223.727          45.000    22689376.742 7  92909218.936 7      2511.995          45.000
G17  22097611.266 6 116123724.616 6      -635.250          38.000
R05  19603394.820 5 104791465.062 5     -1329.086          33.000    19603401.281 5  81504442.023 5     -1033.730          33.000
R20  19928731.594 6 106567883.161 6     -2310.723          39.000    19928732.938 7  82886125.608 7     -1797.229          46.000
C14                                                                  25175750.227 5 101372302.719 5     -2078.345          34.000
C27  22365232.227 8 116461598.350 8      -672.668          48.000
C28  24052567.547 6 125248067.220 6     -3175.262          39.000
E07  23788167.023 8 125007661.651 8     -1107.156          51.000    23788169.578 8  95785111.398 8      -848.349          51.000
E08                                                                  25526118.594 6 102783114.146 6     -2042.953          36.000
E13  27337347.867 5 143658706.194 5     -3091.859          34.000    27337350.844 6 110076199.413 6     -2368.854          36.000
E26  22828257.422 8 119963303.908 8     -1514.363          50.000    22828262.391 8  91919941.223 8     -1160.356          51.000
> 2020 05 06 22 05 30.0000000  0 16        .000000000000
G01  22126167.047 8 116273774.243 8     -2886.816          51.000    22126168.430 8  90602945.909 8     -2249.470          51.000
G03  20531981.945 8 107896304.260 8      -889.020          51.000    20531983.289 8  84075063.187 8      -692.742          51.000
G04  20624125.773 8 108380576.717 8      1496.832          50.000    20624127.180 8  84452401.426 8      1166.363          49.000
G09  22670991.203 7 119136962.603 7      3216.500          44.000    22670993.945 7  92833948.627 7      2506.364          44.000
G17  22101287.055 5 116143036.843 5      -651.953          35.000
R04  22828235.219 5 122244140.024 5     -3488.992          34.000    22828237.742 5  95078791.380 5     -2713.661          31.000
R05  19610884.680 6 104831511.984 6     -1340.422          36.000    19610891.758 4  81535589.678 4     -1042.550          29.000
R20  19941755.633 6 106637528.261 6     -2332.102          40.000    19941757.281 8  82940294.027 8     -1813.857          48.000
C14  25191238.203 4 131177385.638 4     -2687.004          28.000    25191233.430 6 101434645.690 6     -2077.191          36.000
C25  26246385.609 6 136671814.465 6      2859.641          39.000
C27  22369152.406 7 116482011.469 7      -687.582          47.000
C28  24070876.688 7 125343397.628 7     -3179.680          42.000
E07  23794507.414 8 125040980.228 8     -1113.500          51.000    23794509.891 8  95810641.223 8      -853.213          51.000
E08                                                                  25541338.898 5 102844398.417 5     -2042.172          34.000
E13                                                                  27355005.992 5 110147288.601 5     -2369.802          35.000
E26  22836931.828 8 120008891.156 8     -1524.258          50.000    22836936.367 8  91954871.696 8     -1167.965          51.000
> 2020 05 06 22 06  0.0000000  0 17        .000000000000
G01  22142682.867 8 116360563.853 8     -2899.039          51.000    22142684.281 8  90670574.145 8     -2258.991          51.000
G03  20537090.312 8 107923148.613 8      -900.418          51.000    20537091.617 8  84095980.858 8      -701.624          51.000
G04  20615633.297 8 108335949.944 8      1478.461          48.000    20615635.227 8  84417627.332 8      1152.047          48.000
G09  22652658.461 7 119040625.299 7      3206.148          46.000    22652660.086 7  92758880.614 7      2498.297          46.000
G17  22105067.352 6 116162896.022 6      -672.328          36.000
G22  22004386.734 5 115633832.551 5     -1980.316          32.000    22004382.945 5  90104277.804 5     -1543.104          33.000
R04  22847787.266 6 122348833.415 6     -3491.207          37.000    22847789.055 5  95160219.594 5     -2715.383          31.000
R05  19618449.680 6 104871944.855 6     -1354.930          36.000    19618453.820 5  81567037.314 5     -1053.837          31.000
R20  19954908.602 6 106707865.359 6     -2357.258          39.000    19954911.461 8  82995000.662 8     -1833.423          49.000
C14  25206722.531 5 131258026.061 5     -2689.367          30.000    25206718.945 6 101497000.331 6     -2079.526          36.000
C25  26229918.969 6 136586067.245 6      2856.863          39.000
C27  22373168.414 7 116502925.732 7      -706.266          47.000
C28  24089222.969 7 125438916.520 7     -3187.957          45.000
E07  23800893.211 8 125074537.697 8     -1123.383          51.000    23800895.594 8  95836354.084 8      -860.792          51.000
E08                                                                  25556561.391 5 102905690.990 5     -2043.737          33.000
E13                                                                  27372676.727 5 110218439.323 5     -2373.313          31.000
E26  22845672.758 8 120054825.005 8     -1537.777          51.000    22845676.477 8  91990067.745 8     -1178.261          51.000
> 2020 05 06 22 06 30.0000000  0 16        .000000000000
G01  22159261.609 8 116447687.810 8     -2910.996          48.000    22159263.797 8  90738462.926 8     -2268.309          49.000
G03  20542258.672 8 107950308.451 8      -912.035          51.000    20542260.102 8  84117144.380 8      -710.677          51.000
G04  20607240.328 8 108291845.114 8      1459.977          49.000    20607242.469 8  84383259.934 8      1137.641          49.000
G09  22634381.734 8 118944577.468 8      3195.262          49.000    22634381.586 8  92684038.173 8      2489.814          49.000
G17  22108951.930 5 116183326.040 5      -692.203          32.000
G22  22015716.109 5 115693353.920 5     -1988.766          35.000    22015708.336 5  90150648.523 5     -1549.684          34.000
R04  22867346.914 6 122453566.428 6     -3492.891          38.000    22867347.281 4  95241678.583 4     -2716.693          29.000
R05  19626092.469 5 104912789.541 5     -1369.426          34.000    19626094.594 4  81598805.495 4     -1065.109          29.000
R20  19968195.602 6 106778920.661 6     -2381.594          39.000    19968199.789 8  83050265.876 8     -1852.354          50.000
C14  25222214.172 4 131338706.737 4     -2691.465          29.000    25222212.695 6 101559387.649 6     -2081.003          39.000
C25  26213463.531 5 136500378.645 5      2853.605          34.000
C27  22377286.055 8 116524368.438 8      -724.992          48.000
C28  24107610.016 7 125534649.517 7     -3196.145          45.000
E07  23807329.688 8 125108361.047 8     -1133.262          51.000    23807331.836 8  95862270.672 8      -868.394          51.000
E08                                                                  25571791.430 5 102967012.737 5     -2045.976          31.000
E26  22854485.398 8 120101133.047 8     -1551.258          51.000    22854487.945 8  92025550.537 8     -1188.650          51.000
> 2020 05 06 22 07  0.0000000  0 16        .000000000000
G01  22175896.062 7 116535109.299 7     -2917.668          45.000    22175899.984 7  90806583.565 7     -2273.508          45.000
G03  20547480.203 8 107977747.978 8      -918.066          51.000    20547481.695 8  84138525.846 8      -715.376          51.000
G04  20598940.258 8 108248227.535 8      1447.141          50.000    20598942.109 8  84349272.190 8      1127.642          49.000
G09  22616153.984 8 118848785.446 8      3189.914          51.000    22616152.766 8  92609395.076 8      2485.650          51.000
G19  22184357.617 5 116579576.065 5       480.754          32.000
G22  22027078.438 5 115753048.955 5     -1991.605          33.000    22027068.383 5  90197164.131 5     -1551.909          30.000
R04  22886904.789 6 122558301.273 6     -3489.988          36.000    22886905.164 4  95323139.112 4     -2714.432          28.000
R05  19633804.492 6 104954008.856 6     -1379.094          39.000    19633804.414 4  81630842.828 4     -1072.635          28.000
R20  19981610.391 6 106850655.807 6     -2401.113          40.000    19981614.789 8  83106059.858 8     -1867.533          49.000
C14  25237707.344 5 131419394.143 5     -2688.367          32.000    25237708.633 6 101621780.171 6     -2078.864          39.000
C25  26197009.172 5 136414716.099 5      2856.945          30.000
C27  22381498.719 8 116546303.988 8      -738.070          48.000
C28  24126029.477 7 125630559.345 7     -3198.719          45.000
E07  23813809.875 8 125142413.782 8     -1137.684          51.000    23813811.844 8  95888363.027 8      -871.756          51.000
E13  27408069.117 5 144030380.422 5     -3101.098          35.000    27408080.539 5 110360977.123 5     -2376.369          33.000
E26  22863362.586 8 120147779.411 8     -1559.340          51.000    22863364.398 8  92061292.551 8     -1194.804          51.000
> 2020 05 06 22 07 30.0000000  0 15        .000000000000
G01  22192589.430 7 116622840.264 7     -2931.211          45.000    22192594.945 7  90874945.372 7     -2284.060          45.000
G03  20552757.305 8 108005480.075 8      -930.902          51.000    20552758.969 8  84160135.282 8      -725.378          51.000
G04  20590735.508 8 108205111.231 8      1427.129          50.000    20590737.281 8  84315675.086 8      1112.048          50.000
G09  22597977.570 8 118753264.307 8      3177.738          51.000    22597976.656 8  92534963.062 8      2476.160          51.000
G17  22117044.656 5 116225853.307 5      -728.031          33.000
R04  22906464.414 5 122663050.241 5     -3493.934          34.000    22906465.828 5  95404610.527 5     -2717.504          30.000
R05  19641589.203 6 104995613.817 6     -1395.281          36.000    19641588.641 5  81663202.260 5     -1085.216          31.000
R20  19995154.766 6 106923081.826 6     -2427.449          41.000    19995158.695 8  83162391.209 8     -1888.016          49.000
C14  25253205.211 5 131500100.725 5     -2692.398          33.000    25253207.164 5 101684187.545 5     -2082.181          34.000
C25  26180563.383 5 136329095.471 5      2851.734          32.000
C27  22385808.148 7 116568745.165 7      -758.184          47.000
C28  24144484.078 7 125726657.042 7     -3207.988          44.000
E07  23820335.953 8 125176708.205 8     -1149.043          51.000    23820338.000 8  95914640.580 8      -880.450          51.000
E13  27425787.297 5 144123498.300 5     -3107.395          35.000    27425796.758 5 110432327.225 5     -2380.494          33.000
E26  22872306.531 8 120194776.930 8     -1574.293          51.000    22872308.203 8  92097303.626 8     -1206.309          51.000
> 2020 05 06 22 08  0.0000000  0 18        .000000000000
G01  22209351.469 7 116710927.185 7     -2939.246          46.000    22209357.492 7  90943584.545 7     -2290.322          46.000
G03  20558099.023 8 108033552.200 8      -938.383          51.000    20558101.086 8  84182009.657 8      -731.204          51.000
G04  20582635.633 8 108162544.749 8      1412.676          51.000    20582637.188 8  84282506.418 8      1100.786          50.000
G09  22579861.758 8 118658063.759 8      3171.039          51.000    22579861.969 8  92460780.852 8      2470.940          51.000
G17  22121253.805 5 116247949.664 5      -744.141          32.000
G22  22049917.820 5 115873099.450 5     -2005.469          32.000
R04  22926037.500 5 122767860.362 5     -3491.645          34.000    22926038.062 4  95486129.416 4     -2715.724          29.000
R05  19649452.594 6 105037651.049 6     -1405.660          39.000    19649454.188 5  81695898.041 5     -1093.288          31.000
R06  20859612.469 5 111310942.639 5      2357.453          33.000
R20  20008837.125 6 106996245.211 6     -2448.145          40.000    20008840.508 8  83219296.072 8     -1904.112          49.000
C14  25268716.297 5 131580873.311 5     -2690.098          30.000    25268717.445 5 101746646.030 5     -2080.722          31.000
C24  25619347.133 6 133406662.071 6      1250.680          38.000
C25  26164138.758 5 136243566.516 5      2852.133          35.000
C27  22390223.344 7 116591738.796 7      -772.797          46.000
C28  24162982.828 7 125822987.883 7     -3211.980          42.000
E07  23826916.914 8 125211291.091 8     -1154.617          51.000    23826919.000 8  95941139.151 8      -884.692          51.000
E13  27443530.070 5 144216745.371 5     -3107.355          35.000    27443538.000 5 110503776.388 5     -2381.407          34.000
E26  22881326.305 8 120242172.975 8     -1583.516          51.000    22881327.820 8  92133620.062 8     -1213.334          51.000
> 2020 05 06 22 08 30.0000000  0 17        .000000000000
G01  22226162.953 8 116799271.524 8     -2950.906          48.000    22226168.391 8  91012424.316 8     -2299.404          48.000
G03  20563486.898 8 108061866.826 8      -949.613          51.000    20563489.188 8  84204072.993 8      -739.958          51.000
G04  20574621.758 8 108120431.682 8      1394.340          49.000    20574622.938 8  84249691.076 8      1086.502          49.000
G09  22561788.312 8 118563088.389 8      3160.301          50.000    22561789.875 8  92386774.107 8      2462.572          50.000
G17  22125560.062 5 116270566.990 5      -763.371          34.000
R04  22945603.703 6 122872631.194 6     -3493.492          38.000    22945603.602 4  95567617.800 4     -2717.164          28.000
R05  19657379.102 6 105080020.082 6     -1419.414          38.000    19657379.375 5  81728851.762 5     -1103.986          30.000
R06  20846395.023 5 111240424.257 5      2343.566          34.000
R20  20022638.148 6 107070044.413 6     -2472.414          39.000    20022641.398 8  83276695.475 8     -1922.989          50.000
C14  25284221.375 5 131661615.225 5     -2692.754          31.000
C24  25612182.297 5 133369357.304 5      1235.664          33.000
C25  26147714.570 5 136158035.558 5      2849.188          35.000
C27  22394725.508 7 116615188.070 7      -791.031          46.000
C28  24181506.414 6 125919453.456 6     -3219.039          38.000
E07  23833534.102 8 125246064.287 8     -1163.949          51.000    23833536.031 8  95967783.546 8      -891.818          51.000
E13  27461279.148 5 144309997.354 5     -3111.430          34.000    27461286.648 5 110575249.130 5     -2383.918          33.000
E26  22890403.086 8 120289869.902 8     -1596.637          51.000    22890404.633 8  92170167.062 8     -1223.397          51.000
> 2020 05 06 22 09  0.0000000  0 17        .000000000000
G01  22243056.000 8 116888043.768 8     -2960.461          48.000    22243060.969 8  91081597.505 8     -2306.850          48.000
G03  20568953.680 8 108090595.477 8      -958.734          51.000    20568956.117 8  84226458.944 8      -747.066          51.000
G04  20566726.805 8 108078944.609 8      1378.164          50.000    20566728.078 8  84217363.522 8      1073.894          50.000
G09  22543790.422 8 118468511.922 8      3151.555          50.000    22543793.281 8  92313078.183 8      2455.757          50.000
G31  23419935.273 5 123072581.619 5      -996.812          33.000
R04  22965194.812 6 122977536.341 6     -3493.355          36.000    22965193.375 4  95649210.671 4     -2717.054          25.000
R05  19665398.891 6 105122893.685 6     -1431.652          41.000    19665398.000 5  81762197.922 5     -1113.507          31.000
R06  20833266.867 5 111170388.501 5      2332.570          31.000
R20  20036589.672 6 107144651.834 6     -2494.363          37.000    20036593.875 8  83334723.475 8     -1940.060          50.000
C14  25299754.234 5 131742496.408 5     -2692.922          35.000    25299749.547 5 101871605.272 5     -2082.121          30.000
C24  25605114.352 5 133332578.397 5      1222.578          33.000
C25  26131323.750 6 136072675.572 6      2848.156          37.000
C27  22399347.641 7 116639262.813 7      -807.219          46.000
C28  24200086.000 5 126016222.000 5     -3224.770          34.000
E07  23840219.977 8 125281198.666 8     -1171.375          51.000    23840221.727 8  95994704.701 8      -897.526          51.000
E13  27479067.031 5 144403476.917 5     -3113.492          34.000    27479075.398 5 110646848.375 5     -2385.699          33.000
E26  22899569.461 8 120338039.143 8     -1607.691          51.000    22899571.625 8  92207075.949 8     -1231.918          51.000
> 2020 05 06 22 09 30.0000000  0 15        .000000000000
G01  22259974.703 8 116976950.180 8     -2973.969          49.000    22259979.500 8  91150875.242 8     -2317.381          49.000
G03  20574443.734 8 108119445.431 8      -971.824          51.000    20574446.133 8  84248939.416 8      -757.263          51.000
G04  20558895.734 8 108037791.956 8      1358.016          49.000    20558897.227 8  84185296.532 8      1058.194          49.000
G09  22525812.961 8 118374043.771 8      3138.918          49.000    22525816.805 8  92239466.665 8      2445.910          49.000
R04  22984753.398 5 123082276.570 5     -3497.152          31.000    22984752.227 4  95730683.343 4     -2720.004          24.000
R05  19673458.039 7 105165972.411 7     -1447.703          42.000    19673456.875 5  81795703.545 5     -1125.994          33.000
R20  20050636.461 6 107219767.810 6     -2521.086          38.000    20050641.539 8  83393147.004 8     -1960.845          49.000
C14  25315258.852 5 131823226.375 5     -2696.699          33.000    25315257.180 6 101934030.848 6     -2085.413          36.000
C24  25598097.453 6 133296037.132 6      1206.066          37.000
C25  26114911.273 6 135987199.456 6      2843.035          41.000
C27  22404035.031 7 116663672.728 7      -827.340          47.000
C28  24218669.562 5 126113001.512 5     -3234.105          35.000
E07  23846918.625 8 125316400.830 8     -1182.742          51.000    23846920.430 8  96021677.786 8      -906.206          51.000
E13  27496837.422 6 144496864.503 6     -3119.738          37.000    27496847.953 5 110718406.108 5     -2389.889          34.000
E26  22908769.633 8 120386387.878 8     -1622.809          51.000    22908772.836 8  92244122.341 8     -1243.439          51.000
> 2020 05 06 22 10  0.0000000  0 17        .000000000000
G01  22276965.992 8 117066236.943 8     -2980.496          50.000    22276970.328 8  91220449.335 8     -2322.464          50.000
G03  20580004.016 8 108148663.934 8      -978.184          51.000    20580006.086 8  84271707.084 8      -762.221          51.000
G04  20551175.141 7 107997221.907 7      1344.543          47.000    20551176.797 7  84153683.535 7      1047.696          47.000
G09  22507903.680 8 118279933.345 8      3133.047          49.000    22507907.656 8  92166133.903 8      2441.335          48.000
G17  22139113.570 5 116341832.992 5      -817.176          33.000
R04  23004328.281 4 123187102.889 4     -3493.184          29.000
R05  19681601.578 6 105209506.208 6     -1456.309          36.000    19681602.477 5  81829563.175 5     -1132.681          34.000
R06  20807175.070 5 111031120.312 5      2307.789          32.000
R20  20064825.383 6 107295641.491 6     -2539.785          39.000    20064830.656 8  83452159.861 8     -1975.388          48.000
C14  25330780.766 5 131904050.275 5     -2694.070          31.000    25330779.781 5 101996528.938 5     -2082.507          35.000
C24  25591174.898 6 133259980.605 6      1195.945          38.000
C25  26098523.766 6 135901855.178 6      2844.527          41.000
C27  22408834.094 7 116688662.635 7      -840.613          46.000
C28  24237305.398 6 126210035.552 6     -3237.004          37.000
E07  23853677.133 8 125351917.369 8     -1187.141          51.000    23853679.148 8  96048891.756 8      -909.588          51.000
E13  27514637.203 6 144590406.472 6     -3118.520          37.000    27514650.344 5 110790081.186 5     -2389.889          35.000
E26  22918050.953 8 120435163.167 8     -1630.980          51.000    22918054.938 8  92281495.581 8     -1249.667          51.000
> 2020 05 06 22 10 30.0000000  0 16        .000000000000
G01  22294015.844 8 117155831.269 8     -2991.426          51.000    22294019.258 8  91290263.054 8     -2330.981          51.000
G03  20585620.758 8 108178179.082 8      -988.531          51.000    20585622.578 8  84294705.889 8      -770.284          51.000
G04  20543552.227 8 107957163.665 8      1326.945          48.000    20543553.875 8  84122469.342 8      1033.983          48.000
G09  22490049.773 8 118186110.907 8      3122.770          49.000    22490052.562 8  92093025.539 8      2433.327          49.000
G17  22143837.633 4 116366651.868 4      -837.082          29.000
G31  23437503.852 5 123164893.525 5     -1055.461          34.000
R05  19689814.922 6 105253420.297 6     -1470.098          40.000    19689817.719 5  81863718.636 5     -1143.409          33.000
R20  20079141.688 6 107372197.649 6     -2562.965          38.000    20079146.477 7  83511703.521 7     -1993.417          47.000
C14                                                                  25346305.531 5 102059044.486 5     -2084.214          34.000
C24  25584331.969 5 133224339.828 5      1181.082          35.000
C25  26082147.734 7 135816574.448 7      2841.859          42.000
C27  22413731.008 7 116714161.098 7      -858.199          47.000
C28  24255976.148 6 126307250.951 6     -3243.344          40.000
E07  23860481.648 8 125387675.784 8     -1195.738          51.000    23860483.945 8  96076291.057 8      -916.200          51.000
E13  27532452.883 5 144684030.182 5     -3121.820          35.000    27532467.383 5 110861818.812 5     -2391.981          34.000
E26  22927399.734 8 120484293.051 8     -1643.387          51.000    22927404.203 8  92319140.535 8     -1259.156          51.000
> 2020 05 06 22 11  0.0000000  0 15        .000000000000
G01  22311122.273 8 117245723.939 8     -3003.426          50.000    22311123.859 8  91360309.241 8     -2340.332          50.000
G03  20591292.312 8 108207982.857 8     -1000.148          51.000    20591294.148 8  84317929.607 8      -779.336          51.000
G04  20536025.531 8 107917610.188 8      1308.047          48.000    20536027.195 8  84091648.429 8      1019.257          48.000
G09  22472249.938 8 118092570.464 8      3111.371          50.000    22472251.445 8  92020136.925 8      2424.445          50.000
R05  19698099.961 6 105297704.940 6     -1484.383          37.000    19698102.258 5  81898162.134 5     -1154.520          33.000
R20  20093583.500 6 107449425.770 6     -2586.953          37.000    20093587.859 7  83571769.807 7     -2012.078          47.000
C14                                                                  25361834.414 5 102121570.925 5     -2085.827          35.000
C24  25577566.688 6 133189108.625 6      1165.516          36.000
C25  26065782.211 7 135731352.254 7      2837.828          44.000
C27  22418724.250 8 116740159.813 8      -876.930          48.000
C28  24274679.656 6 126404637.973 6     -3250.992          41.000
E07  23867330.461 8 125423667.286 8     -1205.582          51.000    23867333.023 8  96103868.961 8      -923.779          51.000
E13  27550282.930 5 144777713.731 5     -3126.457          34.000    27550297.328 5 110933612.234 5     -2395.690          33.000
E19  27997294.977 6 147126783.065 6      2656.414          39.000    27997298.031 6 112733514.015 6      2035.569          41.000
E26  22936814.500 8 120533769.259 8     -1656.906          51.000    22936818.969 8  92357050.869 8     -1269.637          51.000
> 2020 05 06 22 11 30.0000000  0 16        .000000000000
G01  22328289.508 8 117335937.115 8     -3009.164          50.000    22328289.789 8  91430605.188 8     -2344.803          50.000
G03  20597023.180 8 108238098.415 8     -1005.566          51.000    20597025.062 8  84341396.269 8      -783.558          51.000
G04  20528599.180 8 107878585.599 8      1295.312          48.000    20528601.109 8  84061239.671 8      1009.337          48.000
G09  22454508.688 8 117999337.401 8      3106.043          50.000    22454509.898 8  91947487.827 8      2420.293          50.000
G31  23449783.984 5 123229442.355 5     -1092.312          35.000
R05  19706457.367 6 105342381.993 6     -1492.531          37.000    19706461.453 5  81932911.046 5     -1160.855          34.000
R20  20108155.078 6 107527347.298 6     -2605.559          38.000    20108159.406 7  83632375.442 7     -2026.546          47.000
C14                                                                  25377369.484 5 102184126.096 5     -2083.066          34.000
C24  25570885.477 6 133154312.240 6      1155.906          37.000
C25  26049432.336 7 135646214.594 7      2839.660          43.000
C27  22423817.750 8 116766681.547 8      -889.375          48.000
C28  24293419.367 6 126502217.815 6     -3252.566          39.000
E07  23874227.953 8 125459914.489 8     -1209.094          51.000    23874230.727 8  96131642.783 8      -926.451          51.000
E13                                                                  27568144.258 5 111005493.539 5     -2393.678          32.000
E19  27982133.070 6 147047105.971 6      2657.078          38.000    27982135.484 6 112672462.773 6      2036.042          41.000
E26  22946299.758 8 120583614.863 8     -1664.320          51.000    22946303.828 8  92395244.230 8     -1275.202          51.000
> 2020 05 06 22 12  0.0000000  0 16        .000000000000
G01  22345509.898 8 117426430.906 8     -3021.945          50.000    22345510.352 8  91501119.801 8     -2354.763          50.000
G03  20602806.008 8 108268486.956 8     -1018.066          51.000    20602807.984 8  84365075.643 8      -793.298          51.000
G04  20521266.773 8 107840052.079 8      1275.578          50.000    20521268.641 8  84031213.561 8       993.957          50.000
G09  22436818.617 8 117906374.992 8      3093.625          48.000    22436820.328 8  91875049.624 8      2410.617          49.000
G31  23456086.484 5 123262565.872 5     -1113.566          34.000    23456088.984 5  96048758.932 5      -867.714          33.000
R05  19714880.680 5 105387410.566 5     -1507.363          35.000    19714884.859 5  81967933.203 5     -1172.397          31.000
R20  20122848.977 6 107605920.346 6     -2630.652          40.000    20122853.391 8  83693487.831 8     -2046.063          48.000
C14                                                                  25392903.852 5 102246680.208 5     -2085.727          33.000
C24  25564279.594 5 133119914.011 5      1139.285          33.000
C25  26033091.289 7 135561125.867 7      2834.844          42.000
C27  22429004.484 8 116793687.521 8      -908.809          48.000
C28  24312187.047 6 126599950.269 6     -3260.566          36.000
E07  23881166.609 8 125496377.886 8     -1219.582          51.000    23881169.508 8  96159582.252 8      -934.467          51.000
E13                                                                  27586001.695 5 111077397.407 5     -2397.991          31.000
E19  27966988.891 6 146967519.491 6      2650.707          38.000    27966990.500 6 112611480.967 6      2031.022          40.000
E26  22955848.070 8 120633790.848 8     -1678.586          51.000    22955851.578 8  92433690.768 8     -1286.180          51.000
> 2020 05 06 22 12 30.0000000  0 14        .000000000000
G01  22362796.578 8 117517272.888 8     -3029.496          50.000    22362797.711 8  91571905.740 8     -2360.646          51.000
G03  20608653.844 8 108299217.177 8     -1025.680          51.000    20608655.836 8  84389021.264 8      -799.231          51.000
G04  20514041.062 8 107802079.226 8      1260.832          49.000    20514042.570 8  84001624.333 8       982.467          49.000
G09  22419193.062 8 117813754.065 8      3086.043          48.000    22419195.352 8  91802877.471 8      2404.709          48.000
R20  20137677.305 6 107685212.608 6     -2650.582          39.000    20137681.773 8  83755159.584 8     -2061.564          49.000
C14                                                                  25408452.781 5 102309285.677 5     -2084.413          34.000
C24  25557763.461 5 133085984.381 5      1127.102          30.000
C25  26016773.016 7 135476157.153 7      2834.445          42.000
C27  22434297.141 8 116821245.518 8      -923.441          48.000
C28  24330996.812 6 126697901.580 6     -3263.941          36.000
E07  23888159.352 8 125533125.495 8     -1225.316          51.000    23888162.273 8  96187739.507 8      -938.873          51.000
E13  27603878.672 5 145059359.184 5     -3129.938          35.000    27603882.969 5 111149399.791 5     -2398.309          31.000
E19  27951874.977 6 146888093.232 6      2649.008          38.000    27951875.883 6 112550621.884 6      2030.047          40.000
E26  22965472.289 8 120684365.679 8     -1688.070          51.000    22965475.336 8  92472442.925 8     -1293.492          51.000
> 2020 05 06 22 13  0.0000000  0 15        .000000000000
G01  22380133.961 8 117608380.593 8     -3045.227          51.000    22380135.172 8  91642898.767 8     -2372.904          51.000
G03  20614551.188 8 108330207.597 8     -1041.219          51.000    20614552.992 8  84413169.635 8      -811.339          51.000
G04  20506906.281 8 107764586.555 8      1237.770          50.000    20506907.656 8  83972409.245 8       964.493          48.000
G09  22401617.367 8 117721395.221 8      3070.508          49.000    22401620.094 8  91730909.541 8      2392.607          49.000
R05  19731942.531 6 105478545.462 6     -1535.766          37.000    19731953.266 5  82038903.438 5     -1194.484          35.000
R06  20730578.586 5 110622330.478 5      2231.160          30.000
R20  20152623.992 6 107765138.822 6     -2678.613          39.000    20152628.609 8  83817324.405 8     -2083.366          49.000
C14  25424004.828 5 132389464.761 5     -2701.855          31.000    25423999.430 5 102371879.995 5     -2089.406          33.000
C25  26000463.102 7 135391230.756 7      2826.367          42.000
C27  22439680.055 8 116849274.509 8      -945.988          48.000
C28  24349832.812 5 126795989.249 5     -3275.934          30.000
E07  23895190.484 8 125570075.212 8     -1238.840          51.000    23895193.539 8  96216051.620 8      -949.220          51.000
E13  27621769.703 5 145153370.819 5     -3138.398          34.000    27621772.156 5 111221434.601 5     -2404.672          32.000
E19  27936775.891 6 146808746.995 6      2639.711          38.000    27936776.727 6 112489824.161 6      2022.642          41.000
E26  22975156.812 8 120735257.703 8     -1705.574          51.000    22975159.766 8  92511438.146 8     -1306.824          51.000
> 2020 05 06 22 13 30.0000000  0 15        .000000000000
G01  22397516.086 8 117699723.311 8     -3049.707          50.000    22397517.211 8  91714074.905 8     -2376.395          50.000
G03  20620492.367 8 108361428.614 8     -1045.684          51.000    20620494.062 8  84437497.706 8      -814.818          51.000
G04  20499857.516 8 107727545.367 8      1226.141          49.000    20499858.867 8  83943545.990 8       955.434          49.000
G09  22384086.820 8 117629270.919 8      3065.816          50.000    22384089.461 8  91659124.404 8      2388.951          50.000
G19  22159406.562 5 116448456.918 5       195.285          35.000
R05  19740570.227 6 105524632.659 6     -1542.328          38.000    19740577.055 5  82074749.042 5     -1199.589          34.000
R06  20718038.930 4 110555424.447 4      2224.773          28.000
R20  20167682.992 6 107845666.428 6     -2695.273          39.000    20167687.750 8  83879956.991 8     -2096.324          49.000
C14  25439540.664 5 132470369.395 5     -2696.859          30.000    25439536.234 5 102434440.605 5     -2085.576          34.000
C25  25984156.727 6 135306320.235 6      2829.047          40.000
C27  22445147.469 8 116877744.784 8      -957.359          48.000
E07  23902254.391 8 125607196.765 8     -1241.211          51.000    23902257.500 8  96244495.391 8      -951.082          51.000
E13  27639663.195 5 145247409.992 5     -3135.406          31.000
E19  27921686.359 6 146729452.238 6      2641.438          39.000    27921687.625 6 112429065.874 6      2023.923          41.000
E26  22984896.023 8 120786437.163 8     -1711.805          51.000    22984899.141 8  92550653.605 8     -1311.625          51.000
> 2020 05 06 22 14  0.0000000  0 15        .000000000000
G01  22414969.906 8 117791443.784 8     -3055.055          49.000    22414970.984 8  91785545.398 8     -2380.565          49.000
G03  20626504.703 8 108393024.053 8     -1050.801          51.000    20626506.477 8  84462117.535 8      -818.806          51.000
G04  20492922.336 8 107691100.362 8      1213.523          50.000    20492923.586 8  83915147.322 8       945.606          50.000
G09  22366628.836 8 117537527.067 8      3060.344          50.000    22366631.305 8  91587635.729 8      2384.686          50.000
G17  22179838.625 6 116555836.481 6      -957.531          36.000
G19  22158368.359 5 116442985.330 5       177.684          30.000
R05  19749277.125 6 105571167.891 6     -1549.875          38.000    19749274.312 5  82110943.010 5     -1205.458          30.000
R20  20182881.336 6 107926939.559 6     -2713.023          39.000    20182886.133 8  83943169.435 8     -2110.129          48.000
C14  25455094.695 4 132551360.777 4     -2694.344          28.000    25455091.703 5 102497077.511 5     -2082.821          33.000
C25  25967881.617 6 135221571.088 6      2830.508          41.000
C27  22450726.430 8 116906798.508 8      -969.770          49.000
C28  24387588.953 5 126992565.569 5     -3276.734          31.000
E07  23909378.406 8 125644633.296 8     -1244.496          51.000    23909381.336 8  96273180.516 8      -953.608          51.000
E19  27906633.844 6 146650353.513 6      2642.000          40.000    27906636.234 7 112368457.782 7      2024.297          42.000
E26  22994717.062 8 120838047.672 8     -1718.930          51.000    22994720.578 8  92590199.328 8     -1317.099          51.000
> 2020 05 06 22 14 30.0000000  0 15        .000000000000
G01  22432462.102 8 117883367.379 8     -3068.238          49.000    22432464.031 8  91857174.155 8     -2390.838          49.000
G03  20632555.273 8 108424820.354 8     -1063.727          51.000    20632557.195 8  84486893.879 8      -828.878          51.000
G04  20486067.789 8 107655078.849 8      1193.035          51.000    20486068.734 8  83887078.625 8       929.638          50.000
G09  22349210.398 8 117445992.255 8      3047.109          49.000    22349212.836 8  91516309.929 8      2374.371          49.000
G17  22185381.875 5 116584960.824 5      -978.672          35.000
G22  22201845.508 5 116671501.515 5     -2084.945          35.000
R05  19758032.977 6 105617973.257 6     -1564.816          38.000    19758032.891 5  82147347.193 5     -1217.076          34.000
R20  20198185.438 6 108008779.233 6     -2737.602          39.000    20198190.227 7  84006822.507 7     -2129.249          47.000
C14  25470634.516 4 132632277.537 4     -2696.699          28.000    25470632.805 4 102559682.628 4     -2085.721          29.000
C25  25951604.883 6 135136814.260 6      2824.840          39.000
C27  22456384.539 8 116936263.320 8      -989.566          50.000
C28  24406510.328 5 127091076.595 5     -3285.547          35.000
E07  23916529.305 8 125682210.592 8     -1255.527          51.000    23916532.055 8  96301973.507 8      -962.006          51.000
E19  27891585.898 6 146571278.559 6      2634.773          41.000    27891589.680 7 112307867.922 7      2018.855          42.000
E26  23004587.094 8 120889915.452 8     -1733.762          51.000    23004590.703 8  92629942.171 8     -1328.482          51.000
> 2020 05 06 22 15  0.0000000  0 16        .000000000000
G01  22450021.172 8 117975642.130 8     -3074.840          49.000    22450023.859 8  91929076.558 8     -2395.979          49.000
G03  20638672.492 8 108456966.771 8     -1070.500          51.000    20638674.609 8  84511943.019 8      -834.156          51.000
G04  20479322.289 8 107619630.930 8      1178.922          50.000    20479323.000 8  83859456.878 8       918.640          50.000
G09  22331860.414 8 117354817.749 8      3039.969          49.000    22331862.586 8  91445264.891 8      2368.807          48.000
G17  22191036.406 5 116614684.259 5      -994.102          32.000
G31  23496224.891 5 123473478.389 5     -1223.668          34.000
R05  19766868.430 6 105665199.106 6     -1574.035          41.000    19766870.672 5  82184078.496 5     -1224.247          34.000
R20  20213623.758 6 108091334.499 6     -2756.844          38.000    20213628.211 7  84071032.140 7     -2144.215          47.000
C14  25486190.695 5 132713281.683 5     -2694.883          31.000
C24  25526355.555 5 132922427.294 5      1059.695          31.000
C25  25935354.969 6 135052200.721 6      2824.910          38.000
C27  22462150.297 8 116966286.722 8     -1003.270          50.000
C28  24425472.844 6 127189805.942 6     -3288.270          38.000
E07  23923735.156 8 125720077.238 8     -1260.086          51.000    23923738.070 8  96330988.216 8      -965.559          51.000
E19  27876571.258 7 146492377.486 7      2634.133          42.000    27876576.375 7 112247411.305 7      2018.215          42.000
E26  23014534.562 8 120942189.478 8     -1742.359          51.000    23014537.953 8  92669996.285 8     -1335.031          51.000
> 2020 05 06 22 15 30.0000000  0 16        .000000000000
