     3.02           OBSERVATION DATA    M (MIXED)           RINEX VERSION / TYPE
SAVERINEX           SC600               20200502 095931 LCL PGM / RUN BY / DATE
       G = GPS       R = GLONASS       C = COMPASS          COMMENT
       S = SBAS      J = QZSS          E = GALILEO          COMMENT
BEAN                                                        MARKER NAME
1                                                           MARKER NUMBER
GEODETIC                                                    MARKER TYPE
Unige DICCA         GTER                                    OBSERVER / AGENCY
SC60291900056       SC600               2.12(191226)        REC # / TYPE / VERS
                    HEMA45          NONE                    ANT # / TYPE
  4509407.8091   693652.4678  4442337.6214                  APPROX POSITION XYZ
        0.0000        0.0000        0.0000                  ANTENNA: DELTA H/E/N
G    8 C1C L1C D1C S1C C2Y L2Y D2Y S2Y                      SYS / # / OBS TYPES
R    8 C1C L1C D1C S1C C2P L2P D2P S2P                      SYS / # / OBS TYPES
C    8 C1I L1I D1I S1I C7I L7I D7I S7I                      SYS / # / OBS TYPES
E    8 C1C L1C D1C S1C C7Q L7Q D7Q S7Q                      SYS / # / OBS TYPES
DBHZ                                                        COMMENT
     30.000                                                 INTERVAL
  2020    05    02    07    00    0.0000000     GPS         TIME OF FIRST OBS
  2020    05    02    07    59   30.0000000     GPS         TIME OF LAST OBS
     0                                                      RCV CLOCK OFFS APPL
G L1C  0.00000                                              SYS / PHASE SHIFT
G L2Y  0.00000                                              SYS / PHASE SHIFT
R L1C  0.00000                                              SYS / PHASE SHIFT
R L2P  0.25000                                              SYS / PHASE SHIFT
C L1I  0.00000                                              SYS / PHASE SHIFT
C L7I  0.00000                                              SYS / PHASE SHIFT
E L1C  0.50000                                              SYS / PHASE SHIFT
E L7Q -0.25000                                              SYS / PHASE SHIFT
 12 R02 -4 R03  5 R04  6 R05  1 R10 -5 R12 -1 R13 -2 R14 -7 GLONASS SLOT / FRQ #
    R15  0 R17  4 R18 -3 R23  3                             GLONASS SLOT / FRQ #
 C1C   71.950 C2C   71.950 C2P   71.950                     GLONASS COD/PHS/BIS
    18                                                      LEAP SECONDS
*** Above antenna height is from mark to ANTENNA BOTTOM.    COMMENT
    17     4        0.0000        ANT MEASURE TYPE/HEIGT    COMMENT
    0.0000    0.0000    0.0458    0.0405    0.0000          COMMENT
                    BASE STATION                            COMMENT
                                                            END OF HEADER
> 2020 05 02 07 00  0.0000000  0 14        .000000000000
G12  23222304.695 6 122034041.256 6      3560.523          38.000    23222299.180 6  95091485.812 6      2774.437          37.000
G13  21438941.117 8 112662376.324 8     -2552.105          48.000    21438941.828 8  87788862.979 8     -1988.654          48.000
G15  20590966.773 8 108206251.425 8     -1322.645          51.000    20590966.383 8  84316563.649 8     -1030.632          51.000
G19  22480560.109 7 118136153.560 7      2431.141          42.000    22480557.438 6  92054114.408 6      1894.395          37.000
G28  23148521.516 5 121646287.818 5     -2926.422          34.000
R04  20867712.750 8 111745645.156 8     -3550.906          51.000    20867712.484 7  86913261.773 7     -2761.819          44.000
R05  19848234.500 4 106100247.153 4       378.297          28.000    19848239.922 4  82522394.835 4       294.234          29.000
R14  20184790.047 6 107596273.629 6     -1996.012          36.000    20184795.438 6  83686003.454 6     -1552.454          40.000
R23  22490766.742 6 120310427.705 6       484.473          37.000
C05                                                                  39751577.508 5 160063129.780 5        19.150          35.000
C23  21918074.797 8 114133236.958 8      -196.176          51.000
E02  23846822.602 8 125315872.291 8     -1367.203          51.000    23846824.227 8  96021325.672 8     -1047.570          51.000
E08  22392905.031 8 117675499.181 8     -1969.699          50.000    22392907.297 8  90166943.215 8     -1509.259          51.000
E30  22610721.516 8 118820138.672 8      1126.031          51.000    22610723.766 8  91043995.407 8       862.818          51.000
> 2020 05 02 07 00 30.0000000  0 14        .000000000000
G12  23202000.188 6 121927342.338 6      3553.523          39.000    23201994.359 6  95008343.810 6      2768.976          40.000
G13  21453548.648 7 112739140.787 7     -2564.625          47.000    21453549.820 7  87848679.423 7     -1998.409          47.000
G15  20598568.789 8 108246202.424 8     -1340.055          51.000    20598568.664 8  84347694.278 8     -1044.198          51.000
G19  22466726.266 7 118063454.874 7      2416.250          43.000    22466723.625 5  91997466.125 5      1882.792          35.000
G28  23165241.016 5 121734157.163 5     -2931.277          33.000
R04  20887654.805 8 111852430.238 8     -3567.258          51.000    20887653.648 7  86996316.770 7     -2774.534          45.000
R05  19846193.344 6 106089250.993 6       350.926          36.000    19846192.898 5  82513878.803 5       272.945          31.000
R14  20196050.992 6 107656298.738 6     -2004.590          37.000    20196054.961 6  83732689.584 6     -1559.128          39.000
R15  19936652.891 5 106535464.073 5      1213.188          32.000
R23  22488126.031 6 120296294.758 6       458.801          40.000
C23  21919230.188 8 114139254.361 8      -204.184          51.000
E02  23854647.992 8 125356995.409 8     -1373.492          51.000    23854649.820 8  96052835.578 8     -1052.440          51.000
E08  22404181.531 8 117734760.701 8     -1980.180          51.000    22404185.039 8  90212351.397 8     -1517.319          51.000
E30  22604319.195 8 118786496.543 8      1117.656          51.000    22604321.547 8  91018217.680 8       856.392          51.000
> 2020 05 02 07 01  0.0000000  0 15        .000000000000
G12  23181749.953 6 121820930.831 6      3545.539          39.000    23181743.930 6  94925425.758 6      2762.761          40.000
G13  21468241.648 7 112816356.577 7     -2578.012          46.000    21468243.266 7  87908847.631 7     -2008.840          45.000
G15  20606284.344 8 108286750.083 8     -1358.234          51.000    20606284.562 8  84379289.824 8     -1058.367          51.000
G17  22428235.180 6 117861183.583 6       476.504          38.000
G19  22452990.305 7 117991271.681 7      2400.828          43.000    22452988.086 6  91941219.513 6      1870.778          37.000
G28  23182002.164 6 121822241.606 6     -2936.129          36.000
R04  20907701.508 8 111959779.281 8     -3584.270          50.000    20907700.594 7  87079810.428 7     -2787.768          44.000
R05  19844319.945 5 106079220.109 5       323.145          34.000    19844317.922 5  82506077.093 5       251.335          30.000
R14  20207374.734 6 107716662.853 6     -2014.594          39.000    20207378.344 6  83779639.316 6     -1566.912          39.000
R23  22485644.539 7 120283014.435 7       431.719          42.000
C05                                                                  39751307.883 5 160062043.724 5        19.129          34.000
C23  21920446.320 8 114145587.801 8      -213.043          51.000
E02  23862522.977 8 125398379.078 8     -1380.367          51.000    23862524.945 8  96084545.117 8     -1057.702          51.000
E08  22415532.680 8 117794411.037 8     -1991.418          51.000    22415536.250 8  90258057.491 8     -1525.940          51.000
E30  22597978.586 8 118753178.707 8      1108.648          51.000    22597981.156 8  90992688.427 8       849.430          51.000
> 2020 05 02 07 01 30.0000000  0 16        .000000000000
G12  23161523.430 6 121714649.799 6      3538.965          37.000    23161518.180 6  94842609.408 6      2757.638          36.000
G13  21482990.484 7 112893863.405 7     -2590.164          47.000    21482991.906 7  87969242.598 7     -2018.310          46.000
G15  20614083.156 8 108327734.348 8     -1375.301          51.000    20614083.680 8  84411225.597 8     -1071.663          51.000
G17  22425559.438 5 117847124.955 5       459.582          35.000
G19  22439323.023 7 117919448.463 7      2386.090          43.000    22439321.414 6  91885253.403 6      1859.294          38.000
G28  23198774.930 5 121910380.749 5     -2940.863          35.000
R04  20927821.852 8 112067526.582 8     -3599.984          48.000    20927822.148 7  87163613.853 7     -2799.988          43.000
R05  19842581.234 6 106069929.278 6       295.703          36.000    19842579.742 4  82498850.747 4       229.988          28.000
R14  20218730.758 6 107777202.754 6     -2022.871          40.000    20218734.805 6  83826725.891 6     -1573.341          37.000
R15  19923189.406 4 106463499.295 4      1187.199          29.000
R23  22483291.820 6 120270425.980 6       406.141          40.000
C05                                                                  39751161.664 5 160061455.100 5        19.398          34.000
C23  21921692.836 8 114152079.307 8      -220.828          51.000
E02  23870417.172 8 125439863.257 8     -1386.316          51.000    23870419.047 8  96116331.670 8     -1062.272          51.000
E08  22426927.711 8 117854290.234 8     -2001.613          51.000    22426930.844 8  90303938.930 8     -1533.680          51.000
E30  22591669.469 8 118720026.002 8      1100.504          51.000    22591672.719 8  90967285.703 8       843.237          51.000
> 2020 05 02 07 02  0.0000000  0 16        .000000000000
G12  23141343.461 6 121608617.596 6      3530.605          36.000    23141338.984 6  94759986.958 6      2751.124          37.000
G13  21497817.398 8 112971777.014 8     -2603.855          51.000    21497818.180 7  88029954.467 7     -2028.981          44.000
G15  20621987.016 8 108369271.098 8     -1393.691          51.000    20621987.781 8  84443591.865 8     -1085.993          51.000
G17  22422993.188 5 117833642.856 5       440.004          33.000    22423008.281 5  91818496.687 5       342.869          30.000
G19  22425747.492 7 117848104.801 7      2370.074          46.000    22425745.484 6  91829660.969 6      1846.808          38.000
G24  21047249.992 4 110604044.504 4      1833.336          29.000
G28  23215579.766 5 121998689.070 5     -2946.234          35.000
R04  20948037.711 8 112175787.215 8     -3617.125          48.000    20948038.664 7  87247816.533 7     -2813.319          42.000
R05  19841005.102 5 106061497.796 5       266.977          34.000    19841001.797 4  82492293.072 4       207.651          26.000
R14  20230142.344 6 107838034.964 6     -2032.629          41.000    20230146.227 6  83874039.778 6     -1580.934          38.000
R15  19916572.250 5 106428113.966 5      1173.453          33.000    19916577.938 4  82777427.212 4       912.689          28.000
R23  22481089.422 6 120258649.304 6       378.867          37.000
C23  21922991.977 8 114158844.141 8      -230.023          51.000
E02  23878352.555 8 125481563.595 8     -1393.660          51.000    23878354.148 8  96148283.850 8     -1067.834          51.000
E08  22438388.312 8 117914513.985 8     -2013.176          51.000    22438390.852 8  90350084.382 8     -1542.605          51.000
E30  22585414.273 8 118687154.940 8      1090.996          51.000    22585418.266 8  90942098.789 8       835.943          51.000
> 2020 05 02 07 02 30.0000000  0 14        .000000000000
G12  23121188.391 6 121502716.038 6      3517.418          37.000    23121184.820 6  94677466.365 6      2740.845          37.000
G13  21512698.875 8 113049975.640 8     -2621.867          51.000    21512698.578 7  88090888.409 7     -2043.016          44.000
G15  20629973.227 8 108411239.199 8     -1416.730          51.000    20629974.133 8  84476294.254 8     -1103.946          51.000
G19  22412240.891 7 117777123.797 7      2349.402          44.000    22412237.914 6  91774351.064 6      1830.703          36.000
R04  20968326.648 8 112284434.686 8     -3638.711          49.000    20968327.789 7  87332320.067 7     -2830.112          42.000
R14  20241586.477 7 107899036.218 7     -2046.750          44.000    20241590.102 6  83921485.168 6     -1591.920          39.000
R15  19910006.430 5 106393006.048 5      1154.773          32.000    19910006.047 5  82750121.116 5       898.157          30.000
R23  22479015.125 6 120247563.362 6       347.309          36.000
C05                                                                  39750860.258 5 160060240.850 5        14.704          34.000
C23  21924320.852 8 114165762.833 8      -243.582          51.000
C25  24197010.281 5 126000179.439 5     -2336.605          34.000
E02  23886306.008 8 125523358.835 8     -1405.242          51.000    23886307.367 8  96180308.752 8     -1076.708          51.000
E08  22449891.102 8 117974961.134 8     -2029.125          51.000    22449893.219 8  90396400.999 8     -1554.781          51.000
E30  22579190.094 8 118654445.136 8      1077.133          51.000    22579194.414 8  90917035.424 8       825.356          51.000
> 2020 05 02 07 03  0.0000000  0 16        .000000000000
G12  23101109.406 6 121397210.488 6      3514.711          38.000    23101106.461 6  94595254.343 6      2738.739          38.000
G13  21527684.398 8 113128721.433 8     -2629.391          51.000    21527683.438 7  88152248.681 7     -2048.879          44.000
G15  20638091.789 8 108453901.212 8     -1428.977          51.000    20638092.625 8  84509537.365 8     -1113.491          51.000
G17  22418179.016 6 117808319.751 6       402.215          36.000    22418179.711 5  91798669.631 5       313.411          35.000
G19  22398853.391 7 117706771.517 7      2339.043          43.000    22398850.172 5  91719531.170 5      1822.634          35.000
R04  20988737.844 8 112393733.843 8     -3649.430          50.000    20988739.430 7  87417330.480 7     -2838.445          42.000
R05  19838317.016 5 106047167.786 5       211.062          33.000
R14  20253112.555 7 107960471.909 7     -2050.395          44.000    20253115.484 6  83969268.466 6     -1594.751          39.000
R15  19903544.289 5 106358458.338 5      1146.992          31.000    19903540.711 5  82723250.630 5       892.105          32.000
R23  22477121.812 6 120237437.350 6       326.090          40.000
C05                                                                  39750732.156 5 160059725.770 5        17.996          35.000
C23  21925729.445 8 114173096.103 8      -246.797          51.000
C25  24210474.812 5 126070226.332 5     -2335.137          31.000
E02  23894327.461 8 125565511.514 8     -1406.484          51.000    23894328.703 8  96212607.532 8     -1077.705          51.000
E08  22461486.125 8 118035894.209 8     -2034.605          51.000    22461488.078 8  90443089.953 8     -1558.947          51.000
E30  22573046.992 8 118622159.896 8      1073.656          51.000    22573050.805 8  90892297.374 8       822.690          51.000
> 2020 05 02 07 03 30.0000000  0 12        .000000000000
G12  23081058.836 6 121291848.872 6      3508.957          37.000    23081056.289 6  94513154.464 6      2734.255          37.000
G13  21542725.359 8 113207759.509 8     -2640.406          51.000    21542724.094 7  88213836.727 7     -2057.459          44.000
G15  20646294.133 8 108497002.630 8     -1444.887          51.000    20646294.664 8  84543122.868 8     -1125.886          51.000
G19  22385538.117 7 117636797.638 7      2325.289          42.000    22385534.211 5  91665006.080 5      1811.917          35.000
R04  21009221.805 8 112503422.346 8     -3663.668          50.000    21009223.703 7  87502643.743 7     -2849.520          43.000
R05  19837205.805 5 106041230.277 5       184.789          34.000
R14  20264671.000 7 108022083.375 7     -2057.547          42.000    20264673.320 6  84017188.465 6     -1600.314          40.000
R23  22475360.633 7 120228013.993 7       301.359          42.000
C23  21927169.305 8 114180592.346 8      -253.496          51.000
E02  23902368.422 8 125607767.033 8     -1411.230          51.000    23902369.656 8  96244985.117 8     -1081.389          51.000
E08  22473125.477 8 118097058.668 8     -2043.691          51.000    22473127.172 8  90489956.205 8     -1565.921          51.000
E30  22566936.398 8 118590045.507 8      1066.645          51.000    22566939.156 8  90867690.227 8       817.302          51.000
> 2020 05 02 07 04  0.0000000  0 13        .000000000000
G12  23061051.258 6 121186708.106 6      3500.633          36.000    23061047.789 6  94431226.744 6      2727.769          37.000
G13  21557835.797 8 113287163.059 8     -2652.773          51.000    21557834.328 7  88275709.591 7     -2067.099          45.000
G15  20654594.133 8 108540617.121 8     -1462.266          51.000    20654594.227 8  84577108.179 8     -1139.428          51.000
G19  22372308.602 6 117567279.834 6      2309.504          40.000    22372304.055 5  91610836.404 5      1799.620          35.000
R04  21029791.719 8 112613572.442 8     -3679.180          49.000    21029794.234 7  87588316.032 7     -2861.584          44.000
R05  19836248.633 6 106036118.970 6       156.574          37.000
R14  20276275.195 6 108083944.376 6     -2066.176          39.000    20276278.203 6  84065302.587 6     -1607.023          39.000
R23  22473745.375 6 120219370.402 6       275.305          40.000
C05                                                                  39750441.250 5 160058554.324 5        20.220          34.000
C23  21928654.547 8 114188325.192 8      -261.555          51.000
E02  23910442.930 8 125650199.020 8     -1417.195          51.000    23910444.219 8  96277497.914 8     -1085.924          51.000
E08  22484823.172 8 118158528.152 8     -2053.988          51.000    22484824.453 8  90537056.189 8     -1573.817          51.000
E30  22560872.312 8 118558176.442 8      1058.324          51.000    22560874.180 8  90843271.062 8       810.939          51.000
> 2020 05 02 07 04 30.0000000  0 15        .000000000000
G12  23041088.781 5 121081801.417 5      3493.172          35.000    23041082.484 6  94349481.422 6      2721.955          37.000
G13  21573017.531 8 113366942.421 8     -2665.125          51.000    21573016.352 7  88337875.282 7     -2076.721          45.000
G15  20662993.891 8 108584755.251 8     -1479.594          51.000    20662993.609 8  84611501.529 8     -1152.930          51.000
G17  22411735.805 5 117774464.487 5       348.652          33.000
G19  22359168.492 6 117498232.419 6      2294.316          41.000    22359164.422 5  91557033.219 5      1787.779          34.000
R04  21050449.125 8 112724191.911 8     -3694.742          48.000    21050452.273 7  87674353.387 7     -2873.688          44.000
R05  19835448.836 6 106031846.079 6       128.930          38.000    19835452.820 5  82469216.867 5       100.276          31.000
R14  20287929.172 6 108146065.140 6     -2074.473          39.000    20287932.602 6  84113618.759 6     -1613.476          40.000
R23  22472277.273 6 120211519.394 6       248.613          36.000
C05                                                                  39750294.594 5 160057963.726 5        20.247          35.000
C23  21930187.336 8 114196305.713 8      -269.770          51.000
C25  24250864.516 4 126280615.188 4     -2340.926          28.000
E02  23918553.062 8 125692818.048 8     -1423.336          51.000    23918554.352 8  96310154.031 8     -1090.617          51.000
E08  22496580.945 8 118220313.290 8     -2064.387          51.000    22496581.625 8  90584398.030 8     -1581.770          51.000
E30  22554856.898 8 118526564.068 8      1049.832          51.000    22554858.242 8  90819048.591 8       804.423          51.000
> 2020 05 02 07 05  0.0000000  0 14        .000000000000
G13  21588263.648 8 113447060.189 8     -2668.246          51.000    21588262.477 7  88400304.669 7     -2079.156          45.000
G15  20671486.094 8 108629379.750 8     -1487.496          51.000    20671485.336 8  84646273.888 8     -1159.088          51.000
G17  22409788.023 5 117764226.108 5       339.766          32.000    22409790.258 5  91764338.690 5       264.752          32.000
G19  22346111.523 6 117429622.622 6      2287.582          39.000    22346109.781 6  91503571.072 6      1782.534          36.000
R04  21071186.172 7 112835240.196 7     -3700.570          47.000    21071190.141 7  87760724.240 7     -2878.224          44.000
R05  19834798.086 5 106028375.555 5       110.750          35.000    19834801.227 4  82466517.619 4        86.148          28.000
R14  20299625.070 6 108208407.625 6     -2073.633          41.000    20299628.570 6  84162107.328 6     -1612.826          39.000
R15  19878325.664 5 106223739.684 5      1106.375          32.000    19878323.555 4  82618458.212 4       860.517          27.000
R23  22470951.938 6 120204425.276 6       231.953          38.000
C05                                                                  39750141.391 5 160057347.271 5        27.245          35.000
C23  21931760.641 8 114204497.828 8      -268.691          51.000
E02  23926691.641 8 125735587.029 8     -1420.117          51.000    23926692.898 8  96342925.049 8     -1088.169          51.000
E08  22508391.320 8 118282376.954 8     -2065.449          51.000    22508391.633 8  90631953.290 8     -1582.671          51.000
E30  22548883.266 8 118495172.134 8      1050.719          51.000    22548884.320 8  90794995.031 8       805.084          51.000
> 2020 05 02 07 05 30.0000000  0 14        .000000000000
G13  21603565.406 8 113527470.940 8     -2711.621          51.000    21603563.953 7  88462962.375 7     -2112.955          46.000
G15  20680061.875 8 108674446.062 8     -1535.992          51.000    20680060.820 8  84681390.493 8     -1196.877          51.000
G19  22333129.891 6 117361409.111 6      2240.910          39.000    22333130.352 6  91450417.629 6      1746.158          38.000
R04  21091993.703 7 112946668.536 7     -3747.402          45.000    21091998.414 7  87847390.713 7     -2914.646          43.000
R05  19834289.031 5 106025663.261 5        51.176          35.000    19834298.500 5  82464408.120 5        39.806          33.000
R14  20311353.320 6 108270925.415 6     -2113.676          39.000    20311357.055 6  84210732.262 6     -1643.970          37.000
R23  22469759.695 6 120198044.084 6       173.840          38.000
C05                                                                  39749972.953 5 160056668.349 5         3.274          34.000
C23  21933365.984 8 114212857.655 8      -307.637          51.000
C25  24277897.016 5 126421340.161 5     -2370.340          31.000
E02  23934850.156 8 125778461.080 8     -1457.363          51.000    23934851.484 8  96375776.563 8     -1116.651          51.000
E08  22520246.039 8 118344674.294 8     -2106.953          51.000    22520246.086 8  90679687.576 8     -1614.440          51.000
E27  27537276.750 7 144709362.824 7      2512.434          42.000    27537282.680 7 110881220.604 7      1925.129          43.000
E30  22542942.898 8 118463956.517 8      1011.043          51.000    22542943.898 8  90771076.556 8       774.692          51.000
> 2020 05 02 07 06  0.0000000  0 16        .000000000000
G13  21618996.562 8 113608564.551 8     -2701.340          51.000    21618995.617 7  88526152.168 7     -2104.943          46.000
G15  20688795.836 8 108720344.517 8     -1530.738          51.000    20688794.734 8  84717155.498 8     -1192.786          51.000
G17  22406246.406 5 117745620.008 5       294.230          31.000    22406247.359 5  91749834.566 5       229.264          30.000
G19  22320298.570 6 117293986.495 6      2247.086          36.000    22320300.711 5  91397880.463 5      1750.970          35.000
R04  21112946.133 7 113058872.076 7     -3739.621          45.000    21112950.758 7  87934660.050 7     -2908.597          42.000
R05  19833996.844 5 106024107.981 5        45.941          35.000    19834005.602 4  82463212.377 4        35.738          24.000
R14  20323187.781 5 108334014.262 5     -2099.086          34.000    20323192.102 5  84259801.328 5     -1632.622          35.000
R15  19866174.719 4 106158859.430 4      1071.703          28.000    19866174.703 4  82567962.573 4       833.541          28.000
R23  22468773.070 4 120192775.469 4       170.477          29.000
C05                                                                  39749863.773 5 160056228.942 5        21.235          35.000
C23  21935077.898 8 114221772.814 8      -293.465          51.000
C25  24291473.414 5 126492082.415 5     -2350.816          33.000
E02  23943103.055 8 125821830.701 8     -1440.617          51.000    23943104.594 8  96409007.811 8     -1103.799          51.000
E08  22532219.664 8 118407595.738 8     -2094.605          51.000    22532219.188 8  90727900.074 8     -1604.919          51.000
E27  27522860.055 7 144633599.287 7      2531.582          43.000    27522865.938 7 110823168.026 7      1939.891          44.000
E30  22537110.219 8 118433308.532 8      1025.371          51.000    22537111.711 8  90747593.017 8       785.701          51.000
> 2020 05 02 07 06 30.0000000  0 15        .000000000000
G12  22961681.664 5 120664465.624 5      3468.535          34.000    22961681.281 5  94024238.722 5      2702.755          32.000
G13  21634447.227 7 113689765.264 7     -2708.137          46.000    21634447.672 7  88589425.419 7     -2110.236          46.000
G15  20697578.703 8 108766499.201 8     -1542.496          51.000    20697577.797 8  84753120.173 8     -1201.945          51.000
G19  22307510.180 6 117226783.282 6      2236.434          40.000    22307511.617 6  91345514.242 6      1742.676          37.000
G28  23367955.828 5 122799434.701 5     -2979.180          33.000
R04  21133933.562 7 113171261.121 7     -3749.129          45.000    21133937.203 7  88022073.676 7     -2915.992          42.000
R05  19833812.141 6 106023125.596 6        23.547          36.000    19833823.656 4  82462423.406 4        18.314          27.000
R14  20335019.812 6 108397089.470 6     -2101.824          39.000    20335024.625 5  84308859.731 5     -1634.755          35.000
C05                                                                  39749704.789 5 160055588.339 5        24.750          35.000
C23  21936787.062 8 114230673.543 8      -296.266          51.000
C25  24304981.281 5 126562432.762 5     -2347.625          33.000
E02  23951340.758 8 125865120.238 8     -1441.387          51.000    23951342.648 8  96442177.704 8     -1104.454          51.000
E08  22544202.445 8 118470565.643 8     -2099.621          51.000    22544201.625 8  90776149.712 8     -1608.708          51.000
E27  27508413.406 7 144557679.790 7      2533.520          44.000    27508419.602 7 110764995.963 7      1941.184          44.000
E30  22531276.305 8 118402653.352 8      1022.145          51.000    22531278.367 8  90724103.977 8       783.238          51.000
> 2020 05 02 07 07  0.0000000  0 16        .000000000000
G12  22941953.562 6 120560797.484 6      3453.309          36.000    22941954.375 6  93943458.303 6      2690.890          37.000
G13  21649988.719 7 113771443.182 7     -2727.145          44.000    21649990.758 7  88653070.520 7     -2125.048          44.000
G15  20706480.859 8 108813281.017 8     -1566.316          51.000    20706480.414 8  84789573.525 8     -1220.506          51.000
G19  22294835.570 7 117160173.344 7      2213.922          44.000    22294836.703 6  91293610.464 6      1725.134          37.000
R04  21155025.234 7 113284210.302 7     -3770.781          46.000    21155029.336 7  88109923.016 7     -2932.830          43.000
R05  19833806.523 6 106023094.632 6       -11.316          38.000
R14  20346921.086 6 108460526.149 6     -2117.039          38.000    20346924.844 5  84358199.275 5     -1646.589          35.000
R15  19854291.094 5 106095305.495 5      1045.340          33.000    19854296.211 5  82518591.184 5       813.042          31.000
R23  22467167.602 5 120184153.931 5       116.125          32.000    22467179.844 4  93476629.466 4        90.316          26.000
C05                                                                  39749566.414 5 160055031.636 5        19.824          35.000
C23  21938564.086 8 114239927.505 8      -310.852          51.000
C25  24318563.914 5 126633159.966 5     -2357.363          31.000
E02  23959633.695 8 125908700.129 8     -1453.961          51.000    23959635.906 8  96475570.078 8     -1114.071          51.000
E08  22556264.570 8 118533954.388 8     -2116.406          51.000    22556264.109 8  90824720.265 8     -1621.674          51.000
E27  27494007.492 7 144481976.210 7      2523.391          44.000    27494014.086 7 110706989.334 7      1933.519          44.000
E30  22525512.000 8 118372362.175 8      1007.125          51.000    22525514.438 8  90700893.869 8       771.729          51.000
> 2020 05 02 07 07 30.0000000  0 17        .000000000000
G12  22922252.023 4 120457246.764 4      3448.090          29.000    22922255.008 4  93862795.900 4      2686.823          27.000
G13  21665582.992 7 113853394.555 7     -2736.809          44.000    21665585.922 7  88716928.740 7     -2132.575          45.000
G15  20715463.469 8 108860486.588 8     -1581.105          51.000    20715463.344 8  84826357.028 8     -1232.030          51.000
G19  22282236.125 7 117093957.786 7      2200.062          43.000    22282235.492 6  91242014.049 6      1714.337          36.000
G28  23402089.008 5 122978807.154 5     -2990.402          30.000
R04  21176183.430 8 113397510.015 8     -3782.879          49.000    21176187.438 7  88198044.971 7     -2942.242          45.000
R05  19833939.586 5 106023809.892 5       -36.691          35.000
R14  20358851.492 6 108524117.654 6     -2122.727          40.000    20358853.312 5  84407659.292 5     -1651.010          35.000
R15  19848451.086 5 106064099.417 5      1034.855          34.000    19848447.828 4  82494319.784 4       804.885          24.000
R23  22466587.680 5 120181022.180 5        92.207          33.000
C05                                                                  39749410.383 5 160054403.184 5        21.582          34.000
C23  21940370.414 8 114249334.231 8      -316.602          51.000
C25  24332148.484 5 126703884.252 5     -2357.723          34.000
E02  23967943.219 8 125952367.390 8     -1457.523          51.000    23967945.586 8  96509029.399 8     -1116.807          51.000
E08  22568367.984 8 118597558.997 8     -2124.270          51.000    22568368.047 8  90873456.203 8     -1627.630          51.000
E27  27479604.016 7 144406286.967 7      2522.223          44.000    27479610.875 7 110648993.692 7      1932.510          43.000
E30  22519778.625 8 118342232.845 8      1001.082          51.000    22519781.406 8  90677807.768 8       767.060          51.000
> 2020 05 02 07 08  0.0000000  0 16        .000000000000
G13  21681251.453 7 113935731.636 7     -2751.668          47.000    21681253.969 7  88781087.483 7     -2144.157          45.000
G15  20724548.273 8 108908228.113 8     -1601.109          51.000    20724547.922 8  84863558.173 8     -1247.621          51.000
G19  22269733.430 7 117028252.869 7      2180.941          42.000    22269730.766 5  91190815.464 5      1699.435          34.000
G28  23419184.961 5 123068649.064 5     -2997.637          30.000
R04  21197429.094 8 113511271.973 8     -3800.551          50.000    21197432.242 7  88286526.416 7     -2955.984          46.000
R05  19834233.789 6 106025386.881 6       -67.734          39.000    19834231.867 4  82464140.838 4       -52.682          25.000
R14  20370831.703 6 108587977.806 6     -2133.953          39.000    20370833.328 5  84457328.282 5     -1659.738          35.000
R15  19842685.094 5 106033299.836 5      1018.820          35.000
R23  22466153.289 5 120178708.367 5        63.059          32.000    22466157.586 4  93472383.094 4        49.046          27.000
C05                                                                  39749258.273 5 160053791.369 5        19.721          34.000
C23  21942227.648 8 114259005.745 8      -327.570          51.000
C25  24345753.438 5 126774717.559 5     -2363.254          31.000
E02  23976290.859 8 125996234.458 8     -1466.398          51.000    23976293.133 8  96542641.818 8     -1123.619          51.000
E08  22580534.438 8 118661491.779 8     -2137.371          51.000    22580534.969 8  90922443.626 8     -1637.732          51.000
E27  27465224.961 7 144330725.954 7      2515.699          43.000    27465231.758 7 110591096.287 7      1927.590          43.000
E30  22514097.570 8 118312378.552 8       989.703          51.000    22514100.617 8  90654932.399 8       758.395          51.000
> 2020 05 02 07 08 30.0000000  0 16        .000000000000
G12  22883013.789 5 120251081.351 5      3426.559          34.000    22882999.977 5  93702070.425 5      2670.043          33.000
G13  21696985.305 8 114018410.284 8     -2765.594          50.000    21696986.531 7  88845512.338 7     -2155.011          43.000
G15  20733726.922 8 108956461.813 8     -1619.930          51.000    20733726.156 8  84901142.822 8     -1262.283          51.000
G19  22257319.500 6 116963018.583 6      2162.281          36.000    22257316.453 5  91139983.633 5      1684.901          35.000
R04  21218752.461 8 113625448.223 8     -3816.766          50.000    21218754.508 7  88375330.115 7     -2968.599          46.000
R05  19834682.680 7 106027782.661 7       -97.398          42.000    19834680.297 4  82466016.226 4       -75.751          28.000
R14  20382853.383 6 108652061.563 6     -2144.188          40.000    20382856.781 5  84507171.196 5     -1667.698          34.000
R15  19836988.977 5 106002863.396 5      1004.762          30.000    19836999.812 4  82446694.812 4       781.478          25.000
R23  22465864.500 5 120177170.146 5        35.098          31.000    22465871.984 4  93471186.769 4        27.301          28.000
C05                                                                  39749101.977 5 160053161.582 5        18.286          34.000
C23  21944127.594 8 114268899.421 8      -337.410          51.000
C25  24359368.359 5 126845617.247 5     -2367.820          33.000
E02  23984668.352 8 126040257.682 8     -1473.914          51.000    23984670.461 8  96576373.886 8     -1129.375          51.000
E08  22592755.219 8 118725709.010 8     -2149.250          51.000    22592756.359 8  90971649.016 8     -1646.825          51.000
E27  27450862.273 7 144255250.882 7      2510.492          44.000    27450868.742 7 110533264.734 7      1923.594          42.000
E30  22508460.695 8 118282756.397 8       979.570          51.000    22508463.797 8  90632234.894 8       750.592          51.000
> 2020 05 02 07 09  0.0000000  0 17        .000000000000
G12  22863462.008 6 120148309.046 6      3425.711          40.000    22863442.156 6  93621988.181 6      2669.388          40.000
G13  21712788.805 8 114101453.639 8     -2770.012          51.000    21712788.312 7  88910221.383 7     -2158.454          43.000
G15  20743003.836 8 109005211.135 8     -1629.395          51.000    20743002.383 8  84939129.254 8     -1269.658          51.000
G17  22398100.117 5 117702824.621 5       186.574          33.000    22398095.773 5  91716453.145 5       145.383          32.000
G19  22244999.539 5 116898282.781 5      2153.125          35.000    22244998.398 5  91089540.113 5      1677.760          30.000
R04  21240156.273 8 113740060.122 8     -3823.348          49.000    21240157.969 7  88464472.678 7     -2973.718          46.000
R05  19835289.875 6 106031022.462 6      -117.707          41.000    19835283.945 4  82468528.026 4       -91.553          28.000
R14  20394921.578 6 108716392.168 6     -2144.172          41.000    20394926.305 5  84557206.112 5     -1667.692          32.000
R15  19831364.203 5 105972814.101 5       999.121          31.000
R23  22465724.172 5 120176436.254 5        15.508          31.000    22465737.234 4  93470641.608 4        12.059          27.000
C05                                                                  39748946.117 5 160052534.178 5        23.902          34.000
C23  21946074.781 8 114279039.202 8      -337.906          51.000
C25  24373001.797 5 126916615.475 5     -2363.801          30.000
E02  23993080.070 8 126084460.577 8     -1472.219          51.000    23993082.117 8  96610243.615 8     -1128.043          51.000
E08  22605034.289 8 118790234.144 8     -2151.738          51.000    22605036.359 8  91021090.328 8     -1648.723          51.000
E27  27436520.586 7 144179892.683 7      2514.574          44.000    27436526.203 7 110475519.171 7      1926.593          42.000
E30  22502872.812 8 118253390.669 8       978.824          51.000    22502875.641 8  90609733.881 8       749.963          51.000
> 2020 05 02 07 09 30.0000000  0 16        .000000000000
G12  22843957.430 6 120045804.570 6      3412.211          37.000    22843934.367 6  93542114.599 6      2658.869          37.000
G13  21728664.180 8 114184874.153 8     -2787.418          51.000    21728662.844 7  88975224.325 7     -2172.014          45.000
G15  20752381.328 8 109054489.072 8     -1651.906          51.000    20752379.422 8  84977527.616 8     -1287.203          51.000
G17  22397112.266 5 117697620.309 5       162.980          31.000    22397115.172 5  91712419.793 5       126.998          31.000
G19  22232779.641 6 116834062.250 6      2131.711          39.000    22232776.562 5  91039498.119 5      1661.073          31.000
R04  21261642.062 7 113855118.104 7     -3843.172          47.000    21261644.234 7  88553962.191 7     -2989.134          46.000
R05  19836057.484 6 106035120.647 6      -151.422          41.000    19836053.367 5  82471715.459 5      -117.779          32.000
R14  20407038.961 6 108780982.479 6     -2157.871          41.000    20407042.961 5  84607443.065 5     -1678.344          31.000
R15  19825816.148 6 105943166.108 6       981.641          36.000    19825830.359 4  82400274.414 4       763.501          28.000
R23  22465742.875 5 120176514.765 5       -16.383          35.000    22465749.336 4  93470702.542 4       -12.745          27.000
C05                                                                  39748793.359 5 160051919.484 5        20.443          34.000
C23  21948071.930 8 114289438.756 8      -351.480          51.000
E02  24001528.367 8 126128856.302 8     -1483.516          51.000    24001530.398 8  96644261.111 8     -1136.723          51.000
E08  22617373.898 8 118855080.278 8     -2167.352          51.000    22617376.969 8  91070777.598 8     -1660.656          51.000
E27  27422203.227 7 144104651.921 7      2505.473          45.000    27422209.383 7 110417871.708 7      1919.733          43.000
E30  22497336.367 8 118224295.329 8       964.891          51.000    22497338.898 8  90587440.039 8       739.344          51.000
> 2020 05 02 07 10  0.0000000  0 16        .000000000000
G12  22824510.508 6 119943602.382 6      3407.285          37.000    22824485.844 6  93462476.635 6      2655.030          36.000
G13  21744617.258 8 114268703.264 8     -2795.508          51.000    21744615.648 7  89040545.666 7     -2178.321          47.000
G15  20761865.281 8 109104327.328 8     -1664.980          51.000    20761863.484 8  85016362.572 8     -1297.387          51.000
G17  22396242.422 5 117693048.169 5       147.754          35.000
G19  22220664.484 6 116770392.427 6      2118.930          39.000    22220659.773 5  90989885.350 5      1651.120          32.000
R04  21283216.445 8 113970651.472 8     -3853.141          48.000    21283218.711 7  88643821.460 7     -2996.887          45.000
R05  19836991.766 7 106040110.852 7      -175.578          42.000    19836988.766 5  82475596.640 5      -136.561          33.000
R14  20419211.102 6 108845864.053 6     -2161.711          41.000    20419215.203 5  84657906.509 5     -1681.331          30.000
R15  19820350.016 5 105913952.503 5       972.547          30.000
R23  22465921.305 5 120177537.554 5       -39.480          34.000    22465922.164 4  93471414.333 4       -30.713          26.000
C05                                                                  39748650.023 5 160051342.338 5        22.996          34.000
C23  21950125.195 8 114300130.283 8      -355.648          51.000
E02  24010019.352 8 126173476.728 8     -1485.438          51.000    24010021.242 8  96678450.775 8     -1138.183          51.000
E08  22629780.328 8 118920279.139 8     -2173.426          51.000    22629784.281 8  91120735.155 8     -1665.367          51.000
E27  27407915.812 7 144029572.829 7      2505.621          44.000    27407922.422 7 110360341.821 7      1920.047          43.000
E30  22491857.289 8 118195502.951 8       960.379          51.000    22491859.609 8  90565378.355 8       735.848          51.000
> 2020 05 02 07 10 30.0000000  0 16        .000000000000
G12  22805104.781 5 119841643.042 5      3383.535          32.000    22805104.859 5  93383098.802 5      2636.515          32.000
G13  21760657.211 8 114352990.777 8     -2822.371          51.000    21760655.641 7  89106224.214 7     -2199.250          47.000
G15  20771465.359 8 109154776.003 8     -1696.930          51.000    20771463.898 8  85055673.191 8     -1322.283          51.000
G17  22395500.133 5 117689145.692 5       113.461          35.000    22395500.805 5  91705814.658 5        88.405          35.000
G19  22208664.141 7 116707327.416 7      2086.527          43.000    22208658.359 5  90940743.797 5      1625.865          34.000
R04  21304889.383 8 114086708.579 8     -3882.551          50.000    21304891.422 7  88734088.055 7     -3019.765          46.000
R05  19838101.898 6 106046045.542 6      -218.387          41.000    19838100.805 5  82480212.494 5      -169.856          35.000
R14  20431446.883 6 108911087.538 6     -2184.742          38.000    20431454.156 4  84708635.919 4     -1699.241          28.000
R23  22466253.117 4 120179355.249 4       -82.176          27.000
C05                                                                  39748525.836 5 160050842.424 5        11.415          34.000
C23  21952244.164 8 114311164.218 8      -378.617          51.000
C25  24414054.211 4 127130388.154 4     -2388.949          27.000
E02  24018562.641 8 126218372.126 8     -1506.262          51.000    24018564.383 8  96712851.128 8     -1154.155          51.000
E08  22642263.344 8 118985880.869 8     -2198.531          51.000    22642267.883 8  91171001.412 8     -1684.673          51.000
E27  27393668.297 7 143954698.073 7      2486.973          44.000    27393675.031 7 110302973.099 7      1905.584          44.000
E30  22486445.547 8 118167064.549 8       936.863          51.000    22486447.422 8  90543587.887 8       717.883          51.000
> 2020 05 02 07 11  0.0000000  0 15        .000000000000
G12  22785752.844 6 119739934.943 6      3389.543          36.000    22785750.438 6  93303845.696 6      2641.202          36.000
G13  21776742.008 8 114437515.995 8     -2819.789          51.000    21776740.695 7  89172087.982 7     -2197.238          47.000
G15  20781139.523 8 109205614.452 8     -1699.457          51.000    20781138.500 8  85095287.562 8     -1324.252          51.000
G19  22196737.234 6 116644650.796 6      2084.223          41.000    22196732.172 5  90891904.984 5      1624.070          34.000
R04  21326618.406 8 114203061.995 8     -3881.703          51.000    21326619.969 7  88824585.109 7     -3019.102          46.000
R05  19839346.258 6 106052701.546 6      -232.082          36.000    19839348.078 6  82485389.380 6      -180.511          36.000
R14  20443703.547 6 108976428.923 6     -2178.168          38.000
R15  19809654.562 5 105856794.266 5       946.098          32.000
R23  22466722.062 5 120181813.656 5       -93.398          34.000
C05                                                                  39748379.188 5 160050251.304 5        22.464          35.000
C23  21954387.078 8 114322322.961 8      -372.457          51.000
E02  24027116.406 8 126263322.270 8     -1497.645          51.000    24027118.008 8  96747293.425 8     -1147.558          51.000
E08  22654781.242 8 119051665.138 8     -2194.254          51.000    22654785.930 8  91221407.538 8     -1681.308          51.000
E27  27379419.234 7 143879819.832 7      2497.684          45.000    27379425.250 7 110245598.877 7      1913.744          44.000
E30  22481059.594 8 118138760.656 8       942.793          51.000    22481061.016 8  90521900.485 8       722.403          51.000
> 2020 05 02 07 11 30.0000000  0 14        .000000000000
G12  22766440.234 6 119638442.280 6      3377.062          38.000    22766438.078 6  93224760.592 6      2631.480          38.000
G13  21792885.750 8 114522352.798 8     -2835.133          51.000    21792884.852 7  89238194.572 7     -2209.194          46.000
G15  20790901.844 8 109256917.298 8     -1719.887          51.000    20790901.516 8  85135263.791 8     -1340.171          51.000
G19  22184898.805 6 116582441.175 6      2064.242          38.000    22184895.484 6  90843429.883 6      1608.497          36.000
R04  21348416.383 8 114319784.939 8     -3898.961          51.000    21348417.328 7  88915369.552 7     -3032.528          46.000
R05  19840740.766 6 106060155.903 6      -263.621          36.000    19840742.914 5  82491187.124 5      -205.030          33.000
R14  20455997.422 6 109041963.431 6     -2189.688          40.000
R23  22467334.914 5 120185081.260 5      -123.328          35.000
C05                                                                  39748224.383 5 160049628.098 5        19.851          35.000
C23  21956568.398 8 114333681.244 8      -383.957          51.000
E02  24035694.820 8 126308401.984 8     -1506.801          51.000    24035696.297 8  96781834.992 8     -1154.493          51.000
E08  22667348.617 8 119117706.636 8     -2207.648          51.000    22667352.578 8  91272010.748 8     -1691.590          51.000
E27  27365182.992 7 143805009.237 7      2490.535          45.000    27365188.609 7 110188276.471 7      1908.347          44.000
E30  22475713.703 8 118110666.774 8       930.973          51.000    22475714.953 8  90500374.012 8       713.349          51.000
> 2020 05 02 07 12  0.0000000  0 14        .000000000000
G12  22747184.539 6 119537251.299 6      3370.336          41.000    22747183.211 7  93145910.533 7      2626.236          42.000
G13  21809104.305 8 114607584.603 8     -2845.383          51.000    21809103.812 7  89304608.957 7     -2217.184          45.000
G15  20800768.070 8 109308767.773 8     -1735.293          49.000    20800768.570 8  85175666.751 8     -1352.176          49.000
G19  22173165.656 5 116520785.858 5      2047.168          32.000    22173163.594 5  90795386.723 5      1595.193          30.000
R04  21370298.289 8 114436959.302 8     -3911.125          51.000    21370298.812 7  89006505.106 7     -3041.989          46.000
R05  19842295.898 5 106068471.419 5      -290.309          35.000    19842303.133 5  82497704.664 5      -225.783          34.000
R14  20468344.055 6 109107775.461 6     -2196.078          41.000
R23  22468107.570 5 120189169.428 5      -148.656          31.000
C05                                                                  39748077.703 5 160049037.192 5        20.688          35.000
C23  21958804.133 8 114345322.534 8      -390.598          51.000
E02  24044313.781 8 126353694.801 8     -1511.086          51.000    24044315.078 8  96816539.852 8     -1157.854          51.000
E08  22679981.273 8 119184088.791 8     -2216.215          51.000    22679983.781 8  91322874.959 8     -1698.154          51.000
E27  27350975.742 7 143730351.205 7      2488.164          45.000    27350981.586 7 110131070.969 7      1906.512          45.000
E30  22470423.664 8 118082867.208 8       923.902          51.000    22470425.117 8  90479073.056 8       707.970          51.000
> 2020 05 02 07 12 30.0000000  0 14        .000000000000
G12  22727972.508 6 119436291.068 6      3362.785          40.000    22727972.258 6  93067240.271 6      2620.352          40.000
G13  21825383.875 8 114693136.516 8     -2855.715          51.000    21825383.383 7  89371272.742 7     -2225.232          43.000
G15  20810724.477 8 109361091.612 8     -1750.711          48.000    20810725.555 8  85216438.586 8     -1364.190          48.000
G19  22161524.281 6 116459614.328 6      2032.102          40.000    22161522.672 6  90747720.585 6      1583.450          36.000
R04  21392249.164 8 114554506.847 8     -3923.109          50.000    21392250.250 7  89097930.925 7     -3051.310          46.000
R05  19844006.266 6 106077620.122 6      -317.227          37.000    19844013.422 5  82504820.249 5      -246.732          32.000
R14  20480728.219 6 109173789.210 6     -2202.789          41.000
R23  22469022.516 5 120194065.651 5      -174.195          33.000
C05                                                                  39747925.078 5 160048423.010 5        22.277          34.000
C23  21961080.117 8 114357173.936 8      -397.258          51.000
E02  24052959.164 8 126399126.576 8     -1515.414          51.000    24052960.234 8  96851351.183 8     -1161.081          51.000
E08  22692664.797 8 119250737.261 8     -2224.727          51.000    22692664.945 8  91373943.219 8     -1704.673          50.000
E27  27336783.844 7 143655772.976 7      2485.902          45.000    27336790.148 7 110073926.594 7      1904.878          44.000
E30  22465175.406 8 118055288.559 8       916.902          51.000    22465177.203 8  90457941.369 8       702.562          51.000
> 2020 05 02 07 13  0.0000000  0 14        .000000000000
G12  22708812.203 6 119335604.991 6      3353.371          40.000    22708812.703 6  92988783.580 6      2613.016          40.000
G13  21841732.266 8 114779049.115 8     -2867.953          51.000    21841731.078 7  89438217.550 7     -2234.772          42.000
G15  20820779.148 8 109413929.483 8     -1768.027          50.000    20820780.367 8  85257610.974 8     -1377.684          50.000
G19  22149984.828 6 116398971.293 6      2014.676          41.000    22149980.719 5  90700466.280 5      1569.877          33.000
R04  21414276.680 8 114672466.043 8     -3936.922          48.000    21414278.914 7  89189676.912 7     -3062.053          45.000
R05  19845880.766 7 106087621.061 7      -345.695          43.000    19845884.688 5  82512598.781 5      -268.871          34.000
R14  20493157.859 6 109240045.751 6     -2210.730          39.000    20493186.727 4  84964531.483 4     -1719.457          28.000
R23  22470088.273 5 120199757.760 5      -201.438          34.000
C05                                                                  39747774.477 5 160047816.309 5        21.337          35.000
C23  21963404.305 8 114369276.752 8      -405.855          51.000
E02  24061638.836 8 126444738.324 8     -1521.539          51.000    24061639.781 8  96886300.429 8     -1165.885          51.000
E08  22705406.656 8 119317692.915 8     -2235.129          51.000    22705404.586 8  91425246.860 8     -1712.670          49.000
E27  27322615.336 7 143581316.900 7      2481.734          45.000    27322622.266 7 110016875.869 7      1901.448          45.000
E30  22459977.164 8 118027972.543 8       908.043          51.000    22459979.086 8  90437010.914 8       695.725          51.000
> 2020 05 02 07 13 30.0000000  0 15        .000000000000
G12  22689698.602 7 119235164.546 7      3344.270          42.000    22689699.164 7  92910518.292 7      2605.924          42.000
G13  21858143.305 8 114865290.708 8     -2879.688          51.000    21858141.562 7  89505418.680 7     -2243.915          42.000
G15  20830925.930 8 109467249.556 8     -1784.738          50.000    20830926.875 8  85299159.082 8     -1390.705          50.000
G19  22138540.445 7 116338828.829 7      1996.863          42.000    22138534.742 4  90653602.192 4      1556.010          28.000
R04  21436374.852 7 114790801.916 7     -3950.238          46.000    21436377.758 7  89281715.861 7     -3072.411          45.000
R05  19847908.070 7 106098443.424 7      -373.797          43.000    19847911.266 6  82521016.128 6      -290.728          36.000
R14  20505627.352 5 109306512.387 5     -2218.824          35.000    20505656.992 5  85016227.749 5     -1725.752          30.000
R15  19784064.656 5 105720023.604 5       880.770          33.000    19784061.672 4  82226696.786 4       685.034          25.000
R23  22471297.547 6 120206228.255 6      -228.270          37.000
C05                                                                  39747620.398 5 160047195.218 5        21.207          34.000
C23  21965770.914 8 114381600.415 8      -413.922          51.000
E02  24070346.781 8 126490498.618 8     -1527.371          51.000    24070347.945 8  96921363.492 8     -1170.290          51.000
E08  22718200.594 8 119384924.140 8     -2245.121          51.000    22718197.617 8  91476761.664 8     -1720.285          49.000
E27  27308464.484 7 143506952.886 7      2477.766          44.000    27308472.000 7 109959895.652 7      1898.491          44.000
E30  22454823.281 8 118000888.393 8       899.461          51.000    22454825.023 8  90416258.121 8       689.182          51.000
> 2020 05 02 07 14  0.0000000  0 15        .000000000000
G12  22670637.180 7 119134998.371 7      3334.332          42.000    22670638.266 7  92832466.765 7      2598.181          42.000
G13  21874622.141 8 114951886.667 8     -2892.188          51.000    21874620.023 7  89572895.984 7     -2253.653          44.000
G15  20841169.570 8 109521077.909 8     -1802.535          51.000    20841170.250 8  85341103.242 8     -1404.576          51.000
G17  22393122.258 5 117676650.739 5        -5.734          35.000    22393115.297 5  91696063.665 5        -4.468          35.000
G19  22127196.891 6 116279217.351 6      1978.375          40.000    22127189.703 5  90607151.672 5      1541.591          35.000
R04  21458547.836 7 114909538.401 7     -3964.488          43.000    21458551.148 7  89374066.427 7     -3083.491          44.000
R05  19850092.953 7 106110114.603 7      -402.926          42.000    19850093.500 6  82530093.734 6      -313.384          36.000
R15  19779161.141 5 105693815.078 5       867.434          32.000
R23  22472657.648 6 120213539.830 6      -256.004          37.000
C05                                                                  39747467.883 5 160046581.380 5        20.966          35.000
C23  21968185.164 8 114394171.853 8      -422.922          51.000
E02  24079088.055 8 126536433.981 8     -1533.824          51.000    24079089.742 8  96956560.699 8     -1175.235          51.000
E08  22731051.531 8 119452457.258 8     -2255.895          51.000    22731049.383 8  91528507.801 8     -1728.578          50.000
E27  27294336.508 7 143432708.826 7      2472.953          43.000    27294344.375 7 109903007.344 7      1894.944          44.000
E30  22449718.758 8 117974063.341 8       890.137          51.000    22449720.289 8  90395703.878 8       682.050          51.000
> 2020 05 02 07 14 30.0000000  0 12        .000000000000
G12  22651630.914 6 119035123.536 6      3322.012          41.000    22651632.852 6  92754642.280 6      2588.581          41.000
G13  21891170.930 8 115038850.348 8     -2907.176          51.000    21891169.508 7  89640659.857 7     -2265.335          45.000
G15  20851512.523 8 109575428.074 8     -1822.609          51.000    20851512.875 8  85383454.003 8     -1420.215          51.000
G19  22115957.211 6 116220153.796 6      1957.527          40.000    22115951.562 5  90561128.194 5      1525.346          34.000
R04  21480793.781 6 115028686.219 6     -3980.836          39.000    21480801.422 7  89466737.033 7     -3096.200          43.000
R05  19852438.016 6 106122649.996 6      -434.660          41.000    19852437.984 6  82539843.541 6      -338.066          36.000
C05                                                                  39747319.719 5 160045985.707 5        17.634          35.000
C23  21970649.688 8 114407005.337 8      -434.387          51.000
E02  24087865.266 8 126582558.239 8     -1542.914          51.000    24087867.430 8  96991902.640 8     -1182.212          51.000
E08  22743962.141 8 119520305.909 8     -2269.078          51.000    22743961.492 8  91580495.699 8     -1738.659          51.000
E27  27280234.133 7 143358599.824 7      2465.996          43.000    27280241.977 7 109846222.535 7      1889.308          43.000
E30  22444666.094 8 117947511.936 8       878.195          51.000    22444667.531 8  90375359.293 8       672.936          51.000
> 2020 05 02 07 15  0.0000000  0 13        .000000000000
G12  22632670.086 7 118935484.848 7      3319.188          42.000    22632671.812 7  92677001.682 7      2586.377          42.000
G13  21907778.359 8 115126123.072 8     -2912.285          51.000    21907777.906 7  89708664.560 7     -2269.313          47.000
G15  20861943.633 8 109630241.948 8     -1833.023          51.000    20861943.430 8  85426166.096 8     -1428.330          51.000
G19  22104811.727 6 116161584.470 6      1945.750          39.000    22104808.555 6  90515489.711 6      1516.169          38.000
R04  21503106.438 7 115148183.791 7     -3987.207          43.000    21503117.117 7  89559679.558 7     -3101.167          42.000
R05  19854933.750 6 106135991.137 6      -456.297          40.000    19854933.039 6  82550220.024 6      -354.898          36.000
R23  22475836.203 5 120230529.419 5      -306.223          32.000    22475839.062 4  93512672.618 4      -238.173          25.000
C05                                                                  39747165.141 5 160045362.066 5        22.733          34.000
C23  21973153.578 8 114420044.190 8      -436.180          51.000
E02  24096667.328 8 126628813.525 8     -1542.172          51.000    24096669.688 8  97027344.991 8     -1181.652          51.000
E08  22756921.719 8 119588412.020 8     -2272.625          51.000    22756922.305 8  91632680.886 8     -1741.419          51.000
E27  27266146.383 7 143284569.379 7      2468.215          42.000    27266153.859 7 109789497.907 7      1891.191          42.000
E30  22439654.609 8 117921176.975 8       876.105          51.000    22439656.148 8  90355180.560 8       671.278          51.000
> 2020 05 02 07 15 30.0000000  0 14        .000000000000
G12  22613769.531 7 118836158.442 7      3304.652          46.000    22613769.547 7  92599604.503 7      2575.057          46.000
G13  21924458.477 8 115213778.537 8     -2929.094          50.000    21924459.070 7  89776967.497 7     -2282.411          47.000
G15  20872476.570 8 109685592.760 8     -1854.793          51.000    20872475.930 8  85469296.573 8     -1445.293          51.000
G19  22093774.969 6 116103586.424 6      1922.859          38.000    22093773.195 6  90470296.369 6      1498.332          38.000
R04  21525500.828 7 115268102.890 7     -4005.145          46.000    21525511.047 6  89652949.885 6     -3115.115          40.000
R05  19857593.617 6 106150213.303 6      -489.660          39.000    19857592.586 5  82561281.666 5      -380.850          34.000
R14  20555944.461 6 109574747.802 6     -2252.844          36.000    20555948.883 5  85224815.531 5     -1752.215          34.000
C05                                                                  39747018.148 5 160044770.313 5        18.311          35.000
C23  21975711.086 8 114433362.086 8      -449.527          51.000
C25  24551834.109 5 127847862.378 5     -2407.566          31.000
E02  24105508.352 8 126675273.589 8     -1553.066          51.000    24105510.523 8  97062944.241 8     -1190.015          51.000
E08  22769944.445 8 119656849.148 8     -2287.680          51.000    22769945.922 8  91685119.688 8     -1752.966          51.000
