     3.02           OBSERVATION DATA    M (MIXED)           RINEX VERSION / TYPE
SAVERINEX           SC600               20200517 075931 LCL PGM / RUN BY / DATE
       G = GPS       R = GLONASS       C = COMPASS          COMMENT
       S = SBAS      J = QZSS          E = GALILEO          COMMENT
BEAN                                                        MARKER NAME
1                                                           MARKER NUMBER
GEODETIC                                                    MARKER TYPE
Unige DICCA         GTER                                    OBSERVER / AGENCY
SC60291900056       SC600               2.12(191202)        REC # / TYPE / VERS
                    HEMA45          NONE                    ANT # / TYPE
  4509407.8091   693652.4678  4442337.6214                  APPROX POSITION XYZ
        0.0000        0.0000        0.0000                  ANTENNA: DELTA H/E/N
G    8 C1C L1C D1C S1C C2Y L2Y D2Y S2Y                      SYS / # / OBS TYPES
R    8 C1C L1C D1C S1C C2P L2P D2P S2P                      SYS / # / OBS TYPES
C    8 C1I L1I D1I S1I C7I L7I D7I S7I                      SYS / # / OBS TYPES
E    8 C1C L1C D1C S1C C7Q L7Q D7Q S7Q                      SYS / # / OBS TYPES
DBHZ                                                        COMMENT
     30.000                                                 INTERVAL
  2020    05    17    05    00    0.0000000     GPS         TIME OF FIRST OBS
  2020    05    17    05    59   30.0000000     GPS         TIME OF LAST OBS
     0                                                      RCV CLOCK OFFS APPL
G L1C  0.00000                                              SYS / PHASE SHIFT
G L2Y  0.00000                                              SYS / PHASE SHIFT
R L1C  0.00000                                              SYS / PHASE SHIFT
R L2P  0.25000                                              SYS / PHASE SHIFT
C L1I  0.00000                                              SYS / PHASE SHIFT
C L7I  0.00000                                              SYS / PHASE SHIFT
E L1C  0.50000                                              SYS / PHASE SHIFT
E L7Q -0.25000                                              SYS / PHASE SHIFT
 12 R01  1 R02 -4 R03  5 R08  6 R10 -5 R11  0 R12 -1 R13 -2 GLONASS SLOT / FRQ #
    R14 -7 R21  4 R22 -3 R23  3                             GLONASS SLOT / FRQ #
 C1C   71.950 C2C   71.950 C2P   71.950                     GLONASS COD/PHS/BIS
    18                                                      LEAP SECONDS
*** Above antenna height is from mark to ANTENNA BOTTOM.    COMMENT
    17     4        0.0000        ANT MEASURE TYPE/HEIGT    COMMENT
    0.0000    0.0000    0.0458    0.0405    0.0000          COMMENT
                    BASE STATION                            COMMENT
                                                            END OF HEADER
> 2020 05 17 05 00  0.0000000  0 16        .000000000000
G13  20287600.688 8 106612045.902 8      -857.332          51.000    20287597.859 8  83074295.268 8      -668.051          49.000
G15  20413844.492 6 107275476.394 6       778.672          41.000    20413843.188 6  83591281.049 6       606.757          41.000
G19  24533954.734 7 128926801.605 7      3422.504          43.000    24533954.703 7 100462422.517 7      2666.889          43.000
G28  21497827.617 6 112971895.232 6     -1850.754          41.000    21497827.523 6  88030064.350 6     -1442.146          39.000
R02  21753590.578 7 116081301.981 7     -4086.324          45.000    21753600.234 5  90285501.008 5     -3178.252          30.000
R03  19331714.445 8 103484202.017 8      -775.191          51.000    19331716.117 8  80487702.542 8      -602.927          48.000
R13  19329174.203 5 103216711.535 5      -491.910          33.000    19329177.727 6  80279665.813 6      -382.594          37.000
R14  21355954.953 7 113839259.713 7      2799.848          46.000    21355959.805 7  88541663.433 7      2177.656          45.000
C05  39792613.633 6 207210580.877 6        18.926          37.000    39792610.719 6 160228352.677 6        14.429          38.000
C14  24513581.211 6 127648623.321 6     -3293.523          36.000    24513573.773 5  98706078.498 5     -2546.562          32.000
C24  22526057.469 8 117299114.267 8     -1563.230          51.000
C25  22431083.195 6 116804536.003 6      1334.512          41.000
E01  23543085.547 8 123719738.352 8      -356.316          51.000    23543087.062 8  94798276.316 8      -273.010          51.000
E04  23544224.727 8 123725734.725 8      -588.930          51.000    23544225.914 8  94802833.211 8      -451.264          51.000
E19  27087871.070 7 142347682.508 7     -2825.922          47.000    27087871.578 7 109071603.525 7     -2165.419          47.000
E31  25121718.398 7 132015564.959 7      2155.344          47.000    25121720.523 8 101154796.053 8      1651.512          50.000
> 2020 05 17 05 00 30.0000000  0 17        .000000000000
G13  20292523.000 8 106637912.696 8      -877.184          51.000    20292520.102 8  83094451.177 8      -683.520          49.000
G15  20409429.500 6 107252274.030 6       757.941          41.000    20409427.891 6  83573201.283 6       590.604          41.000
G19  24514405.742 7 128824073.514 7      3415.730          42.000    24514405.820 7 100382374.657 7      2661.608          42.000
G28  21508415.750 6 113027537.731 6     -1868.754          41.000    21508415.422 6  88073422.194 6     -1456.169          37.000
G30  23546236.648 5 123736308.185 5     -2840.129          34.000    23546230.750 5  96417878.228 5     -2213.091          32.000
R02  21776581.109 7 116203975.177 7     -4101.980          47.000    21776579.047 5  90380850.069 5     -3190.432          32.000
R03  19336116.055 8 103507766.082 8      -806.004          50.000    19336118.172 7  80506030.129 7      -626.892          47.000
R13  19331968.508 5 103231633.034 5      -513.168          33.000    19331971.594 6  80291271.464 6      -399.131          36.000
R14  21340215.867 7 113755361.641 7      2783.199          45.000    21340220.258 7  88476409.354 7      2164.711          44.000
C05  39792490.102 6 207209937.648 6        14.266          36.000    39792487.203 6 160227855.268 6        10.859          38.000
C14  24532556.828 6 127747417.133 6     -3302.840          36.000    24532551.508 6  98782472.031 6     -2554.140          36.000
C24  22535068.828 8 117346038.930 8     -1575.164          51.000
C25  22423404.188 7 116764552.298 7      1320.965          42.000
E01  23545134.539 8 123730505.840 8      -371.656          51.000    23545135.977 8  94806526.723 8      -284.770          51.000
E04  23547606.508 8 123743505.810 8      -605.953          51.000    23547606.914 8  94816450.013 8      -464.293          51.000
E19  27104002.297 7 142432455.601 7     -2835.785          46.000    27104004.250 7 109136559.514 7     -2172.826          47.000
E31  25109421.273 8 131950942.495 8      2142.633          51.000    25109423.547 8 101105280.146 8      1641.743          51.000
> 2020 05 17 05 01  0.0000000  0 17        .000000000000
G13  20297534.500 8 106664248.698 8      -886.324          51.000    20297531.508 8  83114972.713 8      -690.642          49.000
G15  20405113.250 6 107229591.988 6       746.828          41.000    20405112.133 7  83555526.944 7       581.944          42.000
G19  24494870.688 7 128721418.741 7      3420.160          43.000    24494870.453 7 100302383.960 7      2665.060          42.000
G28  21519083.195 7 113083595.868 7     -1876.301          44.000    21519081.930 5  88117103.769 5     -1462.056          30.000
G30  23562423.211 5 123821366.468 5     -2837.961          33.000    23562417.805 5  96484157.489 5     -2211.398          32.000
R02  21799635.250 8 116326988.433 8     -4106.707          48.000    21799639.250 6  90476527.017 6     -3194.105          40.000
R03  19340666.992 8 103532130.103 8      -826.074          50.000    19340669.281 7  80524979.903 7      -642.502          47.000
R13  19334858.531 5 103247063.622 5      -523.191          33.000    19334861.023 6  80303273.004 6      -406.924          36.000
R14  21324546.359 7 113671835.775 7      2777.449          44.000    21324551.391 7  88411444.770 7      2160.238          44.000
C05  39792368.734 6 207209305.332 6        20.098          37.000    39792365.844 6 160227366.290 6        15.816          38.000
C14  24551562.711 6 127846370.289 6     -3302.168          37.000    24551558.438 6  98858988.765 6     -2553.198          38.000
C24  22544124.898 8 117393195.397 8     -1576.418          51.000
C25  22415780.742 7 116724852.879 7      1317.852          44.000
E01  23547246.461 8 123741603.564 8      -376.164          51.000    23547247.758 8  94815030.158 8      -288.197          51.000
E04  23551060.602 8 123761655.938 8      -612.086          51.000    23551060.438 8  94830357.242 8      -468.956          51.000
E19  27120164.852 7 142517392.555 7     -2834.664          47.000    27120168.070 8 109201641.072 8     -2172.054          48.000
E31  25097172.922 8 131886571.238 8      2140.770          51.000    25097175.227 8 101055956.727 8      1640.336          51.000
> 2020 05 17 05 01 30.0000000  0 16        .000000000000
G13  20302641.648 8 106691087.581 8      -900.332          51.000    20302638.797 8  83135886.106 8      -701.557          50.000
G15  20400902.516 7 107207464.815 7       730.961          42.000    20400901.625 7  83538284.975 7       569.580          42.000
G19  24475357.062 7 128618873.921 7      3418.820          45.000    24475355.961 6 100222478.899 6      2664.016          40.000
G28  21529835.883 6 113140100.963 6     -1888.309          40.000    21529834.672 5  88161133.659 5     -1471.412          30.000
R02  21822758.891 8 116450373.074 8     -4116.203          51.000    21822762.547 7  90572492.839 7     -3201.491          42.000
R03  19345373.914 8 103557328.091 8      -851.223          49.000    19345376.117 8  80544578.340 8      -662.059          48.000
R13  19337849.477 5 103263034.623 5      -538.633          33.000    19337852.227 6  80315694.932 6      -418.937          36.000
R14  21308953.594 7 113588716.928 7      2766.457          46.000    21308958.969 7  88346796.793 7      2151.689          42.000
C05  39792255.789 6 207208717.150 6        21.848          37.000    39792252.844 6 160226911.490 6        16.420          38.000
C14  24570604.359 6 127945513.794 6     -3305.234          37.000    24570600.828 6  98935652.748 6     -2555.805          40.000
C24  22553231.758 8 117440615.783 8     -1582.520          51.000
C25  22408218.195 7 116685470.862 7      1310.086          44.000
E01  23549427.367 8 123753064.155 8      -385.465          51.000    23549428.695 8  94823811.648 8      -295.368          51.000
E04  23554593.289 8 123780218.845 8      -623.074          51.000    23554592.930 8  94844580.739 8      -477.388          51.000
E19  27136365.148 7 142602525.679 7     -2838.445          47.000    27136369.031 8 109266872.927 8     -2174.910          49.000
E31  25084978.922 8 131822485.229 8      2134.000          51.000    25084981.188 8 101006851.879 8      1635.176          51.000
> 2020 05 17 05 02  0.0000000  0 18        .000000000000
G13  20307820.414 8 106718302.907 8      -914.684          51.000    20307818.047 8  83157092.828 8      -712.740          50.000
G15  20396773.617 7 107185767.240 7       714.891          43.000    20396772.078 7  83521377.774 7       557.058          43.000
G17  23372350.391 6 122822497.633 6      2252.652          37.000    23372348.047 6  95705853.724 6      1755.304          36.000
G19  24455841.172 7 128516316.085 7      3417.488          47.000    24455840.094 6 100142563.712 6      2662.978          41.000
G28  21540648.984 6 113196924.444 6     -1901.699          39.000    21540647.688 5  88205411.714 5     -1481.837          31.000
R02  21845927.117 8 116573996.620 8     -4125.996          51.000    21845930.305 7  90668644.468 7     -3209.111          43.000
R03  19350212.641 8 103583230.777 8      -876.430          48.000    19350214.500 8  80564724.865 8      -681.668          48.000
R12  21952857.688 5 117268221.426 5     -3396.000          31.000
R13  19340917.586 5 103279415.848 5      -553.711          32.000    19340919.109 5  80328435.851 5      -430.664          34.000
R14  21293414.008 7 113505877.989 7      2755.301          47.000    21293417.344 6  88282366.558 6      2143.015          40.000
C05  39792127.281 6 207208047.954 6        21.902          36.000    39792124.336 6 160226393.979 6        17.338          38.000
C14  24589656.672 6 128044720.521 6     -3309.438          36.000    24589654.250 6  99012365.597 6     -2558.783          40.000
C24  22562364.883 8 117488173.764 8     -1588.785          51.000
C25  22400692.336 7 116646280.962 7      1301.910          44.000
E01  23551653.055 8 123764760.340 8      -395.121          51.000    23551654.453 8  94832773.653 8      -302.734          51.000
E04  23558180.547 8 123799068.296 8      -634.293          51.000    23558179.891 8  94859023.797 8      -486.095          51.000
E19  27152578.820 7 142687727.504 7     -2842.480          47.000    27152582.789 8 109332157.397 8     -2178.008          49.000
E31  25072814.922 8 131758558.556 8      2126.949          51.000    25072817.234 8 100957869.117 8      1629.728          51.000
> 2020 05 17 05 02 30.0000000  0 17        .000000000000
G13  20313087.531 8 106745982.572 8      -926.477          51.000    20313085.711 8  83178661.382 8      -721.930          51.000
G15  20392743.555 7 107164588.136 7       701.375          44.000    20392741.805 7  83504874.566 7       546.523          44.000
G19  24436340.250 7 128413835.719 7      3418.602          47.000    24436339.234 7 100062708.919 7      2663.845          42.000
G28  21551539.070 7 113254151.588 7     -1910.316          43.000    21551538.234 5  88250004.132 5     -1488.561          30.000
R02  21869155.742 8 116697944.486 8     -4132.953          51.000    21869158.484 7  90765048.353 7     -3214.519          43.000
R03  19355199.367 8 103609926.934 8      -899.125          49.000    19355200.898 8  80585488.584 8      -699.319          48.000
R12  21971966.703 5 117370193.491 5     -3396.082          33.000
R13  19344078.781 5 103296295.037 5      -567.336          32.000    19344080.031 5  80341564.104 5      -441.258          35.000
R14  21277943.625 7 113423408.289 7      2746.816          46.000    21277945.273 6  88218223.511 6      2136.413          41.000
C05  39791999.898 6 207207384.264 6        25.918          37.000    39791996.812 6 160225880.755 6        20.322          38.000
C14  24608735.828 5 128144074.851 5     -3310.082          34.000    24608734.766 6  99089192.666 6     -2559.677          40.000
C24  22571540.672 8 117535954.810 8     -1592.484          51.000
C25  22393220.273 7 116607369.778 7      1296.262          45.000
E01  23553940.227 8 123776778.591 8      -401.863          51.000    23553941.320 8  94841982.437 8      -307.933          51.000
E04  23561839.031 8 123818291.854 8      -642.969          51.000    23561837.648 8  94873753.511 8      -492.646          51.000
E19  27168822.203 7 142773084.424 7     -2843.637          47.000    27168825.789 8 109397560.712 8     -2178.992          48.000
E31  25060697.438 8 131694879.111 8      2122.578          51.000    25060699.648 8 100909075.794 8      1626.382          51.000
> 2020 05 17 05 03  0.0000000  0 18        .000000000000
G13  20318446.703 8 106774146.470 8      -951.977          50.000    20318445.336 8  83200607.257 8      -741.800          50.000
G15  20388816.062 7 107143948.638 7       673.711          45.000    20388814.430 7  83488791.836 7       524.970          45.000
G19  24416858.422 7 128311456.184 7      3405.840          47.000    24416856.984 6  99982932.608 6      2653.898          39.000
G24  22545530.867 5 118477564.044 5      2692.375          31.000
G28  21562509.461 6 113311800.602 6     -1933.805          40.000    21562507.984 4  88294925.356 4     -1506.867          29.000
R02  21892447.930 8 116822233.745 8     -4153.941          49.000    21892450.547 6  90861717.793 6     -3230.843          41.000
R03  19360338.344 8 103637436.505 8      -935.699          50.000    19360339.656 8  80606884.915 8      -727.766          48.000
R12  21991064.297 5 117472317.106 5     -3410.328          30.000
R13  19347336.562 5 103313690.392 5      -593.977          31.000    19347338.359 5  80355093.870 5      -461.982          35.000
R14  21262545.398 7 113341329.140 7      2724.168          46.000    21262547.820 7  88154384.130 7      2118.794          43.000
C05  39791877.359 6 207206746.163 6        15.316          37.000    39791874.188 6 160225387.313 6        12.242          38.000
C14  24627844.742 5 128243594.866 5     -3324.902          34.000    24627846.297 6  99166147.721 6     -2571.007          40.000
C24  22580762.805 8 117583977.829 8     -1609.875          51.000
C25  22385805.102 7 116568757.225 7      1277.016          45.000
E01  23556292.320 8 123789138.213 8      -422.832          51.000    23556293.188 8  94851452.783 8      -324.015          51.000
E04  23565572.375 8 123837909.838 8      -665.742          51.000    23565570.344 8  94888785.463 8      -510.075          51.000
E19  27185098.695 7 142858615.718 7     -2858.996          46.000    27185101.734 7 109463097.628 7     -2190.647          46.000
E31  25048630.273 8 131631467.543 8      2104.098          51.000    25048632.305 8 100860487.733 8      1612.210          51.000
> 2020 05 17 05 03 30.0000000  0 18        .000000000000
G13  20323899.336 8 106802801.404 8      -961.191          50.000    20323898.078 8  83222935.780 8      -748.977          49.000
G15  20384992.742 7 107123856.502 7       662.746          46.000    20384991.188 7  83473135.629 7       516.426          46.000
G17  23334077.484 5 122621419.058 5      2216.941          30.000    23334079.141 5  95549167.831 5      1727.490          30.000
G19  24397397.773 7 128209187.587 7      3409.316          46.000    24397395.352 6  99903242.744 6      2656.607          40.000
G24  22530136.438 5 118396666.039 5      2693.652          34.000
G28  21573560.820 7 113369875.862 7     -1940.734          42.000    21573558.883 5  88340178.785 5     -1512.264          34.000
R02  21915804.234 7 116946868.054 7     -4158.020          47.000    21915807.750 6  90958655.623 6     -3234.012          39.000
R03  19365631.203 8 103665765.918 8      -955.645          51.000    19365631.750 8  80628918.901 8      -743.279          49.000
R13  19350692.078 4 103331607.112 4      -604.422          29.000    19350693.375 5  80369029.078 5      -470.109          34.000
R14  21247221.883 7 113259648.095 7      2718.387          45.000    21247225.570 7  88090854.382 7      2114.301          44.000
C05  39791760.883 6 207206141.094 6        22.133          37.000    39791757.703 6 160224918.690 6        16.873          37.000
C14  24646985.875 5 128343285.034 5     -3323.504          33.000    24646990.266 6  99243234.447 6     -2570.038          37.000
C24  22590032.492 8 117632248.331 8     -1611.047          51.000
C25  22378448.406 7 116530449.783 7      1273.988          45.000
E01  23558710.273 8 123801844.902 8      -427.242          51.000    23558711.461 8  94861189.071 8      -327.358          51.000
E04  23569382.008 8 123857929.055 8      -671.895          51.000    23569380.086 8  94904124.845 8      -514.825          51.000
E19  27201409.203 7 142944326.603 7     -2857.875          45.000    27201411.422 7 109528772.179 7     -2189.917          44.000
E31  25036615.031 8 131568330.924 8      2102.055          51.000    25036617.469 8 100812110.359 8      1610.635          51.000
> 2020 05 17 05 04  0.0000000  0 18        .000000000000
G13  20329424.758 8 106831839.072 8      -976.863          50.000    20329423.656 8  83245562.525 8      -761.192          49.000
G15  20381253.086 7 107104204.517 7       645.203          46.000    20381251.844 7  83457822.377 7       502.756          47.000
G17  23321442.961 6 122555013.974 6      2206.848          37.000    23321441.742 6  95497423.737 6      1719.625          37.000
G19  24377938.203 7 128106924.928 7      3406.156          47.000    24377934.852 6  99823557.551 6      2654.148          41.000
G28  21584672.445 7 113428267.155 7     -1954.234          42.000    21584670.656 5  88385678.408 5     -1522.786          34.000
R02  21939203.477 7 117071733.319 7     -4168.477          45.000    21939209.312 6  91055773.159 6     -3242.145          36.000
R03  19371056.734 8 103694804.196 8      -982.309          51.000    19371056.703 8  80651504.216 8      -764.018          49.000
R12  22029339.398 4 117676775.768 4     -3411.379          28.000    22029343.188 4  91526398.551 4     -2653.295          25.000
R13  19354122.883 4 103349935.175 4      -620.434          29.000    19354126.703 6  80383298.590 6      -482.559          36.000
R14  21231952.414 6 113178256.019 6      2705.602          41.000    21231957.648 7  88027549.466 7      2104.360          44.000
C05  39791630.086 6 207205459.921 6        21.586          37.000    39791626.844 6 160224391.925 6        16.704          38.000
C14  24666139.016 5 128443035.945 5     -3328.461          33.000    24666144.391 4  99320368.148 4     -2574.152          28.000
C24  22599328.992 8 117680657.880 8     -1618.387          49.000
C25  22371129.711 7 116492340.097 7      1264.516          45.000
E01  23561173.633 8 123814789.425 8      -437.953          51.000    23561174.977 8  94871107.592 8      -335.604          51.000
E04  23573247.430 8 123878241.268 8      -684.473          51.000    23573246.281 8  94919688.725 8      -524.439          51.000
E19  27217732.906 7 143030107.988 7     -2863.094          44.000    27217734.469 7 109594500.751 7     -2193.742          43.000
E31  25024631.219 8 131505361.407 8      2093.711          50.000    25024634.875 8 100763860.999 8      1604.245          51.000
> 2020 05 17 05 04 30.0000000  0 18        .000000000000
G13  20335038.391 8 106861339.740 8      -992.969          50.000    20335037.461 8  83268550.049 8      -773.742          50.000
G15  20377612.555 7 107085073.853 7       627.047          45.000    20377611.352 7  83442915.358 7       488.608          45.000
G17  23308871.445 5 122488954.211 5      2193.629          31.000    23308870.383 4  95445948.674 4      1709.315          24.000
G19  24358495.227 7 128004751.137 7      3402.414          46.000    24358490.914 6  99743941.619 6      2651.232          38.000
G28  21595858.656 6 113487051.986 6     -1967.879          39.000    21595857.156 6  88431484.774 6     -1533.409          38.000
R02  21962660.359 7 117196907.928 7     -4179.547          44.000    21962668.734 5  91153131.328 5     -3250.756          34.000
R03  19376629.344 8 103724632.395 8     -1009.324          51.000    19376629.172 8  80674703.934 8      -785.030          48.000
R12  22048502.531 4 117779101.522 4     -3413.617          29.000
R13  19357647.586 5 103368736.336 5      -636.660          31.000    19357651.562 5  80397935.451 5      -495.183          35.000
R14  21216752.227 6 113097234.941 6      2692.539          41.000    21216758.281 7  87964533.035 7      2094.197          42.000
C05  39791500.031 6 207204781.775 6        20.477          37.000    39791496.898 6 160223868.288 6        16.208          38.000
C14  24685319.773 5 128542924.712 5     -3333.406          34.000
C24  22608667.281 8 117729284.664 8     -1626.312          49.000
C25  22363864.297 7 116454507.373 7      1254.629          45.000
E01  23563697.312 8 123828050.858 8      -449.199          51.000    23563698.422 8  94881268.926 8      -344.195          51.000
E04  23577183.633 8 123898926.602 8      -697.621          51.000    23577183.250 8  94935538.508 8      -534.520          51.000
E19  27234083.922 6 143116038.618 6     -2868.617          40.000    27234086.250 7 109660343.705 7     -2198.211          42.000
E31  25012694.438 8 131442639.423 8      2084.672          48.000    25012699.336 8 100715801.269 8      1597.421          51.000
> 2020 05 17 05 05  0.0000000  0 16        .000000000000
G13  20340755.758 8 106891384.528 8     -1007.230          51.000    20340755.125 8  83291961.541 8      -784.858          49.000
G15  20374086.758 7 107066546.830 7       610.910          45.000    20374085.516 7  83428478.691 7       476.034          45.000
G19  24339085.062 7 127902750.855 7      3400.344          44.000    24339080.422 6  99664460.899 6      2649.615          37.000
G28  21607134.680 6 113546309.529 6     -1979.480          41.000    21607133.359 6  88477659.466 6     -1542.452          39.000
R02  21986191.023 7 117322471.062 7     -4188.348          44.000    21986199.125 6  91250791.618 6     -3257.601          38.000
R03  19382364.266 8 103755332.450 8     -1034.418          51.000    19382364.664 8  80698581.733 8      -804.547          48.000
R13  19361278.219 4 103388120.941 4      -651.695          28.000    19361280.945 5  80413012.336 5      -506.874          35.000
R14  21201638.578 7 113016667.954 7      2681.367          45.000    21201643.836 6  87901869.799 6      2085.505          40.000
C05  39791386.258 6 207204189.100 6        21.562          37.000    39791383.117 6 160223409.975 6        16.945          37.000
C14  24704543.219 5 128643029.829 5     -3337.148          33.000    24704541.555 5  99474938.821 5     -2580.724          31.000
C24  22618062.469 8 117778207.990 8     -1632.355          48.000
C25  22356667.117 7 116417031.984 7      1246.332          44.000
E01  23566296.391 8 123841709.398 8      -458.496          51.000    23566297.422 8  94891734.547 8      -351.318          51.000
E04  23581205.969 8 123920066.344 8      -708.895          51.000    23581206.086 8  94951736.483 8      -543.182          51.000
E19  27250477.508 6 143202198.643 6     -2872.410          38.000    27250481.875 6 109726362.421 6     -2201.120          40.000
E31  25000820.977 8 131380246.536 8      2077.738          48.000    25000826.438 8 100667993.697 8      1591.973          51.000
> 2020 05 17 05 05 30.0000000  0 18        .000000000000
G13  20346549.594 8 106921830.838 8     -1019.855          51.000    20346549.125 8  83315685.903 8      -794.693          49.000
G15  20370648.922 7 107048481.789 7       596.105          46.000    20370647.578 7  83414402.030 7       464.498          46.000
G19  24319680.586 6 127800784.761 6      3399.914          41.000    24319674.500 6  99585006.931 6      2649.284          37.000
G28  21618473.375 6 113605895.193 6     -1989.875          40.000    21618472.477 6  88524089.794 6     -1550.552          39.000
R02  22009767.000 6 117448274.604 6     -4195.551          41.000    22009773.703 6  91348638.818 6     -3263.206          40.000
R03  19388234.516 8 103786758.447 8     -1057.855          51.000    19388235.547 7  80723024.142 7      -822.776          47.000
R12  22086887.359 5 117984159.820 5     -3416.770          31.000
R13  19364987.812 5 103407953.132 5      -665.938          31.000    19364990.023 5  80428418.701 5      -517.954          35.000
R14  21186583.352 7 112936410.976 7      2671.785          43.000    21186586.234 6  87839447.679 6      2078.052          38.000
C05  39791261.570 6 207203539.652 6        24.355          37.000    39791258.375 6 160222907.788 6        18.661          38.000
C14  24723780.758 5 128743207.787 5     -3338.340          34.000    24723783.852 6  99552402.677 6     -2581.724          39.000
C23  26172807.969 6 136288748.035 6      2766.168          37.000
C24  22627487.055 7 117827285.511 7     -1636.836          47.000
C25  22349511.758 7 116379772.471 7      1240.000          46.000
E01  23568943.852 8 123855621.566 8      -466.223          51.000    23568944.977 8  94902394.510 8      -357.233          51.000
E04  23585287.852 8 123941517.974 8      -718.512          51.000    23585288.523 8  94968173.448 8      -550.554          51.000
E19  27266888.258 6 143288444.354 6     -2874.469          39.000    27266892.820 6 109792446.756 6     -2202.692          36.000
E31  24988983.805 8 131318040.587 8      2072.156          49.000    24988989.266 8 100620329.389 8      1587.798          51.000
> 2020 05 17 05 06  0.0000000  0 18        .000000000000
G13  20352416.539 8 106952661.298 8     -1038.543          51.000    20352415.977 8  83339709.592 8      -809.257          49.000
G15  20367296.023 7 107030862.432 7       575.590          47.000    20367294.844 7  83400672.657 7       448.512          47.000
G19  24300279.500 6 127698838.687 6      3393.527          40.000    24300271.422 5  99505568.517 5      2644.301          31.000
G28  21629870.641 6 113665789.370 6     -2006.543          41.000    21629870.359 6  88570760.617 6     -1563.540          39.000
R02  22033383.648 5 117574297.002 5     -4209.250          33.000    22033389.484 6  91446656.229 6     -3273.861          40.000
R03  19394237.289 8 103818892.283 8     -1087.379          51.000    19394238.352 7  80748017.095 7      -845.742          45.000
R12  22106091.695 5 118086729.279 5     -3423.957          31.000
R13  19368771.461 4 103428205.131 4      -685.430          29.000    19368774.992 5  80444163.109 5      -533.112          34.000
R14  21171582.555 7 112856447.785 7      2656.148          44.000    21171582.648 5  87777254.082 5      2065.893          34.000
C05  39791122.719 6 207202817.330 6        20.922          37.000    39791119.500 6 160222348.444 6        16.199          38.000
C14  24743028.914 5 128843439.561 5     -3346.621          33.000    24743035.078 6  99629908.203 6     -2587.484          41.000
C23  26156881.391 6 136205823.149 6      2759.605          38.000
C24  22636937.656 7 117876499.002 7     -1647.035          47.000
C25  22342395.266 7 116342711.761 7      1227.617          47.000
E01  23571636.094 8 123869769.143 8      -479.910          51.000    23571637.320 8  94913234.853 8      -367.759          51.000
E04  23589425.805 8 123963264.327 8      -734.195          51.000    23589427.531 8  94984836.226 8      -562.562          51.000
E19  27283313.359 7 143374757.349 7     -2882.688          42.000    27283313.750 5 109858582.593 5     -2208.298          31.000
E31  24977179.664 8 131256004.763 8      2060.570          51.000    24977183.570 8 100572795.441 8      1578.944          51.000
> 2020 05 17 05 06 30.0000000  0 20        .000000000000
G13  20358384.062 8 106984020.106 8     -1050.641          51.000    20358383.203 8  83364144.997 8      -818.681          49.000
G15  20364055.570 7 107013834.175 7       561.223          47.000    20364054.812 7  83387403.863 7       437.316          47.000
G17  23259274.562 4 122228312.042 4      2150.199          29.000
G19  24280911.391 7 127597060.436 7      3393.375          43.000    24280903.219 5  99426260.701 5      2644.185          35.000
G24  22438536.188 5 117915302.820 5      2657.879          33.000    22438547.320 5  91882052.760 5      2071.074          32.000
G28  21641353.930 7 113726134.043 7     -2015.551          44.000    21641353.547 6  88617782.378 6     -1570.562          37.000
R02  22057067.641 5 117700721.551 5     -4215.441          33.000    22057072.664 6  91545036.844 6     -3278.683          40.000
R03  19400399.703 8 103851879.904 8     -1110.234          51.000    19400400.578 7  80773674.075 7      -863.519          45.000
R12  22125325.664 5 118189459.738 5     -3423.816          30.000
R13  19372659.336 4 103448918.782 4      -697.500          29.000    19372660.430 5  80460274.855 5      -542.500          33.000
R14  21156664.781 7 112776924.751 7      2646.883          46.000    21156664.070 6  87715402.819 6      2058.687          38.000
C05  39790997.148 6 207202162.977 6        23.805          37.000    39790993.820 6 160221842.436 6        18.607          37.000
C14  24762314.578 5 128943865.777 5     -3347.270          34.000    24762322.664 7  99707564.141 7     -2588.442          42.000
C23  26140990.516 6 136123067.507 6      2759.012          37.000
C24  22646441.945 7 117925990.258 7     -1650.973          46.000
C25  22335343.688 7 116305992.542 7      1221.637          46.000
E01  23574400.273 8 123884295.305 8      -487.012          51.000    23574401.453 8  94924365.280 8      -373.165          51.000
E04  23593647.023 8 123985449.632 8      -743.324          51.000    23593649.984 8  95001835.322 8      -569.581          51.000
E19  27299779.242 7 143461280.844 7     -2884.105          44.000
E31  24965435.555 8 131194283.612 8      2055.621          51.000    24965437.312 8 100525502.613 8      1575.038          51.000
> 2020 05 17 05 07  0.0000000  0 19        .000000000000
G05  24652974.281 5 129552266.868 5     -3640.867          31.000
G13  20364437.562 8 107015830.847 8     -1070.430          51.000    20364436.453 8  83388932.559 8      -834.101          50.000
G15  20360913.320 7 106997321.524 7       539.195          47.000    20360912.672 7  83374536.839 7       420.152          47.000
G19  24261562.148 7 127495376.331 7      3385.234          45.000    24261556.258 6  99347026.379 6      2637.845          41.000
G24  22423393.945 5 117835737.929 5      2646.070          33.000    22423396.508 5  91820054.100 5      2061.870          32.000
G28  21652908.305 6 113786850.700 6     -2032.773          40.000    21652907.414 6  88665094.031 6     -1583.979          40.000
R02  22080806.953 6 117827386.505 6     -4229.391          41.000    22080807.734 6  91643554.034 6     -3289.526          37.000
R03  19406707.141 8 103885642.529 8     -1140.898          51.000    19406707.703 7  80799933.854 7      -887.365          45.000
R13  19376634.219 4 103470144.896 4      -717.945          29.000    19376637.250 5  80476786.385 5      -558.399          34.000
R14  21141815.438 7 112697764.978 7      2630.023          44.000    21141815.883 6  87653834.121 6      2045.574          40.000
C05  39790870.242 6 207201501.721 6        19.730          37.000    39790866.867 6 160221331.104 6        15.242          37.000
C14  24781624.164 6 129044408.601 6     -3355.988          36.000    24781631.672 7  99785310.209 7     -2594.900          43.000
C23  26125119.461 6 136040405.826 6      2751.352          38.000
C24  22655985.375 7 117975682.373 7     -1662.293          47.000
C25  22328342.547 7 116269538.933 7      1208.074          46.000
E01  23577221.625 8 123899122.614 8      -501.766          51.000    23577222.891 8  94935726.448 8      -384.404          51.000
E04  23597937.562 8 124007997.411 8      -760.148          51.000    23597940.844 8  95019112.180 8      -582.460          51.000
E19  27316270.469 7 143547936.989 7     -2893.336          44.000
E31  24953736.523 8 131132801.041 8      2042.973          51.000    24953736.797 8 100478392.596 8      1565.374          51.000
> 2020 05 17 05 07 30.0000000  0 19        .000000000000
G13  20370580.633 8 107048112.184 8     -1081.730          51.000    20370579.453 8  83414086.816 8      -842.907          50.000
G15  20357872.859 8 106981344.023 8       525.816          48.000    20357872.281 8  83362086.831 8       409.727          48.000
G17  23234869.359 5 122100064.726 5      2126.730          31.000
G19  24242235.227 7 127393808.634 7      3385.723          46.000    24242231.312 7  99267882.724 7      2638.225          42.000
G24  22408293.242 6 117756376.373 6      2644.012          36.000    22408287.570 5  91758213.904 5      2060.257          34.000
G28  21664536.484 7 113847955.601 7     -2041.297          43.000    21664534.625 6  88712708.265 6     -1590.624          39.000
R02  22104599.305 7 117954347.938 7     -4234.773          43.000    22104599.297 5  91742301.784 5     -3293.716          35.000
R03  19413162.414 8 103920198.375 8     -1162.902          50.000    19413162.750 7  80826810.602 7      -904.480          45.000
R13  19380699.586 5 103491855.553 5      -729.848          30.000    19380704.367 5  80493675.996 5      -567.659          33.000
R14  21127037.016 6 112618988.144 6      2621.602          41.000    21127038.656 6  87592563.309 6      2039.030          40.000
C05  39790745.445 6 207200852.041 6        23.387          37.000    39790742.078 6 160220828.697 6        18.274          37.000
C14  24800959.562 5 129145084.374 5     -3355.930          35.000    24800965.562 7  99863159.093 7     -2595.051          43.000
C23  26109268.922 6 135957856.913 6      2751.910          37.000
C24  22665570.742 7 118025592.679 7     -1665.168          47.000
C25  22321396.422 7 116233369.263 7      1202.941          46.000
E01  23580103.641 8 123914268.686 8      -508.066          51.000    23580105.242 8  94947331.876 8      -389.319          51.000
E04  23602300.852 8 124030926.324 8      -768.570          51.000    23602303.938 8  95036681.080 8      -588.890          51.000
E19  27332790.273 7 143634743.550 7     -2893.824          44.000
E31  24942086.188 8 131071576.011 8      2038.641          51.000    24942086.078 8 100431479.920 8      1562.081          51.000
> 2020 05 17 05 08  0.0000000  0 19        .000000000000
G13  20376808.180 8 107080837.435 8     -1098.184          51.000    20376806.922 8  83439586.995 8      -855.727          50.000
G15  20354929.320 8 106965875.949 8       507.156          48.000    20354928.953 8  83350033.775 8       395.184          48.000
G19  24222925.172 7 127292333.433 7      3381.023          44.000    24222923.562 7  99188811.158 7      2634.564          44.000
G24  22393225.602 5 117677192.306 5      2636.715          35.000    22393221.781 5  91696512.015 5      2054.580          35.000
G28  21676233.086 7 113909420.122 7     -2054.793          45.000    21676231.109 6  88760602.630 6     -1601.137          39.000
R02  22128442.211 7 118081574.703 7     -4245.027          44.000    22128441.078 5  91841255.876 5     -3301.691          31.000
R03  19419760.492 8 103955519.590 8     -1189.984          49.000    19419760.711 7  80854282.630 7      -925.543          45.000
R12  22183115.422 5 118498168.506 5     -3434.246          31.000
R13  19384851.750 4 103514025.838 4      -746.219          28.000    19384854.578 5  80510920.673 5      -580.392          33.000
R14  21112325.094 6 112540568.063 6      2608.336          41.000    21112326.750 6  87531570.002 6      2028.709          39.000
C05  39790617.773 6 207200187.421 6        22.801          37.000    39790614.438 6 160220314.783 6        17.411          37.000
C14  24820314.477 6 129245864.607 6     -3360.973          37.000    24820319.070 7  99941088.678 7     -2598.751          43.000
C23  26093434.281 6 135875394.769 6      2746.996          36.000
C24  22675192.297 7 118075693.665 7     -1673.066          47.000
C25  22314499.992 7 116197456.966 7      1192.867          45.000
E01  23583041.109 8 123929705.847 8      -519.184          51.000    23583042.984 8  94959160.343 8      -397.828          51.000
E04  23606731.641 8 124054209.703 8      -781.832          51.000    23606734.711 8  95054521.581 8      -599.093          51.000
E19  27349333.156 7 143721672.570 7     -2899.504          44.000
E31  24930479.516 8 131010582.210 8      2029.461          51.000    24930479.836 8 100384744.418 8      1555.077          51.000
> 2020 05 17 05 08 30.0000000  0 19        .000000000000
G13  20383126.234 8 107114038.462 8     -1114.789          51.000    20383124.797 8  83465457.917 8      -868.667          50.000
G15  20352089.016 8 106950950.406 8       488.262          48.000    20352088.391 8  83338403.454 8       380.464          48.000
G17  23210739.547 5 121973266.019 5      2099.965          35.000    23210753.227 6  95044137.342 6      1636.342          36.000
G19  24203639.125 7 127190986.563 7      3375.906          44.000    24203639.367 7  99109839.609 7      2630.576          44.000
G28  21688003.734 6 113971274.112 6     -2068.523          41.000    21688002.406 6  88808800.514 6     -1611.836          39.000
R02  22152339.391 6 118209096.159 6     -4255.613          40.000    22152335.227 4  91940420.089 4     -3309.928          25.000
R03  19426507.531 8 103991637.727 8     -1217.371          48.000    19426507.305 7  80882374.521 7      -946.844          45.000
R12  22202418.805 5 118601246.398 5     -3438.566          32.000
R13  19389094.891 5 103536685.128 5      -763.918          30.000    19389098.914 5  80528544.976 5      -594.158          33.000
R14  21097686.336 7 112462537.914 7      2594.312          42.000    21097688.766 6  87470879.894 6      2017.796          41.000
C05  39790493.289 6 207199539.806 6        21.309          37.000    39790490.055 6 160219813.990 6        16.317          37.000
C14  24839695.406 6 129346778.952 6     -3366.125          40.000    24839697.812 6 100019122.043 6     -2602.935          41.000
C23  26077621.344 5 135793051.645 5      2742.406          32.000
C24  22684856.102 7 118126016.102 7     -1681.191          47.000
C25  22307658.141 7 116161833.799 7      1182.418          43.000
E01  23586039.789 8 123945465.314 8      -530.711          51.000    23586041.766 8  94971235.765 8      -406.661          51.000
E04  23611236.203 8 124077879.730 8      -795.473          51.000    23611239.109 8  95072658.343 8      -609.524          51.000
E19  27365905.023 7 143808754.889 7     -2905.355          44.000
E31  24918922.703 8 130949852.218 8      2019.844          50.000    24918924.156 8 100338211.036 8      1547.708          51.000
> 2020 05 17 05 09  0.0000000  0 18        .000000000000
G13  20389533.992 8 107147711.361 8     -1135.039          51.000    20389532.789 8  83491696.516 8      -884.449          51.000
G15  20349351.422 8 106936564.780 8       465.707          49.000    20349350.703 8  83327193.869 8       362.889          49.000
G17  23198785.641 6 121910442.619 6      2082.738          38.000    23198805.430 5  94995184.099 5      1622.910          34.000
G19  24184376.836 6 127089767.609 6      3367.164          41.000    24184378.273 6  99030967.699 6      2623.767          41.000
G28  21699847.055 7 114033511.557 7     -2085.625          43.000    21699845.711 6  88857297.271 6     -1625.162          38.000
R02  22176289.719 6 118336905.619 6     -4269.750          40.000    22176286.414 4  92039819.233 4     -3320.920          27.000
R03  19433402.383 8 104028548.143 8     -1248.293          48.000    19433402.008 7  80911082.636 7      -970.895          45.000
R13  19393428.719 5 103559827.069 5      -784.656          31.000    19393432.109 5  80546544.241 5      -610.291          32.000
R14  21083120.742 6 112384894.507 6      2576.805          40.000    21083123.391 6  87410490.555 6      2004.181          41.000
C05  39790371.484 6 207198905.389 6        16.602          37.000    39790368.312 6 160219323.421 6        12.538          37.000
C14  24859100.805 6 129447821.702 6     -3374.809          40.000    24859101.625 6 100097254.695 6     -2609.797          40.000
C24  22694561.367 7 118176555.223 7     -1692.922          46.000
C25  22300870.977 7 116126495.928 7      1168.504          43.000
E01  23589098.969 8 123961542.346 8      -545.992          51.000    23589101.031 8  94983554.513 8      -418.361          51.000
E04  23615813.695 8 124101932.709 8      -812.938          51.000    23615816.266 8  95091088.540 8      -622.891          51.000
E19  27382505.109 7 143895985.899 7     -2914.945          44.000    27382497.258 5 110257972.069 5     -2233.682          32.000
E21  26479928.930 5 139152943.530 5     -2542.469          30.000
E31  24907414.898 8 130889382.656 8      2006.527          50.000    24907417.930 8 100291877.194 8      1537.478          51.000
> 2020 05 17 05 09 30.0000000  0 18        .000000000000
G13  20396028.117 8 107181838.067 8     -1141.453          51.000    20396026.953 8  83518288.740 8      -889.444          50.000
G15  20346713.312 8 106922701.719 8       457.086          49.000    20346712.617 8  83316391.476 8       356.171          49.000
G17  23186900.438 5 121847982.653 5      2079.332          35.000    23186927.719 4  94946592.855 4      1620.244          28.000
G19  24165136.727 7 126988661.563 7      3371.906          44.000    24165138.258 7  98952183.763 7      2627.459          44.000
G28  21711759.648 7 114096112.198 7     -2089.105          43.000    21711757.422 6  88906076.927 6     -1627.874          37.000
R02  22200290.164 6 118464980.615 6     -4269.879          40.000    22200291.383 5  92139433.059 5     -3321.017          32.000
R03  19440441.672 8 104066231.281 8     -1265.301          48.000    19440441.375 7  80940391.754 7      -984.123          45.000
R12  22241056.352 5 118807702.194 5     -3439.680          32.000
R13  19397848.836 5 103583430.113 5      -790.324          31.000    19397852.094 5  80564902.160 5      -614.697          35.000
R14  21068623.000 5 112307620.046 5      2573.637          34.000    21068627.477 6  87350388.097 6      2001.714          41.000
C05  39790248.719 6 207198266.203 6        24.965          37.000    39790245.516 6 160218829.132 6        19.434          37.000
C14  24878526.734 6 129548972.723 6     -3369.746          41.000    24878526.172 6 100175470.995 6     -2605.695          38.000
C24  22704304.734 7 118227291.882 7     -1690.812          46.000
C25  22294136.281 7 116091425.265 7      1168.070          44.000
E01  23592215.172 8 123977917.742 8      -547.047          51.000    23592217.383 8  94996101.881 8      -419.193          51.000
E04  23620460.539 8 124126350.432 8      -816.324          51.000    23620462.805 8  95109798.208 8      -625.492          51.000
E19  27399129.375 7 143983346.214 7     -2910.281          43.000    27399121.242 5 110324908.424 5     -2230.297          32.000
E31  24895953.312 8 130829155.667 8      2007.250          50.000    24895957.625 8 100245729.230 8      1538.053          51.000
> 2020 05 17 05 10  0.0000000  0 18        .000000000000
G13  20402610.594 8 107216430.228 8     -1160.195          51.000    20402609.672 8  83545243.649 8      -904.048          50.000
G15  20344177.141 8 106909373.939 8       435.887          49.000    20344176.445 8  83306006.188 8       339.652          49.000
G17  23175084.586 5 121785899.754 5      2063.660          33.000    23175078.305 5  94898074.397 5      1608.056          32.000
G19  24145921.414 7 126887683.444 7      3364.270          45.000    24145922.469 7  98873499.566 7      2621.509          44.000
G28  21723743.070 6 114159085.346 6     -2104.898          41.000    21723740.922 6  88955146.916 6     -1640.181          39.000
R02  22224342.586 6 118593329.564 6     -4282.277          40.000    22224345.562 5  92239259.996 5     -3330.660          34.000
R03  19447627.844 8 104104698.241 8     -1294.609          51.000    19447627.742 7  80970310.502 7     -1006.918          47.000
R12  22260399.766 5 118911002.301 5     -3445.645          30.000
R13  19402357.898 5 103607505.329 5      -808.938          31.000    19402361.648 5  80583627.355 5      -629.174          35.000
R14  21054195.648 6 112230727.353 6      2557.016          39.000    21054202.445 6  87290582.578 6      1988.793          38.000
C05  39790127.305 6 207197633.897 6        21.273          36.000    39790124.094 6 160218340.185 6        16.728          37.000
C14  24897975.172 6 129650241.547 6     -3376.711          40.000    24897971.828 5 100253778.398 5     -2611.175          32.000
C24  22714088.297 7 118278236.806 7     -1701.109          45.000
C25  22287455.062 7 116056633.322 7      1155.750          43.000
E01  23595390.258 8 123994602.374 8      -560.727          51.000    23595392.477 8  95008886.200 8      -429.678          51.000
E04  23625178.984 8 124151144.695 8      -832.195          51.000    23625181.039 8  95128796.392 8      -637.671          51.000
E19  27415779.602 6 144070846.422 6     -2918.398          40.000    27415772.086 5 110391953.978 5     -2235.939          33.000
E31  24884540.906 8 130769183.427 8      1995.402          51.000    24884545.602 8 100199776.476 8      1528.909          51.000
> 2020 05 17 05 10 30.0000000  0 20        .000000000000
G13  20409251.883 8 107251331.695 8     -1169.656          50.000    20409251.164 8  83572439.590 8      -911.417          50.000
G15  20341713.375 8 106896426.221 8       424.125          50.000    20341712.875 8  83295917.032 8       330.484          50.000
G17  23163315.148 5 121724035.521 5      2056.996          34.000
G19  24126701.812 8 126786680.467 8      3365.953          48.000    24126702.234 7  98794795.950 7      2622.821          43.000
G24  22318438.500 5 117284148.060 5      2608.703          30.000    22318433.750 4  91390259.970 4      2032.768          29.000
G28  21735767.328 7 114222272.719 7     -2110.902          43.000    21735765.266 6  89004383.828 6     -1644.859          38.000
G30  23873085.523 5 125453921.937 5     -2884.516          31.000
R02  22248416.617 6 118721790.805 6     -4285.008          38.000    22248419.484 6  92339174.278 6     -3332.784          36.000
R03  19454930.555 8 104143789.001 8     -1314.590          51.000    19454930.883 8  81000714.410 8     -1022.459          49.000
R12  22279727.148 5 119014252.672 5     -3440.547          31.000
R13  19406924.266 5 103631891.353 5      -819.547          31.000    19406927.758 5  80602594.205 5      -637.428          35.000
R14  21039814.273 6 112154058.312 6      2550.871          41.000    21039818.875 6  87230951.187 6      1984.014          38.000
C05  39789977.508 6 207196853.753 6        27.375          37.000    39789974.266 6 160217736.938 6        21.247          37.000
C14  24917415.453 6 129751471.471 6     -3374.957          40.000
C24  22723882.070 7 118329234.123 7     -1701.863          44.000
C25  22280797.359 7 116021965.334 7      1152.625          43.000
E01  23598594.195 8 124011439.054 8      -564.906          51.000    23598596.117 8  95021787.028 8      -432.781          51.000
E04  23629939.406 8 124176159.318 8      -838.582          51.000    23629941.219 8  95147963.433 8      -642.574          51.000
E19  27432426.195 6 144158329.307 6     -2917.066          38.000    27432421.273 5 110458986.266 5     -2235.248          34.000
E31  24873147.570 8 130709310.155 8      1992.949          51.000    24873152.234 8 100153899.555 8      1527.089          51.000
> 2020 05 17 05 11  0.0000000  0 17        .000000000000
G13  20416017.562 8 107286886.603 8     -1193.219          50.000    20416016.906 8  83600144.729 8      -929.778          49.000
G15  20339387.633 8 106884203.640 8       398.184          51.000    20339387.312 8  83286392.935 8       310.273          51.000
G19  24107543.836 8 126686000.309 8      3353.477          48.000    24107543.602 7  98716343.893 7      2613.099          43.000
G28  21747897.516 7 114286016.792 7     -2131.195          43.000    21747895.133 6  89054054.484 6     -1660.675          36.000
R02  22272576.461 6 118850709.985 6     -4302.254          36.000    22272579.477 6  92439444.755 6     -3346.197          36.000
R03  19462414.859 8 104183852.858 8     -1348.785          51.000    19462415.586 8  81031875.170 8     -1049.058          49.000
R12  22299104.234 4 119117773.445 4     -3451.504          29.000
R13  19411615.023 5 103656936.812 5      -842.281          31.000    19411618.500 6  80622073.967 6      -655.108          37.000
R14  21025540.352 6 112077962.986 6      2529.828          41.000    21025543.812 6  87171765.966 6      1967.641          39.000
C05  39789864.859 6 207196266.889 6        19.059          37.000    39789861.609 6 160217283.139 6        14.725          37.000
C14  24936913.406 6 129853001.387 6     -3386.543          41.000
C24  22733750.812 7 118380623.889 7     -1716.809          42.000
C25  22274228.719 7 115987762.258 7      1135.180          44.000
E01  23601892.555 8 124028771.020 8      -583.219          51.000    23601893.930 8  95035067.361 8      -446.849          51.000
E04  23634807.195 8 124201738.522 8      -859.219          51.000    23634808.641 8  95167563.076 8      -658.338          51.000
E19  27449134.945 6 144246137.729 6     -2929.727          37.000    27449132.602 5 110526267.965 5     -2244.727          34.000
E31  24861838.297 8 130649880.412 8      1976.445          49.000    24861843.102 8 100108362.474 8      1514.440          51.000
> 2020 05 17 05 11 30.0000000  0 19        .000000000000
G13  20422850.344 8 107322793.527 8     -1204.637          50.000    20422850.086 8  83628124.158 8      -938.678          50.000
G15  20337142.727 8 106872405.903 8       384.289          50.000    20337142.273 8  83277199.883 8       299.446          50.000
G19  24088390.391 8 126585344.808 8      3352.770          48.000    24088389.070 6  98637911.045 6      2612.545          41.000
G24  22288789.109 5 117128366.380 5      2590.496          32.000
G28  21760075.594 6 114350013.827 6     -2139.434          41.000    21760073.008 6  89103922.284 6     -1667.091          38.000
G30  23906131.023 5 125627560.938 5     -2894.676          31.000    23906138.133 5  97891662.518 5     -2255.592          30.000
R02  22296763.109 5 118979777.960 5     -4306.750          35.000    22296766.391 6  92539830.998 6     -3349.694          36.000
R03  19470023.414 8 104224582.023 8     -1370.668          51.000    19470024.734 8  81063553.387 8     -1066.078          50.000
R12  22318478.469 4 119221302.527 4     -3450.613          28.000
R13  19416370.992 5 103682333.506 5      -854.309          32.000    19416374.906 6  80641826.977 6      -664.462          36.000
R14  21011316.375 7 112002136.483 7      2520.973          44.000    21011318.617 6  87112789.779 6      1960.757          39.000
C05  39789732.000 6 207195574.887 6        22.902          37.000    39789728.664 6 160216748.028 6        17.565          37.000
C14  24956411.078 6 129954530.787 6     -3386.180          39.000
C24  22743636.898 6 118432106.574 6     -1719.637          41.000
C25  22267692.805 7 115953725.526 7      1129.883          46.000
E01  23605227.531 8 124046296.127 8      -589.371          51.000    23605228.789 8  95048495.691 8      -451.587          51.000
E04  23639724.859 8 124227581.131 8      -867.840          51.000    23639725.953 8  95187364.539 8      -664.929          51.000
E19  27465848.266 5 144333969.686 5     -2929.883          34.000    27465848.141 5 110593567.755 5     -2244.942          34.000
E31  24850555.883 8 130590593.428 8      1971.883          50.000    24850560.945 8 100062934.745 8      1510.956          51.000
> 2020 05 17 05 12  0.0000000  0 18        .000000000000
G13  20429762.359 8 107359116.068 8     -1220.191          51.000    20429762.188 8  83656427.410 8      -950.798          50.000
G15  20334990.898 8 106861097.657 8       366.281          51.000    20334990.438 8  83268388.235 8       285.411          51.000
G19  24069253.820 7 126484781.360 7      3348.035          45.000    24069252.320 7  98559549.927 7      2608.862          43.000
G28  21772313.438 6 114414325.552 6     -2151.574          38.000    21772311.609 6  89154035.344 6     -1676.551          38.000
G30  23922655.352 4 125714401.780 4     -2899.656          28.000    23922663.828 4  97959333.937 4     -2259.469          27.000
R02  22320987.875 6 119109055.599 6     -4314.973          36.000    22320992.820 5  92640380.304 5     -3356.093          34.000
R03  19477768.305 8 104266040.535 8     -1396.688          51.000    19477769.953 8  81095798.864 8     -1086.312          50.000
R12  22337849.305 5 119324803.375 5     -3453.348          35.000    22337859.953 4  92808209.535 4     -2685.937          26.000
R13  19421204.758 5 103708143.973 5      -870.129          33.000    19421207.945 5  80661901.756 5      -676.767          35.000
R14  20997155.820 7 111926643.781 7      2508.141          44.000    20997155.914 6  87054073.279 6      1950.776          38.000
C05  39789590.961 6 207194840.772 6        22.355          37.000    39789587.688 6 160216180.348 6        17.293          37.000
C14  24975919.602 6 130056120.767 6     -3389.633          38.000
C24  22753552.898 6 118483744.283 6     -1726.359          41.000
C25  22261201.172 7 115919918.076 7      1120.637          45.000
E01  23608611.055 8 124064077.053 8      -599.625          51.000    23608612.500 8  95062120.033 8      -459.432          51.000
E04  23644704.672 8 124253750.730 8      -880.449          51.000    23644705.344 8  95207416.560 8      -674.612          51.000
E19  27482578.664 5 144421887.589 5     -2934.367          35.000    27482579.211 5 110660933.388 5     -2248.471          33.000
E31  24839313.172 8 130531513.150 8      1963.227          51.000    24839317.898 8 100017665.416 8      1504.320          51.000
> 2020 05 17 05 12 30.0000000  0 17        .000000000000
G13  20436789.688 8 107396043.140 8     -1234.043          51.000    20436788.914 8  83685201.735 8      -961.592          49.000
G15  20332968.328 8 106850468.535 8       349.949          51.000    20332967.727 8  83260105.787 8       272.688          51.000
G19  24050170.250 7 126384501.884 7      3344.555          43.000    24050169.367 7  98481410.131 7      2606.147          43.000
G28  21784646.562 7 114479138.039 7     -2161.852          43.000    21784645.555 6  89204538.611 6     -1684.560          36.000
R02  22345288.797 6 119238731.739 6     -4321.938          38.000    22345293.641 5  92741239.481 5     -3361.507          31.000
R03  19485685.086 8 104308419.147 8     -1420.859          51.000    19485686.969 8  81128759.986 8     -1105.113          50.000
R12  22357265.469 5 119428500.302 5     -3452.461          31.000    22357272.516 5  92888883.078 5     -2685.247          31.000
R13  19426151.852 5 103734558.306 5      -882.934          32.000    19426154.289 5  80682446.260 5      -686.723          35.000
R14  20983094.062 6 111851677.410 6      2497.367          41.000    20983093.586 6  86995766.201 6      1942.403          39.000
C05  39789477.867 6 207194251.899 6        24.258          37.000    39789474.523 6 160215725.000 6        18.646          37.000
C14  24995475.641 6 130157956.561 6     -3391.938          38.000    24995474.523 4 100646406.389 4     -2622.647          29.000
C24  22763535.062 6 118535723.334 6     -1731.562          40.000
C25  22254789.133 7 115886527.198 7      1113.074          44.000
E01  23612079.117 8 124082301.862 8      -607.852          51.000    23612080.523 8  95076084.488 8      -465.789          51.000
E04  23649782.766 8 124280436.370 8      -891.090          51.000    23649782.852 8  95227863.984 8      -682.777          51.000
E19  27499362.008 6 144510079.483 6     -2937.047          36.000
E31  24828146.398 8 130472828.991 8      1956.562          51.000    24828150.312 8  99972699.630 8      1499.178          51.000
> 2020 05 17 05 13  0.0000000  0 17        .000000000000
G13  20443888.891 8 107433348.139 8     -1246.586          51.000    20443887.438 8  83714270.549 8      -971.366          48.000
G15  20331032.164 8 106840293.446 8       334.898          51.000    20331031.133 8  83252177.139 8       260.960          51.000
G19  24031098.367 7 126284283.903 7      3342.488          42.000    24031098.555 7  98403318.198 7      2604.539          42.000
G28  21797031.945 7 114544223.652 7     -2170.773          45.000    21797030.789 5  89255254.651 5     -1691.515          34.000
R02  22369621.633 6 119368573.357 6     -4327.664          38.000    22369623.891 4  92842227.429 4     -3365.958          28.000
R03  19493730.742 8 104351486.583 8     -1443.797          51.000    19493732.570 8  81162256.874 8     -1122.953          49.000
R12  22376686.180 5 119532239.922 5     -3453.363          33.000    22376687.414 5  92969506.826 5     -2685.952          32.000
