     3.02           OBSERVATION DATA    M (MIXED)           RINEX VERSION / TYPE
SAVERINEX           SC600               20200518 025931 LCL PGM / RUN BY / DATE
       G = GPS       R = GLONASS       C = COMPASS          COMMENT
       S = SBAS      J = QZSS          E = GALILEO          COMMENT
BEAN                                                        MARKER NAME
1                                                           MARKER NUMBER
GEODETIC                                                    MARKER TYPE
Unige DICCA         GTER                                    OBSERVER / AGENCY
SC60291900056       SC600               2.12(191202)        REC # / TYPE / VERS
                    HEMA45          NONE                    ANT # / TYPE
  4509407.8091   693652.4678  4442337.6214                  APPROX POSITION XYZ
        0.0000        0.0000        0.0000                  ANTENNA: DELTA H/E/N
G    8 C1C L1C D1C S1C C2Y L2Y D2Y S2Y                      SYS / # / OBS TYPES
R    8 C1C L1C D1C S1C C2P L2P D2P S2P                      SYS / # / OBS TYPES
C    8 C1I L1I D1I S1I C7I L7I D7I S7I                      SYS / # / OBS TYPES
E    8 C1C L1C D1C S1C C7Q L7Q D7Q S7Q                      SYS / # / OBS TYPES
DBHZ                                                        COMMENT
     30.000                                                 INTERVAL
  2020    05    18    00    00    0.0000000     GPS         TIME OF FIRST OBS
  2020    05    18    00    59   30.0000000     GPS         TIME OF LAST OBS
     0                                                      RCV CLOCK OFFS APPL
G L1C  0.00000                                              SYS / PHASE SHIFT
G L2Y  0.00000                                              SYS / PHASE SHIFT
R L1C  0.00000                                              SYS / PHASE SHIFT
R L2P  0.25000                                              SYS / PHASE SHIFT
C L1I  0.00000                                              SYS / PHASE SHIFT
C L7I  0.00000                                              SYS / PHASE SHIFT
E L1C  0.50000                                              SYS / PHASE SHIFT
E L7Q -0.25000                                              SYS / PHASE SHIFT
 11 R01  1 R02 -4 R07  5 R08  6 R09 -2 R10 -5 R11  0 R12 -1 GLONASS SLOT / FRQ #
    R17  4 R22 -3 R23  3                                    GLONASS SLOT / FRQ #
 C1C   71.950 C2C   71.950 C2P   71.950                     GLONASS COD/PHS/BIS
    18                                                      LEAP SECONDS
*** Above antenna height is from mark to ANTENNA BOTTOM.    COMMENT
    17     4        0.0000        ANT MEASURE TYPE/HEIGT    COMMENT
    0.0000    0.0000    0.0458    0.0405    0.0000          COMMENT
                    BASE STATION                            COMMENT
                                                            END OF HEADER
> 2020 05 18 00 00  0.0000000  0 20        .000000000000
G04  22259056.234 5 116972121.174 5     -2583.102          31.000
G06  21251762.727 8 111678765.687 8     -1173.328          51.000    21251763.672 8  87022367.082 8      -914.279          51.000
G07  21652063.562 8 113782355.417 8      2152.410          51.000    21652060.000 8  88661568.422 8      1677.203          51.000
G09  20436099.984 8 107392497.092 8      -844.188          51.000    20436100.930 8  83682491.561 8      -657.808          51.000
G30  23556301.875 5 123789208.943 5      3543.434          35.000    23556300.000 5  96459105.329 5      2761.129          33.000
R10  22859318.789 5 121852954.261 5     -3088.898          34.000
R11  20568018.453 5 109909264.217 5       918.516          34.000    20568022.031 4  85484977.447 4       714.401          24.000
R12  21910600.367 8 117042605.401 8      4016.059          48.000    21910602.023 7  91033124.435 7      3123.601          42.000
R17  21219111.602 5 113547692.180 5     -2144.707          32.000    21219107.828 5  88314879.215 5     -1668.105          33.000
R24  23279856.859 5 124487906.756 5     -4290.695          34.000    23279858.875 4  96823911.214 4     -3337.204          29.000
C05  39791866.609 6 207206691.012 6       -23.297          37.000    39791861.898 6 160225337.718 6       -17.480          37.000
C12  24873047.938 6 129520448.418 6     -2350.254          40.000    24873051.805 7 100153524.170 7     -1817.462          46.000
C19  24812571.836 5 129205566.625 5     -2483.555          31.000
C22  22038819.602 8 114761913.566 8      -569.156          51.000
E02  26219612.344 7 137784990.894 7      2555.352          45.000    26219614.125 7 105575512.271 7      1957.994          47.000
E03                                                                  25455893.672 6 102500359.380 6     -1442.728          39.000
E07                                                                  25916105.328 5 104353386.206 5      1495.772          34.000
E08  21528050.023 8 113130670.245 8        96.402          51.000    21528050.664 8  86684685.746 8        73.864          51.000
E13  24904324.172 8 130873110.896 8     -1899.801          51.000    24904323.992 8 100279391.902 8     -1455.700          51.000
E15  27174963.547 5 142805396.680 5     -3234.438          34.000
> 2020 05 18 00 00 30.0000000  0 20        .000000000000
G04  22273818.688 6 117049708.658 6     -2588.207          36.000
G06  21258519.562 8 111714273.079 8     -1192.754          51.000    21258519.523 8  87050035.154 8      -929.419          51.000
G07  21639817.711 8 113718002.492 8      2138.926          51.000    21639813.445 8  88611423.305 8      1666.695          51.000
G09  20440954.609 8 107418008.006 8      -855.266          51.000    20440955.508 8  83702370.177 8      -666.441          51.000
G30  23536092.719 5 123682988.593 5      3538.562          35.000    23536085.234 6  96376336.269 6      2757.328          36.000
R01  20673089.938 6 110509508.950 6     -1934.840          37.000    20673096.086 5  85951844.698 5     -1504.872          31.000
R11  20562939.086 6 109882125.404 6       891.910          38.000
R12  21888078.734 8 116922301.362 8      4005.316          49.000    21888080.992 7  90939554.576 7      3115.246          44.000
R17  21231204.531 5 113612401.311 5     -2167.914          35.000    21231200.219 5  88365208.574 5     -1686.152          31.000
R24  23303937.266 5 124616697.234 5     -4294.035          34.000    23303945.062 5  96924081.519 5     -3339.805          30.000
C05  39792000.633 6 207207388.813 6       -22.898          37.000    39791996.039 6 160225877.350 6       -17.453          37.000
C12  24886618.938 6 129591117.768 6     -2359.902          39.000    24886621.852 7 100208170.185 7     -1824.799          46.000
C19  24826895.398 4 129280157.448 4     -2487.828          27.000
C22  22042126.125 8 114779130.375 8      -577.590          51.000
E02  26205046.906 7 137708453.719 7      2548.234          45.000    26205049.906 8 105516866.947 8      1952.588          48.000
E03                                                                  25466653.711 6 102543680.953 6     -1444.677          38.000
E07                                                                  25904973.891 5 104308594.479 5      1493.267          30.000
E08  21527518.484 8 113127878.015 8        90.754          51.000    21527519.328 8  86682546.237 8        69.524          51.000
E13  24915206.062 8 130930298.190 8     -1911.699          50.000    24915207.195 8 100323210.746 8     -1464.722          51.000
E15  27193434.922 5 142902462.299 5     -3235.074          35.000
> 2020 05 18 00 01  0.0000000  0 18        .000000000000
G04  22288606.977 5 117127424.725 5     -2593.910          34.000
G06  21265382.023 8 111750338.349 8     -1212.516          51.000    21265381.180 8  87078137.936 8      -944.817          51.000
G07  21627645.117 8 113654036.789 8      2124.770          51.000    21627640.922 8  88561579.918 8      1655.665          51.000
G09  20445868.953 8 107443832.584 8      -867.055          51.000    20445869.711 8  83722493.215 8      -675.624          51.000
G30  23515910.305 5 123576904.212 5      3533.285          33.000    23515894.852 5  96293673.297 5      2753.221          34.000
R11  20558006.289 6 109855766.086 6       864.539          40.000    20558015.109 5  85443381.291 5       672.419          34.000
R12  21865613.617 8 116802299.018 8      3993.969          50.000    21865616.961 7  90846219.381 7      3106.420          44.000
R17  21243413.508 4 113677776.554 4     -2191.582          29.000    21243412.500 4  88416055.920 4     -1704.564          27.000
R24  23328029.852 5 124745549.665 5     -4297.473          32.000    23328040.703 4  97024300.070 4     -3342.479          29.000
C05  39792130.195 6 207208063.405 6       -23.102          37.000    39792125.578 6 160226398.975 6       -17.960          37.000
C12  24900239.609 6 129662046.909 6     -2369.465          40.000    24900241.703 7 100263017.106 7     -1832.296          45.000
C22  22045477.516 8 114796581.559 8      -586.633          51.000
E02  26190518.188 7 137632106.131 7      2540.703          46.000    26190521.766 8 105458366.863 8      1946.793          48.000
E03  25477417.859 5 133884734.601 5     -1888.602          35.000    25477423.641 5 102587046.205 5     -1447.023          35.000
E07                                                                  25893852.375 5 104263823.053 5      1490.648          33.000
E08  21527015.305 8 113125234.057 8        84.625          51.000    21527016.289 8  86680520.347 8        64.872          51.000
E13  24926151.086 8 130987816.065 8     -1923.781          51.000    24926153.352 8 100367282.884 8     -1474.069          51.000
E15  27211903.367 5 142999516.923 5     -3235.727          33.000
> 2020 05 18 00 01 30.0000000  0 17        .000000000000
G02  22587695.391 6 118699131.163 6      1093.023          36.000
G04  22303432.461 5 117205336.674 5     -2600.848          35.000
G06  21272351.289 8 111786965.279 8     -1233.508          51.000    21272350.914 8  87106678.391 8      -961.175          51.000
G07  21615547.609 8 113590465.437 8      2109.188          51.000    21615543.969 8  88512043.800 8      1643.523          51.000
G09  20450843.797 8 107469974.879 8      -880.109          51.000    20450844.250 8  83742863.837 8      -685.800          51.000
R01  20694898.516 5 110626110.628 5     -1954.324          32.000    20694904.656 5  86042530.698 5     -1520.027          31.000
R11  20553221.023 7 109830192.666 7       835.898          43.000    20553224.023 5  85423490.819 5       650.140          35.000
R12  21843207.539 8 116682608.002 8      3981.059          50.000    21843210.852 7  90753126.362 7      3096.379          43.000
R24  23352135.570 5 124874465.090 5     -4301.777          33.000    23352149.977 5  97124567.617 5     -3345.830          32.000
C05  39792256.195 6 207208719.609 6       -24.895          37.000    39792251.711 6 160226906.400 6       -19.347          37.000
C12  24913910.344 6 129733238.284 6     -2380.496          39.000    24913912.383 7 100318066.825 7     -1840.923          46.000
C22  22048875.000 8 114814272.338 8      -596.965          51.000
E02  26176027.203 7 137555955.225 7      2531.617          44.000    26176030.484 7 105400017.439 7      1939.918          47.000
E03  25488200.359 5 133941396.652 5     -1892.988          32.000    25488202.773 5 102630431.784 5     -1450.190          30.000
E07  25882740.500 5 136014718.551 5      1940.496          31.000    25882742.719 5 104219112.912 5      1486.972          33.000
E08  21526541.461 8 113122743.237 8        77.066          51.000    21526542.312 8  86678611.801 8        59.090          51.000
E13  24937160.258 8 131045668.009 8     -1937.301          51.000    24937162.617 8 100411610.967 8     -1484.419          51.000
> 2020 05 18 00 02  0.0000000  0 18        .000000000000
G02  22581478.891 4 118666458.429 4      1077.293          29.000
G06  21279440.789 8 111824222.715 8     -1252.648          51.000    21279441.727 8  87135710.160 8      -976.090          51.000
G07  21603538.820 8 113527359.558 8      2095.363          51.000    21603535.812 8  88462870.364 8      1632.751          51.000
G09  20455892.273 8 107496504.059 8      -891.074          51.000    20455892.484 8  83763535.927 8      -694.344          51.000
R01  20705890.711 5 110684832.255 5     -1963.012          35.000    20705889.414 5  86088203.105 5     -1526.778          31.000
R02  20137595.273 5 107458065.864 5      1605.938          31.000
R11  20548596.930 7 109805478.303 7       809.195          42.000    20548602.055 6  85404268.559 6       629.377          40.000
R12  21820873.703 8 116563304.135 8      3970.066          50.000    21820876.539 6  90660334.480 6      3087.829          41.000
R17  21268234.797 5 113810600.492 5     -2238.574          32.000    21268239.688 4  88519380.797 4     -1741.107          26.000
C05  39792392.055 6 207209427.042 6       -24.527          37.000    39792387.539 6 160227453.422 6       -18.891          37.000
C12  24927643.766 6 129804758.938 6     -2389.816          38.000    24927647.570 7 100373371.146 7     -1847.855          47.000
C22  22052332.016 8 114832272.519 8      -605.469          51.000
E02  26161587.320 7 137480073.236 7      2524.742          44.000    26161590.477 7 105341874.135 7      1934.435          47.000
E03                                                                  25499005.750 5 102673930.204 5     -1452.243          30.000
E07  25871669.055 5 135956540.428 5      1937.160          33.000    25871662.453 5 104174465.947 5      1484.353          31.000
E08  21526110.164 8 113120475.476 8        71.609          51.000    21526110.664 8  86676874.172 8        54.876          51.000
E13  24948246.133 8 131103922.571 8     -1948.754          51.000    24948248.008 8 100456247.564 8     -1493.222          51.000
E15  27248846.969 5 143193656.072 5     -3237.699          35.000
> 2020 05 18 00 02 30.0000000  0 19        .000000000000
G04  22333170.414 5 117361573.762 5     -2606.457          31.000
G06  21286634.703 8 111862027.897 8     -1267.492          51.000    21286637.039 8  87165168.759 8      -987.656          51.000
G07  21591603.266 8 113464638.983 8      2086.035          50.000    21591600.883 8  88413997.204 8      1625.482          50.000
G09  20460998.664 8 107523337.712 8      -897.680          51.000    20460998.805 8  83784445.273 8      -699.491          51.000
G30  23455531.445 5 123259620.936 5      3519.336          34.000
R11  20544118.312 7 109781541.206 7       786.703          42.000    20544121.125 6  85385650.851 6       611.880          37.000
R12  21798597.203 8 116444309.136 8      3963.109          49.000    21798599.391 6  90567782.812 6      3082.415          40.000
R17  21280836.375 4 113878048.837 4     -2257.273          27.000    21280836.242 4  88571818.786 4     -1755.657          26.000
R24  23400423.148 4 125132532.862 4     -4301.500          29.000    23400423.742 4  97325332.120 4     -3345.611          28.000
C05  39792522.227 6 207210104.894 6       -20.254          37.000    39792517.711 6 160227977.552 6       -15.517          37.000
C12  24941424.586 6 129876525.484 6     -2394.531          38.000    24941430.531 7 100428865.658 7     -1851.507          47.000
C21  23082803.273 4 120198215.597 4      1910.246          29.000
C22  22055832.727 8 114850501.609 8      -609.668          51.000
E02  26147183.672 7 137404380.732 7      2521.793          45.000    26147186.523 7 105283876.014 7      1932.313          45.000
E03  25509822.523 5 134055028.885 5     -1893.820          34.000    25509822.617 5 102717483.814 5     -1451.513          30.000
E07                                                                  25860593.445 4 104129893.377 4      1486.167          29.000
E08  21525705.625 8 113118349.175 8        70.371          51.000    21525705.953 8  86675244.930 8        53.960          51.000
E13  24959392.258 8 131162496.713 8     -1955.992          50.000    24959394.305 8 100501129.048 8     -1498.660          51.000
E15  27267317.484 5 143290719.405 5     -3233.234          34.000
> 2020 05 18 00 03  0.0000000  0 16        .000000000000
G04  22348039.750 4 117439741.272 4     -2350.836          27.000
G06  21293927.430 8 111900351.306 8     -1292.719          51.000    21293930.648 8  87195031.177 8     -1007.313          51.000
G07  21579736.125 8 113402277.772 8      2066.016          50.000    21579734.430 8  88365404.075 8      1609.882          50.000
G09  20466157.297 8 107550446.631 8      -914.805          51.000    20466157.539 8  83805569.118 8      -712.835          51.000
G30  23435457.891 6 123154153.059 6      3507.492          36.000    23435459.094 6  95964276.456 6      2733.111          36.000
R01  20727981.562 6 110802948.994 6     -1981.754          36.000    20727979.172 4  86180071.320 4     -1541.364          25.000
R11  20539781.141 6 109758354.083 6       753.969          38.000    20539782.367 6  85367616.441 6       586.426          39.000
R12  21776373.672 8 116325598.694 8      3945.574          50.000    21776374.844 6  90475452.515 6      3068.783          40.000
C05  39792641.453 6 207210725.287 6       -26.301          37.000    39792636.906 6 160228457.284 6       -20.519          37.000
C12  24955247.602 6 129948507.565 6     -2409.297          40.000    24955254.516 7 100484526.790 7     -1863.211          46.000
C22  22059371.938 8 114868931.939 8      -624.270          51.000
E02  26132811.172 7 137328851.580 7      2508.270          45.000    26132813.680 7 105226003.062 7      1921.822          45.000
E03  25520639.516 5 134111865.792 5     -1901.801          32.000
E07                                                                  25849535.234 5 104085368.891 5      1478.616          31.000
E08  21525322.383 8 113116336.009 8        58.602          51.000    21525322.820 8  86673702.380 8        44.867          51.000
E13  24970593.523 8 131221360.654 8     -1973.660          50.000    24970596.172 8 100546232.614 8     -1512.261          51.000
> 2020 05 18 00 03 30.0000000  0 17        .000000000000
G06  21301346.898 8 111939340.138 8     -1307.176          51.000    21301350.172 8  87225412.098 8     -1018.579          51.000
G07  21567966.117 8 113340425.879 8      2056.773          50.000    21567964.891 8  88317207.802 8      1602.681          50.000
G09  20471396.359 8 107577978.426 8      -921.316          51.000    20471396.688 8  83827022.465 8      -717.909          51.000
G30  23415433.672 5 123048945.794 5      3506.129          35.000    23415437.555 5  95882288.768 5      2732.048          35.000
R01  20739105.312 5 110862449.166 5     -1985.785          32.000    20739106.422 4  86226318.269 4     -1544.500          25.000
R11  20535612.859 7 109736069.346 7       731.531          42.000    20535611.828 5  85350283.935 5       568.963          31.000
R12  21754233.523 8 116207328.132 8      3938.523          51.000    21754233.508 7  90383464.347 7      3063.296          42.000
R17  21306409.453 5 114014896.628 5     -2302.219          30.000
R24  23448734.992 5 125390864.594 5     -4307.766          30.000
C05  39792777.797 6 207211435.423 6       -21.805          37.000    39792773.266 6 160229006.378 6       -16.532          37.000
C12  24969140.641 7 130020849.863 7     -2413.914          42.000    24969146.016 7 100540466.432 7     -1866.573          44.000
C22  22062978.031 8 114887710.932 8      -628.316          51.000
E02  26118498.578 7 137253636.360 7      2505.492          46.000    26118500.750 7 105168370.643 7      1919.778          44.000
E07                                                                  25838515.953 5 104040992.324 5      1479.672          34.000
E08  21524988.797 8 113114584.351 8        57.586          51.000    21524989.312 8  86672360.206 8        44.211          51.000
E13  24981878.461 8 131280661.425 8     -1980.441          51.000    24981881.242 8 100591670.876 8     -1517.439          51.000
E15  27304255.180 5 143484824.968 5     -3233.773          33.000
> 2020 05 18 00 04  0.0000000  0 16        .000000000000
G06  21308864.930 8 111978846.738 8     -1325.996          51.000    21308867.469 8  87256196.443 8     -1033.244          51.000
G07  21556265.523 8 113278938.205 8      2042.926          51.000    21556264.430 8  88269295.341 8      1591.890          51.000
G09  20476687.875 8 107605785.803 8      -932.152          51.000    20476688.336 8  83848690.549 8      -726.352          51.000
G30  23395433.961 5 122943847.209 5      3500.859          35.000    23395436.875 5  95800393.801 5      2727.942          34.000
R01  20750272.445 6 110922150.646 6     -1994.254          36.000    20750278.922 4  86272752.668 4     -1551.083          26.000
R11  20531583.273 7 109714539.268 7       704.355          43.000    20531583.195 5  85333538.355 5       547.835          33.000
R12  21732149.328 8 116089353.220 8      3926.977          51.000    21732149.508 7  90291706.149 7      3054.318          46.000
R24  23472906.273 5 125520115.029 5     -4309.891          30.000
C05  39792903.539 6 207212090.272 6       -21.297          36.000    39792899.102 6 160229513.765 6       -16.568          37.000
C12  24983074.148 6 130093404.852 6     -2422.676          40.000    24983077.031 7 100596570.505 7     -1873.258          44.000
C22  22066623.133 8 114906693.915 8      -636.828          51.000
E02  26104218.594 7 137178590.782 7      2498.121          46.000    26104220.023 7 105110868.149 7      1914.142          42.000
E07  25827501.672 6 135724443.201 6      1928.039          36.000    25827505.852 6 103996648.600 6      1477.197          37.000
E08  21524677.227 8 113112947.738 8        52.004          50.000    21524677.469 8  86671106.176 8        39.925          51.000
E13  24993218.609 8 131340251.079 8     -1991.633          51.000    24993220.922 8 100637330.489 8     -1526.089          51.000
E15  27322721.742 5 143581866.593 5     -3233.840          33.000
> 2020 05 18 00 04 30.0000000  0 15        .000000000000
G06  21316483.555 8 112018881.120 8     -1343.918          51.000    21316485.000 8  87287392.047 8     -1047.209          51.000
G07  21544636.734 8 113217827.551 8      2030.043          51.000    21544635.445 8  88221676.646 8      1581.852          51.000
G09  20482033.844 8 107633879.236 8      -941.973          51.000    20482034.383 8  83870581.541 8      -734.005          51.000
G30  23375458.891 6 122838879.949 6      3495.809          37.000    23375462.578 6  95718601.136 6      2724.007          37.000
R01  20761478.938 5 110982003.731 5     -2001.074          30.000    20761492.000 4  86319386.373 4     -1556.406          27.000
R11  20527697.844 7 109693776.807 7       678.438          42.000
R12  21710123.516 8 115971690.208 8      3916.117          50.000    21710123.883 8  90200190.528 8      3045.869          48.000
C05  39793020.898 6 207212701.222 6       -20.473          37.000    39793016.391 6 160229986.199 6       -15.988          37.000
C12  24997049.750 6 130166181.219 6     -2430.090          41.000    24997050.922 7 100652845.790 7     -1879.281          45.000
C22  22070309.672 8 114925892.406 8      -644.207          51.000
E02  26089973.117 7 137103733.386 7      2491.574          44.000    26089975.227 7 105053512.070 7      1909.047          43.000
E03  25553241.695 5 134283195.490 5     -1904.207          33.000    25553237.836 5 102892322.391 5     -1459.214          34.000
E07  25816502.539 5 135666622.512 5      1925.902          35.000    25816504.367 5 103952344.438 5      1475.790          34.000
E08  21524389.812 8 113111437.480 8        47.480          51.000    21524389.617 8  86669948.969 8        36.333          51.000
E13  25004615.352 8 131400139.450 8     -2001.953          51.000    25004616.750 8 100683218.990 8     -1533.982          51.000
> 2020 05 18 00 05  0.0000000  0 16        .000000000000
G04  22407963.492 5 117754642.324 5     -2639.367          30.000
G06  21324216.477 8 112059516.195 8     -1368.117          51.000    21324217.242 8  87319055.728 8     -1066.065          51.000
G07  21533094.148 8 113157170.357 8      2010.680          51.000    21533092.609 8  88174411.284 8      1566.763          51.000
G09  20487448.219 8 107662332.009 8      -957.938          51.000    20487448.680 8  83892752.549 8      -746.445          51.000
G30  23355524.078 6 122734120.617 6      3484.688          38.000    23355527.367 6  95636970.454 6      2715.341          38.000
R01  20772741.602 5 111042206.220 5     -2015.148          34.000    20772753.820 4  86366219.535 4     -1567.332          25.000
R11  20523968.336 7 109673858.357 7       646.277          45.000    20523966.117 5  85301900.443 5       502.657          30.000
R12  21688169.992 7 115854418.809 7      3898.801          45.000    21688171.227 8  90108979.422 8      3032.401          49.000
C05  39793143.945 6 207213341.830 6       -25.184          37.000    39793139.375 6 160230481.548 6       -19.727          37.000
C12  25011082.203 6 130239250.110 6     -2443.898          41.000    25011081.922 7 100709347.311 7     -1890.043          45.000
C21  23028209.352 4 119913884.055 4      1877.641          29.000
C22  22074051.945 8 114945380.384 8      -657.992          51.000
E02  26075777.328 7 137029130.437 7      2478.805          44.000    26075778.453 7 104996348.798 7      1899.320          42.000
E03                                                                  25564118.445 6 102936147.894 6     -1464.988          37.000
E08  21524140.656 8 113110127.714 8        36.645          51.000    21524140.148 8  86668945.384 8        28.117          51.000
E13  25016082.094 8 131460399.226 8     -2018.523          51.000    25016083.164 8 100729392.071 8     -1546.661          51.000
> 2020 05 18 00 05 30.0000000  0 15        .000000000000
G06  21332066.203 8 112100766.173 8     -1382.309          51.000    21332067.016 8  87351198.572 8     -1077.124          51.000
G07  21521640.828 8 113096983.323 8      2001.340          51.000    21521639.375 8  88127512.296 8      1559.486          51.000
G09  20492933.781 8 107691158.822 8      -964.223          51.000    20492934.133 8  83915215.023 8      -751.342          51.000
G30  23335632.531 6 122629587.118 6      3483.840          38.000    23335634.641 6  95555515.739 6      2714.680          39.000
R01  20784068.258 5 111102724.578 5     -2019.090          31.000    20784075.617 4  86413278.422 4     -1570.403          27.000
R11  20520400.891 6 109654801.278 6       623.719          40.000    20520402.367 5  85287078.299 5       485.121          34.000
R12  21666291.367 7 115737559.621 7      3891.383          46.000    21666295.352 8  90018088.885 8      3026.628          49.000
R17  21359034.750 4 114296420.836 4     -2389.926          28.000    21359036.273 4  88897238.932 4     -1858.828          27.000
C05  39793275.672 6 207214027.727 6       -20.754          37.000    39793271.164 6 160231011.917 6       -15.997          37.000
C12  25025173.805 7 130312624.523 7     -2447.973          43.000    25025172.344 7 100766085.048 7     -1892.931          45.000
C22  22077853.039 8 114965173.537 8      -661.938          51.000
E02  26061632.844 7 136954804.632 7      2475.754          43.000    26061633.562 6 104939397.878 6      1897.075          41.000
E03                                                                  25575025.852 5 102980068.498 5     -1463.261          35.000
E08  21523932.609 8 113109033.963 8        35.801          51.000    21523932.102 8  86668107.318 8        27.462          51.000
E13  25027621.828 8 131521044.414 8     -2024.973          49.000    25027623.266 8 100775860.476 8     -1551.593          51.000
> 2020 05 18 00 06  0.0000000  0 15        .000000000000
G06  21340017.477 8 112142550.933 8     -1409.113          51.000    21340018.531 8  87383758.140 8     -1098.010          51.000
G07  21510262.164 8 113037188.912 8      1979.113          50.000    21510261.078 8  88080919.247 8      1542.166          50.000
G09  20498475.391 8 107720280.053 8      -983.117          51.000    20498475.805 8  83937906.901 8      -766.065          51.000
G30  23315769.328 6 122525203.141 6      3469.543          39.000    23315769.750 6  95474177.565 6      2703.540          37.000
R01  20795432.219 5 111163453.998 5     -2035.988          32.000
R11  20516980.242 6 109636526.514 6       588.258          40.000    20516980.094 5  85272864.540 5       457.531          34.000
R12  21644476.750 8 115621037.061 8      3870.926          48.000    21644482.281 8  89927460.219 8      3010.720          49.000
R17  21372516.594 5 114368518.260 5     -2420.211          31.000    21372506.789 3  88953371.337 3     -1882.386          23.000
C05  39793401.047 6 207214680.892 6       -28.918          37.000    39793396.547 6 160231516.980 6       -22.201          37.000
C12  25039308.789 7 130386223.833 7     -2464.426          43.000    25039306.328 7 100822996.713 7     -1905.517          44.000
C22  22081697.844 8 114985194.185 8      -678.555          51.000
E02  26047525.977 6 136880679.288 6      2460.148          41.000    26047526.055 6 104882600.568 6      1885.058          41.000
E03                                                                  25585944.812 5 103024023.692 5     -1471.639          32.000
E08  21523750.648 8 113108077.403 8        22.145          51.000    21523750.336 8  86667374.377 8        17.034          51.000
E13  25039220.070 8 131581994.786 8     -2044.102          50.000    25039221.508 8 100822562.691 8     -1566.290          51.000
> 2020 05 18 00 06 30.0000000  0 15        .000000000000
G02  22529872.367 5 118395283.429 5       928.449          34.000
G04  22453197.945 4 117992332.151 4     -2647.676          29.000
G06  21348072.430 8 112184880.731 8     -1420.609          51.000    21348073.516 8  87416742.408 8     -1106.968          51.000
G07  21498960.641 8 112977800.514 8      1972.270          49.000    21498960.273 8  88034642.551 8      1536.833          49.000
G09  20504074.984 8 107749706.460 8      -986.465          51.000    20504075.641 8  83960836.583 8      -768.674          51.000
G30  23295937.609 6 122420982.788 6      3470.879          39.000    23295935.898 6  95392966.947 6      2704.590          37.000
R11  20513708.211 6 109619047.054 6       568.738          41.000    20513709.375 5  85259269.472 5       442.349          35.000
R12  21622729.703 8 115504867.324 8      3865.926          50.000    21622735.094 8  89837106.006 8      3006.831          49.000
C05  39793522.367 6 207215312.929 6       -21.457          37.000    39793517.922 6 160232005.717 6       -16.368          37.000
C12  25053488.727 7 130460057.276 7     -2465.492          44.000    25053485.555 7 100880089.397 7     -1906.451          43.000
C21  22995825.359 5 119745309.514 5      1866.422          32.000
C22  22085588.516 8 115005454.249 8      -679.848          51.000
E02  26033459.461 6 136806768.263 6      2459.520          40.000    26033460.969 6 104825967.489 6      1884.720          41.000
E08  21523596.930 8 113107269.652 8        23.906          51.000    21523596.836 8  86666755.457 8        18.354          51.000
E13  25050878.859 8 131643260.440 8     -2047.844          50.000    25050879.750 8 100869506.475 8     -1569.199          51.000
> 2020 05 18 00 07  0.0000000  0 17        .000000000000
G02  22524620.938 5 118367687.952 5       913.387          35.000    22524611.312 5  92234516.951 5       711.730          30.000
G04  22468323.609 5 118071814.575 5     -2650.246          33.000
G06  21356238.383 8 112227793.987 8     -1437.684          51.000    21356239.508 8  87450181.305 8     -1120.273          51.000
G07  21487744.078 7 112918859.926 7      1959.699          47.000    21487744.664 7  87988714.796 7      1527.038          47.000
G09  20509740.094 8 107779476.998 8      -995.668          51.000    20509740.781 8  83984034.427 8      -775.845          51.000
G30  23276145.211 6 122316968.152 6      3466.094          39.000    23276141.562 6  95311916.685 6      2700.855          37.000
R11  20510593.094 5 109602404.254 5       543.246          35.000    20510593.836 5  85246325.222 5       422.528          32.000
R12  21601057.461 8 115389095.525 8      3855.000          50.000    21601062.375 8  89747061.293 8      2998.333          49.000
R17  21399791.547 5 114514568.177 5     -2453.383          35.000
C05  39793647.234 6 207215963.432 6       -19.301          37.000    39793642.906 6 160232508.723 6       -14.755          37.000
C12  25067720.391 7 130534161.652 7     -2472.160          46.000    25067716.000 7 100937391.564 7     -1911.676          42.000
C21  22985087.641 5 119689391.158 5      1863.812          33.000
C22  22089532.945 8 115025993.480 8      -686.816          51.000
E02  26019442.562 6 136733113.376 6      2453.426          40.000    26019445.484 7 104769530.678 7      1879.856          42.000
E07  25761809.953 6 135379200.290 6      1910.887          36.000
E08  21523479.156 8 113106650.502 8        19.949          51.000    21523479.211 8  86666281.049 8        15.310          51.000
E13  25062604.992 8 131704879.618 8     -2057.309          50.000    25062605.242 8 100916721.140 8     -1576.466          51.000
> 2020 05 18 00 07 30.0000000  0 16        .000000000000
G02  22519464.062 5 118340586.497 5       895.098          33.000
G06  21364507.930 8 112271251.953 8     -1457.961          51.000    21364509.086 8  87484044.640 8     -1136.073          51.000
G07  21476605.742 7 112860331.140 7      1943.797          47.000    21476607.055 7  87943107.926 7      1514.647          47.000
G09  20515463.391 8 107809553.429 8     -1007.938          51.000    20515463.891 8  84007470.607 8      -785.406          51.000
G30  23256385.578 6 122213124.392 6      3457.953          39.000    23256381.484 6  95230999.545 6      2694.506          39.000
R01  20829799.922 5 111347145.145 5     -2052.891          34.000
R02  20040894.898 5 106942014.543 5      1518.094          33.000
R12  21579453.359 8 115273688.197 8      3840.395          50.000    21579458.305 8  89657300.028 8      2986.974          49.000
R17  21413605.125 5 114588542.754 5     -2476.852          32.000    21413608.727 5  89124440.004 5     -1926.443          30.000
C05  39793768.547 6 207216595.548 6       -20.969          37.000    39793764.320 6 160232997.546 6       -16.353          37.000
C12  25081996.328 7 130608497.571 7     -2482.004          44.000    25081990.797 7 100994872.765 7     -1919.270          43.000
C22  22093523.883 8 115046775.273 8      -697.129          51.000
E02  26005468.664 6 136659679.520 6      2443.812          41.000    26005471.898 7 104713263.157 7      1872.580          42.000
E07  25750922.320 5 135322007.899 5      1905.852          32.000
E08  21523390.266 8 113106182.570 8        12.797          51.000    21523390.336 8  86665922.492 8         9.775          51.000
E13  25074390.633 8 131766813.445 8     -2070.020          49.000    25074390.352 8 100964176.917 8     -1586.149          51.000
> 2020 05 18 00 08  0.0000000  0 15        .000000000000
G06  21372901.266 8 112315359.803 8     -1475.949          51.000    21372902.398 8  87518414.394 8     -1150.090          51.000
G07  21465566.516 8 112802322.017 8      1930.254          48.000    21465567.398 8  87897906.014 8      1504.094          48.000
G09  20521265.039 8 107840041.572 8     -1018.000          51.000    20521265.406 8  84031227.581 8      -793.250          51.000
G30  23236678.961 6 122109560.537 6      3452.652          39.000    23236675.195 6  95150300.461 6      2690.378          38.000
R02  20032395.922 4 106896696.404 4      1509.969          29.000
R11  20504833.828 4 109571585.065 4       488.086          27.000    20504832.633 5  85222367.397 5       379.628          31.000
R12  21557938.562 8 115158758.199 8      3828.387          50.000    21557943.953 8  89567909.995 8      2977.631          48.000
R17  21427564.930 5 114663245.571 5     -2497.133          33.000    21427570.383 4  89182542.117 4     -1942.211          29.000
C05  39793906.734 6 207217315.015 6       -20.602          37.000    39793902.547 6 160233553.862 6       -15.731          38.000
C12  25096336.008 7 130683168.303 7     -2489.484          44.000    25096330.812 7 101052612.853 7     -1924.967          45.000
C21  22963706.555 5 119578046.374 5      1851.898          32.000
C22  22097581.844 8 115067905.703 8      -704.992          51.000
E02  25991557.836 6 136586575.372 6      2436.602          40.000    25991561.359 7 104657248.257 7      1866.988          43.000
E08  21523350.367 8 113105972.507 8         7.863          51.000    21523350.484 8  86665761.517 8         5.956          51.000
E13  25086255.977 8 131829167.006 8     -2080.293          50.000    25086255.836 8 101011954.310 8     -1593.973          51.000
> 2020 05 18 00 08 30.0000000  0 14        .000000000000
G06  21381380.422 8 112359918.121 8     -1496.695          51.000    21381381.773 8  87553135.163 8     -1166.256          51.000
G07  21454589.344 8 112744636.451 8      1913.449          50.000    21454588.359 8  87852956.264 8      1491.002          49.000
G09  20527107.203 8 107870742.539 8     -1030.848          51.000    20527107.609 8  84055150.387 8      -803.261          51.000
G30  23216987.625 6 122006080.929 6      3443.840          39.000    23216984.312 6  95069666.987 6      2683.512          40.000
R11  20502171.258 5 109557370.552 5       459.207          32.000    20502170.805 5  85211291.842 5       357.158          31.000
R12  21536476.430 8 115044109.014 8      3812.902          50.000    21536482.000 7  89478738.342 7      2965.588          47.000
C05  39794024.086 6 207217925.762 6       -22.453          37.000    39794019.875 6 160234026.158 6       -17.263          37.000
C12  25110701.578 7 130757975.148 7     -2499.602          44.000    25110697.422 7 101110458.261 7     -1932.917          46.000
C21  22953058.102 4 119522594.857 4      1844.398          29.000
C22  22101669.219 8 115089188.875 8      -715.918          51.000
E02  25977672.570 6 136513605.056 6      2426.234          39.000    25977676.977 7 104601335.948 7      1859.027          44.000
E07  25729204.391 6 135207889.592 6      1897.672          37.000    25729207.773 5 103600851.792 5      1453.959          34.000
E08  21523321.766 8 113105822.287 8          .043          51.000    21523322.047 8  86665646.396 8          .027          51.000
E13  25098163.289 8 131891740.789 8     -2093.445          50.000    25098163.930 8 101059900.434 8     -1603.994          51.000
> 2020 05 18 00 09  0.0000000  0 17        .000000000000
G02  22504584.750 5 118262407.450 5       841.316          31.000
G06  21389970.805 8 112405060.418 8     -1515.668          51.000    21389972.453 8  87588310.989 8     -1181.040          51.000
G07  21443700.117 8 112687411.034 8      1898.707          51.000    21443697.562 8  87808365.066 8      1479.512          51.000
G09  20533015.430 8 107901790.474 8     -1041.758          51.000    20533015.938 8  84079343.565 8      -811.762          51.000
G30  23197338.391 6 121902822.997 6      3437.043          41.000    23197335.219 6  94989206.247 6      2678.212          41.000
R01  20864593.648 5 111533172.699 5     -2081.520          31.000
R11  20499669.672 5 109543993.285 5       430.719          35.000    20499670.906 5  85200887.405 5       335.003          33.000
R12  21515093.180 8 114929882.252 8      3799.289          50.000    21515099.227 7  89389895.293 7      2955.003          44.000
R17  21455809.367 5 114814354.772 5     -2541.508          35.000    21455800.859 4  89300022.746 4     -1976.728          27.000
C05  39794146.234 6 207218560.694 6       -22.785          37.000    39794142.008 6 160234517.917 6       -17.549          37.000
C12  25125118.641 7 130833049.351 7     -2507.996          44.000    25125115.352 7 101168510.399 7     -1939.432          46.000
C22  22105811.586 8 115110758.902 8      -724.914          51.000
E02  25963838.141 6 136440905.717 6      2417.684          37.000    25963843.547 7 104545631.274 7      1852.379          43.000
E03  25651735.273 5 134800781.800 5     -1930.055          35.000    25651734.367 5 103288904.430 5     -1479.196          34.000
E07  25718367.914 6 135150960.207 6      1894.570          36.000    25718374.102 5 103557234.562 5      1451.738          31.000
E08  21523330.258 8 113105866.911 8        -5.898          51.000    21523330.719 8  86665680.586 8        -4.573          51.000
E13  25110138.031 8 131954668.184 8     -2104.695          51.000    25110139.344 8 101108117.530 8     -1612.719          51.000
> 2020 05 18 00 09 30.0000000  0 17        .000000000000
G02  22499822.367 5 118237356.611 5       823.520          32.000
G04  22544386.141 4 118471545.861 4     -2677.828          28.000
G06  21398670.211 8 112450775.221 8     -1536.137          51.000    21398671.867 8  87623932.916 8     -1196.990          51.000
G07  21432896.758 8 112630636.767 8      1882.055          49.000    21432894.008 8  87764125.372 8      1466.536          49.000
G09  20538987.602 8 107933174.531 8     -1054.418          51.000    20538988.211 8  84103798.656 8      -821.624          51.000
G30  23177729.445 6 121799779.082 6      3428.379          40.000    23177726.711 6  94908912.289 6      2671.464          40.000
R01  20876289.102 5 111595694.449 5     -2091.348          30.000    20876302.938 4  86796730.080 4     -1626.610          27.000
R11  20497323.914 6 109531453.839 6       401.121          38.000    20497322.344 5  85191134.388 5       311.977          32.000
R12  21493787.672 8 114816072.390 8      3783.879          48.000    21493793.719 6  89301376.558 6      2943.023          38.000
R17  21470115.703 6 114890880.266 6     -2564.516          36.000    21470106.789 5  89359542.630 5     -1994.623          30.000
C05  39794271.383 6 207219212.106 6       -24.906          37.000    39794267.094 6 160235021.600 6       -19.241          37.000
C12  25139584.688 7 130908378.627 7     -2517.930          44.000    25139582.086 7 101226759.751 7     -1947.050          47.000
C22  22110007.367 8 115132606.343 8      -735.609          51.000
E02  25950054.008 6 136368469.631 6      2407.203          38.000    25950059.570 7 104490128.206 7      1844.585          42.000
E03                                                                  25662745.648 5 103333272.899 5     -1481.947          33.000
E08  21523374.000 8 113106096.383 8       -13.520          51.000    21523374.617 8  86665856.411 8       -10.458          51.000
E13  25122177.992 8 132017937.644 8     -2117.523          51.000    25122179.789 8 101156596.729 8     -1622.542          51.000
> 2020 05 18 00 10  0.0000000  0 17        .000000000000
G06  21407481.148 8 112497075.958 8     -1549.664          51.000    21407482.383 8  87660011.386 8     -1207.530          51.000
G07  21422181.844 7 112574330.117 7      1872.465          46.000    21422179.781 7  87720250.064 7      1459.067          46.000
G09  20545026.469 8 107964908.871 8     -1060.250          51.000    20545026.945 8  84128526.696 8      -826.172          51.000
G30  23158164.891 6 121696966.654 6      3426.785          39.000    23158162.070 6  94828798.682 6      2670.222          40.000
R01  20888039.758 5 111658502.848 5     -2094.922          32.000
R02  19998853.305 5 106717654.267 5      1475.766          33.000
R11  20495135.891 5 109519768.239 5       379.055          32.000    20495139.148 6  85182045.614 6       294.829          37.000
R12  21472562.883 7 114702699.204 7      3775.402          44.000    21472565.617 6  89213197.618 6      2936.430          37.000
R17  21484531.289 5 114968059.911 5     -2579.742          33.000    21484529.016 5  89419571.403 5     -2006.457          30.000
C05  39794402.273 6 207219893.766 6       -19.695          37.000    39794398.039 6 160235548.711 6       -15.073          38.000
C12  25154102.180 7 130983975.209 7     -2520.785          44.000    25154100.133 8 101285215.794 8     -1949.276          48.000
C21  22921292.672 5 119357176.819 5      1830.801          32.000
C22  22114259.148 8 115154746.295 8      -739.457          51.000
E02  25936324.234 6 136296313.573 6      2404.070          40.000    25936328.414 7 104434839.825 7      1841.981          43.000
E03                                                                  25673786.445 5 103377723.475 5     -1480.373          33.000
E08  21523455.672 8 113106525.618 8       -14.180          51.000    21523456.461 8  86666185.296 8       -10.880          51.000
E13  25134285.508 8 132081562.549 8     -2123.254          51.000    25134287.805 8 101205348.288 8     -1626.894          51.000
> 2020 05 18 00 10 30.0000000  0 17        .000000000000
G06  21416386.172 8 112543871.038 8     -1566.574          51.000    21416386.586 8  87696475.061 8     -1220.707          51.000
G07  21411539.000 8 112518402.560 8      1859.289          48.000    21411537.734 8  87676670.164 8      1448.800          48.000
G09  20551114.734 8 107996902.508 8     -1069.316          51.000    20551114.875 8  84153456.800 8      -833.234          51.000
G30  23138628.289 5 121594323.764 5      3421.477          35.000    23138626.938 5  94748819.015 5      2666.086          33.000
R01  20899826.812 4 111721505.942 4     -2101.566          29.000    20899826.461 4  86894537.323 4     -1634.564          25.000
R02  19990587.469 5 106673536.842 5      1468.602          31.000    19990579.297 4  82968324.582 4      1142.246          25.000
R11  20493091.891 6 109508845.725 6       352.852          40.000    20493094.172 5  85173550.157 5       274.431          35.000
R12  21451402.992 7 114589675.560 7      3762.820          45.000    21451405.688 7  89125290.406 7      2926.638          42.000
R17  21499051.086 6 115045798.189 6     -2599.000          38.000    21499055.859 4  89480034.552 4     -2021.444          28.000
C05  39794521.922 6 207220517.715 6       -18.395          37.000    39794517.656 6 160236030.428 6       -14.299          38.000
C12  25168653.508 7 131059747.427 7     -2527.219          43.000    25168652.188 8 101343807.640 8     -1954.327          48.000
C21  22910768.102 5 119302360.898 5      1827.445          32.000
C22  22118549.977 8 115177089.944 8      -746.723          51.000
E02  25922631.023 7 136224349.629 7      2397.004          43.000    25922633.859 7 104379698.694 7      1836.716          42.000
E08  21523558.156 8 113107064.600 8       -18.406          51.000    21523559.086 8  86666598.284 8       -14.098          51.000
E13  25146443.086 8 132145451.262 8     -2132.617          51.000    25146445.797 8 101254301.984 8     -1634.131          51.000
E25  26295432.047 6 138183426.343 6        11.969          36.000
> 2020 05 18 00 11  0.0000000  0 15        .000000000000
G06  21425363.609 8 112591046.882 8     -1583.719          51.000    21425363.758 8  87733235.457 8     -1234.067          51.000
G07  21400947.875 8 112462743.967 8      1845.934          50.000    21400946.766 8  87633299.834 8      1438.390          50.000
G09  20557230.852 8 108029042.600 8     -1078.590          51.000    20557230.914 8  84178501.037 8      -840.457          51.000
G30  23119098.594 5 121491681.138 5      3415.930          34.000    23119096.914 5  94668835.004 5      2661.769          34.000
R01  20911630.234 5 111784589.828 5     -2109.195          35.000    20911627.672 4  86943602.553 4     -1640.482          26.000
R12  21430289.641 8 114476892.068 8      3750.520          48.000    21430293.414 7  89037569.922 7      2917.071          46.000
R17  21513658.680 5 115123977.175 5     -2618.156          35.000    21513662.031 4  89540840.370 4     -2036.350          28.000
C05  39794608.945 6 207220971.029 6       -17.457          37.000    39794604.766 6 160236380.936 6       -13.191          38.000
C12  25183216.648 7 131135581.969 7     -2533.840          44.000    25183216.281 8 101402447.705 8     -1959.187          49.000
C22  22122858.633 8 115199526.659 8      -754.254          51.000
E02  25908953.812 7 136152468.003 7      2389.730          44.000    25908954.992 7 104324620.555 7      1831.206          44.000
E07  25675203.555 5 134924105.576 5      1887.258          32.000
E08  21523660.180 8 113107601.306 8       -22.738          51.000    21523661.117 8  86667009.534 8       -17.459          51.000
E13  25158628.688 8 132209490.186 8     -2141.934          48.000    25158631.836 8 101303370.786 8     -1641.294          51.000
E25  26295387.094 6 138183198.583 6        -1.836          36.000
> 2020 05 18 00 11 30.0000000  0 13        .000000000000
G06  21434517.109 8 112639149.576 8     -1615.859          51.000    21434518.031 8  87770718.057 8     -1259.114          51.000
G07  21390512.414 8 112407903.161 8      1817.352          50.000    21390510.906 8  87590566.730 8      1416.118          50.000
G09  20563478.859 8 108061875.915 8     -1103.070          51.000    20563479.148 8  84204085.447 8      -859.535          51.000
G30  23099663.617 5 121389594.687 5      3395.195          33.000
R11  20489476.281 6 109489475.033 6       285.211          38.000    20489476.953 6  85158496.621 6       221.825          37.000
R12  21409327.109 8 114364909.995 8      3722.332          50.000    21409331.633 8  88950472.763 8      2895.150          48.000
R17  21528452.656 6 115203150.691 6     -2652.805          36.000    21528456.594 5  89602419.789 5     -2063.289          31.000
C05  39794767.672 6 207221797.471 6       -31.012          37.000    39794763.508 6 160237020.017 6       -23.974          38.000
C12  25197895.312 7 131212018.853 7     -2554.887          44.000    25197896.172 8 101461553.555 8     -1975.661          49.000
C22  22127289.297 8 115222599.403 8      -776.781          51.000
E02  25895396.477 7 136081218.359 7      2367.410          45.000    25895396.742 7 104270026.722 7      1813.981          44.000
E08  21523865.992 8 113108683.384 8       -42.309          51.000    21523866.812 8  86667838.641 8       -32.346          51.000
E13  25170946.508 8 132274225.303 8     -2166.629          48.000    25170950.109 8 101352973.052 8     -1660.004          51.000
> 2020 05 18 00 12  0.0000000  0 14        .000000000000
G06  21443735.891 8 112687596.633 8     -1620.211          50.000    21443737.844 8  87808469.002 8     -1262.502          50.000
G07  21380121.984 8 112353300.243 8      1816.430          49.000    21380119.883 8  87548019.040 8      1415.403          50.000
G09  20569748.086 8 108094820.759 8     -1099.602          51.000    20569748.594 8  84229756.756 8      -856.832          51.000
G30  23080246.969 6 121287521.946 6      3401.750          36.000    23080265.977 5  94509782.699 5      2650.711          35.000
R11  20487892.508 5 109481027.368 5       271.555          32.000    20487899.086 6  85151926.279 6       211.215          38.000
R12  21388404.836 8 114253143.205 8      3722.320          50.000    21388409.734 8  88863543.007 8      2895.138          49.000
R17  21543320.781 6 115282723.415 6     -2658.750          41.000    21543329.680 5  89664309.672 5     -2067.917          34.000
C05  39794887.430 6 207222420.626 6       -16.961          37.000    39794883.352 6 160237502.647 6       -13.212          38.000
C12  25212578.789 7 131288480.054 7     -2548.641          44.000    25212580.656 8 101520678.190 8     -1970.789          49.000
C22  22131731.812 8 115245732.962 8      -771.750          51.000
E02  25881849.047 7 136010021.971 7      2372.688          46.000    25881848.562 7 104215473.659 7      1817.961          43.000
E03  25718051.000 5 135149269.841 5     -1939.625          31.000    25718066.625 6 103555933.537 6     -1486.185          36.000
E08  21524065.023 8 113109730.017 8       -33.895          51.000    21524065.883 8  86668640.587 8       -25.944          51.000
E13  25183286.742 8 132339074.219 8     -2163.035          49.000    25183289.859 8 101402662.493 8     -1657.385          51.000
> 2020 05 18 00 12 30.0000000  0 17        .000000000000
G04  22636480.773 5 118955489.485 5     -2700.359          33.000
G06  21453049.305 8 112736541.443 8     -1641.070          49.000    21453051.688 8  87846607.822 8     -1278.756          49.000
G07  21369806.586 8 112299092.222 8      1799.062          49.000    21369804.094 8  87505779.049 8      1401.867          49.000
G09  20576067.750 8 108128031.284 8     -1112.746          51.000    20576068.500 8  84255635.086 8      -867.075          51.000
G30  23060860.422 5 121185635.363 5      3392.145          35.000    23060874.688 5  94430394.405 5      2643.230          34.000
R11  20486456.352 6 109473355.443 6       241.805          36.000    20486459.953 6  85145959.085 6       188.064          39.000
R12  21367552.562 8 114141753.933 8      3705.367          50.000    21367558.078 8  88776906.933 8      2881.952          50.000
R17  21558294.188 7 115362849.071 7     -2681.395          42.000    21558305.719 6  89726629.647 6     -2085.529          36.000
C05  39794997.914 6 207222996.204 6       -19.523          37.000    39794994.016 6 160237947.746 6       -15.190          37.000
C12  25227295.883 7 131365116.660 7     -2558.727          43.000    25227298.398 8 101579938.473 8     -1978.434          49.000
C19  25177109.188 5 131103791.739 5     -2575.918          30.000
C22  22136215.555 8 115269081.307 8      -783.125          51.000
E02  25868341.461 7 135939035.956 7      2361.551          47.000    25868339.969 7 104161081.756 7      1809.527          42.000
E03                                                                  25729159.664 5 103600592.647 5     -1489.729          33.000
E08  21524286.664 8 113110896.160 8       -42.059          51.000    21524287.812 8  86669534.121 8       -32.158          51.000
E13  25195678.367 8 132404190.354 8     -2176.129          51.000    25195680.219 8 101452556.638 8     -1667.474          50.000
E25  26295894.555 5 138185861.652 5       -49.242          34.000
> 2020 05 18 00 13  0.0000000  0 18        .000000000000
G02  22469219.922 5 118076567.214 5       703.277          33.000
G04  22651910.102 5 119036552.785 5     -2707.250          35.000
G06  21462459.492 7 112785995.222 7     -1661.887          47.000    21462461.938 7  87885143.262 7     -1294.974          47.000
G07  21359568.805 8 112245293.058 8      1781.578          49.000    21359566.453 8  87463857.646 8      1388.243          49.000
G09  20582440.141 8 108161519.462 8     -1125.719          51.000    20582441.133 8  84281729.770 8      -877.183          51.000
G30  23041507.148 6 121083936.237 6      3382.305          36.000    23041516.492 5  94351145.090 5      2635.556          33.000
R01  20959450.633 4 112040284.754 4     -2148.109          28.000    20959453.281 4  87142448.420 4     -1670.752          27.000
R12  21346774.148 8 114030759.795 8      3688.223          50.000    21346779.891 8  88690578.136 8      2868.618          50.000
R17  21573373.680 7 115443537.019 7     -2703.867          43.000    21573384.867 5  89789386.951 5     -2103.005          33.000
C05  39795101.648 6 207223536.061 6       -21.953          37.000    39795097.711 6 160238365.195 6       -17.090          38.000
C12  25242048.352 7 131441938.960 7     -2568.707          43.000    25242051.359 8 101639342.358 8     -1986.151          48.000
C19  25191955.531 5 131181092.009 5     -2582.125          31.000
C21  22858595.391 5 119030713.355 5      1795.805          30.000
C22  22140743.000 8 115292657.554 8      -794.461          51.000
E02  25854876.125 7 135868275.246 7      2350.105          45.000    25854873.648 7 104106862.457 7      1800.865          42.000
E03                                                                  25740261.492 6 103645281.887 6     -1493.716          36.000
E08  21524533.555 8 113112194.762 8       -50.289          51.000    21524534.914 8  86670529.150 8       -38.464          51.000
E13  25208123.109 8 132469584.926 8     -2189.234          51.000    25208124.086 8 101502664.109 8     -1677.435          51.000
> 2020 05 18 00 13 30.0000000  0 15        .000000000000
G06  21471984.320 8 112836049.666 8     -1676.641          48.000    21471986.555 8  87924146.740 8     -1306.473          49.000
G07  21349426.961 8 112191997.763 8      1769.926          50.000    21349425.109 8  87422328.846 8      1379.163          50.000
G09  20588882.930 8 108195377.810 8     -1132.977          51.000    20588884.094 8  84308112.892 8      -882.839          51.000
G30  23022206.430 6 120982509.100 6      3378.160          38.000    23022213.562 6  94272119.333 6      2632.333          38.000
R12  21326088.438 8 113920260.088 8      3676.973          50.000    21326093.984 8  88604633.918 8      2859.868          49.000
R17  21588576.031 7 115524878.234 7     -2720.348          44.000    21588583.188 5  89852652.290 5     -2115.826          31.000
C05  39795216.195 6 207224132.798 6       -18.809          37.000    39795212.312 6 160238826.644 6       -14.768          38.000
C12  25256853.773 7 131519036.894 7     -2572.688          42.000    25256856.875 8 101698959.377 8     -1989.305          48.000
C19  25206837.148 4 131258560.841 4     -2583.535          29.000
C21  22848255.727 5 118976872.418 5      1792.871          32.000
C22  22145331.961 8 115316554.558 8      -800.117          51.000
E02  25841470.992 7 135797835.236 7      2344.496          43.000    25841469.203 7 104052888.999 7      1796.429          43.000
E03  25751374.258 5 135324402.779 5     -1948.980          34.000    25751384.727 6 103690072.811 6     -1493.360          37.000
E08  21524823.523 8 113113719.135 8       -52.707          51.000    21524824.922 8  86671697.178 8       -40.371          51.000
E13  25220637.898 8 132535349.603 8     -2196.449          51.000    25220639.070 8 101553055.198 8     -1682.979          51.000
> 2020 05 18 00 14  0.0000000  0 14        .000000000000
G06  21481656.117 8 112886874.047 8     -1696.023          50.000    21481658.070 8  87963750.124 8     -1321.577          50.000
G07  21339413.867 8 112139378.146 8      1753.730          50.000    21339412.508 8  87381326.533 8      1366.543          50.000
G09  20595428.695 8 108229776.392 8     -1144.531          51.000    20595429.664 8  84334916.972 8      -891.843          51.000
G30  23002990.789 6 120881527.263 6      3369.953          40.000    23002995.562 6  94193432.132 6      2625.938          40.000
R02  19934105.180 5 106372228.256 5      1405.184          34.000    19934106.148 4  82733955.223 4      1092.921          28.000
R12  21305529.219 8 113810433.127 8      3660.836          51.000    21305533.477 7  88519212.960 7      2847.317          47.000
R17  21603933.242 7 115607043.040 7     -2741.305          45.000    21603936.117 5  89916558.161 5     -2132.129          32.000
C05  39795374.297 6 207224955.960 6       -20.383          37.000    39795370.305 6 160239463.142 6       -15.710          38.000
C12  25271744.359 7 131596577.476 7     -2581.203          42.000    25271747.359 8 101758918.652 8     -1995.874          48.000
C22  22150014.977 8 115340942.001 8      -810.145          51.000
E02  25828159.055 6 135727888.900 6      2334.453          39.000    25828157.945 6 103999293.805 6      1788.533          41.000
E03  25762560.164 6 135383162.356 6     -1952.805          36.000    25762564.391 5 103735096.334 5     -1496.107          30.000
E08  21525189.102 8 113115640.233 8       -59.699          51.000    21525190.367 8  86673169.184 8       -45.735          51.000
