     3.04           OBSERVATION DATA    M (MIXED)           RINEX VERSION / TYPE
Convert 2.6.2       NovAtel             20200515 152704 UTC PGM / RUN BY / DATE 
Rinex Version 3.04 Observation File                         COMMENT             
                                                            MARKER NAME         
                                                            MARKER NUMBER       
                                                            MARKER TYPE         
                                                            OBSERVER / AGENCY   
                    NovAtel GPSCard                         REC # / TYPE / VERS 
                                                            ANT # / TYPE        
        0.0000        0.0000        0.0000                  APPROX POSITION XYZ 
        0.0000        0.0000        0.0000                  ANTENNA: DELTA H/E/N
G    8 C1C L1C D1C S1C C2W L2W D2W S2W                      SYS / # / OBS TYPES 
R    8 C1C L1C D1C S1C C2P L2P D2P S2P                      SYS / # / OBS TYPES 
E    8 C1C L1C D1C S1C C7Q L7Q D7Q S7Q                      SYS / # / OBS TYPES 
C    4 C2I L2I D2I S2I                                      SYS / # / OBS TYPES 
DBHZ                                                        SIGNAL STRENGTH UNIT
    30.000                                                  INTERVAL            
  2020    05    07    16    00    0.0000000     GPS         TIME OF FIRST OBS   
  2020    05    07    16    01   30.0000000     GPS         TIME OF LAST OBS    
G L1C  0.00000  06 G16 G26 G18 G10 G20 G21                  SYS / PHASE SHIFT   
G L2W  0.00000  04 G16 G26 G10 G20                          SYS / PHASE SHIFT   
R L1C  0.00000  06 R18 R16 R02 R17 R09 R03                  SYS / PHASE SHIFT   
R L2P  0.25000  03 R16 R18 R03                              SYS / PHASE SHIFT   
E L1C  0.50000  05 E25 E36 E02 E09 E11                      SYS / PHASE SHIFT   
E L7Q -0.25000  04 E25 E36 E02 E09                          SYS / PHASE SHIFT   
C L2I  0.00000  04 C22 C21 C24 C19                          SYS / PHASE SHIFT   
  6 R18 -3 R16 -1 R02 -4 R17  4 R09 -2 R03  5               GLONASS SLOT / FRQ #
 C1C  -71.950 C2C  -71.950 C2P  -71.950                     GLONASS COD/PHS/BIS 
     0     0     0     0GPS                                 LEAP SECONDS        
                                                            END OF HEADER       
> 2020 05 07 16 00  0.0000000  0 16      -0.000000000000
G16  20835894.828 8 109493367.183 8     -1580.312          50.000    20835894.625 8  85319510.879 8     -1231.413          50.000  
G26  22368613.914 7 117547833.167 7     -3201.453          47.000    22368620.266 7  91595718.963 7     -2494.643          47.000  
G18  23395921.797 6 122946385.047 6     -3106.816          37.000                                                                  
G10  21393567.836 8 112423988.224 8      1734.977          51.000    21393570.359 8  87603120.262 8      1351.933          51.000  
G20  21028051.531 5 110503175.291 5      -658.844          32.000    21028053.102 5  86106386.838 5      -513.379          33.000  
R18  19919564.664 6 106331615.390 6      -997.895          38.000                                                                  
R16  21510803.281 7 114906457.009 7     -3401.336          46.000    21510808.219 7  89371685.999 7     -2645.487          42.000  
R02  21684180.477 6 115710525.205 6      -914.426          37.000                                                                  
E25  26414130.391 6 138807129.963 6     -3084.875          37.000    26414125.109 6 106358688.459 6     -2363.647          38.000  
E36  23255717.773 7 122209630.959 7       207.023          45.000    23255719.812 7  93641169.648 7       158.599          44.000  
E02  24296987.031 7 127681526.202 7     -1072.906          46.000    24296987.023 7  97833960.225 7      -822.103          47.000  
E09  25472044.258 7 133856497.987 7      2717.324          46.000    25472054.984 7 102565410.721 7      2082.056          44.000  
C22  23571709.844 7 122744127.770 7      1683.281          47.000  
C21  25546153.469 6 133025518.703 6      3359.848          38.000  
C24  24905812.875 7 129691095.541 7     -2681.941          44.000  
C19  24430310.391 4 127215028.808 4     -1244.773          29.000  
> 2020 05 07 16 00 30.0000000  0 20      -0.000000000000
G16  20844958.109 8 109540996.777 8     -1594.754          50.000    20844958.344 8  85356624.810 8     -1242.666          50.000  
G26  22386908.523 8 117643967.749 8     -3207.281          48.000    22386913.570 8  91670628.969 8     -2499.184          48.000  
G18  23413657.484 6 123039587.127 6     -3106.328          36.000                                                                  
G10  21383702.391 8 112372145.219 8      1721.445          51.000    21383705.102 8  87562723.178 8      1341.386          51.000  
G21  23484918.414 5 123414088.59025     -2566.566          31.000                                                                  
G20  21031858.625 5 110523182.633 5      -674.602          35.000    21031859.867 6  86121976.892 6      -525.667          36.000  
R17  22731970.047 5 121642977.51125     -2935.625          31.000                                                                  
R09  21363114.406 5 114077464.876 5      1146.246          35.000                                                                  
R18  19925191.875 6 106361652.544 6     -1004.012          40.000    19925197.672 4  82725741.913 4      -780.898          26.000  
R16  21529938.234 7 115008671.018 7     -3412.805          44.000    21529943.102 7  89451185.696 7     -2654.407          42.000  
R03  21425068.328 5 114689703.11525      2737.434          30.000                                                                  
R02  21689386.734 5 115738332.040 5      -937.000          31.000                                                                  
E25  26431746.281 5 138899692.374 5     -3085.684          34.000    26431739.953 6 106429612.882 6     -2364.341          38.000  
E11  24245935.672 5 127413250.955 5     -1847.949          31.000                                                                  
E36  23254544.773 7 122203464.264 7       204.328          46.000    23254546.406 7  93636444.529 7       156.698          43.000  
E02  24303143.133 7 127713876.544 7     -1083.516          47.000    24303144.117 8  97858748.136 8      -830.200          48.000  
E09  25456529.516 7 133774969.989 7      2718.125          47.000    25456539.695 7 102502941.279 7      2082.771          43.000  
C22  23562044.203 7 122693796.693 7      1672.340          46.000  
C21  25526791.898 6 132924699.342 6      3361.742          38.000  
C24  24921275.852 7 129771610.070 7     -2685.484          44.000  
> 2020 05 07 16 01  0.0000000  0 18      -0.000000000000
G16  20854116.914 8 109589126.320 8     -1613.680          51.000    20854116.969 8  85394128.328 8     -1257.413          49.000  
G26  22405248.219 8 117740339.362 8     -3217.371          49.000    22405252.023 8  91745723.670 8     -2507.046          50.000  
G18  23431400.750 5 123132832.097 5     -3109.875          31.000                                                                  
G10  21373926.352 8 112320771.373 8      1703.621          51.000    21373929.094 8  87522691.685 8      1327.497          51.000  
G21  23499581.961 6 123491137.510 6     -2570.441          36.000                                                                  
G20  21035766.734 6 110543718.660 6      -694.707          36.000    21035767.414 6  86137978.911 6      -541.333          37.000  
R17  22748431.609 6 121731047.798 6     -2939.117          36.000                                                                  
R18  19930863.930 6 106391929.320 6     -1014.301          40.000    19930868.891 5  82749290.501 5      -788.904          30.000  
R16  21549150.625 7 115111300.927 7     -3429.125          44.000    21549155.578 7  89531008.918 7     -2667.098          42.000  
R03  21409780.883 6 114607903.752 6      2716.484          39.000    21409776.945 5  89139418.415 5      2112.822          30.000  
R02  21694721.328 5 115766824.963 5      -963.906          34.000                                                                  
E25                                                                  26449371.961 6 106500603.914 6     -2368.247          38.000  
E36  23253398.984 7 122197442.504 7       197.387          46.000    23253400.273 7  93631830.473 7       151.218          44.000  
E02  24309372.586 8 127746609.629 8     -1098.637          49.000    24309374.445 8  97883829.315 8      -841.732          49.000  
E09  25441023.141 8 133693484.403 8      2714.375          48.000    25441031.031 7 102440504.380 7      2079.835          43.000  
C22  23552453.555 7 122643857.643 7      1657.055          45.000  
C21  25507431.234 6 132823884.867 6      3359.492          39.000  
C24  24936771.570 7 129852296.288 7     -2693.480          43.000  
> 2020 05 07 16 01 30.0000000  0 18      -0.000000000000
G16  20863381.086 8 109637809.446 8     -1630.465          50.000    20863380.914 8  85432063.221 8     -1270.495          50.000  
G26  22423642.922 8 117837001.041 8     -3225.414          49.000    22423645.758 8  91821044.415 8     -2513.310          49.000  
G10  21364250.469 8 112269923.874 8      1687.586          51.000    21364252.953 8  87483070.304 8      1315.002          51.000  
G21  23514255.344 6 123568250.213 6     -2569.852          37.000                                                                  
G20  21039785.766 6 110564837.682 6      -711.844          37.000    21039785.859 6  86154435.309 6      -554.684          37.000  
R17  22764916.641 5 121819253.181 5     -2940.098          34.000                                                                  
R18  19936591.352 6 106422501.764 6     -1022.406          38.000    19936597.156 5  82773069.050 5      -795.202          34.000  
R16  21568451.047 7 115214398.884 7     -3442.797          45.000    21568455.570 7  89611196.194 7     -2677.734          42.000  
R03  21394607.383 7 114526701.922 7      2698.289          42.000    21394608.531 4  89076261.694 4      2098.673          26.000  
R02  21700217.352 5 115796134.519 5      -988.086          30.000                                                                  
E25  26467031.469 5 139085187.615 5     -3093.582          34.000    26467031.016 6 106571702.693 6     -2370.687          39.000  
E36  23252291.141 7 122191620.828 7       192.133          45.000    23252292.227 7  93627369.712 7       147.204          44.000  
E02  24315685.289 8 127779780.218 8     -1111.645          49.000    24315687.602 8  97909245.741 8      -851.783          49.000  
E09  25425536.055 8 133612098.792 8      2712.586          48.000    25425541.062 7 102378144.090 7      2078.395          44.000  
C22  23542949.703 7 122594367.369 7      1643.742          47.000  
C21  25488082.234 6 132723132.636 6      3358.773          37.000  
C24  24952309.742 7 129933206.676 7     -2699.227          42.000  
C19  24452184.070 5 127328928.238 5     -1288.414          31.000  
