     3.02           OBSERVATION DATA    M (MIXED)           RINEX VERSION / TYPE
SAVERINEX           SC600               20200502 205930 LCL PGM / RUN BY / DATE
       G = GPS       R = GLONASS       C = COMPASS          COMMENT
       S = SBAS      J = QZSS          E = GALILEO          COMMENT
BEAN                                                        MARKER NAME
1                                                           MARKER NUMBER
GEODETIC                                                    MARKER TYPE
Unige DICCA         GTER                                    OBSERVER / AGENCY
SC60291900056       SC600               2.12(191226)        REC # / TYPE / VERS
                    HEMA45          NONE                    ANT # / TYPE
  4509407.8091   693652.4678  4442337.6214                  APPROX POSITION XYZ
        0.0000        0.0000        0.0000                  ANTENNA: DELTA H/E/N
G    8 C1C L1C D1C S1C C2Y L2Y D2Y S2Y                      SYS / # / OBS TYPES
R    8 C1C L1C D1C S1C C2P L2P D2P S2P                      SYS / # / OBS TYPES
C    8 C1I L1I D1I S1I C7I L7I D7I S7I                      SYS / # / OBS TYPES
E    8 C1C L1C D1C S1C C7Q L7Q D7Q S7Q                      SYS / # / OBS TYPES
DBHZ                                                        COMMENT
     30.000                                                 INTERVAL
  2020    05    02    18    00    0.0000000     GPS         TIME OF FIRST OBS
  2020    05    02    18    59   30.0000000     GPS         TIME OF LAST OBS
     0                                                      RCV CLOCK OFFS APPL
G L1C  0.00000                                              SYS / PHASE SHIFT
G L2Y  0.00000                                              SYS / PHASE SHIFT
R L1C  0.00000                                              SYS / PHASE SHIFT
R L2P  0.25000                                              SYS / PHASE SHIFT
C L1I  0.00000                                              SYS / PHASE SHIFT
C L7I  0.00000                                              SYS / PHASE SHIFT
E L1C  0.50000                                              SYS / PHASE SHIFT
E L7Q -0.25000                                              SYS / PHASE SHIFT
 13 R04  6 R05  1 R06 -4 R07  5 R08  6 R09 -2 R10 -5 R11  0 GLONASS SLOT / FRQ #
    R12 -1 R19  3 R20  2 R21  4 R22 -3                      GLONASS SLOT / FRQ #
 C1C   71.950 C2C   71.950 C2P   71.950                     GLONASS COD/PHS/BIS
    18                                                      LEAP SECONDS
*** Above antenna height is from mark to ANTENNA BOTTOM.    COMMENT
    17     4        0.0000        ANT MEASURE TYPE/HEIGT    COMMENT
    0.0000    0.0000    0.0458    0.0405    0.0000          COMMENT
                    BASE STATION                            COMMENT
                                                            END OF HEADER
> 2020 05 02 18 00  0.0000000  0 19        .000000000000
G08  20411720.992 8 107264328.950 8       687.062          49.000    20411723.586 8  83582583.344 8       535.373          49.000
G10  21484720.070 6 112903051.653 6     -1810.121          38.000    21484722.664 6  87976423.924 6     -1410.484          39.000
G14  24414809.836 6 128300704.820 6      2971.070          39.000    24414813.531 6  99974569.718 6      2315.126          38.000
G16  24174423.969 5 127037446.656 5     -3727.371          33.000
G22  23781970.266 5 124975095.706 5      3409.219          34.000
G27  20754653.461 8 109066431.554 8     -1578.641          50.000    20754656.492 8  84986842.962 8     -1230.110          50.000
G32  23253147.445 7 122196081.891 7      2512.531          43.000    23253148.742 7  95217731.447 7      1957.817          43.000
R06  20785645.055 5 110916182.241 5     -2049.328          30.000
R07  20064168.562 8 107405123.080 8      2077.867          51.000    20064171.562 7  83537338.823 7      1616.122          45.000
R12  23290014.195 7 124411034.552 7     -3717.816          43.000    23290022.320 6  96764153.444 6     -2891.641          39.000
R21  21615076.086 5 115666637.652 5     -2510.223          31.000    21615080.789 4  89962959.715 4     -1952.395          28.000
R22  19632005.609 4 104796977.808 4       480.023          29.000
C05  39625887.797 6 206342396.000 6       -19.363          36.000    39625888.641 6 159557031.825 6       -14.964          38.000
C19  22722148.945 8 118320233.418 8      2377.703          48.000
C20  22794366.742 6 118696323.331 6      -661.598          40.000
C29  22035371.883 8 114743965.381 8     -1227.594          51.000
E01                                                                  27091896.930 5 109087848.651 5     -2255.038          33.000
E07  25149677.023 6 132162446.067 6       915.641          37.000    25149684.875 5 101267339.575 5       700.888          33.000
E26  22806563.094 8 119849298.962 8      -832.375          51.000    22806567.281 8  91832587.586 8      -637.806          51.000
> 2020 05 02 18 00 30.0000000  0 18        .000000000000
G08  20407841.391 8 107243940.880 8       672.469          50.000    20407843.852 8  83566696.517 8       524.005          50.000
G10  21495093.508 6 112957564.717 6     -1823.707          41.000    21495094.898 6  88018901.570 6     -1421.073          41.000
G14  24397853.375 6 128211598.209 6      2969.754          41.000    24397857.070 6  99905136.103 6      2314.100          41.000
G16  24195708.359 6 127149290.551 6     -3728.141          36.000    24195711.930 5  99077383.477 5     -2905.057          34.000
G22  23762528.781 5 124872923.935 5      3402.918          34.000
G27  20763707.281 8 109114007.771 8     -1592.730          51.000    20763709.625 8  85023915.351 8     -1241.089          51.000
G32  23238833.586 6 122120850.855 6      2503.098          41.000    23238832.773 6  95159109.964 6      1950.472          41.000
R06  20797239.078 5 110978051.615 5     -2072.648          31.000
R07  20052590.328 8 107343143.762 8      2054.387          50.000    20052593.570 7  83489132.752 7      1597.859          46.000
R12  23310911.570 7 124522666.128 7     -3723.855          42.000    23310917.781 6  96850977.830 6     -2896.338          37.000
R21  21629170.438 4 115742056.356 4     -2518.203          28.000    21629182.125 4  90021620.345 4     -1958.587          25.000
C05  39625998.688 6 206342972.967 6       -18.578          36.000    39625999.406 6 159557477.972 6       -14.369          37.000
C19  22708483.453 8 118249078.038 8      2366.258          49.000
C20  22798223.320 6 118716406.166 6      -677.391          36.000
C29  22042471.867 8 114780935.790 8     -1236.805          51.000
E01                                                                  27108701.914 5 109155529.520 5     -2256.795          35.000
E07  25144488.219 5 132135179.420 5       903.164          35.000    25144497.383 5 101246471.852 5       691.424          31.000
E26  22811328.109 8 119874339.321 8      -836.754          51.000    22811332.141 8  91851774.332 8      -641.095          51.000
> 2020 05 02 18 01  0.0000000  0 18        .000000000000
G08  20404051.703 8 107224024.758 8       655.758          50.000    20404054.039 8  83551177.466 8       510.980          50.000
G10  21505551.258 6 113012521.809 6     -1839.051          38.000    21505552.977 6  88061725.154 6     -1433.030          38.000
G14  24380913.375 7 128122576.309 7      2965.797          43.000    24380916.820 6  99835768.493 6      2311.011          41.000
G16  24217005.672 5 127261203.885 5     -3732.156          34.000
G22  23743125.758 6 124770966.178 6      3396.059          36.000
G27  20772847.867 8 109162039.031 8     -1608.902          51.000    20772849.516 8  85061342.293 8     -1253.693          51.000
G32  23224578.336 6 122045937.250 6      2491.457          41.000    23224577.273 6  95100735.855 6      1941.398          41.000
R07  20041150.594 8 107281906.326 8      2028.574          51.000    20041154.352 8  83441503.684 8      1577.780          48.000
R12  23331849.477 6 124634512.378 6     -3732.168          40.000    23331854.164 6  96937969.216 6     -2902.800          37.000
R21  21643327.398 5 115817794.842 5     -2528.145          34.000    21643321.148 4  90080496.757 4     -1966.326          28.000
R22  19626740.016 4 104768883.943 4       455.535          29.000
C05  39626112.086 5 206343564.031 5       -20.438          35.000    39626112.711 6 159557935.818 6       -15.819          37.000
C19  22694891.094 8 118178300.160 8      2352.555          50.000
C29  22049631.875 8 114818218.027 8     -1248.238          51.000
E01                                                                  27125526.039 6 109223290.104 6     -2260.417          37.000
E07  25139381.203 5 132108338.690 5       887.633          33.000    25139388.883 5 101225903.518 5       679.850          35.000
E26  22816125.203 8 119899548.145 8      -843.449          51.000    22816128.914 8  91871090.170 8      -646.309          51.000
E33  24356581.016 5 127994696.242 5      1297.648          33.000
> 2020 05 02 18 01 30.0000000  0 16        .000000000000
G08  20400351.148 8 107204577.583 8       641.359          51.000    20400353.625 8  83536023.825 8       499.761          51.000
G10  21516092.078 6 113067916.962 6     -1853.086          38.000    21516094.758 6  88104890.222 6     -1443.963          38.000
G14  24363989.469 7 128033638.205 7      2964.125          45.000    24363992.305 6  99766466.158 6      2309.711          41.000
G16  24238314.672 5 127373180.036 5     -3732.988          35.000
G22  23723761.188 6 124669204.630 6      3390.211          38.000
G27  20782074.203 8 109210521.001 8     -1622.488          51.000    20782075.344 8  85099120.411 8     -1264.277          51.000
G32  23210383.336 6 121971340.343 6      2481.871          40.000    23210382.609 6  95042608.437 6      1933.926          40.000
R07  20029849.078 8 107221409.382 8      2005.254          49.000    20029853.328 8  83394450.524 8      1559.645          49.000
R12  23352826.242 6 124746564.753 6     -3737.309          40.000    23352830.586 6  97025120.921 6     -2906.802          38.000
R22  19624219.055 6 104755403.976 6       443.977          39.000
C05  39626227.625 5 206344166.525 5       -19.672          35.000    39626228.367 6 159558402.469 6       -15.042          37.000
C19  22681371.508 8 118107897.700 8      2341.523          51.000
C29  22056851.055 8 114855808.453 8     -1257.109          51.000
E01                                                                  27142369.164 5 109291125.917 5     -2261.524          35.000
E07  25134353.539 5 132081918.696 5       874.707          31.000    25134363.062 5 101205664.239 5       669.784          31.000
E26  22820953.703 8 119924921.740 8      -847.484          51.000    22820957.148 8  91890532.257 8      -649.383          51.000
> 2020 05 02 18 02  0.0000000  0 19        .000000000000
G08  20396734.789 8 107185573.417 8       625.617          51.000    20396737.297 8  83521215.382 8       487.494          51.000
G10  21526711.336 7 113123720.869 7     -1867.359          42.000    21526713.484 7  88148373.682 7     -1455.088          42.000
G14  24347076.625 7 127944759.398 7      2961.078          46.000    24347078.734 6  99697210.029 6      2307.334          38.000
G16  24259629.648 5 127485188.934 5     -3734.805          34.000
G20  23576878.453 5 123897331.906 5     -3270.551          32.000
G22  23704430.422 6 124567621.477 6      3383.094          38.000
G27  20791380.695 8 109259425.713 8     -1637.625          51.000    20791381.047 8  85137227.919 8     -1276.074          51.000
G32  23196243.305 6 121897035.376 6      2472.082          38.000    23196243.398 6  94984708.521 6      1926.301          37.000
R07  20018680.969 8 107161627.459 8      1980.328          50.000    20018685.797 8  83347953.456 8      1540.252          50.000
R12  23373835.375 6 124858791.182 6     -3744.402          40.000    23373841.000 6  97112408.004 6     -2912.319          38.000
R21  21671770.258 5 115969994.085 5     -2545.422          34.000
R22  19621758.250 6 104742263.689 6       431.809          37.000    19621750.719 4  81466179.564 4       335.851          25.000
C05  39626340.297 5 206344752.124 5       -19.777          35.000    39626341.094 6 159558856.848 6       -15.139          37.000
C19  22667919.195 8 118037845.174 8      2328.746          51.000
C20  22810366.234 4 118779570.130 4      -727.039          29.000
C29  22064123.914 8 114893679.988 8     -1267.551          51.000
E01                                                                  27159226.766 5 109359014.324 5     -2264.053          34.000
E07  25129406.008 6 132055906.779 6       860.672          37.000
E26  22825808.367 8 119950432.786 8      -853.047          51.000    22825811.469 8  91910079.659 8      -653.669          51.000
> 2020 05 02 18 02 30.0000000  0 19        .000000000000
G08  20393207.672 8 107167038.227 8       610.836          51.000    20393210.297 8  83506772.369 8       475.976          51.000
G10  21537412.742 5 113179956.181 5     -1881.102          35.000    21537414.875 5  88192193.352 5     -1465.790          35.000
G14  24330180.109 7 127855967.509 7      2958.914          46.000    24330181.578 6  99628021.612 6      2305.647          36.000
G16  24280955.305 5 127597279.692 5     -3735.844          31.000
G20  23595567.188 5 123995532.721 5     -3275.238          34.000
G22  23685138.773 6 124466243.537 6      3377.195          38.000
G27  20800772.031 8 109308777.406 8     -1651.637          51.000    20800771.750 8  85175683.726 8     -1286.990          51.000
G32  23182164.016 6 121823050.178 6      2461.418          38.000    23182165.008 6  94927057.719 6      1917.988          39.000
R07  20007652.383 8 107102588.614 8      1956.434          51.000    20007657.008 8  83302034.330 8      1521.671          50.000
R12  23394880.898 6 124971212.038 6     -3749.684          38.000    23394888.172 6  97199846.303 6     -2916.424          38.000
R22  19619363.703 6 104729489.447 6       420.492          37.000    19619362.297 4  81456268.031 4       327.049          29.000
C05  39626455.047 6 206345348.503 6       -19.207          37.000    39626455.828 6 159559318.039 6       -14.958          38.000
C19  22654538.688 8 117968168.751 8      2317.047          51.000
C20  22814602.469 6 118801629.858 6      -742.980          38.000
C29  22071455.602 8 114931857.223 8     -1276.828          51.000
E01                                                                  27176101.281 5 109426972.883 5     -2265.882          33.000
E07  25124535.344 5 132030306.568 5       847.090          35.000    25124539.297 5 101166088.293 5       649.036          35.000
E08  25222226.148 6 132543694.826 6     -1692.664          39.000    25222225.406 6 101559450.865 6     -1297.189          39.000
E26  22830693.930 8 119976106.154 8      -857.684          51.000    22830696.641 8  91929751.437 8      -657.174          51.000
> 2020 05 02 18 03  0.0000000  0 19        .000000000000
G08  20389767.164 8 107148958.136 8       594.777          51.000    20389769.984 8  83492683.983 8       463.463          51.000
G10  21548193.094 7 113236605.574 7     -1895.613          42.000    21548194.789 7  88236335.782 7     -1477.101          42.000
G14  24313297.656 7 127767250.117 7      2955.684          45.000    24313298.859 6  99558891.246 6      2303.130          37.000
G16  24302288.227 5 127709380.583 5     -3737.945          31.000
G20  23614284.586 5 124093885.590 5     -3281.305          35.000
G22  23665883.336 6 124365057.126 6      3369.766          36.000
G27  20810245.227 8 109358560.325 8     -1666.801          51.000    20810245.039 8  85214475.573 8     -1298.806          51.000
G32  23168143.234 6 121749372.297 6      2450.367          38.000    23168145.211 6  94869646.421 6      1909.377          38.000
R07  19996760.398 8 107044279.213 8      1931.211          51.000    19996764.188 8  83256682.576 8      1502.053          50.000
R12  23415958.945 6 125083807.551 6     -3756.477          36.000    23415967.766 6  97287420.520 6     -2921.707          37.000
R22  19617036.445 6 104717067.315 6       407.949          36.000    19617036.250 5  81446607.336 5       317.294          31.000
C05  39626568.883 6 206345938.558 6       -19.859          37.000    39626569.398 6 159559774.308 6       -15.163          37.000
C19  22641227.305 8 117898855.010 8      2304.176          50.000
C20  22818931.664 6 118824170.251 6      -759.590          41.000
C29  22078843.094 8 114970325.249 8     -1287.273          51.000
E01                                                                  27192990.516 5 109494988.174 5     -2268.399          35.000
E07                                                                  25119750.062 5 101146784.659 5       637.587          31.000
E08  25231922.914 6 132594651.065 6     -1704.453          39.000    25231923.469 6 101598499.662 6     -1306.297          38.000
E26  22835607.617 8 120001926.758 8      -863.266          51.000    22835609.914 8  91949536.028 8      -661.442          51.000
> 2020 05 02 18 03 30.0000000  0 17        .000000000000
G08  20386415.516 8 107131345.292 8       578.949          51.000    20386418.328 8  83478959.681 8       451.129          51.000
G10  21559053.945 7 113293678.356 7     -1909.613          44.000    21559055.648 7  88280808.004 7     -1488.013          44.000
G14  24296432.188 7 127678621.134 7      2952.375          46.000    24296433.070 6  99489829.807 6      2300.558          37.000
G20  23633032.031 6 124192399.436 6     -3286.840          37.000
G22  23646667.055 5 124264075.179 5      3362.859          35.000
G27  20819802.242 8 109408785.139 8     -1681.914          51.000    20819802.867 8  85253611.756 8     -1310.582          51.000
G32  23154184.148 6 121676015.795 6      2439.613          37.000    23154186.289 6  94812485.594 6      1901.000          37.000
R07  19986007.250 8 106986713.605 8      1906.070          51.000    19986010.523 8  83211909.352 8      1482.502          50.000
R12  23437071.297 6 125196584.551 6     -3762.609          37.000    23437080.727 6  97375135.924 6     -2926.474          36.000
R22  19614777.977 6 104705009.443 6       395.266          38.000    19614778.094 5  81437228.999 5       307.435          32.000
C05  39626683.562 6 206346533.427 6       -20.141          37.000    39626683.844 6 159560234.310 6       -15.861          38.000
C19  22627988.320 8 117829916.732 8      2291.285          51.000
C20  22823355.000 7 118847201.431 7      -776.242          42.000
C29  22086288.539 8 115009095.163 8     -1297.727          51.000
E01                                                                  27209896.875 6 109563067.161 6     -2270.593          37.000
E08  25241688.453 6 132645968.862 6     -1716.828          39.000    25241687.883 6 101637818.036 6     -1315.731          38.000
E26  22840551.422 8 120027905.906 8      -869.059          51.000    22840553.633 8  91969442.099 8      -665.893          51.000
> 2020 05 02 18 04  0.0000000  0 19        .000000000000
G08  20383146.141 8 107114164.993 8       573.891          51.000    20383148.664 8  83465572.424 8       447.187          51.000
G10  21569987.883 7 113351136.123 7     -1913.367          42.000    21569990.195 7  88325580.276 7     -1490.935          43.000
G14  24279577.273 7 127590047.622 7      2960.039          46.000    24279577.906 6  99420811.598 6      2306.527          38.000
G20  23651802.469 6 124291036.020 6     -3281.215          38.000
G22  23627483.438 6 124163263.151 6      3365.840          36.000
G27  20829436.500 8 109459415.040 8     -1686.055          51.000    20829437.977 8  85293063.601 8     -1313.809          51.000
G32  23140280.781 5 121602947.505 5      2438.766          31.000    23140282.680 5  94755549.313 5      1900.337          31.000
R06  20882048.234 5 111430548.235 5     -2224.023          31.000
R07  19975386.562 8 106929857.180 8      1891.941          51.000    19975389.227 8  83167687.723 8      1471.510          48.000
R12  23458210.711 6 125309501.638 6     -3757.605          38.000    23458219.570 5  97462960.187 5     -2922.588          34.000
R22  19612581.656 6 104693280.230 6       393.750          37.000    19612581.859 5  81428106.266 5       306.247          35.000
C05  39626792.148 6 206347097.230 6       -10.148          36.000    39626792.250 6 159560670.268 6        -7.832          38.000
C19  22614815.273 8 117761319.659 8      2289.172          51.000
C20  22827865.523 7 118870686.558 7      -782.047          43.000
C29  22093785.133 8 115048131.203 8     -1297.320          51.000
E01                                                                  27226812.719 6 109631180.624 6     -2264.619          37.000
E07  25110380.367 5 131955935.176 5       814.805          34.000    25110383.516 5 101109108.153 5       624.591          32.000
E08  25251513.367 6 132697597.541 6     -1717.418          40.000    25251513.266 6 101677382.171 6     -1316.153          37.000
E26  22845518.430 8 120054007.488 8      -863.750          51.000    22845520.891 8  91989441.985 8      -661.784          51.000
> 2020 05 02 18 04 30.0000000  0 18        .000000000000
G08  20379971.469 8 107097482.331 8       554.918          51.000    20379973.859 8  83452572.948 8       432.404          51.000
G10  21581006.766 7 113409040.638 7     -1930.578          44.000    21581008.945 7  88370700.659 7     -1504.350          45.000
G14  24262745.812 7 127501596.032 7      2953.441          45.000    24262746.492 6  99351888.409 6      2301.389          41.000
G20  23670607.898 6 124389857.252 6     -3289.980          38.000    23670605.188 5  96927163.637 5     -2563.627          34.000
G22  23608344.773 6 124062686.621 6      3355.871          37.000
G27  20839160.062 8 109510513.255 8     -1703.934          51.000    20839162.094 8  85332880.358 8     -1327.740          51.000
G32  23126447.414 5 121530313.760 5      2425.160          33.000    23126462.102 5  94698992.136 5      1889.738          32.000
R06  20894673.094 5 111497924.265 5     -2250.672          32.000
R07  19964910.539 8 106873777.373 8      1863.629          51.000    19964912.906 7  83124070.155 7      1449.489          47.000
R12  23479387.789 6 125422619.306 6     -3766.652          37.000    23479394.867 4  97550940.411 4     -2929.625          29.000
R22  19610458.648 6 104681945.669 6       378.484          37.000    19610461.062 5  81419290.433 5       294.374          35.000
C05  39626906.789 6 206347702.155 6       -13.086          37.000    39626906.820 6 159561131.118 6       -10.264          38.000
C19  22601720.461 8 117693128.671 8      2273.336          51.000
C20  22832474.953 7 118894687.881 7      -801.660          44.000
C29  22101344.859 8 115087496.683 8     -1310.641          51.000
E01  27243754.156 5 143166908.347 5     -2961.434          34.000    27243749.547 6 109699375.824 6     -2268.980          38.000
E08  25261409.602 6 132749600.717 6     -1732.402          39.000    25261410.727 6 101717232.037 6     -1327.707          37.000
E26  22850520.922 8 120080295.444 8      -872.238          51.000    22850523.617 8  92009584.682 8      -668.392          51.000
> 2020 05 02 18 05  0.0000000  0 17        .000000000000
G08  20376891.617 8 107081297.841 8       535.230          51.000    20376894.094 8  83439961.644 8       417.063          51.000
G10  21592110.000 7 113467389.357 7     -1948.035          42.000    21592112.133 7  88416167.160 7     -1517.949          42.000
G14  24245938.133 7 127413269.214 7      2946.031          43.000    24245938.852 7  99283062.479 7      2295.615          42.000
G20  23689447.672 6 124488860.206 6     -3299.031          37.000    23689442.477 4  97004308.784 4     -2570.680          29.000
G22  23589250.898 6 123962347.008 6      3344.656          38.000    23589254.328 5  96594066.011 5      2606.223          33.000
G27  20848972.484 8 109562078.719 8     -1722.547          51.000    20848974.844 8  85373061.199 8     -1342.247          51.000
G32  23112678.047 6 121457957.289 6      2410.168          38.000    23112689.406 6  94642610.502 6      1878.056          37.000
R07  19954579.805 8 106818476.090 8      1834.555          51.000    19954582.305 7  83081058.094 7      1426.876          47.000
R12  23500601.297 6 125535932.494 6     -3776.051          36.000    23500600.719 4  97639102.659 4     -2936.928          26.000
R22  19608408.938 6 104671006.730 6       362.195          40.000    19608411.828 5  81410782.306 5       281.711          33.000
C05  39627027.234 6 206348329.775 6       -17.074          36.000    39627027.422 6 159561616.461 6       -13.405          38.000
C19  22588703.516 8 117625344.881 8      2256.711          51.000
C20  22837182.617 7 118919203.881 7      -821.707          44.000
C29  22108967.805 8 115127191.141 8     -1324.586          51.000
E01  27260705.125 5 143256013.131 5     -2967.930          35.000    27260706.641 6 109767650.832 6     -2274.059          37.000
E08  25271377.078 6 132801989.498 6     -1748.141          39.000    25271378.789 6 101757368.171 6     -1339.601          37.000
E26  22855558.727 8 120106769.414 8      -881.527          51.000    22855561.602 8  92029869.905 8      -675.447          51.000
> 2020 05 02 18 05 30.0000000  0 17        .000000000000
G08  20373896.367 8 107065557.711 8       517.340          51.000    20373898.906 8  83427696.600 8       403.122          51.000
G10  21603286.680 7 113526125.027 7     -1964.059          43.000    21603289.297 7  88461935.258 7     -1530.432          43.000
G14  24229144.578 7 127325014.498 7      2940.766          43.000    24229144.312 6  99214292.709 6      2291.509          41.000
G20  23708310.625 5 124587987.737 5     -3306.676          34.000    23708307.297 5  97081550.973 5     -2576.637          35.000
G22  23570191.070 6 123862190.696 6      3335.539          36.000    23570194.086 5  96516022.198 5      2599.118          33.000
G27  20858863.281 8 109614055.654 8     -1739.250          50.000    20858865.773 8  85413562.691 8     -1355.263          50.000
G32  23098964.945 6 121385905.783 6      2397.094          39.000    23098977.680 6  94586466.565 6      1867.871          38.000
R07  19944384.328 8 106763899.212 8      1807.203          51.000    19944386.914 8  83038609.453 8      1405.605          48.000
R12  23521839.898 5 125649380.732 5     -3783.555          35.000    23521839.367 4  97727341.961 4     -2942.774          25.000
R22  19606422.625 7 104660408.316 7       347.840          42.000    19606425.680 5  81402539.131 5       270.545          33.000
C05  39627143.508 6 206348934.522 6       -19.402          37.000    39627143.547 6 159562084.089 6       -15.326          38.000
C19  22575754.102 8 117557915.283 8      2241.840          51.000
C20  22841978.609 7 118944178.903 7      -840.000          45.000
C29  22116643.250 8 115167160.065 8     -1336.734          51.000
E01  27277665.891 5 143345164.982 5     -2972.234          33.000    27277673.094 6 109835961.853 6     -2277.498          36.000
E08  25281405.023 6 132854676.434 6     -1761.715          39.000    25281407.055 6 101797748.274 6     -1349.544          37.000
E26  22860621.516 8 120133374.381 8      -888.906          51.000    22860624.461 8  92050255.507 8      -681.119          51.000
> 2020 05 02 18 06  0.0000000  0 16        .000000000000
G08  20370989.164 8 107050280.268 8       501.500          51.000    20370991.602 8  83415792.094 8       390.776          51.000
G10  21614540.328 7 113585263.203 7     -1977.945          45.000    21614542.859 7  88508016.929 7     -1541.259          45.000
G14  24212367.727 6 127236852.523 6      2937.066          39.000    24212366.984 6  99145595.150 6      2288.626          39.000
G20  23727199.555 5 124687255.292 5     -3310.973          32.000    23727198.195 5  97158902.277 5     -2580.009          31.000
G22  23551168.938 5 123762237.102 5      3328.438          33.000    23551172.383 5  96438136.354 5      2593.588          33.000
G27  20868835.523 8 109666460.985 8     -1753.941          49.000    20868838.219 8  85454398.005 8     -1366.711          49.000
G32  23085314.797 5 121314179.514 5      2385.762          35.000    23085329.930 5  94530576.086 5      1859.035          33.000
R07  19934327.828 8 106710067.219 8      1781.980          50.000    19934330.430 8  82996740.154 8      1385.988          48.000
R12  23543106.844 5 125762977.456 5     -3788.645          35.000    23543109.844 4  97815717.785 4     -2946.730          27.000
R22  19604504.289 7 104650169.412 7       335.312          42.000    19604507.430 5  81394575.575 5       260.799          35.000
C05  39627258.695 6 206349533.670 6       -19.684          37.000    39627258.539 6 159562547.400 6       -15.317          38.000
C19  22562876.195 8 117490858.852 8      2229.027          51.000
C20  22846866.320 7 118969629.390 7      -856.367          45.000
C29  22124374.547 8 115207420.874 8     -1346.930          50.000
E01                                                                  27294651.875 5 109904320.713 5     -2279.336          34.000
E26  22865712.586 8 120160128.000 8      -894.238          51.000    22865715.734 8  92070755.018 8      -685.193          51.000
> 2020 05 02 18 06 30.0000000  0 16        .000000000000
G08  20368169.211 8 107035461.443 8       483.441          51.000    20368171.500 8  83404244.947 8       376.708          51.000
G10  21625869.133 7 113644795.837 7     -1993.781          44.000    21625871.852 7  88554405.975 7     -1553.596          44.000
G14  24195605.883 6 127148780.069 6      2931.559          39.000    24195606.648 6  99076967.353 6      2284.334          37.000
G22  23532184.992 5 123662482.331 5      3318.922          32.000    23532191.039 4  96360405.402 4      2586.182          29.000
G27  20878887.828 8 109719288.173 8     -1770.773          48.000    20878890.930 8  85495562.046 8     -1379.823          48.000
G32  23071727.836 5 121242742.356 5      2372.781          32.000
R07  19924409.359 8 106656976.128 8      1754.371          50.000    19924412.445 8  82955447.114 8      1364.511          48.000
R12  23564398.812 5 125876711.998 5     -3796.449          35.000    23564408.477 4  97904208.841 4     -2952.791          27.000
R22  19602652.234 6 104640285.138 6       320.883          41.000    19602657.312 6  81386887.775 6       249.572          37.000
C05  39627371.648 6 206350121.460 6       -22.227          37.000    39627371.281 6 159563001.927 6       -17.302          38.000
C19  22550069.547 8 117424171.291 8      2213.961          51.000
C20  22851844.008 7 118995548.356 7      -874.562          46.000
C29  22132160.938 8 115247967.732 8     -1359.105          50.000
E01                                                                  27311641.320 5 109972721.322 5     -2282.886          34.000
E08  25301648.586 6 132961067.920 6     -1786.867          37.000    25301652.109 6 101879263.222 6     -1369.113          37.000
E26  22870830.820 8 120187024.506 8      -901.832          51.000    22870834.367 8  92091364.013 8      -691.029          51.000
> 2020 05 02 18 07  0.0000000  0 18        .000000000000
G08  20365435.242 8 107021094.297 8       469.238          51.000    20365437.625 8  83393049.758 8       365.640          51.000
G10  21637271.273 7 113704713.256 7     -2005.562          45.000    21637274.094 7  88601094.903 7     -1562.776          45.000
G14  24178861.055 6 127060792.654 6      2929.363          41.000    24178862.531 6  99008405.812 6      2282.624          39.000
G22  23513239.070 6 123562919.998 6      3313.270          36.000    23513245.141 5  96282824.363 5      2581.768          34.000
G27  20889018.992 8 109772529.072 8     -1783.730          50.000    20889022.047 8  85537048.449 8     -1389.920          50.000
G32  23058198.727 5 121171641.929 5      2362.715          33.000    23058213.078 4  94419538.784 4      1841.077          29.000
R07  19914628.562 8 106604620.709 8      1730.695          51.000    19914631.562 8  82914726.228 8      1346.096          48.000
R12  23585712.250 4 125990572.605 4     -3800.059          29.000    23585723.391 4  97992767.947 4     -2955.610          29.000
R21  21816923.578 5 116746758.795 5     -2633.820          30.000
R22  19600865.211 6 104630749.302 6       309.754          41.000    19600871.117 6  81379470.974 6       240.920          36.000
C05  39627480.836 6 206350691.444 6       -20.820          37.000    39627480.477 6 159563441.904 6       -15.955          38.000
C19  22537332.766 8 117357846.812 8      2202.672          51.000
C20  22856909.914 7 119021927.318 7      -889.066          45.000
C29  22140000.797 8 115288793.254 8     -1367.504          50.000
E01                                                                  27328639.602 5 110041156.318 5     -2283.038          35.000
E07  25084240.734 6 131818576.519 6       720.234          36.000    25084241.117 5 101003842.344 5       552.059          35.000
E08  25311861.438 5 133014741.376 5     -1796.531          32.000    25311865.750 6 101920389.653 6     -1376.883          37.000
E26  22875974.922 8 120214056.506 8      -905.434          51.000    22875978.656 8  92112076.819 8      -693.714          51.000
> 2020 05 02 18 07 30.0000000  0 14        .000000000000
G08  20362809.594 8 107007296.403 8       452.594          51.000    20362812.180 8  83382298.140 8       352.670          51.000
G10  21648768.398 7 113765129.547 7     -2020.051          46.000    21648770.547 7  88648172.480 7     -1574.069          46.000
G14  24162155.930 7 126973009.268 7      2924.848          43.000    24162158.016 6  98940003.251 6      2279.102          40.000
G22  23494352.805 6 123463668.233 6      3305.199          37.000    23494358.250 6  96205485.390 6      2575.477          36.000
G27  20899251.344 8 109826299.052 8     -1799.047          51.000    20899253.789 8  85578947.126 8     -1401.855          51.000
R07  19905007.586 8 106553121.048 8      1704.625          50.000    19905010.859 8  82874670.971 8      1325.819          48.000
R22  19599165.453 6 104621680.639 6       296.688          41.000    19599170.789 6  81372417.517 6       230.757          36.000
C05  39627608.531 6 206351356.651 6       -22.012          37.000    39627608.211 6 159563956.265 6       -16.767          38.000
C19  22524687.859 8 117292001.889 8      2189.039          51.000
C20  22862085.633 7 119048880.141 7      -905.820          45.000
C29  22147916.336 8 115330012.499 8     -1378.465          51.000
E01                                                                  27345668.008 5 110109713.069 5     -2285.648          35.000
E07  25080171.789 5 131797196.428 5       705.871          33.000    25080176.047 6 100987472.579 6       540.961          37.000
E26  22881166.945 8 120241340.175 8      -911.520          51.000    22881170.547 8  92132982.479 8      -698.365          51.000
> 2020 05 02 18 08  0.0000000  0 15        .000000000000
G08  20360261.234 8 106993904.517 8       438.859          51.000    20360263.852 8  83371862.899 8       341.968          51.000
G10  21660328.680 7 113825878.355 7     -2031.242          43.000    21660330.531 7  88695509.192 7     -1582.786          42.000
G14  24145459.148 6 126885268.688 6      2923.145          41.000    24145462.414 6  98871634.020 6      2277.778          41.000
G22  23475495.164 6 123364564.843 6      3300.527          36.000    23475498.430 5  96128262.063 5      2571.843          33.000
G27  20909553.203 8 109880433.358 8     -1811.223          51.000    20909554.938 8  85621129.677 8     -1411.342          51.000
G32  23031358.438 5 121030604.034 5      2340.246          30.000
R07  19895515.734 8 106502312.274 8      1681.328          50.000    19895519.406 8  82835153.066 8      1307.703          48.000
R22  19597522.938 7 104612913.926 7       286.324          42.000    19597527.062 5  81365598.970 5       222.697          34.000
C05  39627723.586 6 206351955.413 6       -19.809          36.000    39627723.172 6 159564419.301 6       -15.097          38.000
C19  22512103.680 8 117226475.542 8      2178.148          49.000
C20  22867340.961 7 119076243.199 7      -919.801          44.000
C29  22155876.500 8 115371462.885 8     -1386.270          51.000
E01                                                                  27362694.000 5 110178264.228 5     -2285.307          34.000
E07  25076170.539 5 131776167.513 5       693.719          34.000    25076173.484 5 100971373.428 5       531.581          34.000
E26  22886375.453 8 120268711.553 8      -914.578          51.000    22886378.914 8  92153955.358 8      -700.766          51.000
> 2020 05 02 18 08 30.0000000  0 16        .000000000000
G08  20357802.703 8 106980984.684 8       423.234          51.000    20357805.320 8  83361795.484 8       329.793          51.000
G10  21671964.070 7 113887022.227 7     -2044.188          45.000    21671966.203 7  88743153.791 7     -1592.873          45.000
G14  24128784.023 7 126797638.404 7      2919.715          42.000    24128787.289 6  98803350.733 6      2275.109          40.000
G22  23456679.188 5 123265675.955 5      3292.730          34.000    23456679.125 5  96051205.853 5      2565.764          34.000
G27  20919936.617 8 109934996.009 8     -1825.449          51.000    20919937.797 8  85663645.998 8     -1422.428          51.000
G32  23018033.180 5 120960571.734 5      2329.613          35.000    23018043.000 5  94255004.010 5      1815.271          33.000
R07  19886166.023 8 106452262.330 8      1656.258          48.000    19886169.656 8  82796225.332 8      1288.201          48.000
R21  21861443.078 5 116984965.768 5     -2658.172          34.000
R22  19595949.555 7 104604515.657 7       274.289          42.000    19595949.953 5  81359067.046 5       213.336          34.000
C05  39627838.242 6 206352551.924 6       -19.746          37.000    39627837.648 6 159564880.587 6       -15.218          38.000
C19  22499593.227 8 117161333.386 8      2165.355          49.000
C20  22872686.547 7 119104079.345 7      -935.121          43.000
C29  22163893.750 8 115413208.539 8     -1396.008          51.000
E01                                                                  27379729.797 5 110246857.845 5     -2286.498          32.000
E07                                                                  25072250.008 5 100955594.887 5       520.943          33.000
E26  22891612.781 8 120296235.418 8      -919.711          51.000    22891616.375 8  92175045.083 8      -704.767          51.000
> 2020 05 02 18 09  0.0000000  0 16        .000000000000
G08  20355435.078 8 106968542.564 8       405.031          51.000    20355437.641 8  83352100.316 8       315.609          51.000
G10  21683675.281 7 113948564.160 7     -2059.719          47.000    21683677.055 7  88791108.505 7     -1604.976          47.000
G14  24112131.500 7 126710126.449 7      2913.270          43.000    24112134.539 6  98735159.638 6      2270.083          37.000
G22  23437905.398 6 123167007.884 6      3283.410          37.000    23437901.648 6  95974321.809 6      2558.508          36.000
G27  20930402.258 8 109989991.202 8     -1842.074          51.000    20930403.070 8  85706499.368 8     -1435.386          51.000
G32  23004774.242 6 120890889.761 6      2315.320          39.000    23004789.086 6  94200706.272 6      1804.143          37.000
R07  19876959.273 8 106402978.374 8      1628.191          48.000    19876962.656 8  82757893.345 8      1266.371          48.000
R21  21876367.039 5 117064830.952 5     -2668.582          31.000
R22  19594446.531 7 104596492.366 7       259.574          42.000    19594445.406 6  81352826.739 6       201.894          36.000
C05  39627953.359 6 206353151.006 6       -21.582          37.000    39627952.664 6 159565343.846 6       -16.740          38.000
C19  22487158.023 8 117096581.807 8      2150.141          48.000
C20  22878124.070 7 119132392.512 7      -953.418          43.000
C29  22171968.812 8 115455254.373 8     -1408.250          51.000
E01  27396774.531 5 143971017.388 5     -2988.273          33.000    27396775.914 5 110315464.136 5     -2290.105          30.000
E07                                                                  25068413.195 5 100940141.345 5       508.049          34.000
E26  22896880.172 8 120323916.866 8      -927.051          51.000    22896883.922 8  92196255.540 8      -710.377          51.000
> 2020 05 02 18 09 30.0000000  0 16        .000000000000
G08  20353160.453 8 106956588.831 8       391.133          51.000    20353162.922 8  83342785.709 8       304.779          51.000
G10  21695463.516 7 114010511.080 7     -2070.711          45.000    21695464.680 7  88839378.784 7     -1613.541          45.000
G14  24095503.828 7 126622744.621 7      2911.402          44.000    24095506.219 6  98667069.966 6      2268.625          36.000
G22  23419176.625 6 123068571.876 6      3277.992          39.000    23419169.062 5  95897618.522 5      2554.286          35.000
G27  20940951.797 8 110045427.421 8     -1854.469          51.000    20940952.234 8  85749696.401 8     -1445.041          51.000
G32  22991583.656 5 120821570.175 5      2305.051          35.000    22991592.633 6  94146690.857 6      1796.140          36.000
R07  19867898.008 8 106354471.815 8      1604.762          50.000    19867901.047 8  82720166.004 8      1248.148          48.000
R21  21891356.438 5 117145005.710 5     -2676.121          35.000
R22  19593015.906 7 104588854.227 7       249.129          44.000    19593014.953 6  81346885.964 6       193.767          38.000
C05  39628070.664 6 206353761.847 6       -19.777          37.000    39628069.969 6 159565816.201 6       -15.202          38.000
C19  22474799.508 8 117032231.368 8      2139.027          48.000
C20  22883653.586 6 119161190.540 6      -967.504          40.000
C29  22180103.023 8 115497609.509 8     -1416.234          51.000
E01  27413832.211 5 144060661.673 5     -2988.230          34.000
E07                                                                  25064660.531 5 100925020.191 5       499.369          31.000
E26  22902179.352 8 120351765.239 8      -930.258          51.000    22902183.328 8  92217593.882 8      -712.726          51.000
> 2020 05 02 18 10  0.0000000  0 13        .000000000000
G08  20350976.844 8 106945113.314 8       374.371          51.000    20350979.023 8  83333843.744 8       291.718          51.000
G10  21707326.055 7 114072849.660 7     -2084.805          42.000    21707327.141 7  88887954.300 7     -1624.520          42.000
G14  24078899.062 7 126535484.780 7      2906.469          44.000    24078899.703 6  98599075.417 6      2264.784          36.000
G22  23400490.336 6 122970358.399 6      3270.039          39.000    23400479.594 5  95821088.642 5      2548.088          35.000
G27  20951582.898 8 110101292.725 8     -1869.449          51.000    20951583.062 8  85793227.795 8     -1456.714          51.000
R07  19858980.508 8 106306733.058 8      1578.387          51.000    19858983.078 7  82683035.894 7      1227.634          47.000
R22  19591655.336 7 104581591.243 7       235.691          45.000    19591655.828 6  81341236.981 6       183.316          40.000
C05  39628188.195 6 206354373.312 6       -20.500          37.000    39628187.359 6 159566289.050 6       -15.897          38.000
C19  22462516.758 8 116968272.563 8      2125.203          50.000
C20  22889275.188 7 119190461.202 7      -983.625          43.000
C29  22188294.328 8 115540262.849 8     -1426.867          51.000
E01  27430900.664 5 144150355.185 5     -2991.098          33.000
E26  22907508.352 8 120379769.467 8      -936.266          51.000    22907512.500 8  92239051.663 8      -717.276          51.000
> 2020 05 02 18 10 30.0000000  0 13        .000000000000
G08  20348883.352 8 106934111.600 8       359.230          51.000    20348885.281 8  83325270.977 8       279.920          51.000
G10  21719261.555 7 114135572.488 7     -2096.844          43.000    21719263.227 7  88936829.247 7     -1633.904          43.000
G14  24062317.359 7 126448344.758 7      2902.898          45.000    24062316.547 5  98531174.243 5      2262.005          35.000
G22  23381845.320 6 122872363.916 6      3263.535          38.000    23381832.266 6  95744729.399 6      2543.014          38.000
G27  20962294.422 8 110157581.178 8     -1882.945          51.000    20962294.812 8  85837088.869 8     -1467.233          51.000
R07  19850205.758 8 106259758.596 8      1553.492          51.000    19850207.180 7  82646500.244 7      1208.272          46.000
R22  19590364.547 7 104574699.242 7       223.973          45.000    19590365.953 6  81335876.528 6       174.201          41.000
C05  39628304.758 6 206354980.275 6       -19.680          37.000    39628303.945 6 159566758.391 6       -15.251          37.000
C19  22450309.453 8 116904701.708 8      2112.910          51.000
C20  22894985.883 6 119220198.187 6      -998.598          41.000
C29  22196541.961 8 115583209.171 8     -1436.031          51.000
E01  27447978.148 5 144240098.492 5     -2991.199          31.000
E26  22912866.297 8 120407924.448 8      -940.559          51.000    22912870.375 8  92260624.957 8      -720.655          51.000
> 2020 05 02 18 11  0.0000000  0 12        .000000000000
G08  20346882.672 8 106923598.001 8       342.500          51.000    20346884.680 8  83317078.552 8       266.883          51.000
G10  21731272.430 7 114198690.319 7     -2110.230          45.000    21731274.711 7  88986011.966 7     -1644.335          45.000
G14  24045761.383 7 126361340.244 7      2897.980          45.000    24045760.508 6  98463378.691 6      2258.173          37.000
G22  23363243.461 6 122774602.829 6      3254.492          40.000    23363229.305 6  95668552.102 6      2535.971          36.000
G27  20973088.680 8 110214304.821 8     -1897.895          51.000    20973089.266 8  85881289.045 8     -1478.879          51.000
R07  19841576.656 8 106213563.501 8      1526.949          51.000    19841577.289 7  82610570.785 7      1187.630          46.000
R22  19589145.977 7 104568192.351 7       210.684          45.000    19589148.547 7  81330815.606 7       163.865          43.000
C05  39628422.898 6 206355595.406 6       -20.125          37.000    39628422.062 6 159567234.061 6       -15.782          38.000
C19  22438179.578 8 116841532.944 8      2099.082          51.000
C20  22900788.641 7 119250412.936 7     -1014.977          44.000
C29  22204847.898 8 115626461.234 8     -1446.680          51.000
E26  22918255.367 8 120436243.129 8      -946.551          51.000    22918259.320 8  92282323.666 8      -725.222          51.000
> 2020 05 02 18 11 30.0000000  0 15        .000000000000
G08  20344973.367 8 106913565.012 8       326.594          51.000    20344975.555 8  83309260.633 8       254.492          51.000
G10  21743356.695 7 114262192.714 7     -2123.078          46.000    21743358.773 7  89035494.304 7     -1654.350          45.000
G14  24029230.211 7 126274465.819 7      2893.891          46.000    24029229.789 6  98395684.414 6      2254.983          38.000
G22  23344683.461 6 122677068.611 6      3247.289          40.000    23344669.102 5  95592551.513 5      2530.361          34.000
G27  20983963.797 8 110271454.579 8     -1911.957          51.000    20983964.352 8  85925821.283 8     -1489.837          51.000
G32  22939497.984 5 120547859.084 5      2256.680          33.000    22939500.094 5  93933423.481 5      1758.452          33.000
R07  19833091.734 8 106168141.069 8      1501.359          51.000    19833091.938 7  82575242.285 7      1167.727          46.000
R21  21951769.414 6 117468319.649 6     -2711.266          36.000
R22  19587998.023 7 104562063.204 7       198.230          47.000    19588001.266 7  81326048.500 7       154.179          43.000
C05  39628541.000 6 206356211.473 6       -20.395          37.000    39628540.148 6 159567709.678 6       -15.613          37.000
C19  22426125.266 8 116778759.469 8      2086.055          51.000
C20  22906681.734 7 119281096.158 7     -1030.398          45.000
C29  22213210.844 8 115670010.772 8     -1456.531          51.000
E07  25050440.484 5 131640952.784 5       594.113          32.000    25050444.367 5 100867770.995 5       455.382          33.000
E26  22923673.914 8 120464717.338 8      -951.664          51.000    22923678.023 8  92304141.547 8      -729.224          50.000
> 2020 05 02 18 12  0.0000000  0 14        .000000000000
G08  20343157.273 8 106904021.500 8       310.188          51.000    20343159.516 8  83301824.122 8       241.705          51.000
G10  21755515.219 7 114326085.370 7     -2136.031          44.000    21755516.781 7  89085280.779 7     -1664.437          44.000
G14  24012725.039 7 126187732.144 7      2888.926          44.000    24012725.961 6  98328099.802 6      2251.111          41.000
G22  23326168.125 6 122579771.126 6      3239.488          40.000    23326153.461 5  95516735.403 5      2524.277          35.000
G27  20994921.016 8 110329037.616 8     -1926.480          51.000    20994922.094 8  85970691.142 8     -1501.154          51.000
G32  22926653.633 5 120480345.359 5      2244.102          33.000    22926656.758 5  93880815.310 5      1748.654          32.000
R07  19824752.797 8 106123501.634 8      1475.164          51.000    19824752.758 7  82540522.747 7      1147.350          47.000
R22  19586922.156 7 104556320.911 7       185.043          46.000    19586926.039 7  81321582.253 7       143.922          43.000
C05  39628660.672 6 206356834.346 6       -20.324          37.000    39628659.758 6 159568191.340 6       -16.057          37.000
C19  22414148.070 8 116716390.648 8      2072.328          51.000
C20  22912664.422 6 119312254.359 6     -1046.566          41.000
C29  22221632.555 8 115713865.642 8     -1466.766          51.000
E07                                                                  25047096.898 5 100854281.880 5       444.437          34.000
E26  22929123.539 8 120493355.152 8      -957.219          51.000    22929127.781 8  92326084.781 8      -733.480          50.000
> 2020 05 02 18 12 30.0000000  0 13        .000000000000
G08  20341433.836 8 106894964.667 8       294.203          51.000    20341436.172 8  83294766.842 8       229.249          51.000
G10  21767746.648 7 114390362.321 7     -2148.438          45.000    21767748.422 7  89135366.691 7     -1674.107          45.000
G14  23996246.039 7 126101138.679 7      2884.430          42.000    23996248.758 7  98260624.437 7      2247.608          42.000
G22  23307697.711 6 122482707.432 6      3231.625          39.000    23307681.820 6  95441101.477 6      2518.152          36.000
G27  21005959.727 8 110387049.245 8     -1940.441          49.000    21005961.406 8  86015894.999 8     -1512.032          49.000
R07  19816559.305 8 106079642.802 8      1449.332          51.000    19816559.836 7  82506410.328 7      1127.258          47.000
R22  19585917.992 7 104550963.054 7       172.809          46.000    19585922.648 7  81317415.009 7       134.407          43.000
C05  39628781.000 6 206357461.284 6       -20.285          37.000    39628780.062 6 159568676.121 6       -15.888          38.000
C19  22402247.648 8 116654424.098 8      2059.285          51.000
C20  22918738.172 7 119343882.561 7     -1061.766          45.000
C29  22230112.172 8 115758022.048 8     -1476.441          51.000
E07                                                                  25043829.883 5 100841121.651 5       433.075          34.000
E26  22934603.469 8 120522152.862 8      -962.082          51.000    22934607.633 8  92348150.536 8      -737.216          50.000
> 2020 05 02 18 13  0.0000000  0 14        .000000000000
G08  20339800.438 8 106886381.491 8       278.012          51.000    20339802.750 8  83288078.652 8       216.633          51.000
G10  21780048.070 7 114455007.406 7     -2161.039          43.000    21780050.156 7  89185739.455 7     -1683.927          43.000
G11  20892618.500 5 109791464.664 5      2165.582          31.000
G14  23979790.945 6 126014673.793 6      2880.066          39.000    23979795.414 6  98193249.195 6      2244.208          39.000
G22  23289270.141 6 122385865.701 6      3224.633          36.000    23289252.398 5  95365640.604 5      2512.707          32.000
G27  21017077.070 8 110445474.617 8     -1954.652          50.000    21017079.180 8  86061421.293 8     -1523.106          50.000
G32  22901167.062 5 120346451.505 5      2219.430          32.000    22901170.148 5  93776469.468 5      1729.432          32.000
R07  19808509.117 8 106036552.129 8      1423.375          50.000    19808510.047 7  82472895.338 7      1107.066          47.000
R22  19584983.562 7 104545976.215 7       159.836          47.000    19584988.672 7  81313536.334 7       124.317          42.000
C05  39628899.484 6 206358078.342 6       -20.160          37.000    39628898.562 6 159569153.305 6       -16.103          38.000
C19  22390422.359 8 116592847.358 8      2045.867          51.000
C20  22924899.430 7 119375965.718 7     -1077.184          44.000
C29  22238647.211 8 115802466.015 8     -1486.473          51.000
E26  22940111.047 8 120551096.599 8      -967.352          51.000    22940114.680 8  92370328.183 8      -741.271          49.000
> 2020 05 02 18 13 30.0000000  0 14        .000000000000
G08  20338261.359 8 106878293.439 8       260.902          51.000    20338263.758 8  83281776.267 8       203.301          51.000
G10  21792422.852 7 114520038.537 7     -2174.477          45.000    21792424.828 7  89236413.062 7     -1694.400          45.000
G14  23963365.844 7 125928360.780 7      2874.117          43.000    23963371.039 7  98125992.360 7      2239.572          43.000
G22  23270888.219 6 122289267.516 6      3215.508          36.000    23270869.297 5  95290369.549 5      2505.603          32.000
G27  21028277.133 8 110504333.167 8     -1969.645          51.000    21028279.328 8  86107285.082 8     -1534.788          50.000
G32  22888530.320 6 120280051.001 6      2206.086          40.000    22888530.047 5  93724728.972 5      1719.043          31.000
R07  19800606.758 8 105994251.608 8      1396.426          51.000    19800608.258 8  82439994.945 8      1086.109          48.000
R08  22179762.078 6 118771611.447 6      4278.102          41.000    22179767.445 6  92377945.639 6      3327.412          38.000
R22  19584123.047 7 104541382.335 7       146.141          46.000    19584127.945 7  81309963.293 7       113.665          42.000
C05  39629019.875 6 206358705.548 6       -21.777          37.000    39629019.023 6 159569638.277 6       -16.510          38.000
C19  22378676.172 8 116531681.837 8      2031.613          51.000
C20  22931150.930 7 119408522.339 7     -1093.488          43.000
C29  22247241.383 8 115847217.469 8     -1497.207          51.000
E26  22945650.414 8 120580206.647 8      -973.414          51.000    22945653.406 8  92392633.255 8      -745.782          49.000
> 2020 05 02 18 14  0.0000000  0 15        .000000000000
G08  20336816.461 8 106870700.144 8       245.078          51.000    20336818.828 8  83275859.411 8       190.970          51.000
G10  21804870.758 7 114585452.631 7     -2186.594          46.000    21804872.523 7  89287385.041 7     -1703.842          47.000
G14  23946970.883 7 125842201.738 7      2869.535          46.000    23946975.555 7  98058855.496 7      2236.001          45.000
G22  23252551.930 6 122192913.579 6      3207.961          38.000    23252532.398 4  95215288.680 4      2499.716          29.000
G27  21039559.828 8 110563623.038 8     -1983.266          51.000    21039561.625 8  86153484.955 8     -1545.402          51.000
G32  22875968.016 7 120214034.829 7      2194.441          42.000    22875967.727 5  93673288.078 5      1709.954          34.000
R07  19792852.062 8 105952741.936 8      1370.660          51.000    19792854.281 8  82407709.687 8      1066.069          48.000
R08  22155819.141 6 118643392.038 6      4269.688          41.000    22155821.422 6  92278219.493 6      3320.868          37.000
R22  19583336.109 7 104537181.351 7       133.754          46.000    19583340.195 7  81306695.849 7       104.031          42.000
C05  39629142.102 6 206359341.915 6       -21.211          36.000    39629141.258 6 159570130.362 6       -16.405          38.000
C19  22367009.078 8 116470927.949 8      2018.461          51.000
C20  22937493.797 7 119441550.364 7     -1108.539          44.000
C29  22255894.000 8 115892275.448 8     -1506.855          51.000
E07  25034506.578 6 131557242.286 6       522.824          37.000    25034510.094 5 100803594.485 5       400.288          32.000
E26  22951221.312 8 120609482.170 8      -978.328          51.000    22951224.062 8  92415065.145 8      -749.637          49.000
> 2020 05 02 18 14 30.0000000  0 15        .000000000000
G08  20335463.883 8 106863592.064 8       228.832          51.000    20335466.133 8  83270320.644 8       178.311          51.000
G10  21817389.195 7 114651236.915 7     -2199.027          45.000    21817391.219 7  89338645.480 7     -1713.528          45.000
G14  23930603.812 7 125756188.623 7      2864.734          47.000    23930607.805 7  97991832.316 7      2232.261          45.000
G22  23234260.844 6 122096795.186 6      3199.812          38.000    23234241.500 4  95140391.286 4      2493.354          27.000
G27  21050922.586 8 110623332.816 8     -1997.316          51.000    21050923.961 8  86200012.006 8     -1556.353          51.000
G32  22863477.555 6 120148395.051 6      2181.617          40.000    22863479.477 6  93622140.303 6      1699.961          37.000
R07  19785243.578 8 105912014.132 8      1344.531          51.000    19785245.797 8  82376032.515 8      1045.747          48.000
R08  22131924.539 6 118515440.136 6      4260.590          40.000    22131927.109 6  92178701.428 6      3313.795          37.000
R22  19582621.023 7 104533363.627 7       120.688          46.000    19582624.578 7  81303726.499 7        93.868          42.000
C05  39629264.125 6 206359976.903 6       -20.738          37.000    39629263.273 6 159570621.403 6       -16.145          38.000
C19  22355419.125 8 116410576.535 8      2004.973          51.000
C20  22943923.984 7 119475037.895 7     -1123.762          42.000
C29  22264603.531 8 115937629.341 8     -1516.766          51.000
E07  25031560.625 6 131541779.965 6       508.258          36.000    25031568.680 6 100791746.726 6       389.699          37.000
E26  22956821.812 8 120638912.719 8      -983.586          51.000    22956824.781 8  92437615.804 8      -753.642          50.000
> 2020 05 02 18 15  0.0000000  0 15        .000000000000
G08  20334224.898 8 106857081.219 8       209.512          51.000    20334227.070 8  83265247.260 8       163.259          51.000
G10  21829998.703 7 114717499.987 7     -2214.184          44.000    21830000.766 7  89390279.046 7     -1725.338          45.000
G14  23914285.695 7 125670435.597 7      2856.371          43.000    23914289.164 7  97925011.822 7      2225.747          43.000
G22  23216018.930 5 122001007.644 5      3188.754          35.000    23216020.797 5  95065712.030 5      2484.755          34.000
G27  21062386.102 8 110683572.514 8     -2014.469          51.000    21062387.055 8  86246951.996 8     -1569.716          51.000
G32  22851078.633 6 120083245.043 6      2166.031          37.000    22851077.477 6  93571374.125 6      1687.826          36.000
R07  19777802.742 8 105872182.617 8      1315.266          51.000    19777805.297 8  82345052.477 8      1022.984          49.000
R08  22108101.109 6 118387872.575 6      4248.418          39.000    22108105.195 6  92079482.264 6      3304.328          37.000
