     3.04           OBSERVATION DATA    M (MIXED)           RINEX VERSION / TYPE
Convert 2.6.2       NovAtel             20200515 160528 UTC PGM / RUN BY / DATE 
Rinex Version 3.04 Observation File                         COMMENT             
                                                            MARKER NAME         
                                                            MARKER NUMBER       
                                                            MARKER TYPE         
                                                            OBSERVER / AGENCY   
                    NovAtel GPSCard                         REC # / TYPE / VERS 
                                                            ANT # / TYPE        
        0.0000        0.0000        0.0000                  APPROX POSITION XYZ 
        0.0000        0.0000        0.0000                  ANTENNA: DELTA H/E/N
G    8 C1C L1C D1C S1C C2W L2W D2W S2W                      SYS / # / OBS TYPES 
R    8 C1C L1C D1C S1C C2P L2P D2P S2P                      SYS / # / OBS TYPES 
E    8 C1C L1C D1C S1C C7Q L7Q D7Q S7Q                      SYS / # / OBS TYPES 
C    8 C2I L2I D2I S2I C7I L7I D7I S7I                      SYS / # / OBS TYPES 
DBHZ                                                        SIGNAL STRENGTH UNIT
    30.000                                                  INTERVAL            
  2020    05    11    16    00    0.0000000     GPS         TIME OF FIRST OBS   
  2020    05    11    16    59   30.0000000     GPS         TIME OF LAST OBS    
G L1C  0.00000  10 G18 G16 G26 G10 G20 G27 G21 G11 G32 G01  SYS / PHASE SHIFT   
G L2W  0.00000  09 G18 G16 G26 G10 G20 G27 G21 G11 G32      SYS / PHASE SHIFT   
R L1C  0.00000  05 R12 R22 R07 R23 R08                      SYS / PHASE SHIFT   
R L2P  0.25000  04 R12 R22 R07 R08                          SYS / PHASE SHIFT   
E L1C  0.50000  05 E12 E24 E11 E33 E04                      SYS / PHASE SHIFT   
E L7Q -0.25000  05 E12 E24 E33 E04 E11                      SYS / PHASE SHIFT   
C L2I  0.00000  04 C27 C05 C28 C14                          SYS / PHASE SHIFT   
C L7I  0.00000  01 C14                                      SYS / PHASE SHIFT   
  5 R12 -1 R22 -3 R07  5 R23  3 R08  6                      GLONASS SLOT / FRQ #
 C1C  -71.950 C2C  -71.950 C2P  -71.950                     GLONASS COD/PHS/BIS 
     0     0     0     0GPS                                 LEAP SECONDS        
                                                            END OF HEADER       
> 2020 05 11 16 00  0.0000000  0 14      -0.000000000000
G18  23861209.273 5 125391493.883 5     -3153.312          34.000    23861210.484 5  97707667.426 5     -2457.127          32.000  
G16  21178158.188 8 111291963.556 8     -2130.297          51.000    21178156.977 8  86721004.487 8     -1659.972          49.000  
G26  22999185.961 7 120861489.677 7     -3462.332          43.000    22999186.336 7  94177763.718 7     -2697.925          43.000  
G10  21123562.477 8 111005094.880 8      1156.297          51.000    21123565.586 8  86497498.612 8       901.011          51.000  
G20  21211137.883 6 111465276.589 6     -1262.898          41.000    21211136.773 5  86856049.231 5      -984.080          34.000  
G27  20417610.219 7 107295258.062 7       797.062          44.000    20417612.234 7  83606683.793 7       621.088          44.000  
R12  22093573.031 5 118019369.601 5     -3881.457          31.000    22093571.273 5  91792845.254 5     -3018.912          30.000  
R22  19923565.594 7 106352957.361 7      -928.281          42.000    19923568.289 6  82718984.365 6      -721.997          36.000  
R07  21036492.273 6 112609577.047 6      2188.449          40.000    21036486.562 5  87585221.652 5      1702.130          30.000  
E12  21979197.320 8 115501505.069 8      -932.930          51.000    21979196.633 8  88501105.388 8      -714.777          51.000  
E24  23487554.227 8 123427916.354 8     -2457.141          51.000    23487570.945 8  94574695.836 8     -1882.745          51.000  
C27  21838896.656 5 113720963.087 5       946.754          32.000                                                                  
C05  39619089.227 5 206306993.801 5       -10.672          35.000                                                                  
C28  22631340.578 7 117847303.443 7     -1608.234          43.000                                                                  
> 2020 05 11 16 00 30.0000000  0 14      -0.000000000000
G18  23879217.453 5 125486138.511 5     -3153.922          35.000    23879221.055 5  97781416.613 5     -2457.608          30.000  
G16  21190372.445 8 111356148.559 8     -2146.539          51.000    21190371.031 8  86771018.765 8     -1672.631          49.000  
G26  23018976.555 7 120965484.024 7     -3468.664          42.000    23018975.672 7  94258798.184 7     -2702.862          43.000  
G10  21117020.039 8 110970713.120 8      1137.965          51.000    21117023.039 8  86470707.664 8       886.726          51.000  
G20  21218405.570 5 111503468.008 5     -1280.879          33.000    21218403.570 4  86885808.848 4      -998.082          29.000  
G27  20413100.094 7 107271557.282 7       784.867          44.000    20413102.188 7  83588215.659 7       611.585          45.000  
R22  19928814.727 7 106380975.792 7      -937.605          42.000    19928817.016 6  82740776.517 6      -729.249          39.000  
R23  21336570.867 5 114135872.488 5      2396.539          31.000                                                                  
R07  21024296.594 6 112544290.112 6      2165.816          39.000    21024292.383 5  87534443.095 5      1684.530          32.000  
E12  21984542.609 8 115529594.999 8      -937.727          51.000    21984541.836 8  88522628.848 8      -718.479          51.000  
E24  23501613.711 8 123501797.565 8     -2466.184          51.000    23501630.625 8  94631306.104 8     -1889.695          51.000  
C27  21833469.883 5 113692705.400 5       939.430          34.000                                                                  
C05  39619153.336 5 206307327.226 5       -10.582          35.000                                                                  
C28  22640629.820 7 117895676.271 7     -1614.652          43.000                                                                  
> 2020 05 11 16 01  0.0000000  0 15      -0.000000000000
G18  23897258.492 5 125580942.410 5     -3162.316          34.000    23897264.789 5  97855294.536 5     -2464.131          31.000  
G21  23788411.125 5 125008961.764 5     -2582.410          34.000                                                                  
G16  21202701.781 8 111420940.673 8     -2169.262          51.000    21202700.688 8  86821506.129 8     -1690.334          49.000  
G26  23038826.656 6 121069791.146 6     -3481.551          41.000    23038824.477 6  94340076.385 6     -2712.897          41.000  
G10  21110605.484 8 110937002.910 8      1113.004          51.000    21110608.133 8  86444439.997 8       867.276          51.000  
G20  21225795.266 6 111542306.921 6     -1304.625          39.000    21225794.656 3  86916078.958 3     -1016.588          20.000  
G27  20408683.281 7 107248347.230 7       765.961          44.000    20408685.031 7  83570129.912 7       596.853          44.000  
R12  22137302.016 5 118253155.346 5     -3908.941          33.000    22137312.578 5  91974659.740 5     -3040.292          30.000  
R22  19934139.234 6 106409398.874 6      -953.508          40.000    19934142.352 6  82762883.405 6      -741.617          41.000  
R07  21012249.867 6 112479805.240 6      2136.766          37.000    21012249.039 5  87484288.286 5      1661.935          35.000  
E12  21989938.266 8 115557949.641 8      -948.922          51.000    21989937.320 8  88544355.142 8      -727.117          51.000  
E24  23515747.961 8 123576070.563 8     -2481.727          51.000    23515764.211 8  94688216.556 8     -1901.560          51.000  
C27  21828105.203 5 113664782.688 5       925.223          31.000                                                                  
C05  39619240.352 5 206307780.639 5       -16.512          35.000                                                                  
C28  22649979.000 7 117944359.253 7     -1627.441          43.000                                                                  
> 2020 05 11 16 01 30.0000000  0 15      -0.000000000000
G18  23915256.453 6 125675522.397 6     -3149.957          36.000    23915261.047 4  97928993.197 4     -2454.488          29.000  
G16  21215070.664 8 111485943.111 8     -2170.695          50.000    21215070.289 8  86872157.391 8     -1691.448          49.000  
G26  23058660.539 6 121174013.469 6     -3473.191          38.000    23058657.336 6  94421288.489 6     -2706.390          38.000  
G10  21104243.617 8 110903570.199 8      1109.344          51.000    21104245.945 8  86418388.551 8       864.424          51.000  
G20  21233233.844 5 111581396.913 5     -1307.582          35.000                                                                  
G27  20404284.914 7 107225233.965 7       768.438          45.000    20404286.531 7  83552119.586 7       598.783          45.000  
R12  22159222.844 6 118370248.018 6     -3904.223          37.000    22159233.305 5  92065731.778 5     -3036.618          32.000  
R22  19939464.641 7 106437825.022 7      -947.797          42.000    19939467.852 7  82784992.641 7      -737.175          42.000  
R23  21309760.375 5 113992448.894 5      2393.480          35.000                                                                  
R07  21000278.391 5 112415723.040 5      2128.613          33.000    21000278.977 6  87434446.545 6      1655.582          37.000  
E12  21995309.047 8 115586173.562 8      -939.074          51.000    21995308.070 8  88565981.275 8      -719.590          51.000  
E24  23529881.195 8 123650338.609 8     -2475.996          51.000    23529896.258 8  94745123.223 8     -1897.250          51.000  
C27  21822731.164 6 113636803.879 6       932.914          36.000                                                                  
C05  39619275.305 5 206307962.693 5        -1.984          35.000                                                                  
C28  22659312.625 6 117992960.875 6     -1619.430          41.000                                                                  
> 2020 05 11 16 02  0.0000000  0 14      -0.000000000000
G18  23933285.641 6 125770263.410 6     -3161.125          36.000    23933288.242 5  98002817.269 5     -2463.209          30.000  
G16  21227553.734 8 111551546.204 8     -2197.055          50.000    21227554.000 8  86923276.686 8     -1711.991          49.000  
G26  23078553.336 5 121278540.751 5     -3488.957          31.000    23078548.438 5  94502738.153 5     -2718.675          31.000  
G10  21098009.188 8 110870808.148 8      1080.629          51.000    21098011.594 8  86392859.705 8       842.049          51.000  
G20  21240793.727 5 111621128.103 5     -1335.152          33.000                                                                  
G27  20399979.773 7 107202610.691 7       745.719          45.000    20399981.234 7  83534491.066 7       581.080          45.000  
R12  22181223.820 6 118487762.813 6     -3924.895          37.000    22181230.391 5  92157132.138 5     -3052.696          32.000  
R22  19944865.477 7 106466652.178 7      -967.984          43.000    19944867.992 7  82807413.749 7      -752.880          42.000  
E12  22000729.523 8 115614658.535 8      -954.078          51.000    22000728.609 8  88587807.428 8      -731.050          51.000  
E24  23544087.492 8 123724992.197 8     -2495.113          51.000    23544101.375 8  94802325.286 8     -1911.847          51.000  
E11  23516089.188 5 123577881.536 5      1310.320          32.000                                                                  
C27  21817422.938 6 113609158.393 6       915.719          38.000                                                                  
C05  39619332.797 6 206308262.042 6       -12.527          36.000                                                                  
C28  22668704.383 6 118041869.686 6     -1635.609          38.000                                                                  
> 2020 05 11 16 02 30.0000000  0 14      -0.000000000000
G18  23951326.109 6 125865064.591 6     -3159.453          38.000    23951327.688 5  98076688.225 5     -2461.927          30.000  
G16  21240132.016 8 111617648.077 8     -2209.992          49.000    21240132.500 8  86974784.617 8     -1722.072          49.000  
G26  23098486.375 5 121383270.660 5     -3492.234          32.000    23098478.602 5  94584345.660 5     -2721.229          32.000  
G10  21091883.523 8 110838617.953 8      1065.145          51.000    21091885.984 8  86367776.469 8       829.986          51.000  
G27  20395749.172 7 107180378.776 7       736.309          46.000    20395750.445 7  83517167.516 7       573.747          46.000  
R12  22203282.570 5 118605593.558 5     -3930.758          32.000    22203288.875 5  92248778.293 5     -3057.254          32.000  
R22  19950322.297 7 106495778.674 7      -974.148          42.000    19950324.227 7  82830067.692 7      -757.671          43.000  
R23  21283068.156 5 113849627.657 5      2375.066          34.000                                                                  
R07  20976765.922 5 112289906.570 5      2075.418          35.000    20976772.477 6  87336586.885 6      1614.217          37.000  
E12  22006180.633 8 115643304.339 8      -955.879          51.000    22006179.758 8  88609756.814 8      -732.427          51.000  
E24  23558347.453 8 123799929.742 8     -2500.957          51.000    23558360.703 8  94859744.949 8     -1916.352          51.000  
C27  21812161.125 6 113581747.794 6       911.609          36.000                                                                  
C05  39619393.648 5 206308578.696 5        -9.016          35.000                                                                  
C28  22678135.039 6 118090986.728 6     -1639.352          37.000                                                                  
> 2020 05 11 16 03  0.0000000  0 13      -0.000000000000
G18  23969369.758 6 125959883.297 6     -3165.391          36.000    23969371.852 5  98150572.867 5     -2466.548          31.000  
G16  21252797.406 8 111684205.572 8     -2230.453          50.000    21252797.617 8  87026647.560 8     -1738.019          48.000  
G26  23118446.656 5 121488159.005 5     -3503.152          34.000    23118439.203 5  94666076.680 5     -2729.736          34.000  
G10  21085858.867 8 110806959.061 8      1042.133          51.000    21085860.984 8  86343107.223 8       812.052          51.000  
G27  20391585.500 7 107158497.871 7       719.219          46.000    20391586.961 7  83500117.454 7       560.427          46.000  
R12  22225393.508 4 118723677.12724     -3946.086          29.000    22225402.812 4  92340634.105 4     -3069.169          28.000  
R22  19955826.625 7 106525161.888 7      -988.156          42.000    19955828.656 7  82852921.313 7      -768.566          43.000  
R07  20965201.867 5 112228005.005 5      2047.961          34.000    20965207.945 5  87288441.268 5      1592.859          34.000  
E12  22011654.391 8 115672069.108 8      -965.113          51.000    22011653.617 8  88631797.343 8      -739.464          51.000  
E24  23572652.867 8 123875108.067 8     -2514.207          51.000    23572666.367 8  94917349.124 8     -1926.495          51.000  
C27  21806935.172 4 113554531.607 4       899.215          27.000                                                                  
C05  39619450.234 5 206308872.753 5       -13.852          35.000                                                                  
C28  22687599.164 6 118140270.767 6     -1649.887          37.000                                                                  
> 2020 05 11 16 03 30.0000000  0 16      -0.000000000000
G18  23987432.320 5 126054802.142 5     -3162.406          32.000    23987434.250 5  98224530.683 5     -2464.217          32.000  
G16  21265565.383 8 111751300.718 8     -2242.203          51.000    21265564.945 7  87078929.448 7     -1747.172          47.000  
G26  23138451.367 6 121593287.200 6     -3505.234          39.000    23138445.578 6  94747994.608 6     -2731.358          38.000  
G10  21079951.539 8 110775916.245 8      1027.648          51.000    21079953.297 8  86318918.029 8       800.765          51.000  
G20  21264101.508 5 111743604.04925     -1384.266          35.000                                                                  
G27  20387504.578 7 107137052.838 7       711.129          44.000    20387506.484 7  83483407.023 7       554.127          44.000  
R12  22247571.789 5 118842137.229 5     -3951.172          35.000    22247582.234 5  92432807.460 5     -3073.137          31.000  
R22  19961394.914 7 106554886.974 7      -993.211          42.000    19961397.523 7  82876040.837 7      -772.498          42.000  
R23  21256506.328 5 113707601.973 5      2362.918          34.000                                                                  
R07  20953780.000 6 112166860.017 6      2028.973          36.000    20953783.977 5  87240884.033 5      1578.090          30.000  
E12  22017166.664 8 115701036.318 8      -965.773          51.000    22017166.047 8  88653992.997 8      -739.985          51.000  
E33  27404623.258 5 144012271.967 5     -2278.969          35.000    27404625.359 6 110347069.196 6     -1746.541          41.000  
E24  23587020.258 8 123950609.352 8     -2518.898          51.000    23587033.961 8  94975200.746 8     -1930.057          51.000  
C27  21801757.484 4 113527479.459 4       896.234          29.000                                                                  
C05  39619518.477 5 206309228.238 5        -9.195          35.000                                                                  
C28  22697112.203 6 118189804.762 6     -1652.090          36.000                                                                  
> 2020 05 11 16 04  0.0000000  0 14      -0.000000000000
G18  24005494.820 5 126149716.878 5     -3164.332          33.000    24005492.766 4  98298479.323 4     -2465.714          28.000  
G16  21278415.891 8 111818828.098 8     -2258.570          51.000    21278414.555 7  87131548.152 7     -1759.925          45.000  
G26  23158481.250 7 121698549.446 7     -3511.418          42.000    23158477.086 7  94830017.035 7     -2736.174          42.000  
G10  21074142.047 8 110745387.168 8      1008.547          51.000    21074143.781 8  86295129.156 8       785.884          51.000  
G27  20383487.172 7 107115941.611 7       697.488          46.000    20383489.078 7  83466956.718 7       543.497          46.000  
R12  22269794.023 6 118960828.318 6     -3960.770          39.000    22269802.141 5  92525122.749 5     -3080.599          34.000  
R22  19967007.359 6 106584848.713 6     -1003.094          41.000    19967010.594 6  82899344.417 6      -780.187          41.000  
R23  21243276.617 5 113636822.963 5      2356.562          34.000                                                                  
R07  20942478.922 6 112106369.793 6      2004.535          37.000    20942484.570 4  87193836.177 4      1559.089          24.000  
E12  22022697.734 8 115730102.355 8      -970.996          51.000    22022697.195 8  88676264.379 8      -744.019          51.000  
E33  27417641.484 6 144080678.984 6     -2280.066          36.000    27417643.789 7 110399484.866 7     -1747.065          42.000  
E24  23601429.688 8 124026328.635 8     -2528.008          51.000    23601443.273 8  95033219.386 8     -1937.010          51.000  
C05  39619578.625 5 206309541.938 5        -9.832          35.000                                                                  
C28  22706653.781 5 118239486.347 5     -1658.504          31.000                                                                  
> 2020 05 11 16 04 30.0000000  0 15      -0.000000000000
G18  24023566.039 5 126244679.662 5     -3165.469          32.000                                                                  
G16  21291358.422 8 111886839.085 8     -2273.887          51.000    21291356.273 7  87184543.702 7     -1771.860          45.000  
G26  23178546.492 7 121803996.456 7     -3516.781          42.000    23178543.625 7  94912183.479 7     -2740.353          42.000  
G10  21068440.633 8 110715425.971 8       990.387          51.000    21068442.148 8  86271782.791 8       771.733          51.000  
G20  21280105.203 5 111827708.923 5     -1418.859          33.000                                                                  
G27  20379543.680 7 107095218.471 7       685.336          47.000    20379545.523 7  83450808.823 7       534.028          47.000  
R12  22292068.867 7 119079810.077 7     -3969.613          43.000    22292074.883 5  92617664.109 5     -3087.481          35.000  
R22  19972674.461 6 106615101.100 6     -1012.129          41.000    19972678.094 6  82922874.062 6      -787.212          39.000  
R23  21230089.266 5 113566242.322 5      2351.152          33.000                                                                  
R07  20931311.602 6 112046591.690 6      1981.965          39.000    20931307.898 4  87147311.34924      1541.529          24.000  
E12  22028257.719 8 115759320.104 8      -975.262          51.000    22028257.141 8  88698651.992 8      -747.300          51.000  
E33  27430660.141 6 144149102.201 6     -2279.984          37.000    27430665.047 7 110451912.996 7     -1746.897          42.000  
E24  23615890.539 8 124102317.472 8     -2536.246          51.000    23615903.867 8  95091444.567 8     -1943.368          51.000  
C05  39619641.016 5 206309866.682 5        -9.754          35.000                                                                  
C28  22716233.055 5 118289376.43925     -1665.273          30.000                                                                  
> 2020 05 11 16 05  0.0000000  0 15      -0.000000000000
G18  24041645.508 5 126339689.264 5     -3169.574          30.000                                                                  
G16  21304392.391 8 111955331.794 8     -2292.582          50.000    21304390.000 7  87237914.604 7     -1786.428          45.000  
G26  23198645.734 6 121909625.628 6     -3525.527          38.000    23198645.062 6  94994491.852 6     -2747.168          37.000  
G10  21062847.531 8 110686033.362 8       968.805          51.000    21062848.648 8  86248879.469 8       754.913          51.000  
G20  21288261.852 5 111870574.237 5     -1438.863          31.000                                                                  
G27  20375674.289 7 107074884.370 7       669.953          47.000    20375676.031 8  83434964.081 8       522.042          48.000  
R12  22314396.547 7 119199077.626 7     -3981.824          43.000    22314401.266 5  92710427.691 5     -3096.981          35.000  
R22  19978395.977 7 106645643.551 7     -1024.277          43.000    19978399.305 6  82946629.273 6      -796.660          37.000  
R07  20920277.945 6 111987528.723 6      1955.305          41.000    20920277.836 5  87101377.584 5      1520.793          31.000  
E12  22033846.461 8 115788688.998 8      -982.910          51.000    22033845.852 8  88721155.431 8      -753.154          51.000  
E33  27443683.023 6 144217541.435 6     -2282.801          38.000    27443688.352 7 110504353.376 7     -1749.163          42.000  
E24  23630401.977 8 124178573.923 8     -2547.730          51.000    23630415.297 8  95149874.795 8     -1952.155          51.000  
C27  21786477.844 4 113447937.559 4       871.926          29.000                                                                  
C05  39619705.562 5 206310202.304 5       -13.090          35.000                                                                  
C28  22725857.891 5 118339497.380 5     -1673.543          30.000                                                                  
> 2020 05 11 16 05 30.0000000  0 14      -0.000000000000
G16  21317526.867 8 112024354.906 8     -2303.188          49.000    21317524.992 7  87291698.816 7     -1794.692          45.000  
G26  23218788.664 5 122015485.189 5     -3526.391          31.000    23218790.578 5  95076979.790 5     -2747.838          33.000  
G10  21057372.430 8 110657260.980 8       955.270          51.000    21057373.477 8  86226459.455 8       744.366          51.000  
G20  21296528.352 6 111914022.786 6     -1451.445          36.000                                                                  
G27  20371888.789 8 107054991.269 8       662.070          48.000    20371890.258 7  83419462.955 7       515.899          47.000  
R12  22336786.430 7 119318678.149 7     -3985.734          44.000    22336790.031 5  92803450.233 5     -3100.022          34.000  
R22  19984181.289 6 106676527.410 6     -1028.652          41.000    19984184.242 6  82970649.987 6      -800.066          38.000  
R23  21203808.164 5 113425645.326 5      2341.594          34.000                                                                  
R07  20909388.883 6 111929235.478 6      1936.703          40.000    20909392.508 5  87056038.448 5      1506.328          34.000  
E12  22039473.531 8 115818259.553 8      -982.562          51.000    22039473.000 8  88743813.376 8      -752.849          51.000  
E33  27456719.312 6 144286047.445 6     -2278.293          38.000    27456724.367 7 110556844.937 7     -1745.541          42.000  
E24  23644973.211 8 124255147.069 8     -2551.215          51.000    23644986.797 8  95208547.692 8     -1954.807          51.000  
C27  21781471.984 5 113421915.618 5       869.605          32.000                                                                  
C28  22735531.492 5 118389854.758 5     -1675.160          30.000                                                                  
> 2020 05 11 16 06  0.0000000  0 14      -0.000000000000
G18  24077832.805 4 126529838.52224     -3168.566          29.000                                                                  
G16  21330736.141 8 112093773.884 8     -2321.754          48.000    21330735.625 7  87345791.521 7     -1809.159          45.000  
G10  21051990.133 8 110628977.050 8       933.430          51.000    21051991.219 8  86204420.071 8       727.348          51.000  
G20  21304880.125 5 111957910.954 5     -1470.984          31.000    21304877.875 4  87239912.253 4     -1146.222          28.000  
G27  20368162.023 7 107035407.602 7       646.395          47.000    20368163.602 8  83404202.947 8       503.681          48.000  
R12  22359212.438 7 119438472.415 7     -3997.617          42.000    22359214.633 5  92896623.452 5     -3109.255          30.000  
R22  19990005.102 6 106707617.824 6     -1041.008          41.000    19990008.672 6  82994831.392 6      -809.676          38.000  
R07  20898618.898 7 111871580.018 7      1909.895          42.000    20898619.086 5  87011195.267 5      1485.465          31.000  
E12  22045113.641 8 115847898.712 8      -990.387          51.000    22045113.305 8  88766523.893 8      -758.871          51.000  
E33  27469743.195 6 144354487.334 6     -2281.387          37.000    27469748.016 6 110609285.859 6     -1748.109          41.000  
E24  23659578.938 8 124331902.528 8     -2562.766          51.000    23659592.992 8  95267360.289 8     -1963.691          51.000  
C27  21776503.719 5 113395968.646 5       858.430          30.000                                                                  
C05  39619844.422 5 206310926.014 5       -10.770          35.000                                                                  
C28  22745208.859 5 118440258.645 5     -1685.184          30.000                                                                  
> 2020 05 11 16 06 30.0000000  0 15      -0.000000000000
G18  24095923.438 5 126624908.713 5     -3169.254          32.000                                                                  
G16  21344028.023 7 112163626.612 7     -2335.555          47.000    21344028.617 7  87400222.251 7     -1819.913          46.000  
G26  23259145.914 5 122227631.08925     -3537.855          34.000                                                                  
G10  21046708.500 8 110601222.586 8       916.566          51.000    21046709.602 8  86182793.228 8       714.208          51.000  
G20  21313322.492 5 112002267.099 5     -1486.676          35.000                                                                  
G27  20364502.078 7 107016174.662 7       635.316          47.000    20364503.922 7  83389216.239 7       495.052          47.000  
R12  22381682.000 5 119558496.938 5     -4004.332          35.000                                                                  
R22  19995875.461 7 106738955.280 7     -1048.508          43.000    19995879.812 6  83019204.971 6      -815.506          39.000  
R23  21177635.352 5 113285647.010 5      2328.555          33.000                                                                  
R07  20887976.453 6 111814606.646 6      1887.945          41.000    20887976.672 5  86966882.651 5      1468.402          35.000  
E12  22050774.359 8 115877646.372 8      -993.273          51.000    22050774.250 8  88789317.545 8      -761.071          51.000  
E33  27482761.820 6 144422901.337 6     -2280.078          37.000    27482766.234 6 110661706.956 6     -1747.119          39.000  
E24  23674226.625 8 124408878.793 8     -2569.430          51.000    23674241.180 8  95326342.083 8     -1968.788          51.000  
C27  21771571.062 5 113370286.763 5       852.906          30.000                                                                  
C05  39619901.430 5 206311222.754 5        -9.434          35.000                                                                  
> 2020 05 11 16 07  0.0000000  0 15      -0.000000000000
G18  24114031.820 5 126720062.764 5     -3173.488          34.000                                                                  
G16  21357418.414 8 112233993.818 8     -2354.426          49.000    21357419.125 7  87455053.838 7     -1834.618          45.000  
G26  23279366.969 5 122333931.455 5     -3547.859          35.000    23279381.125 5  95325130.693 5     -2764.563          35.000  
G10  21041543.430 8 110574080.948 8       894.113          51.000    21041545.078 8  86161643.924 8       696.715          51.000  
G20  21321871.141 6 112047192.480 6     -1507.148          38.000                                                                  
G27  20360924.938 8 106997376.056 8       619.004          49.000    20360926.859 8  83374567.970 8       482.341          49.000  
R12  22404213.883 4 119678902.58124     -4015.480          28.000    22404221.906 4  93083628.445 4     -3123.161          25.000  
R22  20001807.727 6 106770623.396 6     -1061.652          41.000    20001811.758 6  83043835.720 6      -825.727          39.000  
R07  20877477.117 6 111758402.178 6      1860.199          39.000    20877479.594 5  86923168.179 5      1446.825          34.000  
E12  22056471.375 8 115907584.738 8     -1001.520          51.000    22056471.359 8  88812257.326 8      -767.425          51.000  
E33  27495791.656 5 144491371.940 5     -2283.805          34.000    27495795.375 6 110714171.356 6     -1749.792          38.000  
E24  23688931.664 8 124486156.689 8     -2581.367          50.000    23688946.406 8  95385554.994 8     -1977.911          51.000  
C27  21766690.523 5 113344877.753 5       841.395          33.000                                                                  
C05  39619968.336 5 206311571.132 5       -12.793          35.000                                                                  
C28  22764693.281 6 118541701.759 6     -1699.371          38.000                                                                  
> 2020 05 11 16 07 30.0000000  0 15      -0.000000000000
G18  24132144.828 5 126815242.339 5     -3173.367          32.000                                                                  
G16  21370895.977 8 112304816.727 8     -2368.238          50.000    21370896.188 7  87510240.496 7     -1845.381          47.000  
G26  23299621.859 5 122440385.911 5     -3551.223          35.000    23299646.469 5  95408082.233 5     -2767.178          34.000  
G10  21036484.297 8 110547495.945 8       876.898          51.000    21036486.422 8  86140928.365 8       683.301          51.000  
G20  21330517.570 4 112092632.03524     -1522.473          29.000                                                                  
G27  20357419.875 8 106978955.994 8       607.578          48.000    20357421.828 8  83360214.673 8       473.441          48.000  
R12  22426788.336 5 119799490.462 5     -4023.270          32.000    22426793.336 4  93177403.782 4     -3129.219          29.000  
R22  20007791.336 6 106802564.388 6     -1069.094          41.000    20007795.266 6  83068678.653 6      -831.521          40.000  
R07  20867110.055 6 111702911.617 6      1837.715          39.000    20867114.125 5  86880008.890 5      1429.334          34.000  
E12  22062193.773 8 115937656.511 8     -1004.617          51.000    22062193.750 8  88835299.328 8      -769.763          51.000  
E33  27508821.234 5 144559830.033 5     -2282.539          33.000    27508825.227 6 110766635.464 6     -1748.750          37.000  
E24  23703682.812 8 124563677.519 8     -2588.023          48.000    23703697.633 8  95444954.051 8     -1983.053          51.000  
C27  21761853.258 6 113319685.373 6       836.402          37.000                                                                  
C05  39620034.398 5 206311914.842 5       -11.586          35.000                                                                  
C28  22774495.586 6 118592735.896 6     -1704.203          39.000                                                                  
> 2020 05 11 16 08  0.0000000  0 15      -0.000000000000
G16  21384473.320 8 112376162.367 8     -2383.855          51.000    21384472.812 7  87565834.488 7     -1857.550          47.000  
G26  23319919.625 5 122547060.114 5     -3556.547          34.000    23319946.352 5  95491205.146 5     -2771.315          31.000  
G10  21031544.352 8 110521536.993 8       857.867          51.000    21031546.359 8  86120700.614 8       668.468          51.000  
G20  21339268.570 6 112138625.547 6     -1539.684          40.000                                                                  
G27  20354000.062 8 106960984.173 8       594.637          48.000    20354001.977 8  83346210.649 8       463.353          49.000  
R12  22449420.789 5 119920384.233 5     -4032.598          32.000    22449424.430 4  93271431.120 4     -3136.475          27.000  
R22  20013839.297 7 106834847.534 7     -1078.871          42.000    20013843.773 6  83093787.769 6      -839.125          40.000  
R08  22793167.297 6 122055971.094 6      4262.812          39.000    22793173.070 4  94932454.151 4      3315.528          29.000  
R07  20856890.617 6 111648208.089 6      1813.145          38.000    20856896.297 5  86837461.793 5      1410.227          34.000  
E12  22067954.648 8 115967930.040 8     -1009.504          51.000    22067954.539 8  88858495.926 8      -773.478          51.000  
E33  27521863.898 5 144628368.318 5     -2283.078          35.000    27521868.297 5 110819151.747 5     -1749.046          35.000  
E24  23718493.055 7 124641508.177 7     -2596.461          47.000    23718507.945 8  95504590.513 8     -1989.503          51.000  
C27  21757072.039 6 113294778.526 6       828.602          39.000                                                                  
C05  39620112.523 5 206312322.026 5       -11.785          35.000                                                                  
C28  22784342.789 6 118644021.895 6     -1710.801          39.000                                                                  
> 2020 05 11 16 08 30.0000000  0 15      -0.000000000000
G16  21398121.023 8 112447878.078 8     -2398.566          51.000    21398120.070 7  87621716.823 7     -1869.016          47.000  
G26  23340230.297 5 122653801.674 5     -3561.312          33.000    23340248.875 5  95574380.458 5     -2775.050          33.000  
G10  21026695.188 8 110496054.908 8       839.609          51.000    21026697.055 8  86100844.452 8       654.241          51.000  
G20  21348100.711 6 112185035.060 6     -1555.848          37.000                                                                  
G27  20350637.125 8 106943311.781 8       582.293          49.000    20350638.945 8  83332439.952 8       453.735          49.000  
R12  22472081.453 6 120041433.848 6     -4039.207          36.000                                                                  
R22  20019922.719 7 106867320.279 7     -1087.484          42.000    20019927.773 6  83119044.354 6      -845.821          40.000  
R08  22769295.352 6 121928137.751 6      4257.680          40.000    22769299.336 5  94833028.370 5      3311.535          31.000  
R07  20846788.453 4 111594141.295 4      1788.852          29.000    20846794.648 5  86795409.944 5      1391.335          33.000  
E12  22073725.352 8 115998255.120 8     -1013.570          51.000    22073725.195 8  88881732.024 8      -776.638          51.000  
E33  27534891.914 5 144696828.700 5     -2282.387          35.000    27534896.383 5 110871605.374 5     -1748.636          35.000  
E24  23733333.844 8 124719497.070 8     -2604.145          48.000    23733348.492 8  95564348.211 8     -1995.376          51.000  
C27  21752318.023 6 113270009.166 6       821.562          40.000                                                                  
C05  39620174.352 5 206312644.126 5       -11.238          35.000                                                                  
C28  22794210.406 6 118695411.188 6     -1716.457          40.000                                                                  
> 2020 05 11 16 09  0.0000000  0 15      -0.000000000000
G16  21411861.516 8 112520083.060 8     -2416.422          51.000    21411860.375 7  87677980.412 7     -1882.927          47.000  
G26  23360576.820 5 122760728.986 5     -3568.871          33.000    23360590.094 5  95657700.385 5     -2780.942          32.000  
G10  21021960.023 8 110471171.289 8       818.160          51.000    21021961.930 8  86081454.645 8       637.528          51.000  
G20  21357034.188 5 112231972.438 5     -1574.980          32.000                                                                  
G27  20347354.453 8 106926060.837 8       566.605          49.000    20347355.992 8  83318997.655 8       441.511          50.000  
R12  22494775.742 5 120162677.664 5     -4049.977          35.000                                                                  
R22  20026064.562 7 106900105.250 7     -1099.297          43.000    20026068.875 6  83144543.817 6      -855.006          39.000  
R08  22745460.102 6 121800508.051 6      4249.332          40.000    22745465.070 5  94733761.035 5      3305.043          30.000  
R07  20836828.484 5 111540837.830 5      1762.797          34.000    20836836.758 6  86753951.642 6      1371.064          36.000  
E12  22079528.789 8 116028752.267 8     -1020.809          51.000    22079528.633 8  88905099.962 8      -782.128          51.000  
E33  27547926.773 5 144765324.141 5     -2285.039          35.000    27547932.516 5 110924088.866 5     -1750.827          31.000  
E24  23748227.797 8 124797763.323 8     -2614.773          48.000    23748241.867 8  95624318.415 8     -2003.595          51.000  
C27  21747612.906 6 113245497.676 6       810.898          36.000                                                                  
C05  39620242.938 6 206313001.106 6       -13.770          36.000                                                                  
C28  22804120.867 6 118747023.450 6     -1725.344          40.000                                                                  
> 2020 05 11 16 09 30.0000000  0 15      -0.000000000000
G16  21425688.961 8 112592746.858 8     -2428.859          51.000    21425687.945 7  87734601.525 7     -1892.621          47.000  
G26  23380953.930 5 122867811.131 5     -3570.754          32.000    23380966.086 5  95741140.920 5     -2782.406          34.000  
G10  21017333.422 8 110446858.603 8       801.711          51.000    21017335.062 8  86062509.703 8       624.710          51.000  
G20  21366063.453 6 112279422.504 6     -1589.020          36.000                                                                  
G27  20344146.852 8 106909204.076 8       556.309          50.000    20344148.156 8  83305862.519 8       433.487          50.000  
R12  22517527.922 5 120284242.436 5     -4054.930          33.000                                                                  
R22  20032259.281 7 106933173.718 7     -1106.008          43.000    20032263.062 6  83170263.767 6      -860.228          39.000  
R08  22721659.953 6 121673057.517 6      4246.172          38.000    22721663.867 5  94634632.994 5      3302.582          31.000  
R07  20827008.430 6 111488271.620 6      1740.934          36.000    20827016.406 5  86713066.721 5      1354.060          33.000  
E12  22085359.555 8 116059392.913 8     -1022.895          51.000    22085359.359 8  88928577.860 8      -783.708          51.000  
E33  27560963.859 5 144833830.315 5     -2282.934          33.000                                                                  
E24  23763168.711 8 124876276.899 8     -2620.453          49.000    23763182.461 8  95684478.115 8     -2007.842          51.000  
C27  21742950.602 6 113221216.644 6       806.184          36.000                                                                  
C05  39620312.836 5 206313364.897 5       -11.051          35.000                                                                  
C28  22814069.438 7 118798830.631 7     -1729.320          42.000                                                                  
> 2020 05 11 16 10  0.0000000  0 14      -0.000000000000
G16  21439612.422 8 112665915.942 8     -2445.559          51.000    21439611.727 7  87791616.372 7     -1905.631          47.000  
G26  23401370.445 5 122975028.398 5     -3577.043          30.000    23401380.055 4  95824738.148 4     -2787.313          29.000  
G10  21012824.844 8 110423165.998 8       781.184          51.000    21012825.945 8  86044047.949 8       608.715          51.000  
G20  21375198.148 5 112327424.951 5     -1607.500          33.000                                                                  
G27  20341023.609 8 106892791.176 8       541.340          50.000    20341024.930 8  83293073.257 8       421.823          50.000  
R22  20038516.219 7 106966574.775 7     -1117.035          43.000    20038519.383 6  83196242.401 6      -868.802          41.000  
R08  22697904.695 5 121545839.824 5      4238.293          32.000    22697906.031 5  94535686.118 5      3296.460          35.000  
R23  21087165.359 5 112801724.08225      2282.742          31.000                                                                  
R07  20817337.664 6 111436494.982 6      1714.574          38.000    20817344.633 5  86672796.090 5      1333.567          35.000  
E12  22091226.773 8 116090225.340 8     -1029.129          51.000    22091226.477 8  88952202.717 8      -788.530          51.000  
E24  23778165.461 8 124955084.662 8     -2630.082          49.000    23778179.406 8  95744863.292 8     -2015.163          51.000  
C27  21738341.016 5 113197214.767 5       796.926          35.000                                                                  
C05  39620393.195 5 206313783.832 5       -13.328          35.000                                                                  
C28  22824064.555 7 118850880.840 7     -1737.238          42.000                                                                  
> 2020 05 11 16 10 30.0000000  0 13      -0.000000000000
G16  21453604.945 8 112739447.834 8     -2459.461          51.000    21453604.453 7  87848913.932 7     -1916.464          47.000  
G26  23421799.766 5 123082369.726 5     -3581.008          34.000    23421805.797 5  95908380.639 5     -2790.396          31.000  
G10  21008407.586 8 110399953.729 8       763.562          51.000    21008408.656 8  86025960.500 8       594.987          51.000  
G20  21384410.867 5 112375836.655 5     -1622.789          30.000                                                                  
G27  20337958.219 8 106876682.776 8       529.613          51.000    20337959.547 8  83280521.250 8       412.686          51.000  
R22  20044808.789 7 107000165.493 7     -1125.066          43.000    20044811.602 6  83222368.523 6      -875.052          41.000  
R08  22674160.852 5 121418707.287 5      4233.438          33.000    22674164.789 6  94436794.677 6      3292.674          37.000  
R07  20807787.430 5 111385367.117 5      1691.664          34.000    20807793.820 5  86633030.213 5      1315.745          32.000  
E12  22097103.711 8 116121108.802 8     -1032.578          51.000    22097103.281 8  88975866.668 8      -791.188          51.000  
E24  23793191.281 8 125034044.339 8     -2636.785          51.000    23793205.414 8  95805364.860 8     -2020.425          51.000  
C27  21733759.523 6 113173353.522 6       790.840          39.000                                                                  
C05  39620457.547 5 206314118.67125       -12.242          35.000                                                                  
C28  22834080.406 7 118903034.817 7     -1742.418          42.000                                                                  
> 2020 05 11 16 11  0.0000000  0 12      -0.000000000000
G16  21467681.383 8 112813420.161 8     -2473.496          51.000    21467680.898 7  87906554.691 7     -1927.403          47.000  
G26  23442254.375 5 123189845.945 5     -3585.660          34.000    23442257.312 5  95992128.260 5     -2794.025          35.000  
G10  21004096.891 8 110377301.855 8       745.258          51.000    21004097.703 8  86008309.723 8       580.721          51.000  
G27  20334966.039 8 106860959.343 8       517.195          51.000    20334967.336 8  83268269.229 8       403.013          51.000  
R22  20051152.109 7 107034026.258 7     -1133.648          43.000    20051154.234 7  83248704.669 7      -881.730          42.000  
R08  22650456.727 6 121291763.599 6      4227.867          37.000    22650458.211 6  94338060.837 6      3288.345          37.000  
R23  21061583.297 4 112664882.58724      2272.992          29.000                                                                  
E12  22103005.398 8 116152122.353 8     -1036.320          51.000    22103004.859 8  88999630.304 8      -794.067          51.000  
E24  23808260.992 8 125113233.623 8     -2643.824          51.000    23808274.953 8  95866042.321 8     -2025.783          51.000  
C27  21729220.586 6 113149712.166 6       783.922          40.000                                                                  
C05  39620520.742 5 206314447.31125       -11.809          35.000                                                                  
C28  22844130.992 7 118955371.224 7     -1748.000          43.000                                                                  
> 2020 05 11 16 11 30.0000000  0 12      -0.000000000000
G16  21481844.836 8 112887848.904 8     -2489.750          51.000    21481844.031 7  87964551.112 7     -1940.066          47.000  
G26  23462738.016 5 123297473.377 5     -3591.148          35.000    23462737.641 5  96075993.675 5     -2798.304          35.000  
G10  20999896.555 8 110355229.587 8       724.730          51.000    20999897.219 8  85991110.594 8       564.728          51.000  
G27  20332050.836 8 106845640.591 8       502.719          51.000    20332052.086 8  83256332.541 8       391.732          51.000  
R12  22608963.891 5 120772648.844 5     -4086.324          30.000                                                                  
R22  20057549.703 7 107068175.895 7     -1144.426          46.000    20057551.383 7  83275265.513 7      -890.109          43.000  
R08  22626787.281 5 121165023.300 5      4220.297          35.000    22626789.211 6  94239485.238 6      3282.460          36.000  
E12  22108935.336 8 116183284.411 8     -1042.480          51.000    22108934.758 8  89023507.721 8      -798.721          51.000  
E24  23823377.695 8 125192669.368 8     -2653.191          51.000    23823391.172 8  95926908.614 8     -2032.924          51.000  
C27  21724727.039 6 113126309.821 6       774.883          38.000                                                                  
C05  39620586.539 5 206314790.202 5       -13.477          35.000                                                                  
C28  22854221.180 7 119007908.444 7     -1755.871          43.000                                                                  
> 2020 05 11 16 12  0.0000000  0 12      -0.000000000000
G16  21496088.766 8 112962700.072 8     -2503.660          51.000    21496087.586 7  88022876.683 7     -1950.905          47.000  
G26  23483243.273 6 123405217.097 6     -3594.992          37.000    23483240.516 6  96159949.799 6     -2801.293          36.000  
G10  20995800.422 8 110333705.267 8       706.941          51.000    20995801.719 8  85974338.460 8       550.867          51.000  
G27  20329206.805 8 106830695.347 8       490.484          51.000    20329207.969 8  83244686.890 8       382.196          51.000  
R22  20063995.383 7 107102581.661 7     -1152.617          47.000    20063996.773 7  83302025.553 7      -896.480          44.000  
R08  22603155.047 5 121038457.824 5      4214.590          30.000    22603152.492 5  94141045.535 5      3278.018          33.000  
R07  20779966.719 5 111236355.842 5      1617.027          35.000    20779968.141 6  86517191.051 6      1257.688          36.000  
E12  22114887.320 8 116214562.384 8     -1045.953          51.000    22114886.773 8  89047473.968 8      -801.496          51.000  
E24  23838534.562 8 125272317.585 8     -2659.883          51.000    23838547.852 8  95987937.712 8     -2038.123          51.000  
C27  21720271.570 6 113103115.205 6       768.195          36.000                                                                  
C05  39620648.734 5 206315114.524 5       -12.359          34.000                                                                  
C28  22864343.773 7 119060614.585 7     -1761.129          42.000                                                                  
> 2020 05 11 16 12 30.0000000  0 12      -0.000000000000
G16  21510414.922 8 113037983.826 8     -2514.848          51.000    21510413.594 7  88081539.306 7     -1959.625          47.000  
G26  23503771.672 5 123513087.167 5     -3596.332          35.000    23503767.188 6  96244004.314 6     -2802.337          36.000  
G10  20991811.258 8 110312741.858 8       691.305          51.000    20991812.703 8  85958003.362 8       538.682          51.000  
G27  20326436.445 8 106816136.959 8       480.582          51.000    20326437.461 8  83233342.704 8       374.477          51.000  
R22  20070491.438 8 107137255.827 8     -1158.621          48.000    20070492.906 7  83328994.346 7      -901.150          46.000  
R08  22579546.477 4 120912059.07624      4211.770          26.000                                                                  
R23  21023507.656 5 112461175.208 5      2257.285          35.000                                                                  
R07  20770965.609 6 111188179.193 6      1595.426          37.000    20770970.250 6  86479720.434 6      1240.887          37.000  
E12  22120863.695 8 116245968.367 8     -1047.285          51.000    22120863.117 8  89071538.285 8      -802.454          51.000  
E24  23853733.320 8 125352188.812 8     -2664.320          50.000    23853747.086 8  96049137.706 8     -2041.502          51.000  
C27  21715858.289 5 113080140.936 5       764.082          35.000                                                                  
C28  22874501.125 6 119113501.708 6     -1763.941          38.000                                                                  
> 2020 05 11 16 13  0.0000000  0 15      -0.000000000000
G21  24142666.969 5 126870553.373 5     -2594.098          35.000                                                                  
G16  21524818.812 8 113113677.901 8     -2533.953          50.000    21524817.633 7  88140521.668 7     -1974.513          47.000  
G26  23524319.273 5 123621060.751 5     -3604.961          32.000    23524313.398 5  96328139.559 5     -2809.064          33.000  
G10  20987925.195 8 110292319.721 8       667.609          51.000    20987926.719 8  85942090.028 8       520.215          51.000  
G20  21431859.852 5 112625202.11125     -1706.383          32.000                                                                  
G27  20323736.055 8 106801946.452 8       462.617          51.000    20323737.016 8  83222285.168 8       360.481          51.000  
R12  22677969.664 5 121141244.362 5     -4107.102          34.000    22677970.406 4  94220981.301 4     -3194.419          27.000  
R22  20077033.945 8 107172177.731 8     -1172.375          48.000    20077035.258 7  83356155.835 7      -911.847          47.000  
R08  22555984.297 6 120785864.712 6      4199.402          37.000    22555981.500 4  93944576.118 4      3266.206          28.000  
R07  20762100.195 6 111140724.063 6      1565.734          38.000    20762103.766 5  86442810.926 5      1217.794          33.000  
E12  22126860.562 8 116277481.971 8     -1056.316          51.000    22126859.930 8  89095685.062 8      -809.389          51.000  
E24  23868969.766 8 125432261.114 8     -2676.520          49.000    23868984.445 8  96110491.794 8     -2050.811          51.000  
C27  21711484.586 6 113057367.889 6       751.574          37.000                                                                  
C05  39620765.875 5 206315724.463 5       -13.055          35.000                                                                  
C28  22884688.750 6 119166550.005 6     -1775.203          37.000                                                                  
> 2020 05 11 16 13 30.0000000  0 14      -0.000000000000
G16  21539330.562 8 113189940.913 8     -2557.445          49.000    21539329.812 7  88199947.372 7     -1992.815          45.000  
G10  20984172.750 8 110272599.951 8       639.770          51.000    20984174.875 8  85926724.000 8       498.525          51.000  
G20  21441646.648 6 112676634.383 6     -1730.105          36.000                                                                  
G27  20321136.422 8 106788285.282 8       440.875          51.000    20321137.383 8  83211640.104 8       343.539          51.000  
R12  22701055.992 5 121264581.888 5     -4122.551          35.000                                                                  
R22  20083653.250 8 107207510.590 8     -1190.500          48.000    20083654.602 8  83383636.927 8      -925.948          48.000  
R08  22532483.117 6 120660010.365 6      4183.496          40.000                                                                  
R23  20998311.008 5 112326386.300 5      2231.352          31.000                                                                  
R07  20753399.820 5 111094156.783 5      1531.336          34.000    20753403.516 4  86406592.016 4      1191.045          24.000  
E12  22132908.398 8 116309263.394 8     -1069.617          51.000    22132907.758 8  89120037.058 8      -819.583          51.000  
E24  23884274.797 8 125512693.322 8     -2692.789          50.000    23884290.086 8  96172121.665 8     -2063.331          51.000  
C27  21707180.562 6 113034955.733 6       735.496          37.000                                                                  
C05  39620847.445 5 206316149.353 5       -21.543          35.000                                                                  
C28  22894939.969 5 119219918.249 5     -1789.188          31.000                                                                  
> 2020 05 11 16 14  0.0000000  0 12      -0.000000000000
G16  21553940.117 8 113266717.686 8     -2560.566          49.000    21553939.852 7  88259773.421 7     -1995.247          46.000  
G10  20980544.062 8 110253530.597 8       632.023          51.000    20980546.484 8  85911864.771 8       492.486          51.000  
G20  21451540.828 5 112728631.001 5     -1735.277          34.000    21451540.023 5  87840457.271 5     -1352.158          30.000  
G27  20318627.766 8 106775102.168 8       438.727          51.000    20318628.695 8  83201367.550 8       341.862          51.000  
R12  22724194.562 6 121388196.307 6     -4117.547          37.000    22724198.500 4  94413047.49624     -3202.537          25.000  
R22  20090338.992 8 107243200.403 8     -1188.262          48.000    20090341.039 8  83411395.651 8      -924.207          49.000  
R08  22509034.594 6 120534450.630 6      4187.746          41.000                                                                  
R07  20744855.227 5 111048426.475 5      1517.648          35.000                                                                  
E12  22138997.203 8 116341259.983 8     -1062.844          51.000    22138996.570 8  89144553.915 8      -814.405          51.000  
E24  23899638.570 8 125593431.202 8     -2689.141          50.000    23899653.805 8  96233985.753 8     -2060.523          51.000  
C27  21702934.953 5 113012853.078 5       738.516          35.000                                                                  
C05  39620944.711 5 206316655.452 5       -11.023          35.000                                                                  
> 2020 05 11 16 14 30.0000000  0 14      -0.000000000000
G16  21568604.469 8 113343780.175 8     -2576.672          48.000    21568604.609 8  88319822.099 8     -2007.797          48.000  
G10  20976996.109 8 110234885.839 8       611.195          51.000    20976998.781 8  85897336.395 8       476.256          51.000  
G20  21461498.945 5 112780962.987 5     -1753.520          34.000    21461498.391 5  87881235.559 5     -1366.379          34.000  
G27  20316167.203 8 106762171.802 8       423.637          51.000    20316168.102 8  83191291.934 8       330.107          51.000  
R12  22747341.922 6 121511853.080 6     -4125.852          40.000    22747347.398 4  94509227.442 4     -3208.999          27.000  
R22  20097048.703 8 107279017.664 8     -1199.289          48.000    20097051.117 8  83439253.506 8      -932.781          49.000  
R08  22485598.234 7 120408959.802 7      4178.605          42.000    22485609.047 5  93651419.568 5      3250.030          31.000  
R07  20736427.188 5 111003305.111 5      1490.906          35.000                                                                  
E04  27682790.617 6 145474045.115 6      2928.457          41.000    27682794.820 5 111467144.162 5      2243.863          35.000  
E12  22145083.859 8 116373245.188 8     -1069.184          51.000    22145083.203 8  89169062.051 8      -819.230          51.000  
