     3.02           OBSERVATION DATA    M (MIXED)           RINEX VERSION / TYPE
SAVERINEX           SC600               20200512 185930 LCL PGM / RUN BY / DATE
       G = GPS       R = GLONASS       C = COMPASS          COMMENT
       S = SBAS      J = QZSS          E = GALILEO          COMMENT
BEAN                                                        MARKER NAME
1                                                           MARKER NUMBER
GEODETIC                                                    MARKER TYPE
Unige DICCA         GTER                                    OBSERVER / AGENCY
SC60291900056       SC600               2.12(191226)        REC # / TYPE / VERS
                    HEMA45          NONE                    ANT # / TYPE
  4509407.8091   693652.4678  4442337.6214                  APPROX POSITION XYZ
        0.0000        0.0000        0.0000                  ANTENNA: DELTA H/E/N
G    8 C1C L1C D1C S1C C2Y L2Y D2Y S2Y                      SYS / # / OBS TYPES
R    8 C1C L1C D1C S1C C2P L2P D2P S2P                      SYS / # / OBS TYPES
C    8 C1I L1I D1I S1I C7I L7I D7I S7I                      SYS / # / OBS TYPES
E    8 C1C L1C D1C S1C C7Q L7Q D7Q S7Q                      SYS / # / OBS TYPES
DBHZ                                                        COMMENT
     30.000                                                 INTERVAL
  2020    05    12    16    00    0.0000000     GPS         TIME OF FIRST OBS
  2020    05    12    16    59   30.0000000     GPS         TIME OF LAST OBS
     0                                                      RCV CLOCK OFFS APPL
G L1C  0.00000                                              SYS / PHASE SHIFT
G L2Y  0.00000                                              SYS / PHASE SHIFT
R L1C  0.00000                                              SYS / PHASE SHIFT
R L2P  0.25000                                              SYS / PHASE SHIFT
C L1I  0.00000                                              SYS / PHASE SHIFT
C L7I  0.00000                                              SYS / PHASE SHIFT
E L1C  0.50000                                              SYS / PHASE SHIFT
E L7Q -0.25000                                              SYS / PHASE SHIFT
 12 R01  1 R06 -4 R07  5 R08  6 R10 -5 R11  0 R12 -1 R13 -2 GLONASS SLOT / FRQ #
    R14 -7 R21  4 R22 -3 R23  3                             GLONASS SLOT / FRQ #
 C1C   71.950 C2C   71.950 C2P   71.950                     GLONASS COD/PHS/BIS
    18                                                      LEAP SECONDS
*** Above antenna height is from mark to ANTENNA BOTTOM.    COMMENT
    17     4        0.0000        ANT MEASURE TYPE/HEIGT    COMMENT
    0.0000    0.0000    0.0458    0.0405    0.0000          COMMENT
                    BASE STATION                            COMMENT
                                                            END OF HEADER
> 2020 05 12 16 00  0.0000000  0 17        .000000000000
G10  21073416.031 8 110741599.045 8      1006.613          51.000    21073417.453 8  86292158.537 8       784.377          51.000
G16  21279041.148 8 111822118.859 8     -2257.238          51.000    21279039.703 7  87134101.366 7     -1758.887          45.000
G18  23978369.219 5 126007178.444 5     -3158.191          33.000
G26  23163782.266 7 121726399.994 7     -3511.520          42.000    23163776.531 7  94851754.687 7     -2736.252          42.000
G27  20382922.773 7 107112980.201 7       696.707          46.000    20382924.102 7  83464662.532 7       542.889          46.000
R01  22339480.008 7 119417305.405 7      4112.254          44.000    22339487.539 6  92880148.757 6      3198.420          41.000
R08  20911855.570 5 111981984.134 5      1785.195          31.000    20911856.438 5  87097130.580 5      1388.491          34.000
R23  19670237.867 5 105222507.130 5      -436.410          35.000
R24  20545452.383 5 109865724.830 5      1817.918          34.000
C05  39620433.594 5 206313994.149 5        -9.027          34.000
C11                                                                  24131901.617 4  97169109.718 4     -1667.437          28.000
C14  22931665.297 8 119411236.533 8      1621.000          48.000    22931665.133 8  92336290.055 8      1253.394          51.000
E01  24901462.359 8 130858090.624 8     -1621.258          51.000    24901466.000 8 100267873.457 8     -1242.271          51.000
E07  26815433.359 7 140916062.210 7      2525.879          42.000    26815442.641 7 107974636.232 7      1935.545          46.000
E21  27144891.523 6 142647359.001 6     -3203.590          36.000    27144890.656 5 109301224.356 5     -2454.965          33.000
E26  22434658.250 8 117894923.053 8        12.504          50.000    22434661.195 8  90335150.574 8         9.587          49.000
E33  25826009.508 5 135716591.064 5      1889.410          32.000
> 2020 05 12 16 00 30.0000000  0 16        .000000000000
G10  21067734.492 8 110711742.240 8       983.664          51.000    21067735.609 8  86268893.502 8       766.491          51.000
G16  21291984.734 8 111890135.270 8     -2277.340          51.000    21291982.242 7  87187101.144 7     -1774.551          44.000
G18  23996416.734 5 126102016.054 5     -3164.133          33.000
G26  23183856.727 6 121831897.084 6     -3521.695          40.000    23183852.648 6  94933960.144 6     -2744.181          40.000
G27  20378993.109 7 107092330.942 7       679.570          47.000    20378994.602 7  83448572.212 7       529.535          47.000
R01  22316436.250 7 119294127.936 7      4099.508          43.000    22316444.492 7  92784344.085 7      3188.509          43.000
R08  20901924.828 5 111928852.005 5      1756.250          31.000    20901939.250 5  87055819.178 5      1365.972          31.000
R22  23197537.711 5 123830022.277 5     -2953.484          31.000    23197538.109 4  96312248.860 4     -2297.148          27.000
R23  19672722.508 6 105235813.805 6      -451.055          37.000
C11  24144325.953 5 125725829.275 5     -2163.102          31.000
C14  22922380.852 8 119362891.734 8      1601.879          49.000    22922381.125 8  92298906.803 8      1238.699          51.000
E01  24910765.586 8 130906981.326 8     -1638.301          51.000    24910769.891 8 100305335.164 8     -1255.303          51.000
E07  26801040.031 7 140840424.837 7      2516.242          42.000    26801049.797 7 107916680.364 7      1928.069          45.000
E13  25410160.078 6 133531296.786 6     -1947.828          40.000
E21  27163198.742 6 142743563.588 6     -3210.355          36.000    27163200.367 5 109374939.478 5     -2459.518          34.000
E26  22434614.766 8 117894695.352 8         2.418          50.000    22434617.828 8  90334976.111 8         1.871          49.000
> 2020 05 12 16 01  0.0000000  0 17        .000000000000
G10  21062162.117 8 110682458.711 8       967.254          51.000    21062163.023 8  86246075.174 8       753.704          51.000
G16  21305020.516 8 111958637.968 8     -2290.832          50.000    21305017.883 7  87240479.827 7     -1785.067          44.000
G18  24014473.570 5 126196906.512 5     -3163.289          32.000
G20  21290393.766 5 111881772.546 5     -1442.094          32.000
G26  23203966.070 5 121937580.112 5     -3524.957          35.000    23203964.461 6  95016310.499 6     -2746.720          36.000
G27  20375138.695 7 107072075.428 7       669.355          47.000    20375140.109 7  83432788.707 7       521.579          47.000
R01  22293441.883 7 119171214.775 7      4093.344          43.000    22293451.430 7  92688744.997 7      3183.712          43.000
R08  20892152.367 6 111876482.322 6      1733.930          36.000    20892159.609 4  87015087.017 4      1348.612          29.000
R22  23214136.555 5 123918639.185 5     -2954.746          31.000    23214142.219 4  96381175.103 4     -2298.136          29.000
R23  19675267.914 5 105249438.213 5      -458.469          32.000
C05  39620562.891 5 206314666.883 5       -10.688          34.000
C14  22913184.719 8 119315003.997 8      1589.387          50.000    22913184.891 8  92261876.991 8      1228.936          51.000
E01  24920144.117 8 130956267.111 8     -1648.723          51.000    24920148.219 8 100343099.588 8     -1263.349          51.000
E07  26786681.305 7 140764965.930 7      2512.984          43.000    26786690.188 7 107858861.231 7      1925.584          44.000
E13  25421274.344 5 133589708.807 5     -1948.129          35.000
E21  27181518.891 5 142839835.837 5     -3209.527          35.000    27181522.359 5 109448706.471 5     -2459.030          35.000
E26  22434606.703 8 117894654.141 8        -1.133          50.000    22434610.070 8  90334944.545 8         -.820          50.000
> 2020 05 12 16 01 30.0000000  0 15        .000000000000
G10  21056707.086 8 110653791.900 8       947.766          51.000    21056708.008 8  86223737.431 8       738.522          51.000
G16  21318156.094 8 112027667.218 8     -2307.301          48.000    21318154.211 7  87294268.819 7     -1797.897          45.000
G20  21298686.859 5 111925344.029 5     -1459.812          35.000
G27  20371367.273 7 107052257.437 7       655.871          47.000    20371368.609 7  83417346.111 7       511.068          47.000
R01  22270506.281 7 119048614.416 7      4083.918          44.000    22270516.727 6  92593389.205 6      3176.381          41.000
R07  22117263.859 5 118395404.142 5     -1943.758          32.000
R08  20882525.727 6 111824902.730 6      1708.629          36.000
R23  19677880.023 6 105263423.858 6      -469.918          36.000
C05  39620640.148 5 206315069.169 5       -11.918          35.000
C14  22904084.867 8 119267617.149 8      1573.703          50.000    22904084.719 8  92225234.495 8      1216.863          51.000
C28  22053128.906 5 114836420.951 5      1223.137          34.000
E01  24929605.859 8 131005989.371 8     -1662.203          51.000    24929609.117 8 100381198.426 8     -1273.642          51.000
E07  26772364.828 7 140689730.041 7      2506.648          42.000    26772373.156 7 107801213.044 7      1920.679          44.000
E21  27199859.250 5 142936216.616 5     -3212.312          35.000    27199865.195 5 109522556.625 5     -2461.113          35.000
E26  22434642.273 8 117894841.741 8        -7.523          50.000    22434645.750 8  90335088.301 8        -5.795          50.000
> 2020 05 12 16 02  0.0000000  0 17        .000000000000
G08  21868235.102 5 114918375.742 5      2420.301          30.000
G10  21051338.031 8 110625577.630 8       939.879          51.000    21051338.930 8  86201752.320 8       732.373          51.000
G16  21331359.617 7 112097055.943 7     -2311.969          47.000    21331359.133 7  87348337.954 7     -1801.534          46.000
G21  23881473.508 4 125497985.822 4     -2564.301          29.000
G26  23244291.641 5 122149576.503 5     -3525.711          33.000
G27  20367647.930 7 107032713.026 7       653.836          47.000    20367649.438 7  83402116.689 7       509.483          47.000
R01  22247598.383 7 118926163.138 7      4086.246          43.000    22247609.453 6  92498149.360 6      3178.191          39.000
R07  22128214.641 4 118454011.849 4     -1956.703          29.000    22128215.836 4  92130935.698 4     -1521.886          29.000
R08  20873011.242 5 111773947.610 5      1695.066          33.000    20873013.695 4  86935365.218 4      1318.400          27.000
R23  19680529.570 6 105277602.677 6      -468.895          38.000
C05  39620697.023 5 206315365.722 5        -1.137          35.000
C14  22895050.266 8 119220569.339 8      1569.570          51.000    22895049.594 8  92188854.176 8      1213.649          51.000
C28  22046092.289 5 114799770.432 5      1226.898          32.000
E01  24939119.195 8 131055981.894 8     -1663.930          51.000    24939121.438 8 100419504.353 8     -1274.896          51.000
E07  26758059.359 6 140614554.375 6      2511.625          41.000    26758067.055 7 107743610.979 7      1924.692          42.000
E21  27218187.930 5 143032543.066 5     -3202.371          32.000    27218195.500 5 109596362.109 5     -2454.151          34.000
E26  22434689.984 8 117895092.941 8        -2.461          50.000    22434693.469 8  90335280.769 8        -1.838          50.000
> 2020 05 12 16 02 30.0000000  0 18        .000000000000
G10  21046092.945 8 110598015.569 8       906.219          51.000    21046094.062 8  86180275.401 8       706.144          51.000
G16  21344669.242 7 112167001.356 7     -2342.453          47.000    21344669.773 7  87402840.892 7     -1825.288          46.000
G18  24068689.383 5 126481816.204 5     -3171.332          30.000
G20  21315536.727 6 112013892.672 6     -1497.484          37.000    21315537.180 5  87283540.301 5     -1166.865          32.000
G26  23264498.258 6 122255798.944 6     -3546.359          36.000    23264504.680 6  95264239.937 6     -2763.394          36.000
G27  20364018.828 7 107013642.069 7       626.246          47.000    20364020.688 7  83387256.203 7       487.984          47.000
R01  22224757.000 7 118804067.635 7      4062.352          42.000    22224768.570 6  92403186.273 6      3159.610          37.000
R23  19683253.141 6 105292177.267 6      -494.047          38.000    19683265.766 4  81893924.640 4      -384.262          25.000
R24  20495092.812 5 109596458.079 5      1771.117          33.000
C05  39620771.523 5 206315753.591 5       -16.160          35.000
C11  24194369.516 5 125986432.390 5     -2184.695          31.000    24194380.906 4  97420743.692 4     -1689.339          28.000
C14  22886118.836 8 119174059.177 8      1539.750          51.000    22886117.688 8  92152889.583 8      1190.641          51.000
E01  24948721.625 8 131106442.281 8     -1691.383          51.000    24948723.125 8 100458168.800 8     -1295.971          51.000
E07  26743803.727 7 140539639.783 7      2491.051          42.000    26743810.602 7 107686208.935 7      1908.826          43.000
E13  25454688.000 5 133765321.395 5     -1959.066          33.000
E21  27236543.086 5 143129000.261 5     -3219.078          32.000    27236550.953 5 109670273.861 5     -2466.767          34.000
E26  22434787.664 8 117895606.277 8       -23.078          51.000    22434791.062 8  90335674.110 8       -17.683          50.000
E33  25772423.438 5 135434987.254 5      1863.750          35.000
> 2020 05 12 16 03  0.0000000  0 16        .000000000000
G10  21040933.750 8 110570905.129 8       892.062          51.000    21040935.570 8  86159150.409 8       695.114          51.000
G16  21358046.680 8 112237300.105 8     -2353.312          49.000    21358047.383 7  87457619.137 7     -1833.750          46.000
G18  24086764.508 5 126576785.544 5     -3167.871          33.000
G20  21324095.617 5 112058865.227 5     -1509.137          32.000    21324096.789 5  87318615.739 5     -1175.954          31.000
G26  23284717.453 6 122362072.471 6     -3547.035          37.000    23284733.914 6  95347050.491 6     -2763.927          36.000
G27  20360441.859 7 106994844.381 7       617.910          47.000    20360443.852 7  83372608.652 7       481.488          47.000
R01  22201944.641 6 118682128.005 6      4057.672          40.000    22201955.352 5  92308344.464 5      3155.970          32.000
R07  22150520.539 5 118573456.842 5     -2012.977          30.000    22150512.984 4  92223783.955 4     -1565.658          29.000
R23  19686013.219 6 105306942.433 6      -499.367          36.000    19686025.188 4  81905408.649 4      -388.400          26.000
C05  39620825.258 5 206316033.365 5       -11.785          35.000
C14  22877252.297 8 119127888.718 8      1529.227          51.000    22877250.930 8  92117187.676 8      1182.489          51.000
E01  24958374.617 8 131157167.979 8     -1699.387          51.000    24958376.070 8 100497036.523 8     -1302.163          51.000
E07  26729559.891 6 140464786.983 6      2489.926          41.000    26729566.352 7 107628854.238 7      1907.874          42.000
E21                                                                  27254895.398 5 109744166.276 5     -2464.642          32.000
E26  22434896.938 8 117896180.192 8       -24.285          50.000    22434900.148 8  90336113.866 8       -18.644          49.000
E33  25761748.789 5 135378913.762 5      1865.012          34.000
> 2020 05 12 16 03 30.0000000  0 17        .000000000000
G10  21035893.219 8 110544418.085 8       872.969          51.000    21035895.383 8  86138511.161 8       680.235          51.000
G16  21371523.867 8 112308120.994 8     -2368.781          50.000    21371524.289 7  87512804.225 7     -1845.804          47.000
G18  24104853.648 5 126671860.490 5     -3168.918          34.000
G20  21332761.117 6 112104404.223 6     -1526.973          38.000    21332763.062 4  87354100.771 4     -1189.861          29.000
G26  23304980.008 6 122468565.467 6     -3553.199          38.000    23305003.039 5  95430032.090 5     -2768.721          34.000
G27  20356949.648 8 106976491.947 8       604.938          48.000    20356951.586 8  83358308.060 8       471.383          49.000
R01  22179195.516 6 118560522.518 6      4048.352          41.000    22179202.023 5  92213762.587 5      3148.724          30.000
R08  20845313.406 6 111625694.385 6      1610.238          37.000    20845317.688 5  86820006.327 5      1252.411          32.000
R14  21062477.086 5 112274822.866 5      -973.027          34.000
R23  19688842.453 6 105322072.199 6      -509.496          37.000    19688854.969 4  81917176.261 4      -396.275          25.000
C05  39620890.742 5 206316374.448 5       -11.578          35.000
C11  24219529.695 4 126117443.179 4     -2188.957          29.000    24219523.242 4  97521989.533 4     -1693.776          28.000
C14  22868483.750 8 119082228.962 8      1514.027          51.000    22868482.336 8  92081880.665 8      1170.712          51.000
C28  22025230.391 5 114691146.430 5      1196.184          32.000
E01  24968110.258 8 131208328.692 8     -1712.051          51.000    24968111.977 8 100536237.554 8     -1311.825          51.000
E07  26715360.531 6 140390169.090 6      2483.895          39.000    26715367.367 7 107571679.493 7      1903.235          43.000
E26  22435050.281 8 117896985.360 8       -30.098          50.000    22435053.195 8  90336730.820 8       -23.080          49.000
> 2020 05 12 16 04  0.0000000  0 17        .000000000000
G10  21030965.492 8 110518523.841 8       854.156          51.000    21030967.562 8  86118333.819 8       665.576          51.000
G16  21385094.430 8 112379430.810 8     -2384.098          51.000    21385094.188 7  87568370.299 7     -1857.738          47.000
G20  21341528.484 6 112150477.477 6     -1543.523          41.000    21341527.773 4  87389988.068 4     -1202.749          24.000
G26  23325278.453 6 122575244.167 6     -3558.477          36.000    23325301.039 5  95513158.429 5     -2772.842          35.000
G27  20353536.414 8 106958554.633 8       592.008          48.000    20353538.289 8  83344330.916 8       461.305          48.000
R01  22156504.820 6 118439223.759 6      4039.309          40.000    22156508.938 5  92119419.193 5      3141.684          34.000
R08  20836363.516 6 111577775.299 6      1585.352          39.000    20836365.008 5  86782735.955 5      1233.051          31.000
R13  22513561.406 5 120221129.891 5     -4054.297          31.000    22513566.398 4  93505368.501 4     -3153.345          29.000
R14  21068028.594 5 112304410.308 5      -998.594          33.000
R23  19691734.070 6 105337534.657 6      -519.852          37.000    19691745.438 4  81929202.665 4      -404.329          26.000
C11  24232162.375 4 126183241.906 4     -2193.922          29.000    24232160.250 5  97572837.577 5     -1696.673          35.000
C14  22859807.531 8 119037050.438 8      1498.832          51.000    22859806.469 8  92046945.805 8      1159.025          51.000
C28  22018359.914 5 114655369.338 5      1189.820          31.000
E01  24977922.453 8 131259891.893 8     -1724.496          51.000    24977924.477 8 100575746.992 8     -1321.379          51.000
E07  26701199.930 6 140315756.795 6      2478.172          37.000    26701207.375 7 107514662.295 7      1898.667          43.000
E13  25488231.312 5 133941562.291 5     -1960.297          33.000
E26  22435241.602 8 117897990.288 8       -35.836          49.000    22435244.164 8  90337500.834 8       -27.441          49.000
> 2020 05 12 16 04 30.0000000  0 15        .000000000000
G10  21026157.781 8 110493259.511 8       837.219          51.000    21026159.883 8  86098647.326 8       652.381          51.000
G16  21398764.555 8 112451264.078 8     -2397.504          51.000    21398763.836 7  87624344.244 7     -1868.185          47.000
G20  21350404.602 5 112197119.168 5     -1558.172          33.000    21350400.898 5  87426321.302 5     -1214.160          31.000
G26  23345618.953 5 122682142.358 5     -3561.871          35.000    23345635.742 5  95596455.776 5     -2775.484          35.000
G27  20350209.266 8 106941069.836 8       580.871          50.000    20350210.992 8  83330706.398 8       452.627          49.000
R01  22133878.914 6 118318273.334 6      4031.609          39.000    22133883.773 6  92025346.724 6      3135.699          37.000
R08  20827568.602 6 111530671.050 6      1562.027          36.000    20827567.320 5  86746099.325 5      1214.913          32.000
R13  22536378.164 5 120342970.629 5     -4060.750          32.000    22536384.469 4  93600136.934 4     -3158.364          28.000
R23  19694694.859 6 105353367.034 6      -528.133          38.000    19694704.133 4  81941523.693 4      -410.773          25.000
C05  39621046.234 5 206317183.994 5       -10.336          35.000
C11  24244825.797 5 126249164.752 5     -2196.777          31.000    24244835.883 5  97623848.333 5     -1698.615          35.000
C14  22851231.102 8 118992390.728 8      1485.645          51.000    22851230.148 8  92012412.124 8      1148.755          51.000
E01  24987817.773 8 131311892.647 8     -1734.941          51.000    24987819.945 8 100615591.720 8     -1329.410          51.000
E07  26687086.305 6 140241588.633 6      2473.828          39.000    26687093.594 7 107457832.114 7      1895.543          44.000
E26  22435477.742 8 117899231.092 8       -39.578          49.000    22435480.188 8  90338451.591 8       -30.353          49.000
> 2020 05 12 16 05  0.0000000  0 14        .000000000000
G10  21021430.383 8 110468416.857 8       818.082          51.000    21021432.617 8  86079289.428 8       637.467          51.000
G16  21412493.789 8 112523409.500 8     -2412.980          51.000    21412492.914 7  87680561.436 7     -1880.245          47.000
G20  21359348.500 5 112244118.591 5     -1575.305          35.000
G26  23365961.680 5 122789048.754 5     -3566.754          32.000    23365976.375 5  95679759.394 5     -2779.292          33.000
G27  20346928.734 8 106923829.741 8       567.504          50.000    20346930.055 8  83317272.559 8       442.211          50.000
R01  22111278.781 6 118197463.408 6      4021.574          38.000    22111285.672 6  91931383.475 6      3127.891          39.000
R07  22196707.641 5 118820697.472 5     -2105.453          32.000
R08  20818883.812 5 111484171.001 5      1537.031          33.000    20818885.867 5  86709932.718 5      1195.469          32.000
R23  19697684.523 6 105369356.372 6      -538.570          36.000    19697691.250 4  81953952.851 4      -418.885          25.000
C05  39621103.312 5 206317481.487 5       -10.672          35.000
C14  22842714.742 8 118948044.403 8      1469.945          51.000    22842713.727 8  91978120.746 8      1136.715          51.000
E01  24997756.117 8 131364120.818 8     -1747.688          51.000    24997758.766 8 100655610.704 8     -1339.149          51.000
E07  26672980.641 6 140167457.623 6      2467.371          41.000    26672987.094 7 107401030.470 7      1890.559          45.000
E26  22435718.977 8 117900498.638 8       -45.613          49.000    22435721.492 8  90339422.848 8       -35.055          50.000
> 2020 05 12 16 05 30.0000000  0 14        .000000000000
G10  21016811.188 8 110444143.055 8       786.418          51.000    21016813.070 8  86060374.767 8       612.793          51.000
G16  21426309.516 8 112596011.551 8     -2440.938          51.000    21426308.859 7  87737134.433 7     -1902.029          47.000
G20  21368387.969 6 112291620.978 6     -1605.051          36.000
G26  23386334.641 5 122896107.195 5     -3584.629          30.000    23386347.312 5  95763181.443 5     -2793.217          31.000
G27  20343722.797 8 106906981.851 8       541.785          50.000    20343723.891 8  83304144.333 8       422.170          50.000
R01  22088732.742 6 118076947.037 6      3998.742          37.000    22088741.836 6  91837648.521 6      3110.133          40.000
R07  22208570.352 5 118884189.680 5     -2141.137          34.000
R23  19700730.891 5 105385652.267 5      -561.715          33.000    19700736.469 4  81966619.367 4      -436.889          24.000
C05  39621161.430 5 206317783.737 5       -22.703          35.000
C14  22834286.680 8 118904158.045 8      1442.043          50.000    22834286.031 8  91944185.056 8      1115.073          51.000
E01  25007765.492 8 131416721.527 8     -1772.812          51.000    25007768.680 8 100695915.149 8     -1358.350          51.000
E07  26658910.430 7 140093512.302 7      2448.574          43.000    26658915.594 7 107344371.139 7      1876.040          44.000
E13  25521842.000 5 134118185.185 5     -1977.305          32.000    25521840.961 5 102765871.335 5     -1515.571          35.000
E26  22435993.055 8 117901939.080 8       -64.160          48.000    22435995.758 8  90340526.573 8       -49.219          50.000
> 2020 05 12 16 06  0.0000000  0 14        .000000000000
G10  21012320.602 8 110420544.593 8       781.508          51.000    21012322.016 8  86041986.368 8       608.970          51.000
G16  21440231.648 8 112669173.928 8     -2441.875          51.000    21440231.305 7  87794144.056 7     -1902.760          47.000
G20  21377543.188 5 112339729.907 5     -1607.461          33.000
G26  23406757.492 5 123003334.978 5     -3574.645          31.000    23406767.070 5  95846802.433 5     -2785.443          31.000
G27  20340611.750 8 106890633.114 8       542.832          50.000    20340612.820 8  83291405.070 8       422.986          50.000
R01  22066264.289 6 117956836.953 6      4003.152          41.000    22066273.844 6  91744229.642 6      3113.566          40.000
R07  22220580.898 6 118948481.018 6     -2150.355          36.000    22220593.953 4  92515528.990 4     -1672.499          26.000
R08  20801961.930 5 111393532.833 5      1487.797          35.000
R23  19703855.227 6 105402361.871 6      -557.504          38.000    19703860.234 4  81979615.768 4      -433.617          26.000
C05  39621240.609 5 206318196.708 5        -9.363          35.000
C14  22825967.375 8 118860838.061 8      1440.676          50.000    22825967.117 8  91910687.318 8      1114.046          51.000
E01  25017865.938 8 131469799.392 8     -1771.000          51.000    25017869.633 8 100736585.185 8     -1356.979          51.000
E07  26644895.859 7 140019860.635 7      2456.383          45.000    26644899.656 7 107287936.816 7      1882.101          44.000
E26  22436319.891 8 117903658.126 8       -55.797          48.000    22436322.977 8  90341843.762 8       -42.703          49.000
> 2020 05 12 16 06 30.0000000  0 18        .000000000000
G10  21007919.945 8 110397419.188 8       762.117          51.000    21007921.203 8  86023966.599 8       593.858          51.000
G16  21454221.531 8 112742692.010 8     -2457.109          51.000    21454221.266 7  87851430.859 7     -1914.631          47.000
G20  21386774.602 5 112388241.315 5     -1624.859          34.000
G21  24013960.531 5 126194206.504 5     -2580.016          34.000
G26  23427191.445 5 123110698.704 5     -3579.992          33.000    23427197.453 5  95930462.393 5     -2789.607          32.000
G27  20337557.164 8 106874581.657 8       529.281          51.000    20337558.266 8  83278897.431 8       412.427          50.000
R01  22043834.781 7 117836931.040 7      3992.680          43.000    22043843.516 6  91650969.601 6      3105.421          38.000
R07  22232701.625 6 119013361.454 6     -2173.352          36.000    22232713.391 5  92565991.061 5     -1690.385          32.000
R08  20793704.266 5 111349317.397 5      1461.516          32.000
R14  21097953.633 4 112463968.384 4     -1126.492          28.000
R23  19707018.789 6 105419278.978 6      -568.391          41.000
R24  20416847.469 5 109178017.782 5      1713.059          32.000
C05  39621302.203 5 206318516.314 5        -9.809          35.000
C14  22817718.508 8 118817884.844 8      1424.840          50.000    22817718.391 8  91877473.175 8      1101.774          51.000
C28  21984568.195 5 114479417.513 5      1157.742          30.000
E01  25028018.578 8 131523150.156 8     -1783.648          51.000    25028022.344 8 100777464.315 8     -1366.722          51.000
E07  26630898.531 7 139946301.767 7      2449.641          45.000    26630901.617 7 107231573.604 7      1877.003          44.000
E26  22436661.008 8 117905452.551 8       -61.879          48.000    22436664.398 8  90343218.711 8       -47.477          49.000
> 2020 05 12 16 07  0.0000000  0 17        .000000000000
G10  21003611.844 8 110374780.203 8       742.285          51.000    21003612.523 8  86006325.863 8       578.404          51.000
G16  21468281.141 8 112816576.236 8     -2473.137          51.000    21468280.820 7  87909002.963 7     -1927.123          47.000
G21  24028679.742 5 126271547.737 5     -2581.094          34.000
G26  23447636.961 5 123218122.667 5     -3585.703          32.000    23447638.992 5  96014169.309 5     -2794.057          33.000
G27  20334561.781 8 106858841.292 8       515.195          51.000    20334562.875 8  83266632.225 8       401.451          51.000
R01  22021446.586 7 117717246.876 7      3981.320          44.000    22021454.109 6  91557882.018 6      3096.586          36.000
R07  22244935.016 5 119078841.667 5     -2196.934          35.000    22244944.445 4  92616920.142 4     -1708.726          29.000
R08  20785574.117 6 111305779.898 6      1435.684          38.000
R23  19710223.867 7 105436416.472 7      -579.258          43.000    19710233.000 4  82006110.666 4      -450.534          25.000
C05  39621348.633 5 206318758.388 5       -11.289          35.000
C11  24308438.336 5 126580433.764 5     -2219.445          31.000    24308450.125 6  97880038.392 6     -1716.470          36.000
C14  22809542.703 8 118775312.524 8      1408.430          50.000    22809542.805 8  91844553.582 8      1089.126          51.000
C28  21977907.195 5 114444726.509 5      1150.312          32.000
E01  25038225.406 8 131576785.288 8     -1796.891          51.000    25038228.906 8 100818561.323 8     -1376.805          51.000
E07  26616921.391 7 139872850.528 7      2442.234          44.000    26616923.977 7 107175292.857 7      1871.400          44.000
E13  25555545.164 5 134295295.111 5     -1970.875          35.000
E26  22437018.992 8 117907334.949 8       -68.473          48.000    22437022.398 8  90344661.052 8       -52.502          50.000
> 2020 05 12 16 07 30.0000000  0 15        .000000000000
G10  20999434.008 8 110352825.522 8       722.000          51.000    20999434.438 8  85989218.369 8       562.600          51.000
G16  21482447.789 8 112891021.629 8     -2489.238          51.000    21482446.992 7  87967012.338 7     -1939.666          46.000
G21  24043424.039 5 126349023.413 5     -2583.109          31.000
G26  23468130.773 6 123325801.672 6     -3591.664          36.000    23468129.016 6  96098074.937 6     -2798.699          36.000
G27  20331663.289 8 106843610.372 8       500.777          50.000    20331664.461 8  83254763.970 8       390.216          50.000
R01  21999137.500 7 117597989.638 7      3969.707          43.000    21999144.719 6  91465126.453 6      3087.550          36.000
R07  22257317.836 6 119145119.734 6     -2221.113          36.000    22257326.625 4  92668469.662 4     -1727.539          26.000
R08  20777608.766 5 111263123.028 5      1408.754          33.000    20777611.391 5  86538011.920 5      1095.704          31.000
R23  19713507.602 7 105453975.336 7      -591.020          43.000
C05  39621417.484 5 206319117.274 5       -12.074          35.000
C11  24321244.656 4 126647102.864 4     -2225.738          27.000    24321262.531 5  97931605.588 5     -1720.556          33.000
C14  22801477.922 8 118733318.025 8      1391.824          50.000    22801478.133 8  91812080.797 8      1076.183          51.000
E01  25048523.328 8 131630900.679 8     -1810.250          51.000    25048526.375 8 100860026.355 8     -1387.060          51.000
E07  26603002.305 7 139799706.294 7      2434.516          42.000    26603004.469 7 107119247.311 7      1865.420          43.000
E26  22437431.406 8 117909502.320 8       -75.371          49.000    22437434.641 8  90346321.769 8       -57.764          49.000
> 2020 05 12 16 08  0.0000000  0 16        .000000000000
G10  20995367.875 8 110331458.273 8       703.480          51.000    20995368.695 8  85972568.633 8       548.170          51.000
G16  21496702.352 8 112965928.406 8     -2503.594          51.000    21496701.039 7  88025381.247 7     -1950.852          46.000
G21  24058172.836 5 126426560.869 5     -2583.906          31.000
G26  23488652.469 6 123433635.711 6     -3596.180          37.000    23488649.188 6  96182101.421 6     -2802.218          37.000
G27  20328843.453 8 106828792.519 8       488.086          51.000    20328844.586 8  83243217.591 8       380.327          51.000
R01  21976890.484 7 117479064.847 7      3959.680          45.000    21976897.453 6  91372629.413 6      3079.754          37.000
R07  22269830.383 5 119212093.440 5     -2242.758          34.000
R08  20769788.445 5 111221250.217 5      1383.891          35.000    20769790.320 5  86505444.237 5      1076.359          34.000
R14  21117644.352 5 112568920.782 5     -1205.027          31.000
R23  19716851.250 6 105471856.411 6      -600.441          41.000
C14  22793505.852 8 118691806.247 8      1376.637          50.000    22793506.242 8  91779981.311 8      1064.512          51.000
C28  21964750.953 5 114376201.168 5      1135.473          32.000
E01  25058893.766 8 131685397.603 8     -1821.855          51.000    25058896.305 8 100901783.744 8     -1396.024          51.000
E07  26589122.617 6 139726773.697 6      2428.672          41.000    26589125.766 7 107063363.894 7      1860.877          44.000
E13  25578081.430 5 134413720.479 5     -1975.477          35.000
E26  22437879.664 8 117911857.084 8       -80.621          49.000    22437882.719 8  90348126.067 8       -61.754          49.000
> 2020 05 12 16 08 30.0000000  0 17        .000000000000
G10  20991408.055 8 110310648.953 8       684.414          51.000    20991408.852 8  85956353.597 8       533.310          51.000
G16  21511038.555 8 113041264.859 8     -2518.242          51.000    21511036.844 7  88084084.936 7     -1962.270          46.000
G26  23509196.531 6 123541592.232 6     -3600.660          37.000    23509192.594 6  96266223.275 6     -2805.712          36.000
G27  20326096.781 8 106814358.674 8       474.594          51.000    20326097.758 8  83231970.441 8       369.813          51.000
R01  21954701.320 7 117360446.311 7      3948.926          47.000    21954707.445 6  91280370.590 6      3071.387          36.000
R07  22282465.602 5 119279729.605 5     -2265.168          31.000    22282470.016 4  92773151.136 4     -1761.794          29.000
R08  20762109.820 5 111180133.082 5      1358.219          33.000    20762112.688 5  86473464.280 5      1056.398          35.000
R14  21124500.820 6 112605477.013 6     -1231.086          36.000
R23  19720248.492 6 105490028.903 6      -610.441          39.000
R24  20378779.648 5 108974516.890 5      1678.148          32.000
C05  39621561.445 5 206319866.840 5       -11.621          35.000
C11                                                                  24346944.375 5  98035023.914 5     -1727.262          33.000
C14  22785621.250 8 118650748.814 8      1361.055          50.000    22785621.438 8  91748233.138 8      1052.569          51.000
E01  25069330.742 8 131740244.657 8     -1833.809          51.000    25069332.828 8 100943809.395 8     -1405.186          51.000
E07  26575277.820 7 139654024.651 7      2421.938          42.000    26575282.289 7 107007621.129 7      1855.914          43.000
E13  25589362.109 5 134473033.099 5     -1977.996          34.000
E26  22438357.789 8 117914368.850 8       -86.133          50.000    22438360.703 8  90350050.671 8       -66.031          49.000
> 2020 05 12 16 09  0.0000000  0 16        .000000000000
G10  20987568.367 8 110290470.525 8       656.027          51.000    20987569.453 8  85940630.166 8       511.190          51.000
G16  21525469.477 8 113117101.071 8     -2542.113          51.000    21525467.906 7  88143178.049 7     -1980.871          45.000
G20  21434363.898 5 112638345.368 5     -1717.516          35.000
G26  23529776.641 5 123649741.136 5     -3614.023          35.000    23529772.078 5  96350495.149 5     -2816.119          34.000
G27  20323437.180 8 106800382.348 8       452.102          51.000    20323438.156 8  83221079.791 8       352.287          51.000
R01  21932583.805 8 117242212.230 8      3928.480          48.000    21932587.883 5  91188410.799 5      3055.485          35.000
R07  22295237.234 5 119348098.886 5     -2297.258          33.000    22295241.781 4  92826327.329 4     -1786.750          25.000
R08  20754588.570 5 111139848.020 5      1322.777          32.000    20754590.727 5  86442131.488 5      1028.827          34.000
R14  21131511.992 5 112642861.392 5     -1265.938          33.000
R23  19723714.016 6 105508566.793 6      -630.145          40.000
C05  39621644.688 5 206320300.569 5       -21.195          35.000
C11                                                                  24359854.031 5  98086955.587 5     -1738.840          30.000
C14  22777837.898 8 118610218.921 8      1336.211          50.000    22777837.844 8  91716892.876 8      1033.225          51.000
E01  25079847.547 8 131795512.979 8     -1855.316          50.000    25079849.594 8 100986157.820 8     -1421.615          51.000
E07  26561483.023 7 139581533.610 7      2405.895          42.000    26561487.820 7 106952076.132 7      1843.361          43.000
E26  22438879.406 8 117917109.947 8      -101.184          49.000    22438882.523 8  90352150.989 8       -77.545          50.000
> 2020 05 12 16 09 30.0000000  0 15        .000000000000
G10  20983827.781 8 110270813.188 8       642.473          51.000    20983829.500 8  85925312.784 8       500.628          51.000
G16  21539973.789 8 113193324.632 8     -2551.113          50.000    21539972.773 7  88202573.011 7     -1987.880          46.000
G20  21444164.898 6 112689849.863 6     -1727.859          37.000
G26  23550371.664 5 123757969.654 5     -3612.594          32.000    23550367.570 4  96434829.039 4     -2815.011          29.000
G27  20320843.883 8 106786754.214 8       444.316          51.000    20320844.797 8  83210460.476 8       346.221          51.000
R01  21910517.641 8 117124255.326 8      3923.090          48.000    21910520.867 6  91096666.611 6      3051.292          37.000
R07  22308124.180 5 119417086.392 5     -2314.020          33.000
R14  21138659.852 6 112680937.328 6     -1285.438          36.000    21138672.094 5  87640745.526 5      -999.785          30.000
R23  19727226.031 6 105527357.425 6      -634.641          37.000    19727229.453 4  82076841.433 4      -493.606          27.000
C05  39621718.797 5 206320686.694 5       -16.598          35.000
C11                                                                  24372769.922 5  98139038.402 5     -1737.185          31.000
C14  22770135.258 8 118570108.678 8      1326.043          50.000    22770135.125 8  91685877.123 8      1025.311          51.000
E01  25090423.125 8 131851090.814 8     -1861.750          49.000    25090425.461 8 101028743.432 8     -1426.554          51.000
E07  26547717.281 7 139509192.343 7      2404.707          43.000    26547721.305 7 106896645.893 7      1842.622          42.000
E26  22439423.586 8 117919969.787 8      -101.375          49.000    22439427.086 8  90354342.301 8       -77.641          50.000
> 2020 05 12 16 10  0.0000000  0 16        .000000000000
G10  20980172.062 8 110251601.848 8       640.629          51.000    20980174.047 8  85910342.921 8       499.191          51.000
G16  21554537.047 8 113269857.755 8     -2548.793          49.000    21554536.602 7  88262209.209 7     -1986.072          46.000
G20  21454034.008 5 112741713.060 5     -1727.168          33.000    21454032.859 5  87850684.538 5     -1345.845          30.000
G26  23570966.352 5 123866265.840 5     -3600.395          31.000    23570964.773 5  96519164.218 5     -2805.505          31.000
G27  20318302.633 8 106773399.793 8       448.199          51.000    20318303.477 8  83200054.434 8       349.246          51.000
R01  21888489.625 8 117006502.891 8      3929.434          48.000    21888492.758 6  91005081.436 6      3056.226          39.000
R07  22321111.430 5 119486612.118 5     -2318.797          33.000
R14  21145930.641 6 112719671.748 6     -1293.676          37.000    21145937.438 4  87670872.271 4     -1006.195          28.000
R23  19730770.156 5 105546324.165 5      -626.969          35.000    19730774.297 4  82091593.348 4      -487.636          26.000
C05  39621769.555 5 206320950.343 5          .508          35.000
C11                                                                  24385687.453 5  98191044.842 5     -1727.797          32.000
C14  22762499.055 8 118530344.527 8      1327.180          51.000    22762499.000 8  91655128.975 8      1026.275          51.000
E01  25101043.305 8 131906901.256 8     -1856.613          50.000    25101045.820 8 101071507.273 8     -1422.591          51.000
E07  26533966.109 7 139436927.353 7      2414.973          43.000    26533969.203 6 106841274.110 6      1850.643          41.000
E13  25623278.734 5 134651194.741 5     -1970.625          35.000    25623289.406 5 103174344.589 5     -1509.714          35.000
E26  22439975.984 8 117922872.616 8       -89.859          50.000    22439979.750 8  90356566.549 8       -68.835          51.000
> 2020 05 12 16 10 30.0000000  0 17        .000000000000
G10  20976630.922 8 110232993.077 8       600.566          51.000    20976633.312 8  85895842.594 8       467.977          51.000
G16  21569188.820 8 113346854.519 8     -2583.918          48.000    21569188.922 8  88322206.682 8     -2013.446          48.000
G20  21464000.352 5 112794089.124 5     -1763.910          35.000    21463999.766 5  87891497.071 5     -1374.488          33.000
G21  24131930.000 5 126814152.486 5     -2593.410          30.000
G27  20315843.328 8 106760476.206 8       413.973          51.000    20315844.234 8  83189984.105 8       322.576          51.000
R01  21866530.359 8 116889118.321 8      3896.789          49.000    21866534.227 6  90913782.393 6      3030.836          40.000
R07  22334228.656 5 119556842.642 5     -2361.848          30.000
R08  20732813.109 6 111023222.725 6      1246.992          36.000    20732818.773 4  86351437.700 4       969.892          27.000
R14  21153348.766 5 112759197.876 5     -1340.430          34.000    21153350.172 5  87701644.735 5     -1042.559          30.000
R23  19734376.797 6 105565626.319 6      -658.805          38.000    19734381.984 4  82106606.140 4      -512.404          26.000
C05  39621826.758 5 206321248.199 5       -19.984          35.000
C11                                                                  24398636.695 5  98243179.191 5     -1747.011          34.000
C14  22754959.266 8 118491082.566 8      1290.773          51.000    22754959.391 8  91624769.166 8       998.141          51.000
C28  21932532.102 5 114208444.335 5      1091.863          30.000
E01  25111737.898 8 131963099.052 8     -1889.316          50.000    25111740.094 8 101114567.910 8     -1447.694          51.000
E07  26520260.156 6 139364907.821 6      2387.332          41.000    26520263.664 6 106786105.953 6      1829.224          41.000
E26  22440566.344 8 117925974.365 8      -116.395          51.000    22440570.289 8  90358943.212 8       -89.111          51.000
> 2020 05 12 16 11  0.0000000  0 14        .000000000000
G10  20973252.984 8 110215241.809 8       590.402          51.000    20973255.602 8  85882010.443 8       460.054          51.000
G16  21583977.055 8 113424566.820 8     -2589.266          49.000    21583977.438 7  88382761.693 7     -2017.610          47.000
G20  21474112.836 6 112847231.014 6     -1770.855          37.000    21474114.062 5  87932906.434 5     -1379.878          34.000
G27  20313514.695 8 106748238.950 8       409.512          51.000    20313515.641 8  83180448.586 8       319.103          51.000
R01  21844689.539 8 116772365.022 8      3894.406          48.000    21844693.625 6  90822974.296 6      3028.983          41.000
R07  22347523.031 6 119628012.670 6     -2374.652          36.000
R08  20725896.641 6 110986183.587 6      1230.277          37.000
R14  21160965.617 5 112799771.686 5     -1357.133          32.000    21160962.586 4  87733201.983 4     -1055.548          28.000
R23  19738094.945 6 105585522.391 6      -660.008          36.000    19738101.203 4  82122080.888 4      -513.339          26.000
C14  22747564.625 8 118452576.254 8      1283.805          51.000    22747564.477 8  91594993.650 8       992.728          51.000
E01  25122554.586 8 132019937.300 8     -1892.254          51.000    25122556.234 8 101158119.260 8     -1449.894          51.000
E07  26506646.680 6 139293368.234 6      2389.207          38.000    26506651.984 7 106731290.008 7      1830.841          42.000
E26  22441242.961 8 117929529.281 8      -113.070          51.000    22441246.977 8  90361667.109 8       -86.623          51.000
E33  25594022.477 6 134497515.158 6      1808.914          37.000
> 2020 05 12 16 11 30.0000000  0 15        .000000000000
G10  20969946.750 8 110197867.173 8       569.289          51.000    20969949.406 8  85868471.774 8       443.602          51.000
G16  21598809.789 8 113502511.638 8     -2605.598          50.000    21598809.875 7  88443497.887 7     -2030.336          47.000
G20  21484279.398 6 112900655.600 6     -1789.008          39.000    21484281.391 5  87974535.946 5     -1394.041          30.000
G27  20311225.258 8 106736207.783 8       393.953          51.000    20311226.312 8  83171073.649 8       306.976          51.000
R01  21822876.297 7 116655758.139 7      3880.719          46.000    21822880.812 6  90732280.111 6      3018.340          41.000
R07  22360901.969 5 119699640.130 5     -2399.281          32.000
R08  20719084.633 5 110949725.665 5      1202.258          34.000
R14  21168665.867 5 112840901.907 5     -1383.824          34.000    21168678.062 4  87765193.703 4     -1076.308          26.000
R23  19741832.984 6 105605522.979 6      -671.996          36.000    19741839.938 4  82137636.891 4      -522.670          27.000
C05  39622014.008 5 206322222.829 5       -13.152          34.000
C14  22740223.820 8 118414350.125 8      1265.953          50.000    22740223.344 8  91565434.790 8       978.967          51.000
E01  25133401.258 8 132076933.340 8     -1906.051          51.000    25133402.820 8 101201791.517 8     -1460.477          51.000
E07  26493033.492 5 139221830.543 5      2380.375          32.000    26493040.742 6 106676483.076 6      1823.975          41.000
E26  22441914.164 8 117933055.944 8      -120.609          51.000    22441918.102 8  90364369.359 8       -92.415          51.000
E33                                                                  25583712.625 5 103015015.862 5      1381.675          34.000
> 2020 05 12 16 12  0.0000000  0 16        .000000000000
G10  20966744.961 8 110181041.514 8       543.898          51.000    20966747.711 8  85855360.893 8       423.817          51.000
G16  21613719.031 8 113580858.316 8     -2626.004          50.000    21613718.625 7  88504547.218 7     -2046.237          47.000
G20  21494532.164 6 112954532.782 6     -1811.223          38.000    21494532.531 5  88016518.117 5     -1411.339          34.000
G27  20309007.969 8 106724555.655 8       374.355          51.000    20309009.070 8  83161994.077 8       291.709          51.000
R01  21801123.125 7 116539476.908 7      3862.852          42.000    21801128.336 6  90641839.228 6      3004.443          39.000
R08  20712419.547 5 110914026.844 5      1169.605          35.000    20712421.430 4  86266489.605 4       909.678          26.000
R14  21176521.500 5 112882761.741 5     -1415.098          35.000    21176533.969 4  87797755.494 4     -1100.632          26.000
R23  19745623.828 6 105625803.002 6      -688.539          36.000
C05  39622085.391 5 206322595.253 5       -19.926          34.000
C11  24437694.445 5 127253480.525 5     -2272.262          30.000
C14  22732969.453 8 118376575.784 8      1243.883          50.000    22732969.102 8  91536225.331 8       961.822          51.000
E01  25144309.852 8 132134257.687 8     -1924.020          50.000    25144311.922 8 101245715.349 8     -1474.306          51.000
E07  26479452.797 6 139150460.708 6      2367.145          36.000    26479462.570 6 106621818.411 6      1813.822          40.000
E13  25668688.180 6 134889852.111 6     -1998.398          37.000    25668706.133 5 103357241.302 5     -1531.207          30.000
E26  22442612.523 8 117936726.060 8      -132.531          51.000    22442616.359 8  90367181.535 8      -101.526          51.000
E33                                                                  25573425.859 5 102973588.495 5      1374.031          30.000
> 2020 05 12 16 12 30.0000000  0 15        .000000000000
G10  20963653.430 8 110164795.244 8       534.320          51.000    20963656.164 8  85842701.477 8       416.353          51.000
G16  21628709.898 8 113659634.987 8     -2630.566          50.000    21628709.109 7  88565931.612 7     -2049.792          47.000
G20  21504876.125 6 113008890.692 6     -1817.332          39.000    21504876.195 4  88058871.939 4     -1416.124          24.000
G27  20306868.672 8 106713313.571 8       370.316          51.000    20306869.766 8  83153234.016 8       288.558          51.000
R01  21779437.211 6 116423556.677 6      3860.426          41.000    21779442.219 5  90551679.106 5      3002.556          34.000
R07  22388020.180 5 119844789.426 5     -2438.898          35.000
R08  20705904.625 5 110879118.732 5      1153.141          33.000    20705906.078 4  86239338.784 4       896.893          28.000
R23  19749472.836 6 105646393.157 6      -689.266          37.000    19749474.164 4  82169397.277 4      -536.095          26.000
C05  39622158.461 5 206322975.566 5       -10.074          35.000
C11  24450757.969 4 127321511.105 4     -2267.777          29.000
C14  22725807.875 8 118339284.307 8      1237.406          50.000    22725807.305 8  91507389.225 8       956.844          51.000
E01  25155285.812 8 132191938.930 8     -1926.250          50.000    25155288.914 8 101289912.649 8     -1475.922          51.000
E07  26465922.336 6 139079336.490 6      2369.594          37.000    26465927.180 7 106567320.641 7      1815.642          42.000
E26  22443343.852 8 117940569.462 8      -128.551          51.000    22443347.523 8  90370126.479 8       -98.446          51.000
E33  25563152.406 6 134335292.831 6      1799.305          36.000
> 2020 05 12 16 13  0.0000000  0 18        .000000000000
G10  20960648.875 8 110149006.605 8       515.465          51.000    20960651.711 8  85830398.640 8       401.661          51.000
G16  21643758.656 8 113738717.056 8     -2644.277          50.000    21643757.797 7  88627554.001 7     -2060.476          46.000
G20  21515288.109 5 113063605.321 5     -1832.355          35.000    21515288.617 4  88101506.721 4     -1427.822          28.000
G21  24205795.086 5 127202312.081 5     -2585.301          34.000
G27  20304784.328 8 106702360.435 8       356.996          51.000    20304785.461 8  83144699.100 8       278.179          51.000
R01  21757794.969 6 116307877.301 6      3848.469          41.000    21757801.211 5  90461706.459 5      2993.260          34.000
R07  22401742.844 6 119918232.327 6     -2460.223          37.000
R08  20699510.750 6 110844879.262 6      1126.887          38.000
R14  21192643.148 5 112968684.326 5     -1455.590          32.000    21192631.227 5  87864496.142 5     -1132.128          30.000
R23  19753356.977 6 105667169.029 6      -698.848          40.000    19753362.117 4  82185555.840 4      -543.545          26.000
R24  20295940.945 4 108531515.562 4      1605.598          29.000
C05  39622209.961 5 206323243.964 5       -10.410          35.000
C14  22718716.078 8 118302356.022 8      1221.695          49.000    22718715.414 8  91478833.963 8       944.644          51.000
E01  25166306.141 8 132249853.557 8     -1937.660          50.000    25166309.828 8 101334288.776 8     -1484.692          51.000
E07  26452406.773 6 139008309.900 6      2362.625          39.000    26452411.773 7 106512897.772 7      1810.341          44.000
E13  25691419.055 6 135009319.977 6     -1992.453          37.000
E26  22444084.875 8 117944463.848 8      -133.973          51.000    22444088.391 8  90373110.504 8      -102.615          51.000
E33  25552878.984 5 134281285.405 5      1795.750          33.000
> 2020 05 12 16 13 30.0000000  0 17        .000000000000
G10  20957778.156 8 110133922.654 8       493.918          51.000    20957781.242 8  85818644.932 8       384.874          51.000
G16  21658911.852 8 113818349.205 8     -2660.582          50.000    21658911.266 7  88689605.037 7     -2073.181          44.000
G20  21525814.633 5 113118921.487 5     -1851.047          34.000
G21  24220575.117 6 127279974.087 6     -2588.309          36.000
G27  20302802.148 8 106691944.036 8       341.066          51.000    20302803.234 8  83136582.424 8       265.766          51.000
R01  21736246.758 7 116192694.906 7      3833.973          42.000    21736255.461 6  90372120.176 6      2981.982          39.000
R07  22415606.273 5 119992452.985 5     -2483.801          34.000    22415611.031 4  93327501.164 4     -1931.851          24.000
R08  20693288.555 6 110811561.613 6      1097.918          41.000    20693290.250 4  86186818.614 4       853.933          27.000
R14  21200913.164 5 113012812.008 5     -1482.684          34.000    21200910.344 4  87898817.462 4     -1153.207          29.000
R23  19757322.641 7 105688382.018 7      -711.422          43.000    19757327.266 4  82202054.803 4      -553.328          29.000
C05  39622287.055 5 206323645.004 5       -12.820          35.000
C14  22711741.180 8 118266036.650 8      1203.316          50.000    22711740.492 8  91450749.557 8       930.417          51.000
C28  21895279.742 4 114014378.177 4      1057.711          29.000
E01  25177418.008 8 132308246.918 8     -1951.586          51.000    25177421.141 8 101379031.718 8     -1495.359          51.000
E07  26438958.328 6 138937629.868 6      2353.137          41.000    26438962.836 7 106458740.378 7      1803.017          43.000
E26  22444882.570 8 117948655.840 8      -141.812          51.000    22444885.953 8  90376322.551 8      -108.685          51.000
E33                                                                  25542654.523 5 102849684.512 5      1371.639          30.000
> 2020 05 12 16 14  0.0000000  0 15        .000000000000
G10  20955009.727 8 110119375.459 8       475.207          51.000    20955012.930 8  85807309.431 8       370.288          51.000
G16  21674137.211 8 113898360.803 8     -2673.957          49.000    21674136.766 7  88751951.732 7     -2083.603          44.000
G20  21536423.094 5 113174669.064 5     -1866.898          33.000
G21  24235347.844 5 127357610.177 5     -2588.406          35.000
G27  20300890.258 8 106681896.968 8       327.980          51.000    20300891.234 8  83128753.553 8       255.572          51.000
R01  21714760.711 7 116077842.306 7      3822.180          42.000    21714770.633 6  90282790.351 6      2972.806          39.000
R07  22429584.336 5 120067276.826 5     -2504.465          35.000    22429586.391 4  93385702.511 4     -1947.914          25.000
R08  20687206.586 6 110778996.262 6      1072.223          39.000    20687210.273 4  86161490.193 4       833.954          27.000
R14  21209325.109 5 113057645.210 5     -1507.504          32.000    21209320.617 4  87933687.603 4     -1172.509          26.000
R23  19761338.062 7 105709860.752 7      -721.148          44.000    19761344.281 5  82218760.460 5      -560.893          31.000
C14  22704851.812 8 118230160.733 8      1187.777          51.000    22704850.828 8  91423008.041 8       918.389          51.000
C28  21889186.211 5 113982790.334 5      1051.145          33.000
E01  25188588.633 8 132366949.249 8     -1962.602          50.000    25188591.359 8 101424011.391 8     -1503.806          51.000
E07  26425544.602 6 138867130.049 6      2346.242          40.000    26425547.586 7 106404721.030 7      1797.596          42.000
E26  22445704.828 8 117952976.903 8      -146.945          51.000    22445708.109 8  90379633.496 8      -112.627          51.000
> 2020 05 12 16 14 30.0000000  0 17        .000000000000
G10  20952359.172 8 110105447.277 8       454.891          51.000    20952362.383 8  85796456.307 8       354.460          51.000
G16  21689450.133 8 113978831.507 8     -2689.094          49.000    21689449.758 7  88814656.163 7     -2095.401          44.000
G20  21547128.820 6 113230928.360 6     -1882.949          37.000
G21  24250131.398 5 127435301.925 5     -2589.773          34.000
G27  20299064.477 8 106672302.353 8       313.117          51.000    20299065.344 8  83121277.222 8       243.987          51.000
R01  21693352.836 7 115963407.766 7      3808.488          42.000    21693363.547 6  90193785.693 6      2962.158          41.000
R07  22443691.125 4 120142784.235 4     -2527.926          29.000
R08  20681281.477 6 110747268.946 6      1044.656          36.000    20681281.344 4  86136813.316 4       812.507          29.000
R14  21217883.328 5 113103264.978 5     -1532.367          32.000
R23  19765418.969 7 105731688.913 7      -732.508          45.000    19765424.891 5  82235737.937 5      -569.728          32.000
C05  39622437.141 5 206324427.390 5       -13.777          35.000
C11  24503263.641 5 127594925.464 5     -2288.348          31.000
C14  22698063.391 8 118194810.744 8      1170.449          51.000    22698062.172 8  91395673.207 8       905.050          51.000
C28  21883145.773 4 113951405.922 4      1042.188          29.000
E01  25199833.227 8 132426041.109 8     -1975.371          50.000    25199835.797 8 101469289.561 8     -1513.572          50.000
E07  26412180.055 6 138796894.458 6      2337.453          39.000    26412183.016 6 106350904.190 6      1791.083          41.000
E26  22446567.281 8 117957508.922 8      -153.746          51.000    22446570.477 8  90383106.074 8      -117.746          51.000
> 2020 05 12 16 15  0.0000000  0 15        .000000000000
G10  20949821.680 8 110092112.358 8       433.402          51.000    20949824.664 8  85786065.473 8       337.716          51.000
G16  21704845.508 8 114059733.096 8     -2704.879          50.000    21704844.906 7  88877696.326 7     -2107.698          44.000
G20  21557927.125 5 113287671.304 5     -1900.656          34.000
G21  24264921.328 5 127513022.750 5     -2592.062          35.000
G27  20297319.992 8 106663135.088 8       297.246          51.000    20297320.789 8  83114133.904 8       231.620          51.000
R01  21672019.688 7 115849369.335 7      3793.371          44.000    21672030.578 6  90105089.135 6      2950.400          41.000
R08  20675506.914 5 110716354.715 5      1016.281          32.000    20675511.828 5  86112769.087 5       790.441          31.000
