     3.02           OBSERVATION DATA    M (MIXED)           RINEX VERSION / TYPE
SAVERINEX           SC600               20200502 145931 LCL PGM / RUN BY / DATE
       G = GPS       R = GLONASS       C = COMPASS          COMMENT
       S = SBAS      J = QZSS          E = GALILEO          COMMENT
BEAN                                                        MARKER NAME
1                                                           MARKER NUMBER
GEODETIC                                                    MARKER TYPE
Unige DICCA         GTER                                    OBSERVER / AGENCY
SC60291900056       SC600               2.12(191226)        REC # / TYPE / VERS
                    HEMA45          NONE                    ANT # / TYPE
  4509407.8091   693652.4678  4442337.6214                  APPROX POSITION XYZ
        0.0000        0.0000        0.0000                  ANTENNA: DELTA H/E/N
G    8 C1C L1C D1C S1C C2Y L2Y D2Y S2Y                      SYS / # / OBS TYPES
R    8 C1C L1C D1C S1C C2P L2P D2P S2P                      SYS / # / OBS TYPES
C    4 C1I L1I D1I S1I                                      SYS / # / OBS TYPES
E    8 C1C L1C D1C S1C C7Q L7Q D7Q S7Q                      SYS / # / OBS TYPES
DBHZ                                                        COMMENT
     30.000                                                 INTERVAL
  2020    05    02    12    00    0.0000000     GPS         TIME OF FIRST OBS
  2020    05    02    12    59   30.0000000     GPS         TIME OF LAST OBS
     0                                                      RCV CLOCK OFFS APPL
G L1C  0.00000                                              SYS / PHASE SHIFT
G L2Y  0.00000                                              SYS / PHASE SHIFT
R L1C  0.00000                                              SYS / PHASE SHIFT
R L2P  0.25000                                              SYS / PHASE SHIFT
C L1I  0.00000                                              SYS / PHASE SHIFT
E L1C  0.50000                                              SYS / PHASE SHIFT
E L7Q -0.25000                                              SYS / PHASE SHIFT
 13 R04  6 R05  1 R06 -4 R07  5 R09 -2 R10 -5 R14 -7 R15  0 GLONASS SLOT / FRQ #
    R16 -1 R17  4 R18 -3 R19  3 R20  2                      GLONASS SLOT / FRQ #
 C1C   71.950 C2C   71.950 C2P   71.950                     GLONASS COD/PHS/BIS
    18                                                      LEAP SECONDS
*** Above antenna height is from mark to ANTENNA BOTTOM.    COMMENT
    17     4        0.0000        ANT MEASURE TYPE/HEIGT    COMMENT
    0.0000    0.0000    0.0458    0.0405    0.0000          COMMENT
                    BASE STATION                            COMMENT
                                                            END OF HEADER
> 2020 05 02 12 00  0.0000000  0 15        .000000000000
G14  23654586.828 6 124305690.872 6     -2108.863          38.000    23654582.320 5  96861555.239 5     -1643.267          33.000
G18  23149994.930 6 121654055.758 6      3553.059          37.000
G21  22996495.164 6 120847391.487 6      3234.652          36.000    22996497.820 5  94166824.520 5      2520.520          35.000
G25  20797419.070 8 109291221.626 8     -1592.512          51.000    20797421.375 8  85161961.771 8     -1240.918          51.000
G29  20206549.359 8 106186142.400 8        -6.547          51.000    20206550.234 8  82742472.281 8        -5.101          51.000
R09  19321135.070 7 103173804.745 7      1283.262          43.000    19321136.203 6  80246300.847 6       998.092          40.000
R16  21235606.469 7 113436792.222 7     -3100.715          46.000    21235608.914 7  88228597.040 7     -2411.667          43.000
R19  19247632.555 6 102961890.030 6      -561.121          38.000    19247634.641 7  80081485.030 7      -436.428          45.000
R20  21384124.789 6 114350527.436 6      3651.801          41.000    21384129.414 7  88939314.713 7      2840.293          45.000
C27  21487990.227 8 111893710.768 8      -175.582          51.000
C30  23370832.758 8 121698111.073 8      2599.531          50.000
E13  24925174.672 7 130982687.425 7      2605.293          45.000    24925180.852 8 100363431.917 8      1996.192          51.000
E15  23446036.641 8 123209770.096 8       -17.465          50.000    23446040.984 8  94407527.206 8       -13.364          51.000
E27  23289748.367 8 122388452.797 8      -407.191          51.000    23289751.391 8  93778181.581 8      -311.971          51.000
E30  25265829.695 6 132772806.785 6     -2342.195          36.000    25265831.648 5 101735034.026 5     -1795.001          35.000
> 2020 05 02 12 00 30.0000000  0 16        .000000000000
G14  23666638.359 6 124369022.045 6     -2116.453          39.000    23666632.969 5  96910904.225 5     -1649.175          30.000
G18  23129711.406 6 121547447.516 6      3550.578          37.000
G21  22978033.766 5 120750373.248 5      3230.250          33.000    22978035.891 5  94091216.023 5      2517.081          33.000
G25  20806522.492 8 109339060.582 8     -1600.156          51.000    20806525.000 8  85199238.876 8     -1246.875          51.000
G29  20206610.602 8 106186463.922 8       -18.516          51.000    20206611.547 8  82742722.847 8       -14.428          51.000
R09  19313958.586 7 103135482.340 7      1267.887          43.000    19313960.352 6  80216494.569 6       986.134          41.000
R16  21253036.859 7 113529902.916 7     -3110.551          46.000    21253040.250 7  88301016.432 7     -2419.317          44.000
R18  21842110.430 5 116594642.634 5     -3752.121          31.000
R19  19250828.758 6 102978986.490 6      -582.457          39.000    19250830.648 7  80094782.271 7      -453.022          45.000
R20  21363658.086 6 114241083.030 6      3640.898          40.000    21363661.625 7  88854191.396 7      2831.813          44.000
C27  21489023.719 8 111899091.467 8      -186.727          51.000
C30  23355862.055 8 121620160.958 8      2593.539          48.000
E13  24910307.008 8 130904557.875 8      2599.898          48.000    24910313.539 8 100303566.445 8      1992.157          51.000
E15  23446158.133 8 123210406.125 8       -28.453          51.000    23446161.836 8  94408014.577 8       -21.808          51.000
E27  23292078.422 8 122400696.761 8      -412.645          51.000    23292081.352 8  93787563.313 8      -316.155          51.000
E30  25279193.695 5 132843058.896 5     -2343.582          34.000    25279197.438 5 101788852.793 5     -1795.872          35.000
> 2020 05 02 12 01  0.0000000  0 16        .000000000000
G14  23678756.422 6 124432702.380 6     -2133.652          39.000    23678751.055 5  96960525.182 5     -1662.589          35.000
G18  23109466.289 5 121441041.610 5      3538.285          35.000
G25  20815691.156 8 109387242.219 8     -1616.938          51.000    20815693.711 8  85236783.003 8     -1259.951          51.000
G29  20206761.859 8 106187257.663 8       -39.445          51.000    20206762.648 8  82743341.377 8       -30.734          51.000
R09  19306888.977 7 103097732.744 7      1243.605          42.000    19306891.562 6  80187133.718 6       967.246          41.000
R16  21270545.664 7 113623433.795 7     -3129.832          45.000    21270549.906 7  88373762.651 7     -2434.314          44.000
R18  21863240.461 5 116707413.987 5     -3768.727          34.000
R19  19254167.180 6 102996844.517 6      -613.387          38.000    19254168.992 7  80108671.878 7      -477.079          45.000
R20  21343276.969 6 114132096.679 6      3619.898          39.000    21343279.383 7  88769424.332 7      2815.480          43.000
C27  21490143.352 8 111904921.488 8      -206.867          51.000
C28  24227870.492 5 126160909.506 5     -2769.816          33.000
C30  23340946.555 7 121542501.962 7      2578.730          46.000
E13  24895492.039 8 130826702.276 8      2585.430          49.000    24895498.328 8 100243910.912 8      1981.085          51.000
E15  23446364.242 8 123211486.027 8       -48.500          51.000    23446367.320 8  94408842.060 8       -37.213          51.000
E27  23294461.406 8 122413218.666 8      -427.207          51.000    23294464.172 8  93797158.020 8      -327.320          51.000
E30  25292589.273 5 132913455.605 5     -2354.391          35.000    25292593.625 5 101842796.172 5     -1804.295          34.000
> 2020 05 02 12 01 30.0000000  0 16        .000000000000
G14  23690946.672 6 124496761.070 6     -2137.430          39.000    23690941.984 5  97010440.974 5     -1665.530          34.000
G18  23089266.078 5 121334872.792 5      3539.273          35.000
G25  20824931.047 8 109435797.982 8     -1620.297          51.000    20824933.625 8  85274618.678 8     -1262.569          51.000
G29  20207008.711 8 106188554.461 8       -47.242          51.000    20207009.109 8  82744351.883 8       -36.812          51.000
R09  19299933.172 6 103060590.859 6      1232.379          41.000    19299936.242 7  80158245.592 7       958.517          42.000
R16  21288138.969 7 113717415.756 7     -3135.707          46.000    21288143.391 7  88446859.689 7     -2438.886          42.000
R18  21884429.312 5 116820515.059 5     -3770.957          32.000
R19  19257653.688 6 103015494.222 6      -630.414          38.000    19257655.070 7  80123177.194 7      -490.322          45.000
R20  21322987.789 6 114023603.030 6      3612.684          38.000    21322990.570 7  88685040.476 7      2809.868          46.000
C27  21491355.164 8 111911231.531 8      -214.020          51.000
C28  24243819.570 5 126243937.690 5     -2768.660          30.000
C30  23326094.242 8 121465166.551 8      2576.691          48.000
E13  24880735.484 8 130749153.800 8      2584.086          50.000    24880741.430 8 100184490.727 8      1980.035          51.000
E15  23446660.562 8 123213041.153 8       -55.383          51.000    23446663.094 8  94410033.687 8       -42.499          51.000
E27  23296903.281 8 122426050.872 8      -428.598          51.000    23296906.070 8  93806990.484 8      -328.391          51.000
E30  25306022.578 6 132984050.496 6     -2352.523          37.000    25306025.031 5 101896876.288 5     -1802.586          30.000
> 2020 05 02 12 02  0.0000000  0 14        .000000000000
G14  23703220.516 6 124561259.974 6     -2139.480          40.000    23703215.461 5  97060699.770 5     -1667.131          34.000
G25  20834254.172 8 109484791.986 8     -1622.484          50.000    20834256.789 8  85312795.817 8     -1264.274          50.000
G29  20207363.312 8 106190417.969 8       -53.555          51.000    20207363.805 8  82745803.963 8       -41.731          51.000
R09  19293103.836 7 103024124.273 7      1222.543          44.000    19293107.344 7  80129882.674 7       950.867          42.000
R16  21305829.250 7 113811912.407 7     -3140.207          46.000    21305832.828 6  88520357.054 6     -2442.386          39.000
R19  19261299.797 6 103034999.554 6      -645.996          39.000    19261301.625 7  80138348.044 7      -502.438          45.000
R20  21302803.070 6 113915670.782 6      3606.551          37.000    21302807.633 7  88601093.231 7      2805.095          47.000
C27  21492671.211 8 111918084.565 8      -219.605          51.000
C28  24259820.242 5 126327285.318 5     -2764.977          33.000
C30  23311318.281 8 121388219.523 8      2576.195          50.000
E13  24866049.914 8 130671978.193 8      2584.289          50.000    24866055.242 8 100125356.246 8      1980.152          51.000
E15  23447059.250 8 123215135.464 8       -60.793          51.000    23447061.383 8  94411638.449 8       -46.585          51.000
E27  23299416.680 8 122439258.311 8      -428.504          51.000    23299419.492 8  93817110.461 8      -328.376          51.000
E30  25319505.898 6 133054903.611 6     -2348.016          38.000
> 2020 05 02 12 02 30.0000000  0 15        .000000000000
G14  23715511.609 7 124625848.830 7     -2163.457          42.000    23715506.352 5  97111028.761 5     -1685.811          34.000
G21  22904666.234 5 120364828.811 5      3194.480          34.000
G25  20843594.438 8 109533876.394 8     -1646.477          49.000    20843596.945 8  85351043.411 8     -1282.969          49.000
G29  20207759.445 8 106192500.182 8       -82.008          51.000    20207760.328 8  82747426.473 8       -63.902          51.000
R09  19286335.922 7 102987982.680 7      1190.305          45.000    19286338.594 7  80101772.563 7       925.793          42.000
R16  21323549.352 7 113906569.302 7     -3167.027          43.000    21323551.570 6  88593979.004 6     -2463.247          36.000
R19  19265039.742 6 103055004.786 6      -684.176          39.000    19265041.289 7  80153907.683 7      -532.134          44.000
R20  21282658.172 6 113807949.292 6      3578.121          37.000    21282663.938 8  88517309.911 8      2782.986          48.000
C27  21494025.336 8 111925135.438 8      -247.086          51.000
C28  24275811.672 5 126410567.367 5     -2784.414          33.000
C30  23296551.711 8 121311317.588 8      2553.785          51.000
E13  24851369.359 8 130594829.335 8      2562.254          51.000    24851374.023 8 100066242.243 8      1963.300          51.000
E15  23447494.320 8 123217421.035 8       -88.273          51.000    23447496.258 8  94413389.762 8       -67.674          51.000
E27  23301935.531 8 122452494.072 8      -450.621          51.000    23301938.398 8  93827252.139 8      -345.242          51.000
E30  25332972.445 6 133125667.357 6     -2366.285          39.000
> 2020 05 02 12 03  0.0000000  0 16        .000000000000
G12  23007130.008 6 120903293.641 6     -2855.312          36.000    23007128.281 5  94210334.458 5     -2224.928          33.000
G14  23727889.922 6 124690896.655 6     -2172.699          41.000    23727884.781 5  97161715.309 5     -1693.022          35.000
G21  22886446.469 5 120269087.979 5      3188.113          34.000
G25  20853022.836 8 109583423.087 8     -1656.148          50.000    20853025.141 8  85389651.200 8     -1290.508          50.000
G29  20208267.859 8 106195171.754 8       -95.652          51.000    20208268.484 8  82749508.229 8       -74.534          51.000
R09  19279699.664 7 102952546.607 7      1172.680          43.000    19279702.445 7  80074211.163 7       912.084          43.000
R16  21341368.852 6 114001762.880 6     -3178.844          40.000    21341370.711 6  88668018.351 6     -2472.437          37.000
R19  19268943.453 6 103075886.963 6      -707.477          39.000    19268944.805 7  80170149.389 7      -550.260          44.000
R20  21262624.258 6 113700819.799 6      3564.418          37.000    21262630.734 8  88433987.069 8      2772.328          48.000
C27  21495488.070 8 111932752.035 8      -260.113          51.000
C28  24291860.820 5 126494150.697 5     -2788.082          34.000
C30  23281864.820 8 121234830.569 8      2545.848          50.000
E13  24836764.828 8 130518080.687 8      2554.777          51.000    24836768.758 8 100007434.872 8      1957.652          51.000
E15  23448036.406 8 123220269.516 8      -101.109          51.000    23448038.594 8  94415572.380 8       -77.432          51.000
E27  23304530.602 8 122466130.797 8      -458.027          51.000    23304533.336 8  93837701.061 8      -350.935          51.000
E30  25346492.750 6 133196713.504 6     -2369.594          38.000    25346491.609 5 102059817.578 5     -1816.073          32.000
> 2020 05 02 12 03 30.0000000  0 17        .000000000000
G12  23023445.070 5 120989035.310 5     -2861.434          32.000    23023444.086 5  94277153.898 5     -2229.689          31.000
G14  23740323.742 7 124756236.532 7     -2184.059          43.000    23740319.234 6  97212629.459 6     -1701.864          36.000
G18  23008815.922 5 120912136.654 5      3509.000          32.000    23008816.406 5  94217256.777 5      2734.286          33.000
G21  22868269.438 5 120173567.728 5      3179.160          33.000
G25  20862507.977 8 109633267.366 8     -1667.414          50.000    20862510.125 8  85428490.862 8     -1299.284          50.000
G29  20208857.180 8 106198267.797 8      -111.320          51.000    20208857.250 8  82751920.740 8       -86.740          51.000
R09  19273164.812 7 102917651.352 7      1153.047          46.000    19273167.758 7  80047070.378 7       896.814          44.000
R16  21359257.086 7 114097324.424 7     -3192.520          42.000    21359261.078 6  88742343.959 6     -2483.074          39.000
R19  19272979.492 6 103097476.875 6      -732.406          40.000    19272980.766 7  80186941.557 7      -569.646          45.000
R20  21242670.242 6 113594118.046 6      3548.539          37.000    21242677.102 7  88350996.888 7      2759.978          47.000
C27  21497028.039 8 111940770.762 8      -275.059          51.000
C28  24307938.164 6 126577870.744 6     -2793.684          37.000
C30  23267224.938 7 121158596.695 7      2535.781          47.000
E13  24822205.281 8 130441569.346 8      2545.309          51.000    24822208.648 8  99948809.341 8      1950.316          51.000
E15  23448654.266 8 123223516.143 8      -115.930          51.000    23448656.750 8  94418060.074 8       -88.808          51.000
E27  23307170.781 8 122480004.786 8      -467.484          51.000    23307173.102 8  93848331.778 8      -358.184          51.000
E30  25360035.047 6 133267877.559 6     -2375.023          38.000    25360037.594 6 102114345.774 6     -1819.730          37.000
> 2020 05 02 12 04  0.0000000  0 17        .000000000000
G12  23039794.375 5 121074930.784 5     -2865.906          34.000
G14  23752817.570 7 124821891.264 7     -2193.594          42.000    23752813.977 6  97263788.907 6     -1709.300          39.000
G18  22988801.594 5 120806941.346 5      3503.234          35.000    22988799.508 5  94135283.508 5      2729.802          33.000
G21  22850138.789 5 120078290.468 5      3171.199          30.000
G25  20872054.555 8 109683434.480 8     -1677.426          50.000    20872056.523 8  85467582.073 8     -1307.085          50.000
G29  20209531.859 8 106201812.972 8      -125.434          51.000    20209531.797 8  82754683.232 8       -97.740          51.000
R09  19266736.914 7 102883325.834 7      1135.074          46.000    19266739.391 7  80020372.781 7       882.839          44.000
R16  21377220.047 7 114193278.559 7     -3204.762          45.000    21377224.992 6  88816974.927 6     -2492.592          40.000
R19  19277152.227 6 103119798.353 6      -755.758          40.000    19277153.727 7  80204302.726 7      -587.812          44.000
R20  21222802.336 6 113487872.783 6      3534.270          38.000    21222808.305 7  88268361.745 7      2748.876          45.000
C27  21498649.781 8 111949215.980 8      -288.406          51.000
C28  24324048.430 6 126661751.030 6     -2797.973          37.000
C30  23252637.039 7 121082642.213 7      2527.402          47.000
E13  24807695.930 8 130365322.104 8      2537.590          51.000    24807698.789 8  99890386.183 8      1944.354          51.000
E15  23449352.523 8 123227185.933 8      -129.000          51.000    23449355.336 8  94420871.997 8       -98.811          51.000
E27  23309861.023 8 122494142.037 8      -475.242          51.000    23309863.031 8  93859164.218 8      -364.111          51.000
E30  25373605.109 5 133339184.613 5     -2378.734          35.000    25373610.734 6 102168983.650 6     -1822.700          40.000
> 2020 05 02 12 04 30.0000000  0 17        .000000000000
G12  23056184.586 5 121161069.668 5     -2872.648          30.000    23056189.383 4  94411240.417 4     -2238.427          27.000
G14  23765386.039 7 124887938.300 7     -2204.742          43.000    23765383.539 6  97315254.066 6     -1717.981          37.000
G18  22968839.016 5 120702030.598 5      3495.609          33.000    22968837.211 5  94053535.085 5      2723.864          33.000
G21  22832072.008 5 119983348.799 5      3162.867          35.000    22832083.406 5  93493568.489 5      2464.572          31.000
G25  20881677.562 8 109734004.212 8     -1689.160          49.000    20881679.633 8  85506987.015 8     -1316.232          49.000
G29  20210307.125 8 106205886.338 8      -141.340          51.000    20210306.875 8  82757857.283 8      -110.135          51.000
R09  19260431.289 7 102849653.379 7      1114.781          47.000    19260433.422 7  79994183.104 7       867.052          44.000
R16  21395271.961 7 114289705.008 7     -3218.770          45.000    21395276.812 6  88891973.203 6     -2503.490          39.000
R19  19281476.375 6 103142931.138 6      -781.250          41.000    19281478.133 7  80222294.923 7      -607.639          44.000
R20  21203036.320 6 113382168.062 6      3517.953          38.000    21203039.688 7  88186147.063 7      2736.192          43.000
C27  21500368.500 8 111958166.204 8      -303.414          51.000
C28  24340205.562 5 126745869.282 5     -2804.727          35.000
C30  23238118.445 8 121007047.497 8      2516.992          48.000
E13  24793252.195 8 130289420.430 8      2527.621          50.000    24793254.719 8  99832227.814 8      1936.749          50.000
E15  23450146.367 8 123231358.472 8      -144.082          51.000    23450149.641 8  94424069.159 8      -110.383          51.000
E27  23312616.734 8 122508623.232 8      -485.090          51.000    23312618.539 8  93870260.206 8      -371.680          51.000
E30  25387214.797 5 133410713.711 5     -2384.852          32.000    25387224.172 6 102223792.370 6     -1827.093          38.000
> 2020 05 02 12 05  0.0000000  0 18        .000000000000
G12  23072573.797 5 121247193.749 5     -2878.293          35.000
G14  23777974.367 7 124954089.446 7     -2215.316          42.000    23777972.398 6  97366800.359 6     -1726.224          37.000
G18  22948875.625 5 120597156.738 5      3488.418          31.000    22948871.109 5  93971794.126 5      2718.257          32.000
G21  22814015.102 6 119888455.465 6      3153.906          39.000    22814025.102 5  93419625.741 5      2457.589          33.000
G25  20891322.828 8 109784690.779 8     -1700.043          49.000    20891325.195 8  85546483.018 8     -1324.709          49.000
G29  20211128.422 8 106210201.276 8      -156.316          51.000    20211127.797 8  82761219.555 8      -121.805          51.000
R09  19254194.172 7 102816346.793 7      1095.473          47.000    19254196.125 7  79968277.978 7       852.034          45.000
R16  21413357.766 7 114386311.887 7     -3231.738          46.000    21413361.711 6  88967111.838 6     -2513.577          39.000
R18  22034137.055 5 117619653.677 5     -3836.363          34.000    22034144.250 4  91482035.307 4     -2983.841          27.000
R19  19285897.695 6 103166582.327 6      -805.551          40.000    19285899.492 7  80240690.319 7      -626.536          44.000
R20  21183317.273 6 113276716.662 6      3502.477          37.000    21183319.047 7  88104129.417 7      2724.151          44.000
C27  21502129.680 8 111967337.793 8      -317.809          51.000
C28  24356353.672 5 126829940.903 5     -2810.539          35.000
C30  23223616.242 8 120931530.737 8      2507.535          50.000
E13  24778820.117 8 130213580.248 8      2518.527          50.000    24778822.352 8  99774116.559 8      1929.820          50.000
E15  23450981.539 8 123235747.877 8      -158.328          51.000    23450985.195 8  94427432.491 8      -121.325          51.000
E27  23315383.664 8 122523163.507 8      -494.121          51.000    23315385.516 8  93881401.448 8      -378.579          51.000
E30                                                                  25400823.477 5 102278553.065 5     -1830.784          34.000
> 2020 05 02 12 05 30.0000000  0 15        .000000000000
G14  23790625.789 7 125020573.311 7     -2228.379          43.000    23790624.688 6  97418605.891 6     -1736.405          37.000
G18  22928956.195 6 120492484.394 6      3478.414          39.000    22928951.672 6  93890231.380 6      2710.459          38.000
G21  22796011.930 6 119793844.168 6      3142.504          38.000    22796018.875 4  93345902.713 4      2448.689          29.000
G25  20901034.305 8 109835725.284 8     -1713.543          50.000    20901036.891 8  85586250.163 8     -1335.228          50.000
G29  20212039.547 8 106214988.398 8      -173.957          51.000    20212038.641 8  82764949.800 8      -135.548          51.000
R09  19248069.820 7 102783643.291 7      1073.488          47.000    19248071.586 7  79942841.916 7       834.935          45.000
R16  21431521.039 7 114483332.819 7     -3247.516          46.000    21431523.844 6  89042572.535 6     -2525.845          40.000
R19  19290459.602 6 103190985.831 6      -832.633          40.000    19290461.469 7  80259670.850 7      -647.603          45.000
R20  21163688.734 5 113171756.489 5      3484.027          35.000    21163691.047 7  88022493.782 7      2709.799          44.000
C27  21503977.117 8 111976959.181 8      -334.598          51.000
C28  24372536.555 5 126914193.292 5     -2817.184          33.000
C30  23209173.625 8 120856322.226 8      2495.355          51.000
E13  24764443.977 8 130138034.307 8      2506.789          51.000    24764446.258 8  99716230.767 8      1920.736          50.000
E15  23451901.906 8 123240585.052 8      -175.273          51.000    23451905.688 8  94431138.904 8      -134.199          51.000
E27  23318205.789 8 122537994.813 8      -505.719          51.000    23318207.930 8  93892765.689 8      -387.487          51.000
> 2020 05 02 12 06  0.0000000  0 15        .000000000000
G12  23105509.211 5 121420247.853 5     -2882.059          35.000
G14  23803392.133 7 125087659.669 7     -2228.680          43.000    23803391.789 6  97470880.951 6     -1736.634          38.000
G18  22909133.219 6 120388323.892 6      3481.090          41.000    22909129.898 6  93809067.461 6      2712.541          40.000
G21  22778114.641 6 119699790.519 6      3143.164          37.000    22778121.695 5  93272614.310 5      2449.225          34.000
G25  20910863.781 8 109887379.997 8     -1714.434          50.000    20910866.406 8  85626500.580 8     -1335.922          50.000
G29  20213092.195 8 106220519.490 8      -178.922          51.000    20213090.969 8  82769259.763 8      -139.420          51.000
R09  19242110.672 7 102751822.566 7      1063.965          46.000    19242112.445 7  79918092.470 7       827.525          46.000
R16  21449813.117 7 114581043.339 7     -3250.375          46.000    21449815.430 6  89118569.513 6     -2528.072          40.000
R19  19295213.703 6 103216416.703 6      -846.746          40.000    19295215.812 7  80279450.430 7      -658.580          45.000
R20  21144202.312 5 113067567.801 5      3478.148          33.000    21144207.641 7  87941458.125 7      2705.227          45.000
C27  21505962.945 8 111987299.495 8      -339.035          51.000
C30  23194842.586 8 120781693.040 8      2495.582          51.000
E13  24750176.094 8 130063056.464 8      2507.539          51.000    24750178.648 8  99658780.267 8      1921.361          50.000
E15  23452959.328 8 123246142.006 8      -179.430          51.000    23452963.016 8  94435396.841 8      -137.476          51.000
E27  23321135.133 8 122553390.271 8      -504.773          51.000    23321137.680 8  93904562.199 8      -386.810          51.000
> 2020 05 02 12 06 30.0000000  0 15        .000000000000
G14  23816177.312 7 125154844.810 7     -2248.398          44.000    23816177.602 6  97523232.949 6     -1752.002          36.000
G18  22889311.750 7 120284177.192 7      3463.789          42.000    22889311.016 7  93727914.284 7      2699.059          42.000
G21  22760226.766 5 119605795.426 5      3124.812          30.000    22760235.766 5  93199359.344 5      2434.916          31.000
G25  20920716.055 8 109939153.661 8     -1735.148          50.000    20920718.734 8  85666843.679 8     -1352.064          50.000
G29  20214190.930 8 106226292.844 8      -203.812          51.000    20214189.242 8  82773758.489 8      -158.815          51.000
R09  19236222.266 8 102720378.030 8      1034.363          48.000    19236224.086 7  79893635.617 7       804.508          46.000
R16  21468138.438 7 114678932.557 7     -3273.457          45.000    21468140.523 6  89194705.512 6     -2546.022          39.000
R19  19300064.102 6 103242363.069 6      -881.074          40.000    19300066.117 7  80299630.943 7      -685.280          44.000
R20  21124765.133 5 112963643.490 5      3452.309          35.000    21124773.680 7  87860628.090 7      2685.129          47.000
C27  21507991.094 8 111997861.481 8      -363.102          51.000
C30  23180527.469 8 120707147.814 8      2476.078          51.000
E13  24735921.547 8 129988147.137 8      2488.496          51.000    24735923.820 8  99601382.276 8      1906.761          50.000
E15  23454058.219 8 123251917.303 8      -203.488          51.000    23454062.078 8  94439822.092 8      -155.932          51.000
E27  23324076.555 8 122568849.500 8      -523.766          51.000    23324079.305 8  93916407.561 8      -401.279          51.000
E30  25441869.547 5 133697922.488 5     -2406.844          35.000
> 2020 05 02 12 07  0.0000000  0 18        .000000000000
G02  24438973.539 5 128427655.908 5     -2648.766          33.000
G12  23138504.562 5 121593679.275 5     -2890.434          33.000    23138502.367 5  94748287.985 5     -2252.295          31.000
G14  23828987.344 7 125222161.709 7     -2246.062          44.000    23828988.602 6  97575687.623 6     -1750.179          41.000
G18  22869500.953 7 120180082.745 7      3468.879          44.000    22869501.977 7  93646801.792 7      2703.023          43.000
G21  22742357.531 6 119511897.116 6      3128.203          37.000    22742368.570 5  93126193.715 5      2437.564          34.000
G25  20930597.773 8 109991081.568 8     -1733.527          51.000    20930600.367 8  85707306.971 8     -1350.801          51.000
G29  20215342.141 8 106232343.048 8      -206.414          51.000    20215340.398 8  82778472.937 8      -160.842          51.000
R09  19230411.352 8 102689348.066 8      1027.449          48.000    19230413.312 7  79869501.194 7       799.127          47.000
R16  21486503.469 7 114777034.906 7     -3273.660          45.000    21486505.633 6  89271007.323 6     -2546.180          40.000
R19  19305017.539 6 103268859.280 6      -892.535          40.000    19305019.211 7  80320239.117 7      -694.194          45.000
R20  21105387.414 6 112860022.624 6      3448.859          39.000    21105396.727 8  87780034.099 8      2682.446          48.000
C27  21510068.797 8 112008679.584 8      -364.918          51.000
C28  24421313.289 5 127168190.540 5     -2821.340          31.000
C30  23166234.977 8 120632722.833 8      2478.836          50.000
E13  24721687.219 8 129913343.278 8      2491.676          51.000    24721688.773 8  99544065.080 8      1909.104          50.000
E15  23455205.391 8 123257946.029 8      -205.270          51.000    23455209.305 8  94444441.520 8      -157.243          51.000
E27  23327037.102 8 122584408.690 8      -520.461          51.000    23327040.047 8  93928329.526 8      -398.714          51.000
E30  25455567.992 5 133769912.482 5     -2399.461          34.000
> 2020 05 02 12 07 30.0000000  0 17        .000000000000
G02  24454161.266 5 128507468.211 5     -2666.387          33.000
G14  23841883.156 7 125289929.417 7     -2265.246          43.000    23841885.180 6  97628493.608 6     -1765.127          39.000
G18  22849762.805 7 120076365.473 7      3452.160          45.000    22849764.625 7  93565983.218 7      2689.995          43.000
G21  22724570.461 7 119418420.414 7      3110.211          43.000    22724581.359 4  93053354.721 4      2423.532          28.000
G25  20940570.047 8 110043485.431 8     -1753.469          50.000    20940572.359 8  85748141.140 8     -1366.339          50.000
G29  20216607.094 8 106238990.973 8      -230.309          51.000    20216605.555 8  82783653.145 8      -179.461          51.000
R09  19224739.820 8 102659062.457 8       998.418          49.000    19224741.852 7  79845945.723 7       776.547          47.000
R16  21504968.945 7 114875676.058 7     -3295.836          45.000    21504971.711 6  89347728.178 6     -2563.431          38.000
R19  19310134.227 6 103296230.711 6      -925.738          41.000    19310136.047 7  80341528.024 7      -720.019          44.000
R20  21086129.586 7 112757035.393 7      3423.539          42.000    21086138.109 8  87699932.968 8      2662.756          48.000
C27  21512256.469 8 112020071.983 8      -388.102          51.000
C28  24437626.664 5 127253130.500 5     -2835.488          32.000
C30  23152025.820 8 120558738.173 8      2459.992          48.000
E13  24707534.516 8 129838968.188 8      2473.242          51.000    24707535.477 8  99487076.439 8      1895.019          50.000
E15  23456462.016 8 123264549.677 8      -228.473          51.000    23456465.578 8  94449501.467 8      -175.028          51.000
E27  23330078.172 8 122600390.351 8      -538.504          51.000    23330081.562 8  93940575.204 8      -412.581          51.000
E30  25469323.992 6 133842200.057 6     -2413.121          36.000
> 2020 05 02 12 08  0.0000000  0 17        .000000000000
G02  24469405.227 5 128587577.876 5     -2673.617          31.000
G14  23854837.914 7 125358007.471 7     -2273.516          43.000    23854840.875 6  97681541.399 6     -1771.571          41.000
G18  22830071.242 7 119972890.499 7      3446.238          46.000    22830073.461 6  93485353.468 6      2685.387          41.000
G21  22706838.008 7 119325230.350 7      3102.668          45.000    22706850.719 4  92980739.103 4      2417.663          28.000
G25  20950606.617 8 110096227.212 8     -1762.457          50.000    20950608.984 8  85789238.612 8     -1373.343          50.000
G29  20217959.469 8 106246097.977 8      -243.312          51.000    20217958.094 8  82789191.064 8      -189.594          51.000
R09  19219181.984 8 102629383.540 8       980.391          49.000    19219183.859 7  79822862.125 7       762.529          47.000
R16  21523509.188 7 114974714.409 7     -3306.543          46.000    21523511.547 6  89424757.908 6     -2571.759          37.000
R19  19315388.016 6 103324334.964 6      -947.859          41.000    19315389.750 7  80363386.893 7      -737.224          44.000
R20  21066964.992 7 112654544.684 7      3409.414          42.000    21066972.117 8  87620218.044 8      2651.770          48.000
C27  21514528.117 8 112031901.307 8      -400.371          51.000
C28  24453970.414 5 127338234.561 5     -2838.766          33.000
C30  23137875.109 8 120485058.339 8      2452.160          48.000
E13  24693437.312 8 129764885.526 8      2465.824          51.000    24693437.961 8  99430311.854 8      1889.323          50.000
E15  23457801.719 8 123271589.946 8      -240.695          51.000    23457805.094 8  94454895.973 8      -184.471          51.000
E27  23333173.453 8 122616657.380 8      -545.719          51.000    23333177.656 8  93953039.547 8      -418.211          51.000
E30  25483110.375 6 133914646.327 6     -2416.352          36.000    25483114.641 5 102609939.947 5     -1851.170          32.000
> 2020 05 02 12 08 30.0000000  0 16        .000000000000
G14  23867845.000 7 125426360.289 7     -2290.211          43.000    23867848.703 6  97734803.296 6     -1784.580          41.000
G18  22810420.367 7 119869627.789 7      3431.078          45.000    22810422.188 6  93404889.129 6      2673.570          39.000
G21  22689153.844 7 119232295.871 7      3086.441          45.000    22689168.531 5  92908322.604 5      2405.019          32.000
G25  20960701.148 8 110149273.614 8     -1780.707          49.000    20960703.586 8  85830573.450 8     -1387.564          49.000
G29  20219392.734 8 106253630.493 8      -265.441          51.000    20219391.336 8  82795060.559 8      -206.834          51.000
R09  19213731.789 8 102600280.169 8       952.973          49.000    19213733.820 8  79800226.155 8       741.201          48.000
R16  21542117.172 7 115074114.711 7     -3326.836          45.000    21542119.469 6  89502069.081 6     -2587.545          38.000
R19  19320772.492 6 103353136.553 6      -978.949          41.000    19320774.008 7  80385788.152 7      -761.405          44.000
R20  21047887.008 6 112552519.353 6      3385.590          41.000    21047892.859 8  87540865.097 8      2633.240          48.000
C27  21516877.125 8 112044133.962 8      -421.758          51.000
C28  24470338.648 5 127423468.299 5     -2850.445          32.000
C30  23123778.430 8 120411651.644 8      2435.133          49.000
E13  24679389.492 8 129691063.693 8      2448.945          51.000    24679390.039 8  99373747.123 8      1876.399          50.000
E15  23459218.156 8 123279033.383 8      -262.277          51.000    23459221.688 8  94460599.400 8      -201.050          51.000
E27  23336316.867 8 122633177.369 8      -562.371          51.000    23336321.844 8  93965697.707 8      -430.995          51.000
E30  25496920.148 6 133987218.139 6     -2428.668          38.000
> 2020 05 02 12 09  0.0000000  0 15        .000000000000
G14  23880947.117 7 125495213.224 7     -2291.277          44.000    23880951.422 6  97788454.877 6     -1785.411          39.000
G18  22790853.789 7 119766808.132 7      3431.719          42.000    22790855.000 6  93324770.062 6      2674.070          41.000
G21  22671562.070 7 119139847.804 7      3085.359          46.000    22671576.250 5  92836285.071 5      2404.173          30.000
G25  20970897.008 8 110202852.254 8     -1782.844          49.000    20970899.344 8  85872323.026 8     -1389.229          50.000
G29  20220950.148 8 106261815.142 8      -271.711          51.000    20220948.961 8  82801438.215 8      -211.723          51.000
R09  19208433.234 8 102571986.357 8       941.812          49.000    19208435.523 8  79778219.869 8       732.521          48.000
R16  21560835.883 7 115174107.242 7     -3330.777          44.000    21560839.375 6  89579840.976 6     -2590.608          40.000
R19  19326330.039 6 103382864.872 6      -994.207          41.000    19326331.320 7  80408910.174 7      -773.272          44.000
R20  21028938.656 6 112451193.962 6      3377.766          39.000    21028943.977 7  87462056.525 7      2627.154          47.000
C27  21519346.914 8 112056994.909 8      -427.391          51.000
C30  23109778.578 8 120338744.865 8      2433.656          50.000
E13  24665434.578 8 129617731.829 8      2448.180          51.000    24665435.258 8  99317557.815 8      1875.821          49.000
E15  23460754.531 8 123287107.276 8      -267.656          51.000    23460758.008 8  94466785.905 8      -205.120          51.000
E27  23339552.078 8 122650178.741 8      -562.781          51.000    23339557.539 8  93978724.718 8      -431.231          51.000
E30  25510797.109 6 134060143.110 6     -2424.938          38.000    25510801.039 5 102721424.424 5     -1858.255          31.000
> 2020 05 02 12 09 30.0000000  0 15        .000000000000
G14  23894056.961 7 125564106.236 7     -2302.137          44.000    23894061.758 6  97842137.708 6     -1793.873          38.000
G18  22771284.422 6 119663977.608 6      3422.758          39.000    22771286.805 6  93244642.423 6      2667.081          40.000
G21  22653976.227 7 119047431.960 7      3074.852          47.000    22653985.391 5  92764272.635 5      2395.988          33.000
G25  20981107.102 8 110256505.840 8     -1794.832          48.000    20981109.305 8  85914131.018 8     -1398.570          48.000
G29  20222544.578 8 106270194.126 8      -287.613          51.000    20222543.781 8  82807967.298 8      -224.114          51.000
R09  19203199.688 8 102544040.296 8       920.555          49.000    19203202.336 8  79756484.030 8       715.987          49.000
R16  21579577.562 7 115274225.288 7     -3344.582          42.000    21579581.773 6  89657710.604 6     -2601.342          41.000
R19  19331973.211 6 103413053.018 6     -1019.277          40.000    19331974.742 7  80432389.853 7      -792.771          44.000
R20  21010033.953 6 112350106.552 6      3360.359          37.000    21010039.844 7  87383433.030 7      2613.613          47.000
C27  21521850.273 8 112070030.405 8      -442.473          51.000
C30  23095787.742 8 120265886.227 8      2422.758          50.000
E13  24651486.125 8 129544434.309 8      2437.582          51.000    24651487.008 8  99261394.848 8      1867.707          49.000
E15  23462323.836 8 123295354.143 8      -282.848          51.000    23462327.117 8  94473104.951 8      -216.772          51.000
E27  23342792.188 8 122667205.133 8      -573.070          51.000    23342797.617 8  93991770.913 8      -439.136          51.000
E30  25524654.141 6 134132964.051 6     -2430.492          38.000    25524658.320 5 102777223.231 5     -1862.529          35.000
> 2020 05 02 12 10  0.0000000  0 15        .000000000000
G14  23907227.414 7 125633317.131 7     -2311.500          45.000    23907232.125 6  97896068.234 6     -1801.169          39.000
G18  22751767.375 7 119561419.713 7      3415.188          43.000    22751770.945 7  93164727.124 7      2661.185          42.000
G21  22636450.367 7 118955331.249 7      3065.664          47.000    22636453.680 5  92692505.837 5      2388.829          35.000
G25  20991384.523 7 110310514.706 7     -1805.211          47.000    20991386.633 7  85956215.834 7     -1406.661          46.000
G29  20224229.156 8 106279046.968 8      -301.902          51.000    20224228.352 8  82814865.608 8      -235.249          51.000
R09  19198085.273 8 102516729.149 8       900.797          50.000    19198087.984 8  79735242.032 8       700.620          49.000
R16  21598395.039 6 115374752.677 6     -3356.305          40.000    21598400.523 7  89735898.543 7     -2610.462          42.000
R19  19337755.297 6 103443984.029 6     -1042.328          40.000    19337756.984 7  80456447.312 7      -810.700          44.000
R20  20991228.000 6 112249545.045 6      3344.605          38.000    20991234.125 7  87305218.582 7      2601.360          46.000
C27  21524440.320 8 112083517.540 8      -456.043          50.000
C30  23081858.734 8 120193354.739 8      2413.305          48.000
E13  24637597.852 8 129471453.021 8      2428.496          51.000    24637599.172 8  99205474.181 8      1860.733          49.000
E15  23463979.352 8 123304053.982 8      -296.449          51.000    23463982.664 8  94479771.071 8      -227.200          51.000
E27  23346090.609 8 122684537.653 8      -581.781          51.000    23346095.719 8  94005051.677 8      -445.810          51.000
E30  25538544.617 6 134205961.307 6     -2435.078          41.000    25538548.070 6 102833156.090 6     -1865.932          36.000
> 2020 05 02 12 10 30.0000000  0 15        .000000000000
G14  23920451.156 7 125702807.822 7     -2320.887          44.000    23920455.500 6  97950216.774 6     -1808.486          39.000
G18  22732297.531 7 119459101.524 7      3406.926          47.000    22732301.047 7  93084998.725 7      2654.747          43.000
G21  22618977.914 7 118863512.624 7      3056.270          47.000    22618978.734 6  92620958.926 6      2381.512          37.000
G25  21001722.656 8 110364842.913 8     -1816.008          48.000    21001724.695 8  85998549.503 8     -1415.071          48.000
G29  20225997.172 8 106288337.329 8      -316.617          51.000    20225996.305 8  82822104.841 8      -246.715          51.000
R09  19193083.320 8 102490019.233 8       880.797          50.000    19193086.242 8  79714467.655 8       685.064          50.000
R16  21617282.859 7 115475651.695 7     -3369.270          42.000    21617289.180 7  89814375.545 7     -2620.543          42.000
R19  19343669.258 6 103475619.602 6     -1065.723          39.000    19343670.688 7  80481052.745 7      -828.895          44.000
R20  20972514.734 6 112149476.146 6      3327.824          39.000    20972520.461 7  87227387.267 7      2588.311          45.000
C27  21527110.344 8 112097420.161 8      -470.000          51.000
C30  23067985.664 8 120121116.119 8      2403.367          48.000
E13  24623763.312 8 129398753.780 8      2418.859          50.000    24623765.133 8  99149769.607 8      1853.361          50.000
E15  23465714.156 8 123313170.653 8      -310.547          51.000    23465717.555 8  94486756.588 8      -237.990          51.000
E27  23349440.617 8 122702141.350 8      -591.000          51.000    23349445.438 8  94018540.228 8      -452.892          51.000
E30  25552461.969 6 134279098.992 6     -2439.816          40.000    25552465.969 6 102889196.616 6     -1869.622          36.000
> 2020 05 02 12 11  0.0000000  0 15        .000000000000
G14  23933724.758 7 125772560.314 7     -2329.273          44.000    23933728.594 6  98004569.307 6     -1815.018          38.000
G18  22712871.305 8 119357011.278 8      3399.199          49.000    22712874.320 7  93005447.938 7      2648.730          43.000
G21  22601556.414 7 118771963.804 7      3047.070          45.000    22601556.273 6  92549622.254 6      2374.341          38.000
G25  21012118.656 8 110419475.277 8     -1826.234          48.000    21012120.898 8  86041120.173 8     -1423.040          48.000
G29  20227845.273 8 106298049.376 8      -330.770          51.000    20227844.578 8  82829672.674 8      -257.742          51.000
R09  19188191.734 8 102463897.843 8       860.867          51.000    19188194.734 8  79694151.014 8       669.566          50.000
R16  21636238.062 7 115576905.404 7     -3380.934          43.000    21636244.344 6  89893128.341 6     -2629.618          40.000
R19  19349711.422 6 103507942.009 6     -1088.805          41.000    19349713.117 7  80506192.405 7      -846.851          44.000
R20  20953891.844 6 112049887.097 6      3311.312          41.000    20953896.805 7  87149929.201 7      2575.468          46.000
C27  21529857.062 8 112111722.660 8      -483.484          51.000
C30  23054166.125 8 120049156.673 8      2394.094          48.000
E13  24609980.047 8 129326323.031 8      2409.758          50.000    24609982.352 8  99094270.743 8      1846.408          50.000
E15  23467525.461 8 123322688.785 8      -324.031          51.000    23467528.852 8  94494049.702 8      -248.370          51.000
E27  23352839.531 8 122720001.920 8      -599.785          51.000    23352844.297 8  94032225.599 8      -459.594          51.000
E30  25566403.086 6 134352362.036 6     -2444.383          37.000    25566408.164 6 102945333.171 6     -1873.067          36.000
> 2020 05 02 12 11 30.0000000  0 15        .000000000000
G14  23947050.750 7 125842588.093 7     -2339.344          44.000    23947053.828 6  98059136.380 6     -1822.865          39.000
G18  22693492.086 8 119255168.123 8      3390.023          49.000    22693494.172 7  92926089.690 7      2641.580          44.000
G21  22584189.281 7 118680703.657 7      3036.812          43.000    22584189.289 6  92478510.505 6      2366.350          38.000
G25  21022575.414 8 110474427.845 8     -1837.504          48.000    21022578.242 8  86083940.328 8     -1431.821          48.000
G29  20229776.500 8 106308198.240 8      -345.992          51.000    20229775.633 8  82837580.853 8      -269.604          51.000
R09  19183413.844 8 102438383.613 8       839.910          51.000    19183416.906 8  79674306.613 8       653.263          50.000
R16  21655263.328 7 115678528.532 7     -3394.035          45.000    21655268.438 6  89972168.455 6     -2639.811          39.000
R19  19355884.898 6 103540965.637 6     -1112.789          40.000    19355886.312 7  80531877.446 7      -865.503          44.000
R20  20935362.336 6 111950796.998 6      3294.113          41.000    20935366.523 7  87072859.217 7      2562.091          45.000
C27  21532683.742 8 112126440.158 8      -497.852          51.000
C30  23040403.641 8 119977493.422 8      2383.422          50.000
E13  24596251.539 8 129254178.286 8      2399.684          51.000    24596254.172 8  99038991.027 8      1838.695          51.000
E15  23469415.945 8 123332623.973 8      -338.582          51.000    23469419.680 8  94501662.382 8      -259.370          51.000
E27  23356290.609 8 122738136.170 8      -609.430          51.000    23356295.117 8  94046120.662 8      -466.921          51.000
E30  25580369.828 5 134425750.394 5     -2449.582          33.000    25580376.648 5 103001577.903 5     -1876.809          32.000
> 2020 05 02 12 12  0.0000000  0 16        .000000000000
G14  23960421.336 7 125912851.428 7     -2344.188          42.000    23960423.492 6  98113886.978 6     -1826.643          38.000
G18  22674153.188 8 119153537.944 8      3386.125          50.000    22674154.234 7  92846897.386 7      2638.539          43.000
G21  22566870.078 7 118589697.677 7      3031.242          44.000    22566871.164 7  92407596.782 7      2362.007          42.000
G25  21033086.250 8 110529663.192 8     -1843.918          48.000    21033088.992 8  86126980.818 8     -1436.819          49.000
G29  20231783.570 8 106318745.874 8      -356.262          51.000    20231782.672 8  82845799.779 8      -277.607          51.000
R09  19178742.789 8 102413441.184 8       823.902          51.000    19178745.836 8  79654906.945 8       640.813          50.000
R16  21674350.531 7 115780481.644 7     -3401.852          46.000    21674354.789 6  90051465.246 6     -2645.888          38.000
R18  22340197.773 5 119253489.291 5     -3936.309          30.000
R19  19362181.977 6 103574650.548 6     -1131.789          40.000    19362183.344 7  80558076.808 7      -880.280          45.000
R20  20916918.703 6 111852170.813 6      3281.703          40.000    20916922.648 7  86996150.042 7      2552.439          45.000
C27  21535582.641 8 112141534.969 8      -507.480          51.000
C30  23026691.930 8 119906090.524 8      2377.699          51.000
E13  24582570.820 8 129182283.768 8      2394.328          51.000    24582573.703 8  98983903.046 8      1834.582          51.000
E15  23471378.609 8 123342938.512 8      -348.164          51.000    23471382.617 8  94509565.742 8      -266.784          51.000
E27  23359786.820 8 122756507.586 8      -614.375          51.000    23359790.898 8  94060197.472 8      -470.746          51.000
E30  25594357.141 5 134499254.713 5     -2449.918          35.000    25594363.289 5 103057902.310 5     -1877.216          31.000
> 2020 05 02 12 12 30.0000000  0 17        .000000000000
G14  23973843.734 6 125983388.257 6     -2356.516          41.000    23973844.906 6  98168850.667 6     -1836.246          37.000
G18  22654862.938 8 119052164.161 8      3374.016          49.000    22654862.805 7  92767904.906 7      2629.106          42.000
G21  22549607.781 7 118498988.834 7      3017.914          44.000    22549609.922 7  92336914.595 7      2351.621          43.000
G25  21043658.820 8 110585221.547 8     -1858.305          49.000    21043660.758 8  86170273.026 8     -1448.030          49.000
G29  20233874.117 8 106329731.797 8      -374.309          51.000    20233873.148 8  82854360.249 8      -291.669          51.000
R09  19174187.266 8 102389114.310 8       799.773          51.000    19174189.961 8  79635986.050 8       622.046          51.000
R16  21693506.281 7 115882804.511 7     -3417.629          44.000    21693510.844 6  90131049.584 6     -2658.159          39.000
R18  22362351.852 5 119371756.015 5     -3946.312          34.000
R19  19368609.664 6 103609035.559 6     -1158.594          38.000    19368611.547 7  80584820.724 7      -901.125          45.000
R20  20898569.320 6 111754052.297 6      3261.348          39.000    20898573.492 7  86919835.681 7      2536.607          44.000
C27  21538561.695 8 112157046.359 8      -524.816          51.000
C28  24602269.148 5 128110464.235 5     -2879.707          33.000
C30  23013038.758 8 119834989.132 8      2364.184          51.000
E13  24568945.602 8 129110681.375 8      2380.984          50.000    24568948.484 8  98929038.906 8      1824.462          51.000
E15  23473421.336 8 123353672.430 8      -365.605          51.000    23473425.055 8  94517790.435 8      -280.154          51.000
E27  23363335.930 8 122775157.258 8      -627.102          51.000    23363339.547 8  94074487.482 8      -480.584          51.000
E30  25608372.742 5 134572907.430 5     -2458.359          35.000    25608379.336 6 103114337.432 6     -1883.843          36.000
> 2020 05 02 12 13  0.0000000  0 17        .000000000000
G14  23987302.820 6 126054118.199 6     -2348.094          39.000    23987303.539 6  98223964.834 6     -1829.686          36.000
G18  22635606.984 8 118950972.228 8      3382.688          49.000    22635605.297 6  92689054.143 6      2635.863          41.000
G21  22532388.523 7 118408502.322 7      3025.391          46.000    22532391.117 7  92266405.666 7      2357.447          45.000
G25  21054278.133 8 110641025.115 8     -1851.359          49.000    21054280.141 8  86213756.300 8     -1442.621          49.000
G29  20236033.250 8 106341077.686 8      -371.395          51.000    20236031.984 8  82863201.205 8      -289.395          51.000
R09  19169732.523 8 102365326.347 8       796.977          51.000    19169735.258 8  79617484.306 8       619.871          51.000
R16  21712715.258 7 115985415.911 7     -3412.078          42.000    21712720.320 6  90210858.307 6     -2653.842          40.000
R18  22384530.961 6 119490146.242 6     -3935.473          36.000
R19  19375152.984 6 103644039.310 6     -1163.887          39.000    19375154.891 7  80612045.838 7      -905.248          44.000
R20  20880300.195 6 111656365.648 6      3262.254          39.000    20880304.602 7  86843857.176 7      2537.309          42.000
C27  21541605.758 8 112172896.564 8      -521.273          51.000
C28  24618850.070 5 128196820.694 5     -2867.324          34.000
C30  22999428.977 8 119764113.419 8      2371.500          51.000
E13  24555361.008 8 129039294.905 8      2388.789          50.000    24555363.875 8  98874340.204 8      1830.338          51.000
E15  23475528.961 8 123364747.574 8      -361.980          51.000    23475532.438 8  94526276.590 8      -277.353          51.000
E27  23366923.250 8 122794008.322 8      -618.883          51.000    23366926.406 8  94088931.785 8      -474.191          51.000
E30  25622401.469 6 134646626.756 6     -2445.617          36.000    25622408.375 6 103170823.580 6     -1873.876          39.000
> 2020 05 02 12 13 30.0000000  0 18        .000000000000
G02  24640437.273 5 129486420.070 5     -2773.191          30.000
G14  24000810.086 6 126125101.633 6     -2375.258          38.000    24000810.562 6  98279276.546 6     -1850.850          36.000
G18  22616397.992 8 118850028.195 8      3355.660          48.000    22616395.891 7  92610396.527 7      2614.803          43.000
G21  22515224.523 8 118318303.633 8      2996.855          48.000    22515227.164 7  92196120.992 7      2335.212          44.000
G25  21064955.969 8 110697136.721 8     -1880.453          49.000    21064958.320 8  86257479.587 8     -1465.291          49.000
G29  20238272.578 8 106352845.735 8      -404.230          51.000    20238271.258 8  82872371.127 8      -314.985          51.000
R09  19165390.930 8 102342143.496 8       757.668          51.000    19165393.953 8  79599453.175 8       589.294          51.000
R16  21731988.680 6 116088378.735 6     -3442.910          38.000    21731994.617 6  90290940.405 6     -2677.822          40.000
R18  22406744.203 6 119608721.110 6     -3960.578          36.000
R19  19381823.781 6 103679723.576 6     -1205.891          38.000    19381825.945 7  80639800.264 7      -937.915          45.000
R20  20862125.352 6 111559177.481 6      3226.004          40.000    20862128.539 6  86768266.406 6      2509.114          41.000
C27  21544726.477 8 112189147.202 8      -553.273          51.000
C28  24635455.477 5 128283297.114 5     -2889.371          32.000
C30  22985874.094 8 119693526.904 8      2343.238          51.000
E13  24541829.453 8 128968188.784 8      2360.598          50.000    24541832.094 8  98819856.320 8      1808.785          50.000
E15  23477713.328 8 123376226.493 8      -394.266          51.000    23477716.914 8  94535072.135 8      -302.049          51.000
E27  23370561.062 8 122813124.407 8      -646.516          51.000    23370563.820 8  94103579.154 8      -495.334          51.000
E30  25636454.734 6 134720475.582 6     -2468.562          37.000    25636462.281 6 103227409.027 6     -1891.520          39.000
> 2020 05 02 12 14  0.0000000  0 18        .000000000000
G02  24656288.102 5 129569651.400 5     -2777.047          31.000
G14  24014390.789 6 126196468.332 6     -2380.242          38.000    24014391.016 6  98334886.917 6     -1854.734          37.000
G18  22597261.484 7 118749467.657 7      3350.812          47.000    22597260.430 7  92532037.712 7      2611.023          45.000
G21  22498141.109 8 118228528.047 8      2990.684          48.000    22498143.727 7  92126166.049 7      2330.403          45.000
G25  21075717.578 7 110753688.651 7     -1887.168          47.000    21075719.672 7  86301546.007 7     -1470.520          47.000
G29  20240617.320 8 106365167.418 8      -414.707          51.000    20240615.992 8  82881972.438 8      -323.148          51.000
R09  19161188.680 8 102319702.883 8       740.898          51.000    19161191.203 8  79581999.379 8       576.254          51.000
R16  21751352.477 6 116191825.989 6     -3451.180          40.000    21751359.477 6  90371399.361 6     -2684.248          40.000
R18  22429015.766 5 119727611.635 5     -3962.445          34.000
R19  19388646.508 6 103716221.176 6     -1225.059          39.000    19388648.688 7  80668187.283 7      -952.823          45.000
R20  20844069.938 6 111462624.935 6      3212.953          39.000    20844071.930 7  86693170.060 7      2498.967          42.000
C27  21547949.172 8 112205928.681 8      -563.012          51.000
C28  24652108.023 4 128370023.198 4     -2889.352          29.000
C30  22972399.531 8 119623361.934 8      2336.949          50.000
E13  24528376.477 8 128897496.887 8      2354.781          49.000    24528378.773 8  98765689.833 8      1804.313          50.000
E15  23479999.727 8 123388241.113 8      -404.129          51.000    23480003.234 8  94544278.154 8      -309.642          51.000
E27  23374274.711 8 122832638.673 8      -651.828          51.000    23374277.039 8  94118531.624 8      -499.390          51.000
E30  25650558.242 5 134794586.226 5     -2469.457          35.000    25650565.844 6 103284195.067 6     -1892.092          39.000
> 2020 05 02 12 14 30.0000000  0 17        .000000000000
G02  24672178.188 5 129653170.980 5     -2786.363          30.000
G14  24028015.773 6 126268066.553 6     -2390.297          40.000    24028015.578 6  98390677.685 6     -1862.572          39.000
G18  22578169.734 7 118649144.683 7      3340.156          46.000    22578170.422 7  92453863.984 7      2602.719          46.000
G21  22481109.992 8 118139029.153 8      2978.660          48.000    22481112.531 7  92056426.707 7      2321.034          43.000
G25  21086534.602 8 110810531.754 8     -1899.582          48.000    21086536.516 8  86345839.334 8     -1480.191          48.000
G29  20243038.875 8 106377893.027 8      -430.898          51.000    20243037.516 8  82891888.508 8      -335.765          51.000
R09  19157097.578 8 102297855.461 8       718.367          51.000    19157099.578 8  79565006.946 8       558.730          51.000
R16  21770779.984 7 116295604.538 7     -3464.879          44.000    21770786.516 6  90452116.053 6     -2694.903          39.000
R18  22451317.953 6 119846663.180 6     -3971.172          36.000    22451327.141 4  93214104.411 4     -3088.683          25.000
R19  19395592.586 6 103753377.885 6     -1249.500          39.000    19395594.695 7  80697086.951 7      -971.833          45.000
R20  20826105.086 6 111366559.502 6      3194.191          38.000    20826107.609 7  86618452.595 7      2484.374          44.000
C27  21551244.953 8 112223092.590 8      -578.523          51.000
C30  22958977.086 8 119553471.990 8      2325.090          49.000
E13  24514974.305 8 128827071.688 8      2343.148          50.000    24514976.094 8  98711727.723 8      1795.379          50.000
