     3.02           OBSERVATION DATA    M (MIXED)           RINEX VERSION / TYPE
SAVERINEX           SC600               20200503 025931 LCL PGM / RUN BY / DATE
       G = GPS       R = GLONASS       C = COMPASS          COMMENT
       S = SBAS      J = QZSS          E = GALILEO          COMMENT
BEAN                                                        MARKER NAME
1                                                           MARKER NUMBER
GEODETIC                                                    MARKER TYPE
Unige DICCA         GTER                                    OBSERVER / AGENCY
SC60291900056       SC600               2.12(191226)        REC # / TYPE / VERS
                    HEMA45          NONE                    ANT # / TYPE
  4509407.8091   693652.4678  4442337.6214                  APPROX POSITION XYZ
        0.0000        0.0000        0.0000                  ANTENNA: DELTA H/E/N
G    8 C1C L1C D1C S1C C2Y L2Y D2Y S2Y                      SYS / # / OBS TYPES
R    8 C1C L1C D1C S1C C2P L2P D2P S2P                      SYS / # / OBS TYPES
C    8 C1I L1I D1I S1I C7I L7I D7I S7I                      SYS / # / OBS TYPES
E    8 C1C L1C D1C S1C C7Q L7Q D7Q S7Q                      SYS / # / OBS TYPES
DBHZ                                                        COMMENT
     30.000                                                 INTERVAL
  2020    05    03    00    00    0.0000000     GPS         TIME OF FIRST OBS
  2020    05    03    00    59   30.0000000     GPS         TIME OF LAST OBS
     0                                                      RCV CLOCK OFFS APPL
G L1C  0.00000                                              SYS / PHASE SHIFT
G L2Y  0.00000                                              SYS / PHASE SHIFT
R L1C  0.00000                                              SYS / PHASE SHIFT
R L2P  0.25000                                              SYS / PHASE SHIFT
C L1I  0.00000                                              SYS / PHASE SHIFT
C L7I  0.00000                                              SYS / PHASE SHIFT
E L1C  0.50000                                              SYS / PHASE SHIFT
E L7Q -0.25000                                              SYS / PHASE SHIFT
 14 R01  1 R02 -4 R03  5 R07  5 R08  6 R09 -2 R10 -5 R11  0 GLONASS SLOT / FRQ #
    R12 -1 R13 -2 R17  4 R18 -3 R22 -3 R23  3               GLONASS SLOT / FRQ #
 C1C   71.950 C2C   71.950 C2P   71.950                     GLONASS COD/PHS/BIS
    18                                                      LEAP SECONDS
*** Above antenna height is from mark to ANTENNA BOTTOM.    COMMENT
    17     4        0.0000        ANT MEASURE TYPE/HEIGT    COMMENT
    0.0000    0.0000    0.0458    0.0405    0.0000          COMMENT
                    BASE STATION                            COMMENT
                                                            END OF HEADER
> 2020 05 03 00 00  0.0000000  0 16        .000000000000
G04  20763152.984 8 109111166.773 8     -1558.340          51.000    20763153.133 8  85021667.800 8     -1214.291          51.000
G07  23630389.547 6 124178517.554 6      3326.039          41.000    23630388.891 7  96762483.504 7      2591.719          42.000
G09  20365378.766 8 107020879.148 8       718.918          51.000    20365379.516 8  83392876.819 8       560.196          51.000
G19  23765159.508 7 124886775.249 7     -2897.980          43.000    23765157.984 6  97314342.312 6     -2258.167          39.000
R02  19557539.406 6 104362773.718 6      -169.629          36.000    19557542.125 4  81171047.946 4      -131.934          29.000
R11  21684410.055 6 115874877.293 6       176.527          40.000
R12  21982940.383 6 117428910.070 6      3372.672          37.000    21982936.273 5  91333603.393 5      2623.195          30.000
R17  20704145.570 8 110792078.324 8     -2967.402          51.000    20704146.891 7  86171601.064 7     -2307.980          46.000
C05  39746971.062 5 206972907.975 5       -19.723          35.000    39746964.789 5 160044556.859 5       -15.420          35.000
C11  23851429.711 5 124200627.475 5     -1008.988          30.000    23851435.156 4  96039807.869 4      -779.806          28.000
C12                                                                  24883679.031 5 100196295.794 5     -2454.057          32.000
C21  21810688.891 8 113574017.284 8        14.441          51.000
E04  23821756.734 8 125184293.300 8       822.098          48.000    23821757.102 8  95920381.180 8       629.943          48.000
E09  25511595.406 5 134064337.901 5      2330.301          33.000    25511594.336 5 102724610.708 5      1785.459          34.000
E12  23604111.461 7 124040443.149 7     -2744.004          46.000    23604109.133 8  95043974.553 8     -2102.569          48.000
E19                                                                  24960170.094 6 100504291.520 6     -1260.898          38.000
> 2020 05 03 00 00 30.0000000  0 15        .000000000000
G04  20772148.758 8 109158440.356 8     -1578.121          51.000    20772149.000 8  85058504.356 8     -1229.705          51.000
G07  23611480.578 7 124079152.839 7      3313.160          42.000    23611480.398 7  96685056.456 7      2581.683          42.000
G09  20361381.555 8 106999873.365 8       696.645          51.000    20361382.234 8  83376508.701 8       542.843          51.000
G19  23781795.523 7 124974195.720 7     -2914.977          44.000    23781792.805 7  97382462.175 7     -2271.407          42.000
R02  19558590.750 6 104368380.117 6      -188.645          39.000    19558593.195 4  81175408.474 4      -146.727          29.000
R11  21683561.688 5 115870353.350 5       141.746          30.000
R12  21964109.969 6 117328303.297 6      3349.770          40.000    21964101.266 4  91255353.787 4      2605.376          28.000
R17  20720904.984 8 110881756.827 8     -2995.855          49.000    20720905.180 7  86241351.021 7     -2330.110          45.000
C05                                                                  39747145.500 5 160045284.310 5       -21.437          35.000
C12                                                                  24902038.914 5 100270233.052 5     -2463.379          35.000
C21  21810693.750 8 113574043.077 8        -1.234          51.000
E04  23817149.172 8 125160078.774 8       807.441          49.000    23817149.031 8  95901827.212 8       618.635          48.000
E09  25498366.945 5 133994818.957 5      2319.363          34.000    25498366.273 5 102671342.889 5      1777.357          34.000
E12  23619864.234 7 124123223.822 7     -2759.504          46.000    23619862.523 8  95107403.884 8     -2114.461          50.000
E19                                                                  24969640.531 6 100542426.490 6     -1269.790          37.000
> 2020 05 03 00 01  0.0000000  0 16        .000000000000
G03  22525472.344 5 118372142.562 5     -2563.887          33.000    22525479.492 5  92238059.830 5     -1997.828          34.000
G04  20781176.867 8 109205883.334 8     -1588.402          51.000    20781177.094 8  85095472.917 8     -1237.716          50.000
G07  23592565.297 7 123979755.770 7      3309.422          43.000    23592565.500 7  96607604.212 7      2578.773          43.000
G09  20357431.188 8 106979112.981 8       683.727          51.000    20357431.742 8  83360331.794 8       532.774          51.000
G19  23798448.039 7 125061702.339 7     -2922.441          46.000    23798443.617 6  97450649.147 6     -2277.224          41.000
R02  19559667.578 6 104374121.740 6      -197.770          39.000    19559670.195 5  81179874.059 5      -153.821          33.000
R12  21945326.594 6 117227948.445 6      3336.770          37.000    21945315.547 4  91177283.603 4      2595.262          25.000
R17  20737742.281 7 110971859.561 7     -3014.652          47.000    20737743.023 7  86311430.941 7     -2344.727          45.000
C05  39747297.766 5 206974608.909 5       -26.574          35.000    39747291.859 5 160045873.704 5       -20.661          34.000
C12                                                                  24920388.078 5 100344125.737 5     -2465.581          34.000
C21  21810708.641 8 113574121.661 8        -7.648          51.000
C22  24187271.508 4 125949355.022 4     -2200.191          29.000
E04  23812545.969 8 125135887.498 8       801.746          49.000    23812545.172 7  95883291.041 7       614.331          47.000
E09  25485121.016 6 133925207.727 6      2317.477          36.000    25485120.883 5 102618004.388 5      1775.956          34.000
E12  23635625.781 7 124206051.861 7     -2765.891          46.000    23635625.297 8  95170869.519 8     -2119.280          50.000
E19                                                                  24979098.961 6 100580513.152 6     -1272.071          37.000
> 2020 05 03 00 01 30.0000000  0 15        .000000000000
G04  20790265.602 8 109253644.668 8     -1592.938          51.000    20790265.836 8  85132689.529 8     -1241.250          50.000
G07  23573673.016 7 123880478.836 7      3311.734          43.000    23573672.844 7  96530245.562 7      2580.572          43.000
G09  20353555.891 8 106958748.312 8       676.723          51.000    20353556.633 8  83344463.225 8       527.316          51.000
G19  23815144.789 7 125149442.469 7     -2923.898          46.000    23815138.766 6  97519018.046 6     -2278.362          39.000
R02  19560797.578 6 104380151.391 6      -201.141          36.000    19560803.234 5  81184563.812 5      -156.440          33.000
R12  21926617.031 6 117128002.832 6      3329.121          38.000
R17  20754686.156 8 111062535.990 8     -3027.543          49.000    20754688.328 7  86381957.047 7     -2354.759          45.000
C05                                                                  39747432.695 5 160046440.491 5       -15.260          35.000
C11  23869415.555 5 124294308.907 5     -1057.805          31.000
C12                                                                  24938755.367 6 100418087.327 6     -2462.904          36.000
C21  21810762.367 8 113574402.492 8        -8.238          51.000
E04  23807975.516 8 125111869.818 8       802.176          48.000    23807974.359 8  95864887.888 8       614.720          48.000
E09  25471886.555 5 133855654.957 5      2322.211          35.000    25471886.219 5 102564710.689 5      1779.276          35.000
E12  23651424.430 7 124289076.249 7     -2766.176          46.000    23651425.258 8  95234485.631 8     -2119.600          51.000
E19                                                                  24988574.336 6 100618666.256 6     -1269.482          37.000
> 2020 05 03 00 02  0.0000000  0 16        .000000000000
G04  20799424.906 8 109301776.860 8     -1612.406          51.000    20799425.281 8  85170195.131 8     -1256.420          51.000
G07  23554814.500 7 123781378.820 7      3298.109          42.000    23554814.445 7  96453024.735 7      2569.955          42.000
G09  20349766.188 8 106938833.285 8       654.320          51.000    20349766.953 8  83328945.022 8       509.860          51.000
G19  23831895.469 7 125237467.133 7     -2940.855          44.000    23831888.969 6  97587608.667 6     -2291.576          38.000
R02  19561990.922 6 104386523.182 6      -219.945          37.000    19561994.883 4  81189519.621 4      -171.069          26.000
R12  21907994.109 6 117028526.637 6      3305.879          41.000
R17  20771747.867 8 111153837.151 8     -3055.703          51.000    20771750.031 7  86452968.993 7     -2376.661          44.000
C05  39747583.945 5 206976098.400 5       -28.141          35.000    39747578.078 5 160047026.210 5       -21.389          35.000
C11  23875591.406 4 124326459.822 4     -1082.758          29.000    23875586.828 5  96137077.587 5      -836.577          33.000
C12                                                                  24957150.836 6 100492157.404 6     -2472.443          37.000
C21  21810865.328 8 113574939.270 8       -24.090          51.000
C22  24212646.992 5 126081597.171 5     -2209.035          32.000
E04  23803448.188 8 125088079.731 8       787.340          48.000    23803447.383 8  95846659.137 8       603.268          48.000
E09  25458674.352 6 133786215.064 6      2310.738          37.000    25458672.867 6 102511503.471 6      1770.673          37.000
E12  23667270.664 7 124372349.501 7     -2781.730          47.000    23667272.227 8  95298292.423 8     -2131.489          51.000
E19                                                                  24998076.758 6 100656926.949 6     -1278.602          36.000
> 2020 05 03 00 02 30.0000000  0 16        .000000000000
G04  20808664.367 8 109350330.490 8     -1612.207          51.000    20808664.797 8  85208029.141 8     -1256.265          51.000
G07  23536000.117 7 123682510.947 7      3304.770          42.000    23536001.031 7  96375984.828 7      2575.145          42.000
G09  20346071.961 8 106919419.768 8       652.035          51.000    20346072.438 8  83313817.622 8       508.079          51.000
G19  23848707.586 7 125325807.348 7     -2937.797          43.000
R02  19563258.789 5 104393290.059 5      -218.613          35.000
R11  21681516.562 6 115859384.178 6        47.859          38.000    21681494.867 5  90112843.321 5        37.218          30.000
R12  21889470.391 6 116929577.005 6      3302.875          36.000
R17  20788936.367 8 111245812.299 8     -3063.523          51.000    20788937.961 7  86524505.193 7     -2382.743          45.000
C05  39747744.086 5 206976933.149 5       -15.977          35.000    39747738.266 5 160047670.949 5       -12.415          34.000
C11  23881875.734 5 124359171.206 5     -1086.871          32.000    23881864.211 5  96162374.404 5      -840.015          35.000
C12                                                                  24975583.250 6 100566373.865 6     -2465.940          37.000
C21  21811027.570 8 113575783.853 8       -20.184          51.000
E04  23798974.203 8 125064569.161 8       792.289          48.000    23798974.055 8  95828644.571 8       607.088          48.000
E09  25445496.430 5 133716969.300 5      2319.578          34.000    25445491.992 6 102458422.780 6      1777.749          36.000
E12  23683174.250 8 124455922.108 8     -2777.430          48.000    23683175.797 8  95362328.577 8     -2128.187          51.000
E19  25007618.484 5 131415928.404 5     -1660.230          33.000    25007615.453 5 100695334.754 5     -1272.397          35.000
> 2020 05 03 00 03  0.0000000  0 17        .000000000000
G04  20817948.398 8 109399118.414 8     -1635.559          51.000    20817948.711 8  85246045.703 8     -1274.461          50.000
G07  23517195.203 7 123583691.804 7      3287.832          43.000    23517197.102 7  96298982.924 7      2561.950          42.000
G09  20342437.648 8 106900322.050 8       625.934          51.000    20342437.898 8  83298936.309 8       487.740          51.000
G19  23865550.078 7 125414309.887 7     -2957.941          44.000
R02  19564565.648 5 104400263.182 5      -241.383          34.000
R11  21681364.859 5 115858608.414 5         9.172          30.000    21681342.570 4  90112185.232 4         7.122          28.000
R12  21871009.812 5 116830970.199 5      3275.695          31.000    21871006.086 5  90868552.680 5      2547.769          31.000
R17  20806214.328 8 111338268.442 8     -3095.254          51.000    20806216.109 7  86596415.549 7     -2407.420          44.000
C05  39747883.555 5 206977659.399 5       -27.711          35.000    39747877.695 5 160048232.526 5       -21.349          35.000
C11  23888227.672 5 124392263.855 5     -1114.262          32.000    23888220.148 6  96187963.832 6      -861.965          37.000
C12                                                                  24994016.383 6 100640592.784 6     -2477.844          36.000
C21  21811213.766 8 113576752.544 8       -39.676          51.000
C22  24238131.562 5 126214312.446 5     -2217.086          35.000
E04  23794518.250 8 125041152.418 8       773.734          49.000    23794518.242 8  95810701.895 8       592.828          48.000
E09  25432312.500 5 133647695.362 5      2304.797          35.000    25432306.125 6 102405326.661 6      1766.232          36.000
E12  23699099.375 8 124539606.924 8     -2796.574          48.000    23699100.172 8  95426450.710 8     -2142.854          50.000
E19                                                                  25017155.211 5 100733747.028 5     -1284.770          35.000
> 2020 05 03 00 03 30.0000000  0 15        .000000000000
G04  20827342.953 8 109448486.799 8     -1646.145          51.000    20827343.242 8  85284514.576 8     -1282.710          50.000
G07  23498466.398 7 123485271.828 7      3283.070          43.000    23498467.773 5  96222292.117 5      2558.246          35.000
G09  20338929.477 8 106881887.606 8       612.535          51.000    20338929.648 8  83284571.812 8       477.303          51.000
G19  23882484.633 7 125503301.154 7     -2965.395          44.000    23882479.852 6  97794766.094 6     -2310.697          40.000
R02  19565976.406 6 104407794.797 6      -251.102          37.000    19565989.484 5  81206095.397 5      -195.301          31.000
R11  21681416.445 6 115858884.091 6       -16.969          36.000    21681396.938 5  90112470.888 5       -13.195          30.000
R17  20823646.797 8 111431555.672 8     -3114.129          51.000    20823649.047 7  86668972.279 7     -2422.100          42.000
C05  39748068.523 5 206978622.887 5       -27.445          35.000    39748062.641 5 160048976.528 5       -20.736          34.000
C11  23894720.633 4 124426078.378 4     -1130.305          29.000    23894716.969 6  96214111.297 6      -874.008          38.000
C12                                                                  25012515.734 5 100715078.641 5     -2480.541          34.000
C21  21811490.094 8 113578190.097 8       -46.734          51.000
C22  24250912.367 5 126281010.810 5     -2219.863          33.000
E04  23790146.203 7 125018177.072 7       767.555          47.000    23790146.211 8  95793097.435 8       587.956          48.000
E12  23715111.695 8 124623750.088 8     -2803.391          48.000    23715111.281 8  95490924.035 8     -2148.032          49.000
E19                                                                  25026761.812 6 100772429.931 6     -1286.938          36.000
> 2020 05 03 00 04  0.0000000  0 16        .000000000000
G03  22614002.328 6 118837375.845 6     -2604.367          36.000    22614009.789 5  92600554.748 5     -2029.380          33.000
G04  20836759.117 8 109497968.721 8     -1655.391          51.000    20836759.484 8  85323071.926 8     -1289.915          50.000
G07  23479725.508 7 123386788.419 7      3279.750          43.000    23479721.203 6  96145551.949 6      2555.655          41.000
G09  20335459.086 8 106863650.868 8       600.473          51.000    20335459.242 8  83270361.362 8       467.901          51.000
G19  23899423.258 7 125592312.813 7     -2971.602          43.000    23899417.016 6  97864125.784 6     -2315.531          39.000
R02  19567404.320 6 104415412.932 6      -259.250          36.000    19567414.578 5  81212020.606 5      -201.636          30.000
R11  21681548.289 5 115859679.478 5       -41.352          33.000    21681546.070 4  90113060.572 4       -32.159          29.000
R17  20841145.453 8 111525196.220 8     -3131.320          50.000    20841146.398 6  86741803.827 6     -2435.471          41.000
C05  39748210.492 5 206979361.482 5       -25.160          35.000    39748204.656 5 160049548.462 5       -19.042          34.000
C11                                                                  23901262.883 5  96240459.299 5      -885.060          33.000
C12                                                                  25030992.188 5 100789472.909 5     -2481.451          32.000
C21  21811767.930 8 113579635.588 8       -52.383          51.000
C22  24263687.180 6 126347602.170 6     -2221.645          37.000
E04  23785769.328 7 124995177.634 7       762.816          46.000    23785769.484 8  95775474.453 8       584.585          48.000
E12  23731122.258 8 124707884.614 8     -2808.379          48.000    23731120.477 8  95555390.725 8     -2151.929          48.000
E19  25036346.086 5 131566886.667 5     -1680.926          32.000    25036347.070 6 100811026.317 6     -1288.108          36.000
> 2020 05 03 00 04 30.0000000  0 14        .000000000000
G04  20846254.930 8 109547869.054 8     -1668.676          51.000    20846255.195 8  85361955.308 8     -1300.267          50.000
G07  23461031.312 7 123288550.470 7      3272.121          43.000    23461025.500 7  96069002.952 7      2549.708          43.000
G09  20332084.531 8 106845918.038 8       584.270          51.000    20332085.039 8  83256543.585 8       455.275          51.000
G19  23916423.383 7 125681648.211 7     -2981.777          44.000    23916416.102 6  97933737.705 6     -2323.466          37.000
R02  19568906.617 6 104423427.754 6      -272.102          36.000    19568912.820 4  81218254.240 4      -211.635          29.000
R11  21681860.727 5 115861386.288 5       -70.055          32.000    21681866.742 5  90114388.051 5       -54.487          31.000
R12  21816216.359 6 116538330.988 6      3229.875          36.000
R17  20858767.852 8 111619497.928 8     -3152.801          51.000    20858767.742 6  86815149.570 6     -2452.178          41.000
C05  39748367.891 6 206980180.990 6       -26.383          36.000    39748361.984 5 160050182.205 5       -21.174          34.000
C12                                                                  25049503.391 5 100864008.616 5     -2485.293          34.000
C21  21812105.516 8 113581392.853 8       -62.129          51.000
E04  23781445.789 7 124972460.360 7       754.129          45.000    23781446.836 8  95758067.703 8       577.854          48.000
E12  23747189.094 8 124792315.334 8     -2817.660          49.000    23747186.227 8  95620084.362 8     -2158.950          49.000
E19                                                                  25045969.562 6 100849770.806 6     -1292.585          37.000
> 2020 05 03 00 05  0.0000000  0 18        .000000000000
G03  22643821.047 5 118994095.395 5     -2617.168          31.000
G04  20855794.680 8 109598000.366 8     -1677.082          51.000    20855794.820 8  85401018.664 8     -1306.817          51.000
G07  23442348.914 7 123190374.628 7      3269.293          44.000    23442344.555 7  95992502.317 7      2547.501          44.000
G09  20328770.391 8 106828502.984 8       572.945          51.000    20328771.266 8  83242973.419 8       446.451          51.000
G19  23933448.789 7 125771117.943 7     -2986.887          44.000    23933443.352 6  98003454.333 6     -2327.444          37.000
R02  19570447.945 6 104431650.463 6      -279.914          38.000    19570454.328 5  81224649.658 5      -217.717          30.000
R11  21682308.422 5 115863784.867 5       -94.176          31.000    21682314.859 5  90116253.651 5       -73.248          30.000
R12  21798100.086 5 116441569.708 5      3216.902          34.000    21798091.555 4  90565605.352 4      2502.035          25.000
R17  20876478.453 8 111714267.710 8     -3169.098          51.000    20876477.469 7  86888859.382 7     -2464.857          43.000
C05  39748505.273 5 206980896.463 5       -24.367          35.000    39748499.359 5 160050735.446 5       -18.848          34.000
C11  23914637.844 5 124529787.831 5     -1175.637          33.000    23914641.344 6  96294348.670 6      -908.983          36.000
C12                                                                  25068013.883 6 100938541.320 6     -2485.749          36.000
C21  21812467.617 8 113583277.961 8       -67.219          51.000
C22  24289367.516 6 126481097.479 6     -2229.270          36.000
E04  23777140.688 7 124949839.213 7       750.332          46.000    23777142.703 8  95740734.620 8       574.900          48.000
E09  25379767.742 5 133371575.779 5      2296.672          35.000    25379783.617 6 102193864.135 6      1759.668          40.000
E12  23763276.469 8 124876854.753 8     -2821.918          49.000    23763273.312 8  95684861.301 8     -2162.312          49.000
E19  25055590.922 5 131668019.242 5     -1687.762          32.000    25055593.305 6 100888520.527 6     -1293.450          37.000
> 2020 05 03 00 05 30.0000000  0 17        .000000000000
G03  22658792.656 5 119072779.993 5     -2625.473          34.000    22658808.859 5  92784016.043 5     -2045.808          31.000
G04  20865408.938 8 109648523.678 8     -1689.551          51.000    20865409.047 8  85440387.467 8     -1316.536          51.000
G07  23423709.734 7 123092425.965 7      3262.344          44.000    23423707.062 7  95916178.680 7      2542.086          44.000
G09  20325547.781 8 106811568.042 8       557.586          51.000    20325548.461 8  83229777.348 8       434.483          51.000
G19  23950529.875 7 125860881.262 7     -2995.969          44.000    23950526.844 6  98073399.780 6     -2334.521          37.000
R02  19572059.430 5 104440245.275 5      -291.602          33.000    19572067.602 5  81231334.480 5      -226.804          31.000
R11  21682938.016 5 115867010.083 5      -121.820          35.000    21682930.766 4  90118773.192 4       -94.755          29.000
R17  20894306.703 8 111809666.985 8     -3189.254          51.000    20894305.688 7  86963058.802 7     -2480.531          44.000
C05  39748653.734 6 206981670.074 6       -25.766          36.000    39748647.648 5 160051332.859 5       -19.806          34.000
C11  23921466.234 5 124565335.968 5     -1192.812          33.000    23921466.133 6  96321836.687 6      -922.280          37.000
C12                                                                  25086554.484 6 101013193.840 6     -2489.579          37.000
C21  21812885.211 8 113585452.148 8       -76.227          51.000
C22  24302229.836 5 126548070.684 5     -2234.574          32.000
E04  23772885.453 7 124927476.640 7       742.137          47.000    23772887.461 7  95723599.670 7       568.620          47.000
E09  25366679.570 6 133302770.881 6      2292.387          38.000    25366691.109 6 102141143.484 6      1756.214          39.000
E12  23779414.727 7 124961663.851 7     -2830.438          47.000    23779412.305 8  95749844.884 8     -2168.792          49.000
E19                                                                  25065248.992 6 100927399.628 6     -1297.249          37.000
> 2020 05 03 00 06  0.0000000  0 17        .000000000000
G03  22673788.703 5 119151563.470 5     -2631.297          30.000
G04  20875074.133 8 109699314.579 8     -1698.938          51.000    20875074.289 8  85479964.770 8     -1323.850          51.000
G07  23405091.039 7 122994583.840 7      3258.117          44.000    23405089.375 7  95839938.045 7      2538.793          44.000
G09  20322393.125 8 106794990.127 8       545.172          51.000    20322393.492 8  83216859.506 8       424.809          51.000
G19  23967643.109 7 125950812.249 7     -3001.980          45.000    23967641.977 6  98143475.896 6     -2339.206          38.000
R01  22850630.781 5 122149706.811 5     -3009.227          32.000
R11  21683696.555 5 115871104.873 5      -146.941          34.000    21683671.406 4  90121875.787 4      -114.297          27.000
R12  21762142.016 5 116249468.690 5      3185.668          33.000    21762146.344 4  90416291.867 4      2477.742          27.000
R17  20912228.164 8 111905566.495 8     -3206.402          49.000    20912227.289 7  87037647.312 7     -2493.868          45.000
C05  39748789.711 6 206982378.254 6       -24.137          36.000    39748783.641 5 160051880.467 5       -18.582          34.000
C11  23928375.094 5 124601297.312 5     -1207.047          33.000    23928367.820 5  96349644.225 5      -933.432          33.000
C12                                                                  25105101.289 6 101087870.167 6     -2490.600          39.000
C21  21813334.922 8 113587793.977 8       -82.277          51.000
E04  23768656.438 8 124905249.675 8       737.086          48.000    23768657.664 7  95706568.622 7       564.861          47.000
E09  25353593.930 6 133233989.924 6      2290.820          37.000    25353601.641 6 102088441.140 6      1755.199          39.000
E12  23795580.062 7 125046618.165 7     -2835.637          46.000    23795579.281 8  95814939.758 8     -2172.847          49.000
E19                                                                  25074913.109 6 100966313.711 6     -1299.057          37.000
> 2020 05 03 00 06 30.0000000  0 18        .000000000000
G03  22688862.438 5 119230758.255 5     -2642.832          33.000    22688867.016 5  92907108.656 5     -2059.353          32.000
G04  20884835.938 8 109750612.962 8     -1714.809          51.000    20884836.156 8  85519937.506 8     -1336.218          50.000
G07  23386539.250 7 122897092.869 7      3247.359          42.000    23386538.352 7  95763971.044 7      2530.410          42.000
G09  20319352.359 8 106779010.390 8       526.332          51.000    20319352.625 8  83204407.783 8       410.132          51.000
G19  23984833.750 7 126041149.000 7     -3014.297          45.000    23984833.242 6  98213868.164 6     -2348.806          39.000
R01  22867551.156 5 122240187.054 5     -3016.688          30.000
R02  19575462.766 5 104458428.148 5      -315.848          32.000
R12  21744333.109 5 116154318.146 5      3164.648          33.000
R17  20930287.484 7 112002208.106 7     -3229.961          47.000    20930287.523 7  87112812.950 7     -2512.192          45.000
C05  39748959.336 5 206983261.307 5       -28.852          35.000    39748953.234 5 160052563.302 5       -22.132          34.000
C11  23935409.547 5 124637909.602 5     -1227.867          31.000    23935396.469 5  96377943.874 5      -949.335          30.000
C12                                                                  25123699.844 6 101162753.331 6     -2496.804          38.000
C21  21813862.742 8 113590542.860 8       -94.793          51.000
C22  24328025.367 5 126682402.080 5     -2245.309          30.000
E04  23764498.938 8 124883399.614 8       725.617          48.000    23764499.602 7  95689826.388 7       555.950          46.000
E09  25340557.406 5 133165474.474 5      2283.082          35.000    25340562.914 6 102035942.299 6      1749.348          40.000
E12  23811818.523 7 125131957.514 7     -2847.496          47.000    23811819.586 8  95880329.665 8     -2181.791          50.000
E19                                                                  25084631.758 6 101005447.249 6     -1305.495          37.000
> 2020 05 03 00 07  0.0000000  0 17        .000000000000
G03  22703947.977 5 119310058.775 5     -2646.949          32.000
G04  20894642.516 8 109802146.819 8     -1723.418          51.000    20894642.695 8  85560093.748 8     -1342.923          51.000
G07  23368003.320 7 122799685.062 7      3243.758          42.000    23368003.070 7  95688068.859 7      2527.600          42.000
G09  20316374.055 8 106763358.188 8       514.574          51.000    20316374.328 8  83192211.254 8       400.967          51.000
G19  24002049.617 7 126131617.769 7     -3019.465          45.000    24002048.461 6  98284363.286 6     -2352.833          40.000
R02  19577252.555 5 104467980.801 5      -323.746          31.000
R12  21726593.383 6 116059560.468 6      3150.383          37.000
R17  20948432.852 7 112099312.238 7     -3246.363          44.000    20948434.203 7  87188338.416 7     -2524.949          46.000
C05  39749111.086 6 206984051.901 6       -26.379          36.000
C11                                                                  23942511.039 5  96406549.615 5      -959.505          34.000
C12  25142301.836 5 130922564.771 5     -3229.652          30.000    25142297.961 6 101237634.320 6     -2497.345          39.000
C21  21814417.320 8 113593431.083 8      -100.301          51.000
C22  24340976.875 5 126749739.486 5     -2246.453          30.000
E04  23760361.352 7 124861655.881 7       721.309          47.000    23760361.453 7  95673165.598 7       552.772          46.000
E09  25327518.898 5 133097009.457 5      2282.699          33.000    25327523.797 6 101983439.940 6      1748.785          41.000
E12  23828079.227 7 125217409.884 7     -2851.965          47.000    23828081.305 8  95945806.168 8     -2185.305          50.000
E19                                                                  25094353.273 6 101044592.690 6     -1306.288          36.000
> 2020 05 03 00 07 30.0000000  0 16        .000000000000
G03  22719085.211 5 119389598.061 5     -2654.910          34.000
G04  20904509.094 8 109853996.086 8     -1735.500          51.000    20904509.086 8  85600495.774 8     -1352.338          51.000
G07  23349499.195 6 122702444.464 6      3236.656          40.000    23349499.125 6  95612296.955 6      2522.070          40.000
G09  20313473.328 8 106748114.690 8       499.371          51.000    20313473.727 8  83180333.187 8       389.120          51.000
G19  24019305.508 7 126222296.891 7     -3028.125          45.000    24019303.016 7  98355022.292 7     -2359.581          42.000
R12  21708944.531 6 115965283.443 6      3132.484          40.000    21708943.133 4  90195222.186 4      2436.374          27.000
R17  20966677.547 7 112196957.805 7     -3265.902          45.000    20966682.398 7  87264285.011 7     -2540.143          46.000
C05  39749260.484 5 206984829.555 5       -27.695          35.000    39749254.211 5 160053774.975 5       -21.416          34.000
C11                                                                  23949718.344 5  96435512.411 5      -972.131          31.000
C12  25160913.008 5 131019474.685 5     -3232.906          30.000    25160910.953 6 101312573.595 6     -2500.365          39.000
C21  21815014.195 8 113596539.533 8      -109.262          51.000
C22  24353936.906 4 126817340.067 4     -2251.457          29.000
E04  23756259.406 7 124840099.823 7       713.449          46.000    23756258.766 7  95656648.624 7       546.684          45.000
E09                                                                  25314499.227 6 101930996.668 6      1745.492          41.000
E12  23844377.219 8 125303055.139 8     -2860.004          48.000    23844379.477 8  96011430.462 8     -2191.497          50.000
E19                                                                  25104093.617 6 101083812.216 6     -1309.907          37.000
> 2020 05 03 00 08  0.0000000  0 15        .000000000000
G03  22734245.898 5 119469267.139 5     -2659.359          30.000
G04  20914437.148 8 109906168.617 8     -1744.012          51.000    20914437.133 8  85641149.683 8     -1358.970          51.000
G07  23331028.180 5 122605383.130 5      3232.492          35.000    23331028.438 5  95536664.690 5      2518.822          35.000
G09  20310652.172 8 106733288.964 8       487.770          51.000    20310652.852 8  83168780.674 8       380.080          51.000
G19  24036602.359 7 126313192.336 7     -3033.094          45.000    24036599.453 7  98425849.872 7     -2363.450          42.000
R02  19581016.008 5 104488008.797 5      -343.754          34.000
R12  21691387.289 6 115871500.783 6      3118.340          39.000    21691386.992 5  90122271.045 5      2425.378          35.000
R17  20985026.328 8 112295150.420 8     -3281.711          49.000    20985032.062 7  87340657.037 7     -2552.445          46.000
C05  39749409.516 5 206985605.079 5       -25.297          35.000    39749403.172 5 160054374.661 5       -19.643          34.000
C12  25179541.102 5 131116474.095 5     -3233.902          30.000    25179539.633 6 101387576.610 6     -2500.957          39.000
C21  21815655.180 8 113599877.775 8      -114.629          51.000
E04  23752194.922 7 124818740.683 7       709.086          46.000    23752194.039 7  95640282.541 7       543.296          45.000
E09                                                                  25301491.148 6 101878619.818 6      1745.023          40.000
E12  23860713.664 8 125388901.031 8     -2864.438          48.000    23860715.562 8  96077208.471 8     -2194.826          50.000
E19                                                                  25113854.047 6 101123112.545 6     -1310.801          37.000
> 2020 05 03 00 08 30.0000000  0 14        .000000000000
G04  20924426.648 8 109958664.122 8     -1755.977          51.000    20924426.742 8  85682055.265 8     -1368.290          51.000
G09  20307910.922 8 106718882.061 8       472.402          51.000    20307911.625 8  83157554.520 8       368.106          51.000
G19  24053939.758 7 126404302.242 7     -3041.324          43.000    24053937.852 7  98496844.602 7     -2369.863          43.000
R02  19582978.492 5 104498480.810 5      -355.031          35.000
R12  21673923.391 6 115778218.486 6      3100.004          40.000    21673926.492 6  90049718.080 6      2411.111          36.000
R17  21003478.172 8 112393887.128 8     -3301.086          49.000    21003483.000 7  87417452.240 7     -2567.511          45.000
R18  20773044.820 6 110887925.741 6       429.555          36.000
C05  39749558.359 5 206986380.902 5       -26.148          35.000
C12  25198185.180 4 131213561.779 4     -3238.629          28.000    25198183.000 6 101462642.388 6     -2503.936          38.000
C21  21816340.492 8 113603447.336 8      -123.609          51.000
E04  23748167.930 7 124797579.566 7       701.191          46.000    23748167.938 7  95624068.201 7       537.286          45.000
E09                                                                  25288500.703 6 101826310.538 6      1741.907          39.000
E12  23877088.281 8 125474947.231 8     -2872.367          48.000    23877089.641 8  96143139.973 8     -2200.863          50.000
E19                                                                  25123634.789 6 101162494.395 6     -1314.851          36.000
> 2020 05 03 00 09  0.0000000  0 14        .000000000000
G04  20934475.008 8 110011469.174 8     -1764.477          51.000    20934475.391 8  85723202.065 8     -1374.917          51.000
G09  20305246.859 8 106704881.772 8       460.766          51.000    20305247.391 8  83146645.198 8       359.038          51.000
G19  24071315.180 7 126495611.804 7     -3046.414          44.000    24071314.812 7  98567994.958 7     -2373.829          43.000
R01  22952258.438 5 122692920.588 5     -3022.520          33.000    22952260.609 4  95427865.130 4     -2350.849          28.000
R12  21656552.336 6 115685428.878 6      3085.359          39.000    21656556.852 5  89977548.442 5      2399.727          35.000
R17  21022029.133 8 112493151.805 8     -3316.664          49.000    21022033.133 7  87494658.084 7     -2579.625          45.000
C05  39749704.609 6 206987141.953 6       -23.738          36.000    39749698.195 5 160055562.325 5       -18.957          34.000
C12                                                                  25216838.672 6 101537760.004 6     -2504.220          38.000
C21  21817068.078 8 113607236.623 8      -129.234          51.000
C22  24392909.031 5 127020279.413 5     -2259.262          34.000
E04  23744176.141 7 124776604.521 7       696.684          45.000    23744177.719 7  95607996.424 7       533.951          45.000
E09                                                                  25275524.844 6 101774059.981 6      1741.527          37.000
E12  23893498.422 8 125561180.213 8     -2876.773          48.000    23893499.047 8  96209214.591 8     -2204.221          49.000
E19  25133433.312 5 132077083.027 5     -1717.355          33.000    25133432.578 6 101201948.335 6     -1315.797          36.000
> 2020 05 03 00 09 30.0000000  0 18        .000000000000
G04  20944581.070 8 110064577.355 8     -1775.668          51.000    20944581.766 8  85764585.073 8     -1383.637          51.000
G07  23275814.344 5 122315226.703 5      3215.223          33.000    23275811.906 5  95310561.897 5      2505.365          32.000
G09  20302658.945 8 106691282.933 8       446.289          51.000    20302659.609 8  83136048.682 8       347.755          51.000
G19  24088727.234 7 126587112.243 7     -3053.430          46.000    24088727.844 6  98639294.063 6     -2379.296          41.000
R01  22969226.289 5 122783633.802 5     -3024.688          32.000    22969231.852 4  95498419.817 4     -2352.535          26.000
R02  19587061.758 5 104520319.559 5      -373.902          33.000
R11  21693213.469 5 115921897.199 5      -334.082          32.000
R12  21639273.375 6 115593131.547 6      3067.949          39.000    21639276.609 5  89905761.594 5      2386.180          32.000
R17  21040676.547 8 112592935.063 8     -3335.035          48.000    21040680.102 7  87572267.310 7     -2593.913          44.000
C05  39749847.461 5 206987886.007 5       -25.113          35.000    39749840.977 5 160056137.647 5       -19.178          34.000
C11  23979363.914 5 124866827.532 5     -1317.531          32.000    23979351.648 5  96554909.880 5     -1018.871          32.000
C12                                                                  25235504.820 6 101612923.830 6     -2506.591          36.000
C21  21817837.078 8 113611241.072 8      -137.469          51.000
C22  24405921.086 5 127088143.984 5     -2263.512          31.000
E04  23740218.969 7 124755810.455 7       689.695          46.000    23740221.414 7  95592063.313 7       528.522          45.000
E09  25262563.258 6 132755653.779 6      2269.086          36.000    25262562.953 5 101721864.523 5      1738.387          34.000
E12  23909942.672 7 125647593.467 7     -2883.832          47.000    23909942.531 8  96275427.333 8     -2209.675          48.000
E19  25143247.984 5 132128659.545 5     -1721.566          34.000    25143247.242 6 101241470.311 6     -1318.814          36.000
> 2020 05 03 00 10  0.0000000  0 16        .000000000000
G04  20954756.703 8 110118051.005 8     -1786.805          51.000    20954757.523 8  85806252.862 8     -1392.315          51.000
G07  23257491.273 6 122218931.144 6      3207.684          38.000    23257490.188 6  95235526.417 6      2499.491          38.000
G09  20300159.570 8 106678149.119 8       431.680          51.000    20300160.508 8  83125814.535 8       336.374          51.000
G19  24106187.375 7 126678864.667 7     -3060.953          46.000    24106188.266 6  98710789.500 6     -2385.155          41.000
R01  22986212.922 5 122874455.159 5     -3027.453          34.000    22986222.195 4  95569058.588 4     -2354.692          28.000
R12  21622099.484 5 115501395.835 5      3050.449          32.000    21622103.586 5  89834411.533 5      2372.572          35.000
R17  21059431.359 7 112693297.972 7     -3353.277          47.000    21059434.531 7  87650327.371 7     -2608.105          43.000
C05  39749999.109 5 206988675.983 5       -25.273          35.000    39749992.648 5 160056748.550 5       -19.902          34.000
C11  23987005.109 5 124906638.099 5     -1333.543          35.000    23987002.273 5  96585693.835 5     -1031.630          34.000
C12                                                                  25254193.164 5 101688181.014 5     -2508.889          35.000
C21  21818659.656 8 113615524.246 8      -145.672          51.000
C22  24418980.773 5 127156041.099 5     -2267.672          30.000
E04  23736308.703 7 124735261.214 7       682.648          46.000    23736311.148 7  95576317.785 7       523.125          45.000
E09  25249627.469 6 132687670.373 6      2265.598          37.000    25249628.594 5 101669773.336 5      1735.708          34.000
E12  23926432.836 7 125734249.258 7     -2890.770          46.000    23926432.078 8  96341825.928 8     -2215.047          48.000
E19  25153090.773 5 132180387.348 5     -1725.102          33.000    25153090.984 6 101281108.936 6     -1321.657          36.000
> 2020 05 03 00 10 30.0000000  0 15        .000000000000
G04  20964988.742 8 110171820.718 8     -1796.992          51.000    20964989.430 8  85848151.336 8     -1400.254          50.000
G07  23239200.992 6 122122808.037 6      3201.727          40.000    23239200.297 6  95160625.321 6      2494.852          39.000
G09  20297735.773 8 106665412.078 8       418.219          51.000    20297736.672 8  83115889.578 8       325.885          51.000
G19  24123681.859 7 126770797.722 7     -3067.227          46.000    24123682.453 6  98782425.664 6     -2390.047          41.000
R01  23003208.828 5 122965315.296 5     -3029.371          32.000    23003217.656 4  95639727.593 4     -2356.178          26.000
R12  21605016.320 5 115410111.191 5      3033.180          35.000    21605024.398 6  89763458.301 6      2359.146          36.000
R17  21078281.117 8 112794167.254 8     -3370.426          48.000    21078283.953 7  87728781.251 7     -2621.442          42.000
C05  39750146.711 5 206989443.823 5       -24.789          35.000    39750140.234 5 160057343.028 5       -19.129          35.000
C11  23994732.633 5 124946891.524 5     -1348.652          31.000    23994738.414 5  96616820.307 5     -1042.861          33.000
C12                                                                  25272890.625 5 101763477.545 5     -2510.273          33.000
C21  21819522.930 8 113620019.103 8      -153.082          51.000
E04  23732432.109 7 124714888.722 7       676.418          45.000    23732434.258 7  95560707.709 7       518.276          45.000
E09  25236704.820 6 132619755.352 6      2262.883          37.000    25236704.695 5 101617734.591 5      1734.200          33.000
E12  23942955.555 7 125821078.089 7     -2896.844          44.000    23942954.781 7  96408357.104 7     -2219.651          47.000
E19  25162950.516 5 132232196.861 5     -1728.031          33.000    25162951.203 6 101320811.723 6     -1324.145          36.000
> 2020 05 03 00 11  0.0000000  0 16        .000000000000
G03  22826054.781 5 119951713.786 5     -2694.426          32.000
G04  20975276.719 8 110225884.023 8     -1801.938          51.000    20975277.273 8  85890278.582 8     -1404.107          49.000
G07  23220943.102 6 122026859.021 6      3200.297          40.000    23220938.430 6  95085859.887 6      2493.738          40.000
G09  20295387.328 8 106653070.563 8       409.891          51.000    20295388.133 8  83106272.815 8       319.395          51.000
G19  24141209.789 7 126862907.550 7     -3068.180          43.000    24141209.594 6  98854199.530 6     -2390.792          41.000
R01  23020212.367 5 123056212.830 5     -3025.840          32.000
R12  21588034.000 6 115319373.442 6      3021.188          36.000    21588034.031 5  89692884.415 5      2349.809          33.000
R17  21097225.305 7 112895537.762 7     -3382.113          47.000    21097226.906 6  87807624.943 6     -2630.536          41.000
C05  39750290.125 6 206990190.750 6       -19.797          36.000    39750283.680 5 160057920.587 5       -14.994          35.000
C11                                                                  24002557.578 5  96648287.486 5     -1051.004          33.000
C12                                                                  25291596.391 4 101838810.928 4     -2507.805          28.000
C21  21820426.680 8 113624724.942 8      -155.371          51.000
E04  23728588.734 7 124694691.981 7       675.152          45.000    23728590.734 7  95545232.271 7       517.393          45.000
E09  25223793.859 6 132551908.069 6      2265.672          37.000    25223792.320 4 101565758.834 4      1735.816          29.000
E12  23959510.203 7 125908077.402 7     -2897.809          42.000    23959509.992 7  96475018.900 7     -2220.357          47.000
E19  25172826.891 5 132284096.007 5     -1726.188          32.000    25172828.062 6 101360577.845 6     -1322.654          36.000
> 2020 05 03 00 11 30.0000000  0 14        .000000000000
G04  20985631.977 8 110280300.844 8     -1821.547          51.000    20985632.312 8  85932681.306 8     -1419.387          48.000
G07  23202729.867 7 121931148.100 7      3184.898          42.000    23202723.016 6  95011280.037 6      2481.739          41.000
G09  20293125.656 8 106641185.774 8       386.910          51.000    20293126.656 8  83097011.945 8       301.488          51.000
G19  24158782.180 6 126955252.174 6     -3083.801          41.000    24158780.914 6  98926156.379 6     -2402.962          41.000
R01  23037235.547 5 123147210.125 5     -3036.805          30.000
R12  21571153.656 6 115229203.039 6      2994.691          41.000    21571153.828 5  89622751.939 5      2329.204          35.000
R17  21116273.914 7 112997467.675 7     -3408.715          47.000    21116274.164 6  87886903.760 6     -2651.223          41.000
C05  39750441.023 5 206990976.797 5       -28.750          35.000    39750434.633 5 160058528.421 5       -22.150          35.000
C12  25310330.258 5 131797533.269 5     -3253.594          30.000
C21  21821382.625 8 113629702.945 8      -172.148          51.000
E04  23724790.016 7 124674732.315 7       659.621          43.000    23724792.133 7  95529938.488 7       505.412          44.000
E09  25210907.094 6 132484190.209 6      2253.504          39.000
E12  23976108.359 6 125995306.968 6     -2913.215          41.000    23976108.859 7  96541857.156 7     -2232.186          46.000
E19  25182731.055 5 132336144.583 5     -1739.266          34.000    25182731.969 5 101400453.842 5     -1332.466          35.000
> 2020 05 03 00 12  0.0000000  0 17        .000000000000
G03  22856953.586 5 120114095.491 5     -2704.484          35.000    22856949.039 5  93595401.271 5     -2107.397          35.000
G04  20996024.859 8 110334915.670 8     -1819.605          51.000    20996024.922 7  85975238.298 7     -1417.874          46.000
G07  23184533.273 7 121835524.134 7      3190.137          43.000    23184527.336 7  94936767.862 7      2485.821          42.000
G09  20290921.469 8 106629603.348 8       385.184          51.000    20290922.617 8  83087986.693 8       300.146          51.000
G19  24176369.344 7 127047674.544 7     -3077.980          42.000    24176367.211 6  98998173.806 6     -2398.426          41.000
R11  21704477.992 5 115982119.044 5      -458.629          33.000
R12  21554351.648 7 115139447.951 7      2989.363          42.000    21554352.859 6  89552942.444 6      2325.060          36.000
R17  21135396.156 7 113099796.173 7     -3413.375          46.000    21135396.859 7  87966492.544 7     -2654.850          42.000
C05  39750570.242 6 206991649.518 6       -16.266          36.000    39750564.000 5 160059048.639 5       -13.073          34.000
C12  25329046.188 5 131895004.111 5     -3244.688          30.000
C21  21822361.562 8 113634800.832 8      -167.789          51.000
C22  24471423.078 5 127429111.481 5     -2274.938          30.000
E01  28057009.305 7 147440580.696 7      2908.680          44.000    28057010.219 8 112973951.478 8      2228.741          48.000
E04  23721006.969 7 124654855.641 7       665.195          42.000    23721008.555 7  95514708.298 7       509.743          42.000
E09  25198015.430 6 132416448.134 6      2262.418          39.000
E12  23992720.891 6 126082611.246 6     -2907.090          40.000    23992721.852 7  96608752.658 7     -2227.540          45.000
E19                                                                  25192633.133 5 101440321.624 5     -1325.548          34.000
> 2020 05 03 00 12 30.0000000  0 14        .000000000000
G04  21006515.742 8 110390045.552 8     -1843.000          51.000    21006515.648 7  86018196.635 7     -1436.107          45.000
G07  23166414.805 7 121740307.815 7      3170.309          45.000    23166410.281 7  94862573.316 7      2470.370          45.000
G09  20288835.477 8 106618641.570 8       358.270          51.000    20288836.625 8  83079445.054 8       279.174          51.000
G19  24194031.602 7 127140489.698 7     -3096.809          45.000    24194028.641 7  99070497.271 7     -2413.101          43.000
R12  21537689.141 7 115050436.544 7      2957.984          42.000    21537689.539 5  89483711.343 5      2300.651          34.000
R17  21154653.812 8 113202843.319 8     -3443.504          48.000    21154653.852 7  88046640.295 7     -2678.281          43.000
C05  39750738.297 5 206992524.839 5       -29.352          35.000    39750732.039 5 160059725.465 5       -22.654          34.000
C12  25347815.852 5 131992748.836 5     -3259.328          30.000
C21  21823424.133 8 113640334.464 8      -188.492          51.000
E01  28040476.875 6 147353711.847 6      2895.238          39.000    28040480.188 8 112907389.638 8      2218.468          48.000
E04  23717300.641 7 124635380.315 7       645.742          42.000    23717301.297 7  95499785.669 7       494.786          43.000
E09  25185179.828 6 132349000.491 6      2246.145          37.000
E12  24009408.688 6 126170307.162 6     -2926.355          41.000    24009409.453 7  96675948.228 7     -2242.305          45.000
E19  25202590.312 5 132440507.344 5     -1746.312          35.000    25202591.352 5 101480424.730 5     -1338.024          33.000
> 2020 05 03 00 13  0.0000000  0 16        .000000000000
G03  22888013.078 6 120277297.981 6     -2729.898          36.000    22888008.023 6  93722585.321 6     -2127.197          36.000
G04  21017026.188 8 110445278.613 8     -1852.504          50.000    21017026.078 7  86061235.380 7     -1443.510          46.000
G07  23148296.516 7 121645091.630 7      3164.254          47.000    23148293.281 7  94788378.881 7      2465.652          47.000
G09  20286789.336 8 106607889.685 8       345.168          51.000    20286790.547 8  83071066.976 8       268.962          51.000
G19  24211690.086 7 127233284.303 7     -3102.457          45.000    24211686.477 7  99142804.727 7     -2417.502          43.000
R12  21521087.633 7 114961756.131 7      2940.453          42.000    21521089.078 6  89414737.703 6      2287.022          36.000
R17  21173967.172 7 113306187.161 7     -3459.555          47.000    21173966.688 7  88127018.833 7     -2690.765          44.000
C05  39750867.227 6 206993196.723 6       -28.512          36.000    39750860.812 5 160060243.634 5       -21.981          34.000
C12  25366558.008 5 132090349.173 5     -3260.609          30.000
C21  21824492.461 8 113645897.531 8      -195.504          51.000
C22  24497787.680 5 127566437.747 5     -2294.160          30.000
E01  28023904.008 5 147266646.476 5      2895.824          35.000    28023912.547 7 112840677.168 7      2218.878          47.000
E04  23713593.211 7 124615895.924 7       639.973          42.000    23713593.531 7  95484856.102 7       490.411          43.000
E09  25172322.039 6 132281437.277 6      2244.332          38.000
E12  24026093.406 7 126257982.764 7     -2931.961          42.000    24026093.219 7  96743128.209 7     -2246.361          44.000
E19  25212530.242 5 132492741.873 5     -1748.969          35.000    25212530.398 5 101520413.619 5     -1340.445          33.000
> 2020 05 03 00 13 30.0000000  0 15        .000000000000
G03  22903610.594 5 120359272.506 5     -2735.699          32.000    22903609.102 5  93786461.732 5     -2131.708          30.000
G04  21027624.828 8 110500974.986 8     -1861.449          51.000    21027624.508 7  86104635.167 7     -1450.480          45.000
G07  23130247.359 8 121550239.795 8      3158.250          48.000    23130245.172 8  94714468.365 8      2460.974          48.000
G09  20284851.945 8 106597709.075 8       332.512          51.000    20284853.195 8  83063134.037 8       259.100          51.000
G19  24229413.016 7 127326416.805 7     -3107.270          45.000    24229409.023 7  99215375.468 7     -2421.249          44.000
R12  21504617.641 6 114873778.820 6      2923.555          39.000    21504621.539 5  89346310.885 5      2273.876          35.000
R17  21193402.539 7 113410191.658 7     -3475.031          46.000    21193403.617 7  88207911.251 7     -2702.799          46.000
C05  39751025.961 5 206994022.280 5       -27.180          35.000    39751019.430 5 160060883.403 5       -21.410          35.000
C12  25385341.828 4 132188135.080 4     -3260.359          28.000
C21  21825635.453 8 113651848.690 8      -202.117          51.000
E01  28007365.156 5 147179698.591 5      2896.445          35.000    28007376.602 7 112774092.946 7      2219.339          47.000
E04  23709953.180 7 124596764.067 7       634.570          43.000    23709953.586 7  95470196.669 7       486.133          44.000
E09  25159511.320 6 132214120.403 6      2242.527          37.000
E12  24042843.117 7 126345998.070 7     -2936.691          42.000    24042841.477 7  96810568.505 7     -2250.288          44.000
E19  25222519.883 6 132545234.474 6     -1751.398          37.000    25222519.117 5 101560635.177 5     -1341.990          33.000
> 2020 05 03 00 14  0.0000000  0 15        .000000000000
G04  21038271.523 8 110556923.540 8     -1869.688          51.000    21038271.172 7  86148231.435 7     -1456.899          44.000
G07  23112227.727 8 121455545.077 8      3153.492          49.000    23112226.414 8  94640680.263 8      2457.267          49.000
G09  20282983.352 8 106587889.661 8       320.770          51.000    20282984.477 8  83055482.548 8       249.950          51.000
G19  24247159.648 7 127419674.265 7     -3111.230          44.000    24247155.617 7  99288043.585 7     -2424.335          43.000
R11  21716193.297 5 116044688.664 5      -574.027          32.000
R12  21488239.094 5 114786295.643 5      2907.176          34.000    21488246.531 5  89278268.321 5      2261.137          35.000
R17  21212920.633 8 113514639.117 8     -3489.430          49.000    21212923.102 7  88289148.169 7     -2714.001          46.000
C05  39751174.500 6 206994795.432 6       -25.438          36.000    39751167.953 5 160061481.227 5       -19.616          34.000
C11  24051319.492 5 125241522.690 5     -1455.359          34.000    24051312.766 6  96844676.199 6     -1125.618          39.000
C21  21826813.180 8 113657980.404 8      -207.895          51.000
E01  27990821.938 6 147092760.521 6      2898.016          40.000    27990832.969 7 112707478.010 7      2220.516          47.000
E04  23706340.172 7 124577774.978 7       630.004          43.000    23706340.492 7  95455646.590 7       482.751          44.000
E09  25146707.312 6 132146840.382 6      2241.598          38.000    25146711.938 5 101255392.638 5      1717.725          34.000
E12  24059617.008 6 126434141.763 6     -2940.828          41.000    24059614.070 7  96878107.182 7     -2253.332          43.000
E19  25232518.852 5 132597774.645 5     -1752.902          34.000    25232517.477 5 101600893.233 5     -1343.040          33.000
> 2020 05 03 00 14 30.0000000  0 16        .000000000000
G04  21048946.469 8 110613020.456 8     -1879.648          50.000    21048946.492 7  86191943.312 7     -1464.661          45.000
G07  23094218.609 8 121360907.472 8      3146.367          49.000    23094218.062 8  94566936.658 8      2451.712          49.000
G09  20281164.000 8 106578328.797 8       307.051          51.000    20281164.820 8  83048032.534 8       239.260          51.000
G19  24264909.586 7 127512951.494 7     -3117.180          42.000    24264905.688 7  99360727.150 7     -2428.968          42.000
R11  21719460.648 4 116062211.097 4      -600.719          27.000
R12  21471938.742 4 114699207.166 4      2888.664          29.000    21471943.211 4  89210532.829 4      2246.751          25.000
R17  21232501.695 8 113619421.187 8     -3505.789          50.000    21232504.602 7  88370645.321 7     -2726.725          46.000
C05  39751293.469 5 206995415.459 5       -25.660          35.000    39751286.844 5 160061958.907 5       -19.757          35.000
C11  24059723.117 5 125285279.685 5     -1471.254          33.000    24059713.812 6  96878511.752 6     -1137.458          37.000
C21  21828006.047 8 113664191.687 8      -215.664          51.000
C22  24537471.852 4 127773055.464 4     -2302.488          28.000
E01  27974252.773 7 147005682.289 7      2897.457          42.000    27974262.492 7 112640755.749 7      2220.114          47.000
E04  23702734.367 7 124558826.216 7       623.516          42.000    23702734.508 7  95441127.406 7       477.732          44.000
