     3.02           OBSERVATION DATA    M (MIXED)           RINEX VERSION / TYPE
SAVERINEX           SC600               20200504 065931 LCL PGM / RUN BY / DATE
       G = GPS       R = GLONASS       C = COMPASS          COMMENT
       S = SBAS      J = QZSS          E = GALILEO          COMMENT
BEAN                                                        MARKER NAME
1                                                           MARKER NUMBER
GEODETIC                                                    MARKER TYPE
Unige DICCA         GTER                                    OBSERVER / AGENCY
SC60291900056       SC600               2.12(191226)        REC # / TYPE / VERS
                    HEMA45          NONE                    ANT # / TYPE
  4509407.8091   693652.4678  4442337.6214                  APPROX POSITION XYZ
        0.0000        0.0000        0.0000                  ANTENNA: DELTA H/E/N
G    8 C1C L1C D1C S1C C2Y L2Y D2Y S2Y                      SYS / # / OBS TYPES
R    8 C1C L1C D1C S1C C2P L2P D2P S2P                      SYS / # / OBS TYPES
C    8 C1I L1I D1I S1I C7I L7I D7I S7I                      SYS / # / OBS TYPES
E    8 C1C L1C D1C S1C C7Q L7Q D7Q S7Q                      SYS / # / OBS TYPES
DBHZ                                                        COMMENT
     30.000                                                 INTERVAL
  2020    05    04    04    00    0.0000000     GPS         TIME OF FIRST OBS
  2020    05    04    04    59   30.0000000     GPS         TIME OF LAST OBS
     0                                                      RCV CLOCK OFFS APPL
G L1C  0.00000                                              SYS / PHASE SHIFT
G L2Y  0.00000                                              SYS / PHASE SHIFT
R L1C  0.00000                                              SYS / PHASE SHIFT
R L2P  0.25000                                              SYS / PHASE SHIFT
C L1I  0.00000                                              SYS / PHASE SHIFT
C L7I  0.00000                                              SYS / PHASE SHIFT
E L1C  0.50000                                              SYS / PHASE SHIFT
E L7Q -0.25000                                              SYS / PHASE SHIFT
 12 R02 -4 R03  5 R04  6 R05  1 R10 -5 R13 -2 R14 -7 R15  0 GLONASS SLOT / FRQ #
    R16 -1 R17  4 R18 -3 R19  3                             GLONASS SLOT / FRQ #
 C1C   71.950 C2C   71.950 C2P   71.950                     GLONASS COD/PHS/BIS
    18                                                      LEAP SECONDS
*** Above antenna height is from mark to ANTENNA BOTTOM.    COMMENT
    17     4        0.0000        ANT MEASURE TYPE/HEIGT    COMMENT
    0.0000    0.0000    0.0458    0.0405    0.0000          COMMENT
                    BASE STATION                            COMMENT
                                                            END OF HEADER
> 2020 05 04 04 00  0.0000000  0 12        .000000000000
G05  20768174.766 8 109137494.885 8     -1192.020          51.000    20768173.875 8  85042199.354 8      -928.846          51.000
G28  21568006.219 8 113340710.569 8      2032.344          51.000    21568004.141 7  88317410.829 7      1583.644          47.000
G30  20672665.688 8 108635663.885 8     -1225.090          51.000    20672667.008 8  84651148.793 8      -954.615          51.000
R04  21579069.281 6 115554937.741 6     -3297.121          39.000    21579073.195 7  89876095.140 7     -2564.431          43.000
R05  19175117.453 8 102501992.156 8          .973          51.000    19175119.797 8  79723772.438 8          .757          48.000
R15  19136665.039 8 102260624.511 8      -125.348          51.000    19136667.383 7  79536017.384 7       -97.493          47.000
R16  21400625.914 7 114318329.912 7      3653.633          46.000    21400630.203 6  88914258.339 6      2841.717          41.000
C05  39783345.383 6 207162318.304 6         1.133          36.000    39783343.836 6 160191025.216 6         1.051          41.000
C21  22407434.203 8 116681507.744 8     -1831.047          51.000
C26  21872924.141 8 113897998.242 8      1536.793          51.000
E21  24255608.344 8 127464093.766 8      1839.246          51.000    24255610.219 8  97667284.508 8      1409.254          51.000
E27  24234901.242 6 127355272.166 6     -1079.227          39.000    24234902.391 7  97583907.069 7      -826.919          43.000
> 2020 05 04 04 00 30.0000000  0 14        .000000000000
G05  20775004.078 8 109173382.182 8     -1202.027          51.000    20775002.969 8  85070163.481 8      -936.645          51.000
G07  22719999.383 5 119394348.787 5     -2533.594          35.000    22719993.164 5  93034578.682 5     -1974.229          30.000
G28  21556418.109 8 113279812.655 8      2025.914          51.000    21556416.359 7  88269957.908 7      1578.634          47.000
G30  20679665.172 8 108672445.649 8     -1228.461          51.000    20679666.398 8  84679809.895 8      -957.242          51.000
R04  21597542.008 6 115653877.566 6     -3300.562          40.000    21597548.023 6  89953048.388 6     -2567.104          41.000
R05  19175140.578 8 102502115.104 8       -10.781          51.000    19175142.961 8  79723868.054 8        -8.385          48.000
R14  21635424.094 5 115328949.229 5     -3582.348          32.000    21635426.703 4  89700324.237 4     -2786.273          28.000
R15  19137406.461 8 102264586.962 8      -140.484          51.000    19137408.750 7  79539099.294 7      -109.266          47.000
R16  21380116.648 7 114208768.083 7      3648.949          44.000    21380119.398 6  88829043.604 6      2838.075          38.000
C05  39783306.398 6 207162114.844 6        10.051          36.000    39783304.805 6 160190867.855 6         8.077          41.000
C21  22417989.961 8 116736472.924 8     -1834.926          51.000
C26  21864077.984 8 113851929.546 8      1532.871          51.000
E21  24245112.188 8 127408934.189 8      1836.438          51.000    24245114.570 8  97625019.366 8      1407.176          51.000
E27  24241068.344 6 127387681.858 6     -1082.875          41.000    24241069.875 7  97608740.499 7      -829.858          43.000
> 2020 05 04 04 01  0.0000000  0 15        .000000000000
G05  20781952.578 8 109209896.377 8     -1226.887          51.000    20781951.398 8  85098616.095 8      -956.016          51.000
G07  22734511.258 6 119470611.307 6     -2544.883          37.000    22734486.930 5  93094004.034 5     -1983.019          31.000
G28  21544928.156 8 113219434.668 8      2004.699          48.000    21544927.398 8  88222910.123 8      1562.103          48.000
G30  20686745.305 8 108709651.107 8     -1246.531          51.000    20686746.539 8  84708801.152 8      -971.323          51.000
R04  21616099.641 7 115753258.568 7     -3319.184          45.000    21616105.508 6  90030344.711 6     -2581.587          40.000
R05  19175291.914 8 102502925.804 8       -37.754          51.000    19175294.133 7  79724498.574 7       -29.364          47.000
R14  21655644.617 4 115436773.015 4     -3599.000          29.000    21655653.844 4  89784192.192 4     -2799.222          26.000
R15  19138294.570 8 102269334.155 8      -170.586          51.000    19138297.039 8  79542791.570 8      -132.678          48.000
R16  21359694.703 7 114099676.071 7      3629.441          45.000    21359695.383 6  88744194.344 6      2822.902          37.000
C05  39783278.688 5 207161970.701 5         5.012          35.000    39783277.141 6 160190756.390 6         3.640          41.000
C21  22428629.883 8 116791876.174 8     -1853.328          51.000
C24  25874081.594 6 134733137.051 6      3171.750          38.000
C26  21855315.898 8 113806300.075 8      1514.426          51.000
E21  24234694.242 8 127354185.906 8      1818.949          51.000    24234697.312 8  97583069.380 8      1393.728          51.000
E27  24247319.625 6 127420531.254 6     -1101.574          40.000    24247321.359 7  97633910.786 7      -843.857          42.000
> 2020 05 04 04 01 30.0000000  0 14        .000000000000
G05  20789019.906 8 109247034.460 8     -1246.121          51.000    20789018.477 8  85127554.869 8      -971.003          51.000
G07  22749067.250 5 119547090.773 5     -2551.230          34.000    22749035.117 4  93153598.350 4     -1987.966          28.000
G28  21533536.453 8 113159576.322 8      1988.848          48.000    21533537.031 7  88176267.233 7      1549.748          45.000
G30  20693905.359 8 108747276.561 8     -1258.988          51.000    20693906.672 8  84738119.687 8      -981.030          51.000
R04  21634741.539 8 115853076.650 8     -3332.340          48.000    21634744.820 6  90107980.920 6     -2591.823          39.000
R05  19175572.188 8 102504423.603 8       -59.188          51.000    19175573.906 7  79725663.503 7       -46.035          46.000
R15  19139328.695 8 102274862.476 8      -195.129          51.000    19139331.562 8  79547091.379 8      -151.767          48.000
R16  21339360.938 7 113991053.566 7      3615.082          46.000    21339360.258 6  88659710.250 6      2811.730          40.000
C05  39783261.945 6 207161883.752 6         3.691          36.000    39783260.477 6 160190689.106 6         3.184          41.000
C21  22439353.414 8 116847714.555 8     -1866.309          51.000
C24  25855830.656 6 134638089.137 6      3167.152          39.000
C26  21846637.281 8 113761107.996 8      1501.191          51.000
E21  24224354.148 8 127299847.589 8      1806.605          51.000    24224358.219 8  97541433.522 8      1384.300          51.000
E27  24253653.961 6 127453816.693 6     -1114.562          37.000    24253655.438 7  97659415.319 7      -854.051          42.000
> 2020 05 04 04 02  0.0000000  0 14        .000000000000
G05  20796178.219 8 109284651.007 8     -1265.340          51.000    20796176.688 8  85156866.464 8      -985.979          51.000
G07  22763635.477 6 119623688.255 6     -2556.699          36.000    22763637.320 6  93213284.361 6     -1992.233          36.000
G28  21522217.281 8 113100095.892 8      1972.902          49.000    21522218.055 7  88129918.830 7      1537.327          44.000
G30  20701117.727 8 108785176.854 8     -1271.457          51.000    20701119.039 8  84767652.363 8      -990.746          51.000
R04  21653438.461 8 115953183.457 8     -3345.309          50.000    21653439.211 6  90185841.667 6     -2601.910          40.000
R05  19175953.727 8 102506463.503 8       -80.621          51.000    19175955.539 7  79727250.061 7       -62.705          46.000
R15  19140481.609 8 102281024.452 8      -219.508          51.000    19140484.922 7  79551884.046 7      -170.725          47.000
R16  21319088.062 7 113882757.542 7      3600.910          46.000    21319088.391 7  88575480.028 7      2800.705          43.000
C05  39783228.891 6 207161711.368 6         3.855          36.000    39783227.391 6 160190555.785 6         3.057          41.000
C21  22450132.750 8 116903844.874 8     -1879.312          51.000
C24  25837588.703 5 134543082.352 5      3162.996          35.000
C26  21838014.961 8 113716211.104 8      1488.184          51.000
E21  24214064.609 8 127245776.328 8      1794.527          51.000    24214069.461 8  97500002.272 8      1374.944          51.000
E27  24260043.406 6 127487393.419 6     -1127.500          39.000    24260044.898 7  97685142.976 7      -864.027          42.000
> 2020 05 04 04 02 30.0000000  0 15        .000000000000
G05  20803440.438 8 109322814.044 8     -1280.461          51.000    20803438.703 8  85186603.896 8      -997.762          51.000
G07  22778228.219 6 119700378.965 6     -2557.996          38.000    22778233.242 4  93273043.198 4     -1993.250          29.000
G28  21510984.281 8 113041064.729 8      1960.902          51.000    21510983.969 7  88083920.531 7      1527.976          43.000
G30  20708395.289 8 108823420.008 8     -1279.746          51.000    20708396.414 8  84797452.203 8      -997.208          51.000
R04  21672201.172 7 116053648.003 7     -3354.012          47.000    21672201.750 6  90263980.691 6     -2608.679          41.000
R05  19176450.266 8 102509117.406 8       -97.992          51.000    19176451.836 7  79729314.167 7       -76.216          45.000
R14  21716647.055 5 115761930.924 5     -3625.191          33.000
R15  19141766.188 8 102287889.308 8      -239.875          51.000    19141769.531 7  79557223.384 7      -186.569          47.000
R16  21298889.133 7 113774860.906 7      3590.668          47.000    21298891.227 7  88491560.399 7      2792.742          45.000
C05  39783192.625 6 207161522.483 6         7.109          36.000    39783191.117 6 160190409.697 6         5.636          41.000
C21  22460981.297 8 116960335.139 8     -1888.277          51.000
C24  25819367.688 5 134448186.780 5      3161.652          31.000
C26  21829462.469 8 113671678.586 8      1479.062          51.000
E21  24203839.266 8 127192042.456 8      1786.156          51.000    24203844.141 8  97458829.535 8      1368.625          51.000
E27  24266500.945 6 127521329.586 6     -1136.410          37.000    24266502.812 7  97711146.062 7      -870.867          42.000
> 2020 05 04 04 03  0.0000000  0 15        .000000000000
G05  20810816.266 8 109361574.478 8     -1300.648          51.000    20810814.562 8  85216806.839 8     -1013.492          51.000
G07  22792858.484 6 119777258.473 6     -2564.191          38.000
G28  21499847.180 8 112982535.470 8      1943.938          51.000    21499845.570 7  88038313.331 7      1514.756          43.000
G30  20715747.391 8 108862055.380 8     -1293.027          51.000    20715748.383 8  84827557.680 8     -1007.554          51.000
R04  21691038.508 7 116154520.431 7     -3367.816          45.000    21691040.172 7  90342437.036 7     -2619.413          42.000
R05  19177071.258 8 102512438.189 8      -120.465          50.000    19177072.180 7  79731896.966 7       -93.695          45.000
R14  21737087.695 6 115870892.041 6     -3635.773          36.000    21737081.781 5  90121785.456 5     -2827.827          30.000
R15  19143191.820 8 102295507.264 8      -265.109          51.000    19143194.961 8  79563148.467 8      -206.196          48.000
R16  21278775.398 8 113667417.988 8      3575.223          48.000    21278778.539 7  88407993.677 7      2780.729          46.000
C05  39783162.797 6 207161367.849 6         6.086          36.000    39783161.336 7 160190289.729 7         4.703          42.000
C21  22471908.320 8 117017234.966 8     -1902.160          51.000
C24  25801177.383 5 134353499.812 5      3156.387          31.000
C26  21820989.719 8 113627561.103 8      1465.008          51.000
E21  24193688.109 8 127138697.536 8      1773.047          51.000    24193692.211 8  97417954.864 8      1358.526          51.000
E27  24273036.383 6 127555674.783 6     -1150.328          41.000    24273038.766 7  97737462.554 7      -881.405          42.000
> 2020 05 04 04 03 30.0000000  0 15        .000000000000
G05  20818298.672 8 109400896.533 8     -1320.492          50.000    20818297.734 8  85247447.373 8     -1028.958          51.000
G07  22807517.672 6 119854291.597 6     -2570.379          37.000    22807518.195 5  93392929.638 5     -2002.893          34.000
G28  21488799.500 8 112924476.104 8      1927.023          51.000    21488796.891 7  87993072.268 7      1501.577          43.000
G30  20723167.328 8 108901047.418 8     -1306.039          51.000    20723168.461 8  84857941.074 8     -1017.693          51.000
R04  21709944.031 7 116255764.141 7     -3381.461          44.000    21709947.102 6  90421182.207 6     -2630.022          41.000
R05  19177811.297 8 102516392.305 8      -142.723          50.000    19177811.727 7  79734972.369 7      -111.010          46.000
R14  21757582.031 6 115980135.937 6     -3646.293          36.000    21757577.555 5  90206752.862 5     -2836.009          30.000
R15  19144751.836 8 102303842.273 8      -290.191          51.000    19144754.891 7  79569631.266 7      -225.704          47.000
R16  21258740.766 7 113560396.408 7      3559.953          47.000    21258744.227 7  88324754.669 7      2768.852          46.000
C05  39783133.047 6 207161212.155 6         4.688          36.000    39783131.570 6 160190169.683 6         3.776          41.000
C21  22482907.023 8 117074509.724 8     -1915.809          51.000
C24  25783009.586 5 134258896.953 5      3151.391          32.000
C26  21812590.078 8 113583825.161 8      1451.141          51.000
E21  24183604.641 8 127085708.307 8      1759.973          51.000    24183607.375 8  97377352.737 8      1348.544          51.000
E27  24279643.266 7 127590393.743 7     -1163.934          42.000    24279646.570 6  97764065.371 6      -891.764          41.000
> 2020 05 04 04 04  0.0000000  0 14        .000000000000
G05  20825890.500 8 109440794.207 8     -1339.273          50.000    20825890.398 8  85278536.454 8     -1043.590          51.000
G28  21477844.234 8 112866903.773 8      1911.254          51.000    21477841.375 7  87948210.699 7      1489.289          43.000
G30  20730657.836 8 108940409.953 8     -1317.895          51.000    20730659.008 8  84888613.153 8     -1026.931          51.000
R04  21728921.617 7 116357392.964 7     -3393.727          44.000    21728926.430 7  90500226.822 7     -2639.568          44.000
R05  19178672.812 8 102520996.681 8      -164.047          50.000    19178673.281 7  79738553.551 7      -127.592          47.000
R14  21778132.047 5 116089674.738 5     -3655.484          35.000    21778128.086 4  90291949.687 4     -2843.155          28.000
R15  19146448.508 8 102312908.159 8      -313.988          51.000    19146451.062 8  79576682.515 8      -244.213          48.000
R16  21238788.195 7 113453814.656 7      3545.742          46.000    21238791.820 7  88241857.724 7      2757.799          45.000
C05  39783106.125 6 207161071.971 6         5.227          36.000    39783104.680 6 160190061.279 6         3.613          41.000
C21  22493980.391 8 117132173.687 8     -1928.285          51.000
C24  25764867.453 6 134164440.587 6      3146.699          36.000
C26  21804266.359 8 113540486.161 8      1438.273          51.000
E21  24173591.797 8 127033090.853 8      1747.988          51.000    24173593.422 8  97337035.483 8      1339.350          51.000
E27  24286323.352 6 127625500.228 6     -1176.359          40.000    24286327.805 6  97790965.240 6      -901.414          40.000
> 2020 05 04 04 04 30.0000000  0 15        .000000000000
G05  20833588.469 8 109481248.078 8     -1358.281          51.000    20833588.805 8  85310058.943 8     -1058.401          51.000
G07  22836909.070 6 120008766.531 6     -2581.152          36.000
G28  21466978.117 8 112809802.288 8      1894.938          50.000    21466975.547 7  87903716.022 7      1476.575          45.000
G30  20738215.070 8 108980123.431 8     -1330.195          51.000    20738216.164 8  84919558.711 8     -1036.516          51.000
R04  21747968.789 7 116459386.512 7     -3406.289          46.000    21747973.297 7  90579555.040 7     -2649.336          44.000
R05  19179652.711 8 102526234.077 8      -185.570          50.000    19179653.242 7  79742627.073 7      -144.332          47.000
R14  21798734.281 6 116199486.352 6     -3665.320          37.000    21798729.234 4  90377381.738 4     -2850.802          27.000
R15  19148278.242 8 102322685.136 8      -338.250          49.000    19148280.562 8  79584286.830 8      -263.083          48.000
R16  21218915.172 7 113347656.432 7      3530.984          46.000    21218918.203 7  88159290.197 7      2746.321          44.000
C05  39783078.656 5 207160929.968 5         4.699          35.000    39783077.188 6 160189950.674 6         3.395          41.000
C21  22505125.102 8 117190208.119 8     -1941.152          51.000
C24  25746750.094 6 134070113.729 6      3141.820          38.000
C26  21796016.305 8 113497526.452 8      1425.188          51.000
E21  24163646.547 8 126980827.962 8      1735.715          51.000    24163647.648 8  97296989.898 8      1329.969          51.000
E27  24293073.930 7 127660975.146 7     -1189.164          43.000    24293077.250 6  97818147.312 6      -911.336          38.000
> 2020 05 04 04 05  0.0000000  0 15        .000000000000
G05  20841393.562 8 109522263.137 8     -1376.379          51.000    20841393.938 8  85342018.735 8     -1072.500          51.000
G07  22851674.320 5 120086324.837 5     -2585.668          35.000    22851690.023 5  93573835.700 5     -2014.800          32.000
G28  21456203.148 8 112753180.358 8      1879.543          50.000    21456201.141 7  87859595.050 7      1464.579          45.000
G30  20745840.023 8 109020193.230 8     -1341.395          51.000    20745841.070 8  84950781.931 8     -1045.242          51.000
R04  21767085.641 7 116561749.897 7     -3418.098          47.000    21767088.742 7  90659170.998 7     -2658.520          44.000
R05  19180752.508 8 102532112.427 8      -206.480          51.000    19180753.164 8  79747199.137 8      -160.596          48.000
R14  21819387.633 6 116309574.065 6     -3674.199          36.000    21819380.930 4  90463005.533 4     -2857.714          27.000
R15  19150242.258 8 102333178.500 8      -361.477          50.000    19150244.383 8  79592448.311 8      -281.151          49.000
R16  21199123.398 7 113241931.092 7      3516.992          47.000    21199125.625 7  88077059.387 7      2735.438          43.000
C05  39783051.859 6 207160789.805 6         4.926          36.000    39783050.453 6 160189843.026 6         3.555          41.000
C21  22516341.406 8 117248618.957 8     -1953.145          50.000
C24  25728659.039 6 133975924.446 6      3137.738          40.000
C26  21787841.023 8 113454953.107 8      1412.805          51.000
E21  24153770.336 8 126928927.213 8      1724.090          51.000    24153771.219 8  97257221.799 8      1321.056          51.000
E27  24299895.773 7 127696823.964 7     -1201.281          42.000    24299897.844 6  97845615.877 6      -920.301          36.000
> 2020 05 04 04 05 30.0000000  0 15        .000000000000
G05  20849304.281 8 109563833.193 8     -1394.973          51.000    20849304.500 8  85374410.960 8     -1086.992          51.000
G07  22866450.625 5 120163972.505 5     -2590.922          33.000    22866463.828 5  93634340.294 5     -2018.894          33.000
G28  21445518.773 8 112697033.576 8      1863.461          51.000    21445517.188 7  87815844.294 7      1452.047          47.000
G30  20753531.398 8 109060611.584 8     -1353.152          51.000    20753532.516 8  84982276.734 8     -1054.404          51.000
R04  21786268.961 8 116664474.812 8     -3430.309          48.000    21786272.109 7  90739068.158 7     -2668.018          44.000
R05  19181971.125 8 102538626.334 8      -227.883          51.000    19181972.227 8  79752265.487 8      -177.242          49.000
R14  21840088.789 6 116419927.768 6     -3682.969          36.000    21840082.328 4  90548834.115 4     -2864.531          26.000
R15  19152338.648 8 102344380.269 8      -385.395          50.000    19152340.734 8  79601160.786 8      -299.751          49.000
R16  21179411.828 7 113136634.660 7      3502.453          47.000    21179413.578 7  87995162.180 7      2724.130          43.000
C05  39783024.695 6 207160648.113 6         4.504          36.000    39783023.266 6 160189733.417 6         3.655          41.000
C21  22527628.297 8 117307399.054 8     -1965.637          50.000
C24  25710593.891 6 133881867.452 6      3132.754          41.000
C26  21779738.664 8 113412760.046 8      1399.938          51.000
E21  24143962.062 8 126877383.005 8      1712.090          51.000    24143962.961 8  97217726.902 8      1311.840          51.000
E27  24306787.328 7 127733039.002 7     -1213.309          45.000    24306789.508 5  97873365.078 5      -929.483          35.000
> 2020 05 04 04 06  0.0000000  0 14        .000000000000
G05  20857323.281 8 109605971.675 8     -1412.398          51.000    20857322.766 8  85407246.127 8     -1100.570          51.000
G28  21434928.000 8 112641378.922 8      1848.578          49.000    21434927.070 8  87772477.031 8      1440.450          49.000
G30  20761291.711 8 109101392.170 8     -1363.734          51.000    20761292.930 8  85014053.794 8     -1062.650          51.000
R04  21805522.469 8 116767574.728 8     -3441.164          49.000    21805525.594 7  90819256.992 7     -2676.458          43.000
R05  19183311.656 8 102545792.459 8      -247.945          51.000    19183313.148 8  79757839.121 8      -192.849          49.000
R14  21860839.547 6 116530572.077 6     -3690.750          36.000    21860832.227 4  90634867.752 4     -2870.577          25.000
R15  19154570.680 8 102356304.261 8      -407.699          49.000    19154572.227 8  79610434.968 8      -317.099          50.000
R16  21159783.852 7 113031785.358 7      3489.121          47.000    21159785.250 7  87913612.728 7      2713.761          43.000
C05  39782999.867 6 207160518.905 6         6.148          36.000    39782998.531 6 160189633.524 6         4.476          41.000
C21  22538989.500 8 117366562.493 8     -1976.789          50.000
C24  25692557.438 6 133787958.995 6      3129.551          40.000
C26  21771712.328 8 113370962.555 8      1388.406          51.000
E21  24134224.773 8 126826211.319 8      1701.242          51.000    24134225.867 8  97178517.448 8      1303.510          51.000
E27  24313751.500 7 127769634.268 7     -1224.488          45.000    24313753.562 5  97901409.621 5      -938.370          31.000
> 2020 05 04 04 06 30.0000000  0 15        .000000000000
G05  20865443.289 8 109648640.076 8     -1431.281          51.000    20865441.805 8  85440494.212 8     -1115.284          51.000
G07  22896054.633 5 120319578.963 5     -2599.852          30.000
G28  21424423.773 8 112586181.071 8      1832.102          50.000    21424423.680 8  87729465.739 8      1427.612          48.000
G30  20769113.594 8 109142496.488 8     -1375.754          51.000    20769114.680 8  85046083.131 8     -1072.016          51.000
R04  21824839.055 8 116871010.438 8     -3453.672          48.000    21824841.344 6  90899707.002 6     -2686.189          41.000
R05  19184767.273 8 102553574.433 8      -269.883          51.000    19184768.719 8  79763891.756 8      -209.912          48.000
R14  21881632.336 5 116641440.197 5     -3699.863          34.000    21881631.695 4  90721098.445 4     -2877.674          28.000
R15  19156930.094 8 102368911.127 8      -431.824          51.000    19156931.586 8  79620240.302 8      -335.866          49.000
R16  21140232.836 7 112927347.756 7      3474.266          46.000    21140234.664 7  87832383.499 7      2702.207          42.000
C05  39782970.484 6 207160365.575 6         5.422          37.000    39782969.094 6 160189514.899 6         4.247          41.000
C21  22550418.047 8 117426071.820 8     -1989.648          51.000
C24  25674542.836 6 133694163.468 6      3124.477          40.000
C26  21763755.164 8 113329524.224 8      1375.051          51.000
E21  24124551.453 8 126775375.890 8      1688.715          51.000    24124552.703 8  97139565.635 8      1293.989          51.000
E27  24320780.492 7 127806571.320 7     -1237.109          45.000
> 2020 05 04 04 07  0.0000000  0 14        .000000000000
G05  20873670.156 8 109691870.451 8     -1449.699          51.000    20873667.891 8  85474180.215 8     -1129.639          51.000
G28  21414013.461 8 112531475.302 8      1815.992          50.000    21414013.430 7  87686837.839 7      1415.059          46.000
G30  20777003.180 8 109183956.478 8     -1387.277          51.000    20777004.039 8  85078389.604 8     -1080.995          51.000
R04  21844224.117 7 116974813.746 7     -3465.484          47.000    21844225.711 6  90980442.909 6     -2695.377          40.000
R05  19186344.516 8 102562006.830 8      -291.215          51.000    19186346.242 8  79770450.260 8      -226.503          48.000
R14  21902477.523 5 116752575.451 5     -3708.402          35.000    21902483.664 4  90807536.873 4     -2884.313          27.000
R15  19159423.352 8 102382233.157 8      -455.191          49.000    19159424.852 8  79630601.856 8      -354.038          49.000
R16  21120765.719 7 112823358.231 7      3459.562          46.000    21120768.016 7  87751502.790 7      2690.774          42.000
C05  39782942.820 6 207160222.091 6         5.020          36.000    39782941.406 6 160189403.147 6         4.105          41.000
C21  22561919.539 8 117485959.197 8     -2001.863          51.000
C24  25656557.109 6 133600515.128 6      3119.684          39.000
C26  21755872.898 8 113288478.257 8      1362.387          51.000
E21  24114948.336 8 126724910.827 8      1676.625          51.000    24114949.750 8  97100897.604 8      1284.648          51.000
E27  24327880.633 7 127843882.269 7     -1249.270          46.000
> 2020 05 04 04 07 30.0000000  0 14        .000000000000
G05  20881998.180 8 109735633.822 8     -1467.652          51.000    20881995.703 8  85508281.544 8     -1143.625          51.000
G28  21403692.016 8 112477235.623 8      1800.113          50.000    21403691.859 7  87644573.134 7      1402.683          46.000
G30  20784954.836 8 109225743.009 8     -1398.414          51.000    20784955.719 8  85110950.527 8     -1089.673          51.000
R04  21863671.875 8 117078954.617 8     -3477.168          48.000    21863672.047 6  91061441.301 6     -2704.467          36.000
R05  19188038.664 8 102571062.638 8      -312.406          51.000    19188040.383 8  79777493.640 8      -242.983          48.000
R14  21923370.906 5 116863945.914 5     -3716.770          34.000
R15  19162044.602 8 102396240.468 8      -478.375          51.000    19162046.383 8  79641496.429 8      -372.072          49.000
R16  21101377.367 7 112719791.083 7      3444.992          45.000    21101380.289 7  87670950.588 7      2679.438          42.000
C05  39782911.508 6 207160058.967 6         5.477          36.000    39782910.141 6 160189276.980 6         4.540          41.000
C21  22573487.852 8 117546196.364 8     -2013.766          51.000
C24  25638595.539 6 133506987.620 6      3115.426          40.000
C26  21748060.297 8 113247797.466 8      1349.809          51.000
E21  24105410.273 8 126674789.225 8      1664.875          51.000    24105411.766 8  97062492.726 8      1275.674          51.000
E27  24335046.562 7 127881538.155 7     -1261.141          44.000
> 2020 05 04 04 08  0.0000000  0 14        .000000000000
G05  20890430.211 8 109779945.354 8     -1486.762          51.000    20890427.844 8  85542810.005 8     -1158.516          51.000
G28  21393462.773 8 112423480.470 8      1783.141          50.000    21393462.289 7  87602685.996 7      1389.460          46.000
G30  20792971.484 8 109267871.189 8     -1410.578          51.000    20792972.422 8  85143777.669 8     -1099.152          51.000
R04  21883186.039 8 117183448.171 8     -3489.547          49.000    21883180.797 5  91142713.847 5     -2714.101          33.000
R05  19189852.828 8 102580759.946 8      -334.539          51.000    19189854.328 8  79785035.972 8      -260.200          48.000
R14  21944311.227 5 116975565.089 5     -3724.988          32.000
R15  19164796.750 8 102410948.393 8      -502.457          49.000    19164798.852 8  79652935.902 8      -390.800          49.000
R16  21082071.000 7 112616665.569 7      3429.391          42.000    21082074.836 6  87590741.871 6      2667.307          41.000
C05  39782879.703 6 207159893.721 6         5.137          36.000    39782878.430 6 160189149.165 6         3.900          41.000
C21  22585126.359 8 117606798.832 8     -2026.746          51.000
C24  25620661.695 7 133413598.544 7      3110.203          42.000
C26  21740321.453 8 113207498.571 8      1336.305          51.000
E21  24095940.719 8 126625028.419 8      1652.031          51.000    24095942.234 8  97024364.301 8      1265.890          51.000
E27  24342280.602 7 127919554.223 7     -1273.840          44.000
> 2020 05 04 04 08 30.0000000  0 14        .000000000000
G05  20898965.141 8 109824798.444 8     -1504.168          51.000    20898963.039 8  85577760.471 8     -1172.079          51.000
G28  21383324.953 8 112370206.175 8      1767.738          51.000    21383324.570 7  87561173.582 7      1377.461          46.000
G30  20801051.883 8 109310334.067 8     -1421.105          51.000    20801052.766 8  85176865.595 8     -1107.355          51.000
R04  21902764.477 8 117288286.876 8     -3500.457          48.000    21902757.156 6  91224254.981 6     -2722.578          38.000
R05  19191786.336 8 102591093.969 8      -355.188          51.000    19191787.922 8  79793073.510 8      -276.257          48.000
R14  21965296.477 5 117087423.754 5     -3732.484          35.000
R15  19167678.625 8 102426349.303 8      -524.996          50.000    19167681.172 8  79664914.376 8      -408.333          49.000
R16  21062847.141 7 112513978.754 7      3415.422          42.000    21062850.859 6  87510874.377 6      2656.439          41.000
C05  39782846.508 5 207159720.793 5         5.414          35.000    39782845.195 6 160189015.427 6         4.446          41.000
C21  22596834.141 8 117667760.086 8     -2038.105          51.000
C24  25602754.062 7 133320343.486 7      3106.344          42.000
C26  21732654.562 8 113167576.204 8      1324.332          50.000
E21  24086538.727 8 126575623.575 8      1640.738          51.000    24086540.844 8  96986508.641 8      1257.159          51.000
E27  24349581.945 7 127957923.698 7     -1284.965          45.000    24349585.055 6  98045668.820 6      -984.760          36.000
> 2020 05 04 04 09  0.0000000  0 15        .000000000000
G05  20907602.727 8 109870191.222 8     -1522.348          51.000    20907601.148 8  85613131.477 8     -1186.245          51.000
G28  21373278.922 8 112317414.019 8      1751.406          49.000    21373278.117 7  87520036.825 7      1364.732          45.000
G30  20809195.547 8 109353129.695 8     -1432.270          51.000    20809196.484 8  85210212.820 8     -1116.054          51.000
R04  21922404.914 7 117393468.099 7     -3512.016          42.000    21922401.953 7  91306062.544 7     -2731.571          44.000
R05  19193839.008 8 102602065.129 8      -376.621          51.000    19193840.562 8  79801606.614 8      -292.928          48.000
R14  21986325.625 5 117199518.008 5     -3740.605          32.000
R15  19170689.516 8 102442441.022 8      -548.199          51.000    19170692.516 8  79677430.153 8      -426.377          49.000
R16  21043705.758 6 112411731.904 6      3400.473          41.000    21043709.547 7  87431349.033 7      2644.812          42.000
C05  39782811.641 6 207159539.708 6         6.156          36.000    39782810.430 6 160188875.405 6         4.528          41.000
C21  22608610.203 8 117729078.855 8     -2050.164          51.000
C24  25584872.859 6 133227223.192 6      3101.414          41.000
C26  21725059.477 8 113128030.092 8      1311.645          50.000
E19  23896875.148 6 125578922.742 6       760.340          41.000    23896873.164 6  96222805.474 6       582.460          39.000
E21  24077204.508 8 126526574.983 8      1628.668          51.000    24077207.539 8  96948925.948 8      1247.973          51.000
E27  24356950.148 7 127996644.747 7     -1296.996          43.000    24356958.453 6  98075338.186 6      -993.629          38.000
> 2020 05 04 04 09 30.0000000  0 16        .000000000000
G05  20916344.367 8 109916131.245 8     -1538.910          51.000    20916343.242 8  85648928.881 8     -1199.151          51.000
G13  20962723.055 5 110159852.257 5      1760.281          33.000
G28  21363326.469 8 112265114.554 8      1736.617          49.000    21363325.305 7  87479283.951 7      1353.208          45.000
G30  20817403.930 8 109396265.710 8     -1442.070          51.000    20817404.992 8  85243825.272 8     -1123.691          51.000
R04  21942110.539 7 117498999.381 7     -3522.047          43.000    21942111.945 7  91388142.488 7     -2739.364          46.000
R05  19196012.555 8 102613683.581 8      -396.551          51.000    19196014.094 8  79810643.159 8      -308.428          48.000
R14  22007399.500 4 117311853.607 4     -3747.430          29.000
R15  19173831.344 8 102459231.014 8      -569.777          51.000    19173834.492 8  79690489.015 8      -443.160          48.000
R16  21024649.508 7 112309936.949 7      3387.168          43.000    21024654.117 7  87352175.165 7      2634.461          42.000
C05  39782777.141 6 207159359.564 6         7.309          36.000    39782775.820 6 160188736.047 6         5.845          41.000
C21  22620455.961 8 117790763.237 8     -2060.828          51.000
C24  25567020.523 6 133134247.697 6      3098.145          39.000
C26  21717538.906 8 113088869.536 8      1300.367          50.000
E19  23892557.453 6 125556231.434 6       753.895          41.000    23892555.938 6  96205418.650 6       577.459          40.000
E21  24067939.859 8 126477892.419 8      1618.172          51.000    24067943.852 8  96911623.716 8      1239.901          51.000
E27  24364386.359 7 128035725.124 7     -1307.160          44.000    24364395.727 6  98105282.896 6     -1001.345          39.000
> 2020 05 04 04 10  0.0000000  0 15        .000000000000
G05  20925185.406 8 109962591.563 8     -1557.176          51.000    20925184.125 8  85685131.722 8     -1213.384          51.000
G28  21353463.312 8 112213284.568 8      1719.969          49.000    21353462.469 7  87438896.911 7      1340.235          45.000
G30  20825672.055 8 109439715.416 8     -1453.418          51.000    20825673.156 8  85277682.151 8     -1132.533          51.000
R04  21961877.141 7 117604852.984 7     -3533.887          45.000    21961881.117 7  91470473.097 7     -2748.576          47.000
R05  19198302.805 8 102625924.630 8      -418.375          51.000    19198304.164 8  79820163.975 8      -325.403          49.000
R14  22028512.602 5 117424401.466 5     -3755.168          31.000
R15  19177098.656 8 102476691.885 8      -593.078          51.000    19177102.242 8  79704069.692 8      -461.283          48.000
R16  21005674.094 7 112208570.793 7      3371.754          44.000    21005678.680 7  87273334.774 7      2622.475          42.000
C05  39782737.906 6 207159155.164 6         7.242          36.000    39782736.625 6 160188577.982 6         5.570          41.000
C21  22632366.875 8 117852787.216 8     -2072.977          51.000
C24  25549194.250 6 133041393.073 6      3093.461          39.000
C26  21710087.695 8 113050069.608 8      1287.418          51.000
E19  23888281.391 6 125533761.272 6       745.152          41.000    23888280.727 6  96188201.225 6       571.015          40.000
E21  24058740.352 8 126429551.361 8      1605.707          51.000    24058744.953 8  96874583.155 8      1230.314          51.000
E27  24371886.266 7 128075138.355 7     -1319.277          42.000    24371894.438 6  98135482.623 6     -1010.914          40.000
> 2020 05 04 04 10 30.0000000  0 15        .000000000000
G05  20934130.633 8 110009597.781 8     -1573.484          51.000    20934129.164 8  85721759.930 8     -1226.092          51.000
G28  21343694.727 8 112161952.239 8      1705.168          48.000    21343694.461 7  87398897.702 7      1328.702          45.000
G30  20834004.742 8 109483503.953 8     -1462.848          51.000    20834005.789 8  85311803.082 8     -1139.881          51.000
R04  21981709.461 7 117711054.164 7     -3543.484          46.000    21981714.398 7  91553073.995 7     -2756.046          47.000
R05  19200714.461 8 102638816.336 8      -438.082          51.000    19200716.461 8  79830190.841 8      -340.730          49.000
R14  22049670.258 4 117537184.991 4     -3760.734          28.000
R15  19180496.312 8 102494848.639 8      -614.395          51.000    19180499.711 7  79718191.607 7      -477.862          47.000
R16  20986784.398 7 112107662.658 7      3358.312          45.000    20986788.633 6  87194850.639 6      2612.018          41.000
C05  39782699.070 5 207158953.014 5         8.953          35.000    39782697.773 6 160188421.625 6         7.083          41.000
C21  22644348.320 8 117915176.249 8     -2083.305          51.000
C24  25531395.609 6 132948686.982 6      3090.332          41.000
C26  21702711.242 8 113011656.813 8      1276.371          51.000
E19  23884052.359 6 125511540.013 6       739.129          41.000    23884052.758 6  96171174.539 6       566.301          41.000
E21  24049611.711 8 126381579.074 8      1595.434          51.000    24049616.117 8  96837825.169 8      1222.487          51.000
E27  24379454.664 6 128114909.507 6     -1328.902          38.000    24379461.109 7  98165956.664 7     -1018.358          42.000
> 2020 05 04 04 11  0.0000000  0 15        .000000000000
G05  20943183.289 8 110057167.658 8     -1594.484          51.000    20943181.719 8  85758827.344 8     -1242.455          51.000
G28  21334025.352 8 112111138.263 8      1685.684          50.000    21334024.812 7  87359302.362 7      1313.520          44.000
G30  20842405.242 8 109527648.704 8     -1476.820          51.000    20842406.305 8  85346201.585 8     -1150.769          51.000
R04  22001610.680 7 117817619.941 7     -3557.582          46.000    22001614.992 7  91635958.472 7     -2767.008          45.000
R05  19203251.109 8 102652378.472 8      -462.680          51.000    19203254.031 8  79840739.153 8      -359.865          49.000
R14  22070875.633 5 117650219.704 5     -3771.652          33.000    22070889.461 4  91505754.689 4     -2933.516          27.000
R15  19184027.609 8 102513718.824 8      -640.297          51.000    19184030.922 8  79732868.411 8      -498.009          48.000
R16  20967984.477 7 112007234.007 7      3340.270          47.000    20967987.789 6  87116739.460 6      2597.987          40.000
C05  39782664.258 5 207158771.640 5         6.270          35.000    39782662.898 6 160188281.371 6         4.887          41.000
C21  22656403.398 8 117977948.081 8     -2098.176          51.000
C24  25513626.695 6 132856149.134 6      3082.246          41.000
C26  21695412.977 8 112973650.037 8      1260.734          51.000
E19  23879874.430 6 125489587.128 6       727.887          41.000    23879875.570 6  96154353.475 6       557.863          41.000
E21  24040557.445 8 126333995.158 8      1580.262          51.000    24040560.930 8  96801364.750 8      1210.886          51.000
E27  24387094.594 6 128155056.272 6     -1343.797          41.000    24387098.727 7  98196718.498 7     -1029.869          42.000
> 2020 05 04 04 11 30.0000000  0 16        .000000000000
G05  20952338.703 8 110105277.189 8     -1612.555          51.000    20952337.000 8  85796315.277 8     -1256.536          51.000
G07  23045805.148 5 121106521.686 5     -2645.543          35.000    23045803.289 5  94368708.284 5     -2061.462          35.000
G28  21324450.891 8 112060821.894 8      1668.934          50.000    21324449.688 7  87320094.790 7      1300.468          44.000
G30  20850869.039 8 109572126.083 8     -1487.984          51.000    20850870.039 8  85380859.268 8     -1159.468          51.000
R04  22021575.219 7 117924526.194 7     -3568.992          47.000    22021578.680 7  91719107.796 7     -2775.883          43.000
R05  19205909.156 8 102666589.629 8      -484.445          50.000    19205912.898 8  79851792.248 8      -376.791          49.000
R14  22092123.383 5 117763479.750 5     -3778.586          31.000    22092138.094 4  91593848.767 4     -2938.900          24.000
R15  19187687.758 8 102533277.548 8      -663.340          51.000    19187691.305 7  79748080.778 7      -515.931          47.000
R16  20949270.562 7 111907264.776 7      3324.750          47.000    20949271.805 6  87038985.638 6      2585.917          38.000
C05  39782629.211 5 207158589.701 5         6.367          35.000    39782627.938 6 160188140.278 6         4.854          41.000
C21  22668527.688 8 118041079.781 8     -2110.273          51.000
C24  25495884.305 6 132763758.673 6      3077.199          41.000
C26  21688188.219 8 112936027.439 8      1247.816          51.000
E19  23875743.820 6 125467881.625 6       719.500          41.000    23875745.102 7  96137721.988 7       551.314          42.000
E21  24031572.914 8 126286778.072 8      1567.844          51.000    24031575.477 8  96765185.413 8      1201.380          51.000
E27  24394802.055 7 128195555.181 7     -1355.672          42.000    24394803.859 7  98227750.066 7     -1038.791          43.000
> 2020 05 04 04 12  0.0000000  0 16        .000000000000
G05  20961597.773 8 110153932.446 8     -1630.676          51.000    20961596.023 8  85834228.460 8     -1270.653          51.000
G07  23060914.672 5 121185941.394 5     -2648.934          34.000    23060916.289 4  94430593.794 4     -2064.113          28.000
G28  21314972.852 8 112011012.489 8      1652.137          51.000    21314971.062 7  87281282.307 7      1287.379          43.000
G30  20859397.281 8 109616942.293 8     -1499.211          51.000    20859398.094 8  85415780.972 8     -1168.216          51.000
R04  22041604.516 7 118031778.367 7     -3580.449          47.000    22041606.766 7  91802526.129 7     -2784.797          42.000
R05  19208690.586 8 102681458.205 8      -506.266          50.000    19208694.578 8  79863356.690 8      -393.762          50.000
R14  22113413.906 5 117876969.557 5     -3786.410          32.000
R15  19191478.086 8 102553530.991 8      -686.285          51.000    19191480.977 7  79763833.442 7      -533.777          47.000
R16  20930644.477 7 111807764.866 7      3309.215          47.000    20930644.781 6  86961596.864 6      2573.837          40.000
C05  39782595.445 6 207158413.200 6         6.383          36.000    39782594.242 6 160188004.156 6         4.733          41.000
C21  22680721.852 8 118104577.971 8     -2122.387          51.000
C24  25478170.531 6 132671524.292 6      3072.309          40.000
C26  21681038.672 8 112898796.789 8      1234.711          51.000
E19  23871661.867 6 125446431.879 6       710.996          41.000    23871663.250 7  96121286.462 7       544.717          42.000
E21  24022659.695 8 126239936.169 8      1555.402          51.000    24022661.570 8  96729293.569 8      1191.784          51.000
E27  24402577.445 6 128236412.494 6     -1367.746          38.000    24402578.336 7  98259056.272 7     -1047.977          43.000
> 2020 05 04 04 12 30.0000000  0 15        .000000000000
G05  20970957.547 8 110203118.393 8     -1648.387          51.000    20970955.977 8  85872555.164 8     -1284.457          51.000
G28  21305589.117 8 111961698.015 8      1635.590          51.000    21305586.352 7  87242855.440 7      1274.486          44.000
G30  20867987.164 8 109662082.244 8     -1509.980          51.000    20867988.016 8  85450954.955 8     -1176.608          51.000
R04  22061695.930 8 118139360.600 8     -3591.559          48.000    22061695.656 6  91886201.110 6     -2793.438          38.000
R05  19211592.344 8 102696971.212 8      -527.840          50.000    19211596.617 8  79875422.334 8      -410.542          49.000
R14  22134743.875 5 117990671.805 5     -3793.398          32.000    22134766.898 4  91770598.627 4     -2950.427          26.000
R15  19195395.516 8 102574463.418 8      -709.016          51.000    19195398.297 7  79780114.238 7      -551.454          47.000
R16  20912103.188 7 111708722.756 7      3293.711          44.000    20912104.711 6  86884564.172 6      2561.778          41.000
C05  39782560.242 5 207158229.225 5         5.941          35.000    39782559.102 6 160187862.628 6         4.667          41.000
C21  22692983.148 8 118168428.131 8     -2134.164          51.000
C24  25460483.930 6 132579433.673 6      3067.227          38.000
C26  21673961.625 8 112861944.645 8      1222.133          51.000
E19  23867626.102 7 125425225.314 7       702.656          42.000    23867627.859 7  96105037.262 7       538.384          43.000
E21  24013815.531 8 126193456.476 8      1543.266          51.000    24013816.602 8  96693679.245 8      1182.508          51.000
E27  24410418.000 6 128277613.032 6     -1378.996          39.000    24410418.703 7  98290625.572 7     -1056.669          44.000
> 2020 05 04 04 13  0.0000000  0 15        .000000000000
G05  20980420.359 8 110252847.184 8     -1666.578          51.000    20980419.055 8  85911304.867 8     -1298.635          51.000
G28  21296302.625 8 111912893.823 8      1618.316          51.000    21296299.719 7  87204826.201 7      1261.026          45.000
G30  20876641.062 8 109707558.585 8     -1521.441          51.000    20876642.242 8  85486391.064 8     -1185.539          51.000
R04  22081850.844 8 118247285.542 8     -3603.211          48.000    22081847.797 6  91970142.627 6     -2802.497          38.000
R05  19214617.469 8 102713143.539 8      -550.039          50.000    19214621.828 8  79888000.786 8      -427.811          48.000
R14  22156115.039 5 118104597.393 5     -3801.328          33.000
R15  19199442.336 8 102596087.076 8      -732.230          51.000    19199444.547 7  79796932.637 7      -569.513          46.000
R16  20893650.320 7 111610155.218 7      3277.684          45.000    20893653.422 7  86807900.509 7      2549.309          43.000
C05  39782526.555 6 207158054.148 6         5.715          36.000    39782525.328 6 160187726.465 6         4.277          41.000
C21  22705314.633 8 118232643.265 8     -2146.535          51.000
C24  25442827.445 5 132487501.888 5      3062.004          33.000
C26  21666959.836 8 112825485.142 8      1208.793          51.000
E19  23863639.500 7 125404277.052 7       694.176          42.000    23863641.523 7  96088985.996 7       531.623          43.000
E21  24005043.078 8 126147353.765 8      1530.418          51.000    24005043.297 8  96658353.789 8      1172.649          51.000
E27  24418326.367 6 128319169.906 6     -1391.125          41.000    24418326.734 7  98322467.788 7     -1066.020          44.000
> 2020 05 04 04 13 30.0000000  0 15        .000000000000
G05  20989985.648 8 110303115.342 8     -1684.812          51.000    20989984.797 8  85950474.856 8     -1312.841          51.000
G28  21287112.836 8 111864599.626 8      1601.141          51.000    21287110.227 7  87167194.372 7      1247.642          46.000
G30  20885358.227 8 109753367.188 8     -1532.734          51.000    20885359.547 8  85522086.074 8     -1194.338          51.000
R04  22102067.336 7 118355548.163 7     -3614.641          46.000    22102065.461 6  92054346.839 6     -2811.390          41.000
R05  19217766.070 8 102729973.608 8      -572.207          50.000    19217769.930 8  79901090.812 8      -445.050          49.000
R14  22177527.680 5 118218740.316 5     -3808.566          35.000
R15  19203617.594 8 102618397.112 8      -755.242          51.000    19203619.453 7  79814284.881 7      -587.411          47.000
R16  20875286.969 7 111512061.675 7      3261.605          45.000    20875290.953 7  86731605.503 7      2536.804          44.000
C05                                                                  39782492.344 6 160187593.578 6         4.159          41.000
C21  22717715.859 8 118297219.749 8     -2158.816          51.000
C24  25425198.906 5 132395727.344 5      3056.277          34.000
C26  21660032.969 8 112789415.697 8      1195.609          51.000
E19  23859701.977 7 125383585.247 7       685.414          42.000    23859703.711 7  96073131.207 7       525.116          43.000
E21  23996341.617 8 126101625.932 8      1517.820          51.000    23996341.188 8  96623315.575 8      1162.972          51.000
E27  24426301.406 6 128361078.863 6     -1402.891          38.000    24426301.469 7  98354579.761 7     -1075.023          44.000
> 2020 05 04 04 14  0.0000000  0 16        .000000000000
G05  20999653.547 8 110353923.108 8     -1701.945          50.000    20999653.148 8  85990065.312 8     -1326.191          50.000
G07  23121616.062 5 121504941.130 5     -2666.676          34.000
G28  21278020.422 8 111816818.676 8      1584.723          51.000    21278017.836 7  87129962.474 7      1234.849          46.000
G30  20894138.805 8 109799508.706 8     -1542.945          51.000    20894139.805 8  85558040.495 8     -1202.295          51.000
R04  22122345.836 7 118464148.663 7     -3625.023          45.000    22122347.398 7  92138813.917 7     -2819.463          43.000
R05  19221038.461 8 102747464.018 8      -593.402          50.000    19221042.008 8  79914694.441 8      -461.538          49.000
R14  22198981.414 6 118333099.151 6     -3815.258          37.000    22198989.297 4  92036858.762 4     -2967.423          25.000
R15  19207921.273 8 102641393.779 8      -777.402          51.000    19207923.148 7  79832171.188 7      -604.646          46.000
R16  20857013.633 7 111414446.515 7      3246.488          45.000    20857018.250 7  86655682.574 7      2525.046          44.000
C05  39782461.859 5 207157716.968 5         6.125          35.000    39782460.625 6 160187465.659 6         4.745          41.000
C21  22730186.898 8 118362158.651 8     -2170.051          51.000
C24  25407601.008 6 132304113.128 6      3051.969          37.000
C26  21653181.305 8 112753738.525 8      1183.254          51.000
E19  23855814.109 7 125363152.887 7       677.352          44.000    23855815.266 7  96057475.229 7       518.914          44.000
E21  23987711.648 8 126056275.774 8      1506.020          51.000    23987711.055 8  96588566.745 8      1153.939          51.000
E27  24434342.562 5 128403340.584 5     -1414.004          34.000    24434343.266 7  98386962.107 7     -1083.547          44.000
> 2020 05 04 04 14 30.0000000  0 16        .000000000000
G05  21009420.016 8 110405247.644 8     -1719.473          51.000    21009420.031 8  86030058.450 8     -1339.849          51.000
G07  23136850.867 5 121584993.610 5     -2670.039          34.000    23136849.195 5  94741511.900 5     -2080.553          30.000
G28  21269021.633 8 111769531.124 8      1567.961          51.000    21269019.031 7  87093115.007 7      1221.788          46.000
G30  20902978.383 8 109845960.218 8     -1553.543          51.000    20902978.938 8  85594236.460 8     -1210.553          51.000
R04  22142683.367 7 118573063.220 7     -3635.723          45.000    22142687.703 7  92223525.250 7     -2827.784          44.000
R05  19224430.164 8 102765593.655 8      -615.031          50.000    19224433.445 8  79928795.239 8      -478.358          49.000
R14  22220471.430 6 118447648.586 6     -3821.684          38.000    22220480.047 4  92125958.205 4     -2972.418          28.000
R15  19212349.023 8 102665053.194 8      -799.617          51.000    19212350.359 7  79850572.935 7      -621.924          46.000
R16  20838825.531 7 111317290.217 7      3230.781          43.000    20838831.000 7  86580116.516 7      2512.830          43.000
C05                                                                  39782426.039 6 160187326.257 6         4.730          41.000
C21  22742723.227 8 118427437.709 8     -2181.598          51.000
C24  25390031.383 6 132212639.125 6      3046.805          40.000
C26  21646400.820 8 112718432.459 8      1170.605          51.000
E19  23851971.828 7 125342959.453 7       668.934          44.000    23851972.258 7  96042002.335 7       512.580          44.000
E21  23979149.430 8 126011282.450 8      1493.746          51.000    23979149.148 8  96554091.335 8      1144.580          51.000
E27  24442446.906 6 128445927.281 6     -1425.117          36.000    24442448.219 7  98419597.322 7     -1092.060          44.000
> 2020 05 04 04 15  0.0000000  0 15        .000000000000
G05  21019286.266 8 110457094.804 8     -1737.066          51.000    21019286.328 8  86070458.829 8     -1353.558          51.000
G28  21260118.430 8 111722746.184 8      1550.961          51.000    21260115.766 7  87056659.166 7      1208.541          46.000
G30  20911878.055 8 109892727.876 8     -1564.254          51.000    20911878.555 8  85630678.781 8     -1218.899          51.000
R04  22163081.562 7 118682297.504 7     -3646.586          45.000    22163087.312 7  92308485.250 7     -2836.234          45.000
R05  19227943.102 8 102784370.862 8      -636.852          51.000    19227945.680 8  79943399.726 8      -495.329          49.000
R14  22241997.578 6 118562393.106 6     -3828.535          37.000    22242004.297 4  92215203.944 4     -2977.753          27.000
R15  19216901.578 8 102689380.810 8      -822.195          51.000    19216903.047 7  79869494.426 7      -639.482          46.000
R16  20820724.734 7 111220602.423 7      3214.914          44.000    20820730.609 6  86504914.894 6      2500.489          39.000
C05  39782391.156 5 207157349.045 5         6.539          35.000    39782390.008 6 160187181.132 6         4.872          41.000
C21  22755326.078 8 118493063.337 8     -2193.395          51.000
C24  25372491.094 6 132121313.933 6      3041.625          40.000
C26  21639692.953 8 112683505.059 8      1157.809          51.000
E19  23848176.609 7 125323013.615 7       660.496          45.000    23848176.562 7  96026719.159 7       506.118          44.000
E21  23970656.680 8 125966654.128 8      1481.496          51.000    23970656.859 8  96519895.608 8      1135.112          51.000
E27  24450615.914 6 128488855.327 6     -1437.078          37.000    24450617.398 7  98452490.162 7     -1100.782          45.000
> 2020 05 04 04 15 30.0000000  0 15        .000000000000
G05  21029252.750 8 110509467.485 8     -1754.422          51.000    21029252.570 8  86111268.687 8     -1367.085          51.000
G28  21251312.234 8 111676470.622 8      1534.020          51.000    21251309.711 7  87020600.290 7      1195.340          46.000
G30  20920838.547 8 109939815.585 8     -1574.836          51.000    20920839.273 8  85667370.485 8     -1227.145          51.000
R04  22183541.023 7 118791855.116 7     -3657.137          46.000    22183546.867 7  92393696.706 7     -2844.440          45.000
R05  19231578.594 8 102803801.950 8      -658.633          51.000    19231580.516 8  79958512.790 8      -512.267          50.000
R14  22263559.844 4 118677334.869 4     -3834.812          29.000    22263565.297 4  92304590.610 4     -2982.632          26.000
R15  19221579.883 8 102714380.343 8      -844.398          51.000    19221581.594 7  79888938.497 7      -656.754          47.000
R16  20802713.945 7 111124391.118 7      3199.078          45.000    20802715.898 6  86430083.983 6      2488.175          37.000
C05  39782354.734 5 207157159.865 5         5.758          35.000    39782353.555 6 160187034.398 6         5.044          41.000
C21  22767996.125 8 118559039.846 8     -2205.016          51.000
C24  25354981.633 6 132030144.000 6      3036.383          39.000
C26  21633059.133 8 112648961.738 8      1145.086          51.000
E19  23844429.492 7 125303321.585 7       652.438          45.000    23844429.141 7  96011630.466 7       499.704          44.000
E21  23962234.648 8 125922396.792 8      1469.094          51.000    23962235.289 8  96485984.148 8      1125.651          51.000
E27                                                                  24458850.781 7  98485643.642 7     -1109.381          44.000
> 2020 05 04 04 16  0.0000000  0 15        .000000000000
G05  21039328.086 8 110562410.918 8     -1771.902          51.000    21039327.391 8  86152523.282 8     -1380.703          51.000
G07  23182664.398 5 121825714.699 5     -2681.938          30.000
G28  21242612.039 8 111630751.474 8      1516.910          51.000    21242609.633 7  86984974.984 7      1182.008          46.000
G30  20929868.289 8 109987267.347 8     -1585.414          51.000    20929869.188 8  85704345.863 8     -1235.388          51.000
R04  22204069.805 7 118901780.055 7     -3667.828          47.000    22204074.609 7  92479193.807 7     -2852.758          43.000
R05  19235344.953 8 102823933.579 8      -680.348          51.000    19235346.672 8  79974170.708 8      -529.159          50.000
R15  19226392.117 8 102740095.652 8      -866.664          50.000    19226393.664 7  79908939.277 7      -674.072          47.000
R16  20784801.375 7 111028704.796 7      3183.238          46.000    20784801.195 6  86355661.387 6      2475.852          39.000
