     3.02           OBSERVATION DATA    M (MIXED)           RINEX VERSION / TYPE
SAVERINEX           SC600               20200508 085931 LCL PGM / RUN BY / DATE
       G = GPS       R = GLONASS       C = COMPASS          COMMENT
       S = SBAS      J = QZSS          E = GALILEO          COMMENT
BEAN                                                        MARKER NAME
1                                                           MARKER NUMBER
GEODETIC                                                    MARKER TYPE
Unige DICCA         GTER                                    OBSERVER / AGENCY
SC60291900056       SC600               2.12(191226)        REC # / TYPE / VERS
                    HEMA45          NONE                    ANT # / TYPE
  4509407.8091   693652.4678  4442337.6214                  APPROX POSITION XYZ
        0.0000        0.0000        0.0000                  ANTENNA: DELTA H/E/N
G    8 C1C L1C D1C S1C C2Y L2Y D2Y S2Y                      SYS / # / OBS TYPES
R    8 C1C L1C D1C S1C C2P L2P D2P S2P                      SYS / # / OBS TYPES
C    8 C1I L1I D1I S1I C7I L7I D7I S7I                      SYS / # / OBS TYPES
E    8 C1C L1C D1C S1C C7Q L7Q D7Q S7Q                      SYS / # / OBS TYPES
DBHZ                                                        COMMENT
     30.000                                                 INTERVAL
  2020    05    08    06    00    0.0000000     GPS         TIME OF FIRST OBS
  2020    05    08    06    59   30.0000000     GPS         TIME OF LAST OBS
     0                                                      RCV CLOCK OFFS APPL
G L1C  0.00000                                              SYS / PHASE SHIFT
G L2Y  0.00000                                              SYS / PHASE SHIFT
R L1C  0.00000                                              SYS / PHASE SHIFT
R L2P  0.25000                                              SYS / PHASE SHIFT
C L1I  0.00000                                              SYS / PHASE SHIFT
C L7I  0.00000                                              SYS / PHASE SHIFT
E L1C  0.50000                                              SYS / PHASE SHIFT
E L7Q -0.25000                                              SYS / PHASE SHIFT
 13 R01  1 R02 -4 R03  5 R07  5 R08  6 R10 -5 R11  0 R12 -1 GLONASS SLOT / FRQ #
    R13 -2 R14 -7 R21  4 R22 -3 R23  3                      GLONASS SLOT / FRQ #
 C1C   71.950 C2C   71.950 C2P   71.950                     GLONASS COD/PHS/BIS
    18                                                      LEAP SECONDS
*** Above antenna height is from mark to ANTENNA BOTTOM.    COMMENT
    17     4        0.0000        ANT MEASURE TYPE/HEIGT    COMMENT
    0.0000    0.0000    0.0458    0.0405    0.0000          COMMENT
                    BASE STATION                            COMMENT
                                                            END OF HEADER
> 2020 05 08 06 00  0.0000000  0 14        .000000000000
G13  20604053.672 8 108275028.672 8     -1552.844          51.000    20604052.000 7  84370126.542 7     -1210.008          46.000
G15  20314791.391 8 106754941.053 8       -32.859          51.000    20314790.086 8  83185671.810 8       -25.602          51.000
G17  22891047.672 5 120293274.862 5      1704.734          34.000
G19  23645439.539 8 124257629.652 8      3217.500          49.000    23645438.914 7  96824099.925 7      2507.143          46.000
G28  22062177.898 6 115937498.234 6     -2395.008          40.000    22062177.305 5  90340921.617 5     -1866.246          32.000
R02  19544265.711 8 104291906.777 8     -1924.562          51.000    19544269.312 8  81115966.748 8     -1496.882          50.000
R11  22547930.586 6 120489294.893 6     -3428.887          39.000
R12  19553973.281 6 104453809.847 6     -1270.816          37.000    19553978.883 4  81241879.620 4      -988.422          29.000
C05  39767396.312 5 207079267.332 5        24.441          35.000    39767392.891 6 160126811.747 6        19.277          36.000
C20  22814554.188 8 118801514.304 8     -1056.211          50.000
E07  25217586.266 8 132519300.212 8     -2482.590          48.000    25217585.352 7 101540759.755 7     -1902.172          47.000
E21  26188535.273 8 137621668.502 8      2421.457          50.000    26188535.289 8 105450442.939 8      1855.441          48.000
E27  23196446.500 8 121898195.797 8       296.164          51.000    23196448.062 8  93402527.325 8       226.922          51.000
E30  23936517.828 6 125787246.078 6     -2148.035          38.000    23936520.992 5  96382448.177 5     -1645.984          34.000
> 2020 05 08 06 00 30.0000000  0 15        .000000000000
G13  20612959.523 8 108321828.941 8     -1566.891          51.000    20612957.039 7  84406594.219 7     -1220.957          45.000
G15  20315029.281 8 106756191.338 8       -50.242          51.000    20315028.188 8  83186646.056 8       -39.150          51.000
G17  22881356.898 5 120242362.659 5      1690.059          31.000    22881354.344 4  93695350.772 4      1316.935          27.000
G19  23627090.172 8 124161202.507 8      3211.215          48.000    23627089.250 7  96748961.900 7      2502.245          47.000
G28  22075877.719 6 116009489.107 6     -2403.879          39.000    22075876.617 5  90397018.395 5     -1873.152          32.000
R02  19555152.789 8 104350003.790 8     -1948.242          51.000    19555156.391 8  81161153.272 8     -1515.303          49.000
R11  22567181.125 6 120592160.767 6     -3429.359          38.000    22567183.484 4  93793923.581 4     -2667.280          26.000
R12  19561144.617 5 104492128.987 5     -1283.406          32.000    19561153.070 5  81271683.386 5      -998.196          34.000
C05  39767250.734 5 207078509.691 5        26.328          35.000    39767247.336 6 160126225.564 6        20.047          36.000
C20  22820684.797 8 118833436.600 8     -1071.660          51.000
C23  23980937.336 5 124875041.422 5     -2324.648          34.000
E07  25231777.586 7 132593884.486 7     -2489.391          47.000    25231777.773 7 101597908.731 7     -1907.449          46.000
E21  26174726.828 8 137549105.815 8      2416.406          49.000    26174727.891 8 105394842.984 8      1851.559          48.000
E27  23194783.633 8 121889456.258 8       286.883          51.000    23194785.078 8  93395830.793 8       219.813          51.000
E30  23948792.977 6 125851750.825 6     -2151.484          37.000    23948797.383 5  96431873.890 5     -1648.842          35.000
> 2020 05 08 06 01  0.0000000  0 14        .000000000000
G13  20621959.773 8 108369125.820 8     -1582.590          51.000    20621956.383 7  84443448.866 7     -1233.187          44.000
G15  20315379.914 8 106758034.965 8       -69.074          51.000    20315379.258 8  83188082.636 8       -53.824          51.000
G19  23608790.828 8 124065038.522 8      3203.348          49.000    23608789.711 7  96674028.925 7      2496.115          47.000
G28  22089643.570 6 116081828.224 6     -2414.812          38.000    22089641.992 5  90453386.513 5     -1881.675          35.000
R02  19566186.172 8 104408882.770 8     -1973.301          51.000    19566189.930 8  81206948.023 8     -1534.789          48.000
R11  22586449.789 6 120695130.856 6     -3431.695          38.000    22586454.602 5  93874008.532 5     -2669.093          30.000
R12  19568400.570 6 104530894.842 6     -1297.066          38.000    19568410.883 4  81301834.701 4     -1008.832          29.000
C05  39767113.953 5 207077797.143 5        25.203          35.000    39767110.445 6 160125674.561 6        19.552          36.000
C20  22826918.078 8 118865892.920 8     -1088.508          51.000
C23  23994352.883 5 124944905.146 5     -2328.965          34.000
E07  25246023.125 8 132668750.039 8     -2497.848          48.000    25246023.477 7 101655273.232 7     -1913.905          46.000
E21  26160961.211 8 137476770.062 8      2409.660          49.000    26160963.602 7 105339416.891 7      1846.339          47.000
E27  23193187.836 8 121881068.728 8       275.988          51.000    23193189.203 8  93389403.985 8       211.478          51.000
E30  23961103.359 6 125916443.421 6     -2157.203          39.000    23961109.852 6  96481443.518 6     -1652.946          36.000
> 2020 05 08 06 01 30.0000000  0 15        .000000000000
G13  20631038.836 8 108416837.757 8     -1595.477          51.000    20631035.344 7  84480626.939 7     -1243.232          45.000
G15  20315828.070 8 106760390.994 8       -85.168          51.000    20315827.609 8  83189918.489 8       -66.365          51.000
G17  22862244.773 5 120141914.075 5      1662.777          35.000    22862236.383 5  93617034.787 5      1295.671          35.000
G19  23590526.781 8 123969059.489 8      3198.066          49.000    23590525.766 8  96599240.058 8      2492.000          48.000
G28  22103459.711 6 116154432.118 6     -2422.641          40.000    22103457.242 5  90509961.001 5     -1887.775          33.000
R02  19577350.211 8 104468458.872 8     -1995.527          51.000    19577353.891 8  81253284.989 8     -1552.077          48.000
R11  22605721.680 6 120798122.815 6     -3431.371          38.000    22605726.016 5  93954111.241 5     -2668.844          30.000
R12  19575724.430 6 104570022.902 6     -1308.398          36.000    19575730.859 5  81332255.484 5     -1017.646          30.000
C05  39766970.414 5 207077049.967 5        27.645          34.000    39766966.719 6 160125095.399 6        21.189          36.000
C20  22833237.984 8 118898801.819 8     -1102.707          50.000
C23  24007783.820 5 125014843.506 5     -2330.719          35.000
E07  25260307.602 8 132743814.482 8     -2503.598          49.000    25260307.914 7 101712790.119 7     -1918.254          47.000
E21  26147223.195 8 137404580.377 8      2405.719          48.000    26147227.039 8 105284102.706 8      1843.418          48.000
E27  23191643.305 8 121872951.271 8       267.969          51.000    23191644.742 8  93383184.121 8       205.342          51.000
E30  23973433.141 6 125981241.221 6     -2159.605          38.000    23973441.273 6  96531093.755 6     -1654.439          36.000
> 2020 05 08 06 02  0.0000000  0 15        .000000000000
G13  20640204.641 8 108465006.131 8     -1613.676          51.000    20640201.867 7  84518160.703 7     -1257.413          46.000
G15  20316381.898 8 106763302.207 8      -106.641          51.000    20316381.594 8  83192186.959 8       -83.097          51.000
G17  22852815.555 5 120092345.240 5      1644.840          30.000    22852803.336 5  93578409.746 5      1281.696          31.000
G19  23572306.398 8 123873310.949 8      3187.426          49.000    23572305.570 8  96524630.772 8      2483.708          48.000
G28  22117333.938 6 116227340.711 6     -2435.730          41.000    22117331.055 4  90566772.850 4     -1897.978          29.000
R02  19588652.844 8 104528772.361 8     -2023.016          51.000    19588656.172 7  81300195.484 7     -1573.457          47.000
R11  22625005.320 6 120901162.787 6     -3435.926          40.000
R12  19583125.055 5 104609553.556 5     -1324.715          32.000    19583131.359 5  81363001.636 5     -1030.328          32.000
C05  39766828.055 5 207076307.883 5        24.055          34.000    39766824.383 5 160124522.336 5        18.839          35.000
C20  22839652.484 8 118932203.992 8     -1121.922          50.000
C23  24021239.492 4 125084897.474 4     -2337.094          28.000
E07  25274638.484 8 132819118.812 8     -2514.359          51.000    25274638.711 8 101770490.816 8     -1926.623          48.000
E21  26133521.438 8 137332579.278 8      2396.582          49.000    26133526.625 8 105228933.052 8      1836.252          49.000
E27  23190158.078 8 121865145.393 8       254.727          51.000    23190159.547 8  93377202.990 8       195.186          51.000
E30  23985791.789 6 126046185.092 6     -2167.750          36.000    23985800.008 6  96580855.953 6     -1660.881          36.000
> 2020 05 08 06 02 30.0000000  0 14        .000000000000
G13  20649464.102 8 108513664.970 8     -1626.336          51.000    20649462.164 8  84556076.661 8     -1267.275          48.000
G15  20317048.117 8 106766803.425 8      -122.797          51.000    20317047.820 8  83194915.177 8       -95.686          51.000
G19  23554136.828 8 123777830.791 8      3181.855          48.000    23554136.695 7  96450230.641 7      2479.368          47.000
G28  22131272.320 6 116300585.813 6     -2443.348          36.000    22131269.578 5  90623846.935 5     -1903.910          34.000
R02  19600100.461 8 104589856.793 8     -2045.133          51.000    19600103.242 7  81347705.596 7     -1590.659          46.000
R11  22644305.008 6 121004300.399 6     -3435.371          39.000    22644306.789 4  94114462.683 4     -2671.955          25.000
R12  19590605.828 6 104649501.760 6     -1335.383          38.000    19590613.492 5  81394086.552 5     -1038.631          31.000
C05                                                                  39766689.875 6 160123980.800 6        20.356          36.000
C20  22846168.273 8 118966132.670 8     -1136.035          50.000
C23  24034717.930 5 125155072.579 5     -2339.180          33.000
E07  25289021.805 8 132894696.442 8     -2520.105          51.000    25289021.859 8 101828400.932 8     -1930.933          49.000
E21  26119862.703 8 137260801.755 8      2392.547          50.000    26119868.695 8 105173934.717 8      1833.250          49.000
E27  23188738.609 8 121857684.931 8       246.660          51.000    23188740.172 8  93371486.528 8       189.011          51.000
E30  23998183.406 5 126111304.227 5     -2170.324          32.000    23998192.430 6  96630755.467 6     -1662.847          36.000
> 2020 05 08 06 03  0.0000000  0 15        .000000000000
G13  20658799.266 8 108562720.467 8     -1643.922          51.000    20658798.008 8  84594301.722 8     -1280.978          50.000
G15  20317808.797 8 106770801.168 8      -143.645          51.000    20317808.477 8  83198030.315 8      -111.931          51.000
G17  22834207.062 6 119994548.881 6      1613.969          36.000    22834207.078 6  93502279.142 6      1257.638          36.000
G19  23536000.633 7 123682528.747 7      3171.469          46.000    23536001.492 7  96375969.298 7      2471.274          46.000
G28  22145255.805 5 116374071.845 5     -2455.559          35.000    22145254.445 5  90681108.784 5     -1913.425          33.000
R02  19611674.578 8 104651614.178 8     -2072.070          51.000    19611676.203 7  81395739.097 7     -1611.610          46.000
R11  22663599.875 5 121107391.410 5     -3439.117          35.000
R12  19598152.414 6 104689806.761 6     -1351.203          39.000    19598159.477 5  81425434.701 5     -1050.942          32.000
C05  39766548.938 5 207074855.167 5        23.793          34.000    39766545.398 6 160123399.021 6        18.099          36.000
C20  22852766.945 8 119000494.142 8     -1154.758          51.000
C23  24048215.023 5 125225330.619 5     -2344.879          34.000
E07  25303438.977 8 132970452.677 8     -2530.355          51.000    25303439.383 8 101886447.917 8     -1938.871          51.000
E21  26106228.891 8 137189154.670 8      2383.801          50.000    26106235.133 8 105119036.318 8      1826.635          49.000
E27  23187366.867 8 121850475.700 8       233.879          51.000    23187368.531 8  93365962.570 8       179.221          51.000
E30                                                                  24010599.828 6  96680719.586 6     -1668.223          36.000
> 2020 05 08 06 03 30.0000000  0 15        .000000000000
G13  20668224.430 8 108612248.884 8     -1660.086          51.000    20668223.594 8  84632895.270 8     -1293.573          50.000
G15  20318678.852 8 106775373.077 8      -163.219          51.000    20318678.609 8  83201592.828 8      -127.186          51.000
G17  22825037.586 5 119946381.873 5      1597.270          32.000
G19  23517913.531 7 123587485.362 7      3162.586          45.000    23517914.797 7  96301909.484 7      2464.350          44.000
G28  22159299.422 6 116447873.663 6     -2466.457          38.000    22159298.484 5  90738616.722 5     -1921.908          30.000
R02  19623388.781 8 104714121.193 8     -2097.316          51.000    19623389.750 7  81444355.626 7     -1631.249          46.000
R11  22682911.047 4 121210580.661 4     -3442.496          29.000
R12  19605776.836 5 104730526.157 5     -1365.496          34.000    19605782.555 5  81457105.401 5     -1062.046          31.000
C05  39766409.117 5 207074127.113 5        23.121          34.000    39766405.531 6 160122836.068 6        17.417          36.000
C20  22859463.516 8 119035363.725 8     -1172.023          51.000
C23  24061735.477 5 125295719.486 5     -2349.609          35.000
E07  25317904.031 8 133046463.485 8     -2539.238          51.000    25317905.312 8 101944689.963 8     -1945.581          51.000
E21  26092634.602 8 137117715.514 8      2376.590          48.000    26092640.336 8 105064297.242 8      1820.990          49.000
E27  23186057.414 8 121843594.149 8       222.605          51.000    23186059.047 8  93360689.681 8       170.589          51.000
E30  24023035.344 5 126241902.987 5     -2182.867          35.000    24023037.102 5  96730806.456 5     -1672.697          35.000
> 2020 05 08 06 04  0.0000000  0 14        .000000000000
G13  20677742.398 8 108662265.729 8     -1671.188          51.000    20677741.852 8  84671869.421 8     -1302.224          50.000
G15  20319661.461 8 106780535.415 8      -177.879          51.000    20319661.227 8  83205615.423 8      -138.607          51.000
G19  23499879.539 7 123492719.924 7      3158.352          45.000    23499880.867 7  96228066.273 7      2461.053          43.000
G28  22173406.219 6 116522004.752 6     -2472.473          40.000    22173403.398 4  90796381.211 4     -1926.587          27.000
R02  19635245.352 8 104777391.708 8     -2117.539          51.000    19635246.414 7  81493565.990 7     -1646.978          46.000
R11  22702242.828 5 121313871.325 5     -3439.738          33.000    22702241.039 4  94355249.328 4     -2675.352          28.000
R12  19613480.742 7 104771674.540 7     -1374.645          42.000    19613483.844 4  81489109.648 4     -1069.171          29.000
C05  39766277.086 5 207073439.241 5        26.289          34.000
C20  22866260.570 8 119070756.252 8     -1184.348          51.000
C23  24075281.523 5 125366254.136 5     -2349.648          35.000
E07  25332419.602 8 133122743.761 8     -2543.004          51.000    25332421.961 8 102003138.488 8     -1948.503          51.000
E21  26079082.805 7 137046500.775 7      2374.293          47.000    26079088.117 8 105009730.098 8      1819.266          49.000
E27  23184813.094 8 121837055.597 8       216.395          51.000    23184814.867 8  93355679.628 8       165.857          51.000
E30  24035508.031 6 126307445.503 6     -2183.641          38.000    24035507.133 5  96781027.312 5     -1673.209          33.000
> 2020 05 08 06 04 30.0000000  0 13        .000000000000
G13  20687330.023 8 108712648.759 8     -1688.078          51.000    20687329.758 8  84711128.914 8     -1315.386          51.000
G15  20320733.289 8 106786166.833 8      -198.066          51.000    20320733.008 8  83210003.540 8      -154.337          51.000
G19  23481876.625 7 123398114.301 7      3148.340          46.000    23481877.164 7  96154347.612 7      2453.252          43.000
G28  22187552.055 6 116596341.483 6     -2483.430          40.000    22187548.812 5  90854305.863 5     -1935.137          32.000
R02  19647221.539 8 104841300.073 8     -2143.371          51.000    19647222.938 7  81543272.446 7     -1667.066          47.000
R11  22721565.938 5 121417152.841 5     -3443.059          30.000    22721562.172 5  94435544.279 5     -2677.941          32.000
R12  19621241.312 5 104813126.527 5     -1388.855          33.000    19621242.383 5  81521350.056 5     -1080.221          30.000
C05  39766129.625 5 207072671.180 5        24.121          34.000    39766125.891 5 160121709.202 5        19.036          35.000
C20  22873134.492 8 119106550.331 8     -1202.293          51.000
E07  25346962.648 8 133199170.947 8     -2552.559          51.000    25346965.852 8 102061699.563 8     -1955.830          51.000
E21  26065550.562 7 136975389.414 7      2365.988          46.000    26065555.695 8 104955242.168 8      1812.933          48.000
E27  23183610.766 8 121830737.995 8       204.340          51.000    23183612.812 8  93350838.877 8       156.569          51.000
E30  24047989.727 6 126373040.239 6     -2189.602          37.000    24047986.891 5  96831288.109 5     -1677.609          32.000
> 2020 05 08 06 05  0.0000000  0 14        .000000000000
G13  20697015.672 8 108763547.467 8     -1699.871          51.000    20697015.766 8  84750790.243 8     -1324.575          50.000
G15  20321922.867 8 106792417.533 8      -213.438          51.000    20321922.250 8  83214874.204 8      -166.315          51.000
G19  23463933.609 7 123303821.819 7      3142.953          47.000    23463932.562 7  96080873.010 7      2449.057          42.000
G28  22201765.016 6 116671031.430 6     -2490.293          39.000    22201762.125 4  90912505.882 4     -1940.482          26.000
R02  19659346.125 8 104905996.357 8     -2164.215          51.000    19659347.297 7  81593591.737 7     -1683.278          47.000
R11  22740900.211 5 121520429.765 5     -3440.969          32.000    22740899.797 5  94515907.481 5     -2676.309          33.000
R12  19629084.172 6 104855032.159 6     -1398.766          39.000    19629087.273 5  81553943.460 5     -1087.929          30.000
C05  39765995.234 5 207071971.930 5        27.152          34.000
C20  22880113.164 8 119142893.386 8     -1215.293          50.000
C23  24102412.430 5 125507589.703 5     -2355.488          31.000
E07  25361561.930 8 133275893.800 8     -2557.035          51.000    25361565.750 8 102120487.172 8     -1959.275          51.000
E21  26052066.758 7 136904531.645 7      2363.117          47.000    26052071.234 8 104900948.576 8      1810.580          48.000
E27  23182478.891 8 121824790.560 8       197.398          51.000    23182481.023 8  93346281.756 8       151.262          51.000
E30  24060510.062 6 126438835.826 6     -2191.250          36.000    24060505.586 5  96881685.802 5     -1678.654          31.000
> 2020 05 08 06 05 30.0000000  0 15        .000000000000
G13  20706769.289 8 108814805.016 8     -1716.648          51.000    20706769.648 8  84790731.195 8     -1337.648          49.000
G15  20323200.711 8 106799131.954 8      -233.633          51.000    20323199.977 8  83220106.221 8      -182.052          51.000
G17  22789197.117 6 119758041.797 6      1539.758          37.000    22789190.117 6  93317919.059 6      1199.808          36.000
G19  23446021.062 7 123209689.682 7      3132.969          47.000    23446018.492 6  96007523.344 6      2441.277          41.000
G28  22216015.211 6 116745916.302 6     -2501.336          40.000    22216013.992 5  90970857.692 5     -1949.087          32.000
R02  19671588.102 8 104971319.021 8     -2189.914          51.000    19671588.820 8  81644398.233 8     -1703.266          48.000
R11  22760226.062 6 121623708.716 6     -3444.090          38.000    22760227.156 5  94596242.807 5     -2678.740          33.000
R12  19636984.305 6 104897230.744 6     -1413.719          40.000    19636986.961 5  81586764.583 5     -1099.559          33.000
C05  39765844.234 5 207071185.163 5        25.945          34.000    39765840.492 5 160120560.149 5        19.887          35.000
C20  22887167.352 8 119179629.634 8     -1233.180          51.000
C23  24115996.664 5 125578337.584 5     -2360.000          34.000
E07  25376187.695 8 133352755.011 8     -2566.469          51.000    25376191.898 8 102179380.786 8     -1966.515          51.000
E21  26038602.172 8 136833771.843 8      2354.879          49.000    26038605.367 8 104846730.013 8      1804.379          48.000
E27  23181387.703 8 121819056.467 8       185.375          51.000    23181389.844 8  93341888.096 8       142.068          51.000
E30  24073038.922 5 126504672.716 5     -2197.887          34.000    24073034.055 5  96932131.758 5     -1683.796          31.000
> 2020 05 08 06 06  0.0000000  0 15        .000000000000
G13  20716615.281 8 108866547.984 8     -1731.875          51.000    20716615.898 8  84831050.373 8     -1349.513          48.000
G15  20324590.891 8 106806437.077 8      -252.383          51.000    20324590.484 8  83225798.504 8      -196.662          51.000
G17  22780455.750 6 119712099.567 6      1524.141          39.000    22780451.648 5  93282119.973 5      1187.642          35.000
G19  23428163.773 7 123115848.400 7      3124.289          46.000    23428161.422 7  95934400.292 7      2434.511          43.000
G28  22230326.383 6 116821121.096 6     -2511.141          38.000    22230324.773 5  91029458.860 5     -1956.712          30.000
R02  19683970.859 8 105037395.396 8     -2214.062          51.000    19683972.016 8  81695790.969 8     -1722.046          49.000
R11  22779567.484 6 121727073.735 6     -3445.715          37.000    22779569.703 5  94676631.991 5     -2680.000          32.000
R12  19644962.703 6 104939849.312 6     -1426.723          39.000    19644966.078 5  81619912.390 5     -1109.673          33.000
C05                                                                  39765696.562 5 160119980.718 5        19.229          34.000
C20  22894321.789 8 119216883.894 8     -1249.430          51.000
C23  24129611.859 5 125649227.229 5     -2364.840          32.000
E07  25390864.047 8 133429880.531 8     -2574.289          51.000    25390868.125 8 102238476.933 8     -1972.498          50.000
E21  26025180.578 8 136763237.505 8      2348.371          49.000    26025182.742 8 104792684.218 8      1799.470          49.000
E27  23180361.203 8 121813662.196 8       175.184          51.000    23180363.617 8  93337754.826 8       134.226          51.000
E30  24085599.656 5 126570679.867 5     -2202.672          31.000    24085596.617 5  96982714.383 5     -1687.639          33.000
> 2020 05 08 06 06 30.0000000  0 14        .000000000000
G13  20726548.414 8 108918746.795 8     -1746.547          51.000    20726548.938 8  84871724.751 8     -1360.946          49.000
G15  20326088.016 8 106814304.648 8      -270.672          51.000    20326087.789 8  83231929.059 8      -210.913          51.000
G17  22771803.273 5 119666631.732 5      1508.496          32.000    22771800.023 5  93246690.765 5      1175.467          32.000
G19  23410356.898 7 123022272.463 7      3115.738          46.000    23410355.406 7  95861483.974 7      2427.848          45.000
G28  22244692.398 5 116896614.602 5     -2520.059          35.000    22244690.062 4  91088286.772 4     -1963.685          28.000
R02  19696488.523 8 105104193.699 8     -2237.648          51.000    19696490.625 8  81747745.230 8     -1740.390          49.000
R11  22798919.445 5 121830506.740 5     -3447.109          31.000    22798918.531 5  94757060.623 5     -2681.082          30.000
R12  19653014.508 7 104982856.715 7     -1439.066          43.000    19653016.102 5  81653362.549 5     -1119.277          32.000
R13  20560361.242 4 109791180.558 4      2060.078          28.000
C20  22901570.336 8 119254626.664 8     -1265.355          51.000
E07  25405584.852 8 133507240.542 8     -2581.613          50.000    25405588.375 8 102297752.748 8     -1978.092          48.000
E21  26011795.875 8 136692900.320 8      2342.316          48.000    26011797.539 8 104738789.523 8      1794.657          49.000
E27  23179393.766 8 121808578.372 8       165.320          51.000    23179396.492 8  93333859.430 8       126.665          51.000
E30                                                                  24098186.453 5  97033398.701 5     -1690.578          34.000
> 2020 05 08 06 07  0.0000000  0 14        .000000000000
G13  20736572.125 8 108971420.815 8     -1761.008          51.000    20736572.211 8  84912769.426 8     -1372.214          48.000
G15  20327696.000 8 106822754.463 8      -288.660          51.000    20327695.609 8  83238513.312 8      -224.933          51.000
G17  22763246.812 5 119621668.281 5      1493.344          31.000    22763248.875 5  93211698.289 5      1163.644          31.000
G19  23392605.344 7 122928985.138 7      3107.438          47.000    23392603.805 7  95788792.539 7      2421.377          43.000
G28  22259116.086 6 116972414.188 6     -2529.223          38.000    22259115.734 4  91147359.608 4     -1970.823          29.000
R02  19709144.648 8 105171731.346 8     -2260.750          51.000    19709147.625 8  81800274.515 8     -1758.364          50.000
R11  22818273.055 5 121933931.572 5     -3447.090          30.000
R12  19661142.484 6 105026270.927 6     -1450.852          38.000    19661143.211 5  81687129.077 5     -1128.443          34.000
C05                                                                  39765418.906 5 160118863.346 5        20.177          34.000
C20  22908915.969 8 119292876.195 8     -1280.730          51.000
E07  25420354.016 8 133584853.485 8     -2588.605          50.000    25420356.492 8 102357222.374 8     -1983.465          48.000
E21  25998452.125 8 136622780.388 8      2336.367          48.000    25998453.484 8 104685061.254 8      1790.260          50.000
E27  23178488.875 8 121803823.951 8       155.770          51.000    23178491.758 8  93330216.428 8       119.326          51.000
E30  24110796.680 5 126703092.128 5     -2210.117          30.000    24110805.633 5  97084203.791 5     -1693.167          35.000
> 2020 05 08 06 07 30.0000000  0 13        .000000000000
G13  20746666.117 8 109024463.606 8     -1776.047          51.000    20746665.719 8  84954101.473 8     -1383.933          49.000
G15  20329394.656 8 106831680.910 8      -307.254          51.000    20329394.273 8  83245468.971 8      -239.419          51.000
G19  23374889.422 8 122835883.686 8      3098.422          48.000    23374886.945 7  95716245.964 7      2414.355          42.000
G28  22273577.852 6 117048411.988 6     -2538.469          40.000
R02  19721919.000 8 105239898.972 8     -2284.543          51.000    19721922.789 8  81853293.741 8     -1776.867          50.000
R11  22837638.484 6 122037373.958 6     -3448.945          37.000    22837638.141 4  94917978.821 4     -2682.507          26.000
R12  19669323.633 6 105069982.285 6     -1463.980          37.000    19669326.516 5  81721126.875 5     -1138.655          34.000
C05                                                                  39765269.008 5 160118260.013 5        19.670          33.000
C20  22916338.914 8 119331526.709 8     -1296.793          51.000
E07  25435151.531 8 133662612.653 8     -2596.188          51.000    25435153.102 8 102416804.027 8     -1989.322          48.000
E21  25985129.945 7 136552772.431 7      2330.027          47.000    25985131.039 8 104631418.787 8      1785.343          50.000
E27  23177626.375 8 121799292.655 8       145.535          51.000    23177629.289 8  93326744.393 8       111.529          51.000
E30                                                                  24123433.297 6  97135047.840 6     -1696.639          36.000
> 2020 05 08 06 08  0.0000000  0 13        .000000000000
G13  20756848.961 8 109077972.866 8     -1790.191          51.000    20756848.000 8  84995797.002 8     -1394.951          49.000
G15  20331202.648 8 106841182.574 8      -325.109          51.000    20331202.352 8  83252872.847 8      -253.332          51.000
G19  23357228.352 8 122743070.360 8      3090.109          49.000    23357224.078 6  95643923.928 6      2407.877          41.000
G28  22288095.758 6 117124704.167 6     -2546.496          38.000    22288099.469 4  91266032.913 4     -1984.286          26.000
R02  19734829.883 8 105308793.580 8     -2307.426          51.000    19734833.789 8  81906878.408 8     -1794.668          50.000
R11  22857002.633 6 122140887.384 6     -3448.445          38.000    22857003.805 4  94998474.275 4     -2682.124          28.000
R12  19677580.445 6 105114089.001 6     -1475.641          36.000    19677584.469 5  81755432.039 5     -1147.724          35.000
C05                                                                  39765123.641 5 160117674.198 5        20.609          33.000
C20  22923857.594 8 119370674.641 8     -1312.047          51.000
E07  25449995.758 8 133740615.384 8     -2602.965          51.000    25449997.000 8 102476572.304 8     -1994.486          50.000
E21  25971848.266 8 136482975.378 8      2324.242          48.000    25971849.617 8 104577937.933 8      1780.913          51.000
E27  23176825.102 8 121795082.297 8       136.176          51.000    23176827.938 8  93323518.276 8       104.351          51.000
E30                                                                  24136088.484 5  97186005.346 5     -1699.548          35.000
> 2020 05 08 06 08 30.0000000  0 13        .000000000000
G13  20767119.156 8 109131940.810 8     -1804.203          51.000    20767117.461 8  85037849.916 8     -1405.873          48.000
G15  20333118.883 8 106851252.795 8      -342.770          51.000    20333118.484 8  83260719.752 8      -267.093          51.000
G19  23339621.070 8 122650541.128 8      3081.887          50.000    23339615.469 6  95571823.279 6      2401.473          39.000
G28  22302668.227 5 117201281.534 5     -2554.715          34.000    22302670.359 4  91325702.559 4     -1990.672          27.000
R02  19747875.453 8 105378406.047 8     -2329.852          51.000    19747879.211 8  81961021.425 8     -1812.107          49.000
R11  22876374.891 6 122244407.036 6     -3448.789          38.000    22876378.719 5  95078995.520 5     -2682.388          31.000
R12  19685907.195 4 105158582.088 4     -1487.551          28.000    19685914.570 5  81790037.412 5     -1156.981          34.000
C05                                                                  39764981.570 5 160117102.002 5        20.733          34.000
C20  22931470.000 8 119410311.745 8     -1326.918          51.000
E07  25464884.680 8 133818853.361 8     -2609.484          51.000    25464886.367 8 102536520.852 8     -1999.457          51.000
E21  25958605.609 8 136413382.464 8      2318.734          49.000    25958607.539 8 104524613.490 8      1776.714          51.000
E27  23176083.531 8 121791185.047 8       127.094          51.000    23176086.172 8  93320532.083 8        97.348          51.000
E30  24148763.047 5 126902606.374 5     -2221.922          34.000    24148770.633 6  97237069.872 6     -1702.084          36.000
> 2020 05 08 06 09  0.0000000  0 13        .000000000000
G13  20777468.352 8 109186324.708 8     -1819.340          51.000    20777466.453 8  85080226.939 8     -1417.670          48.000
G15  20335135.352 8 106861849.356 8      -361.578          51.000    20335134.703 8  83268976.809 8      -281.749          51.000
G19  23322060.375 8 122558257.563 8      3072.430          50.000    23322054.344 6  95499914.022 6      2394.104          40.000
G28  22317286.289 5 117278099.381 5     -2564.434          33.000
R02  19761046.969 8 105448689.994 8     -2353.613          51.000    19761050.234 8  82015686.705 8     -1830.588          49.000
R11  22895745.195 5 122347912.508 5     -3450.320          35.000    22895750.867 5  95159513.634 5     -2683.582          32.000
R12  19694300.016 5 105203413.499 5     -1499.793          35.000    19694305.789 5  81824903.222 5     -1166.512          33.000
C05                                                                  39764834.500 5 160116509.545 5        20.313          33.000
C20  22939167.664 8 119450395.085 8     -1343.117          51.000
E07  25479809.828 8 133897283.310 8     -2617.176          51.000    25479812.180 8 102596616.502 8     -2005.333          51.000
E21  25945393.602 8 136343951.950 8      2312.055          48.000    25945396.312 8 104471413.511 8      1771.547          51.000
E27  23175393.352 8 121787558.141 8       116.789          51.000    23175395.633 8  93317753.037 8        89.509          51.000
E30  24161466.781 5 126969363.207 5     -2225.688          32.000    24161471.445 6  97288208.239 6     -1705.597          37.000
> 2020 05 08 06 09 30.0000000  0 14        .000000000000
G13  20787904.977 8 109241168.855 8     -1836.023          51.000    20787903.078 7  85122962.566 7     -1430.668          47.000
G15  20337260.562 8 106873017.591 8      -382.066          51.000    20337259.867 8  83277679.318 8      -297.714          51.000
G19  23304555.258 8 122466267.792 8      3061.195          49.000    23304550.172 7  95428233.713 7      2385.347          43.000
G28  22331958.258 5 117355200.717 5     -2574.773          35.000
R02  19774352.398 8 105519689.873 8     -2378.836          51.000    19774355.438 8  82070908.811 8     -1850.206          49.000
R11  22915127.531 5 122451460.684 5     -3453.117          33.000    22915132.125 5  95240047.728 5     -2685.758          31.000
R12  19702768.977 5 105248632.427 5     -1513.707          34.000    19702767.141 5  81860073.408 5     -1177.331          32.000
C05                                                                  39764691.250 5 160115932.971 5        18.589          33.000
C20  22946958.797 8 119490968.238 8     -1360.852          51.000
C23  24225457.734 5 126148231.813 5     -2387.969          32.000
E07  25494779.250 8 133975949.231 8     -2626.328          51.000    25494782.430 8 102656892.957 8     -2012.393          51.000
E21  25932221.039 8 136274729.454 8      2303.648          48.000    25932224.391 8 104418372.913 8      1765.175          51.000
E27  23174762.984 8 121784246.067 8       104.949          51.000    23174764.961 8  93315215.208 8        80.431          51.000
E30                                                                  24174199.000 6  97339454.069 6     -1710.222          37.000
> 2020 05 08 06 10  0.0000000  0 13        .000000000000
G13  20798423.086 8 109296442.098 8     -1848.031          51.000    20798420.859 7  85166032.565 7     -1440.027          46.000
G15  20339488.797 8 106884727.135 8      -397.781          51.000    20339487.930 8  83286803.632 8      -309.959          51.000
G19  23287100.625 8 122374544.840 8      3054.527          49.000    23287097.000 7  95356761.299 7      2380.154          44.000
G28  22346678.008 5 117432553.133 5     -2581.531          33.000
R02  19787784.859 8 105591371.464 8     -2399.152          51.000    19787788.430 8  82126661.131 8     -1866.007          48.000
R11  22934512.078 5 122555021.450 5     -3451.148          30.000    22934514.953 4  95320622.781 4     -2684.227          28.000
R12  19711299.477 5 105294203.088 5     -1523.012          35.000    19711298.398 5  81895517.380 5     -1184.556          34.000
C20  22954837.805 8 119531999.724 8     -1373.887          51.000
C23  24239222.484 5 126219899.528 5     -2388.828          32.000
E07  25509786.922 8 134054819.436 8     -2630.930          50.000    25509791.047 8 102717325.956 8     -2015.829          50.000
E21  25919082.195 7 136205684.882 7      2300.027          47.000    25919086.125 8 104365468.643 8      1762.401          51.000
E27  23174186.547 8 121781217.630 8        97.836          51.000    23174188.734 8  93312894.708 8        74.962          51.000
E30  24186938.414 5 127103219.242 5     -2233.070          35.000    24186947.039 6  97390783.111 6     -1711.254          36.000
> 2020 05 08 06 10 30.0000000  0 13        .000000000000
G13  20809022.938 8 109352146.195 8     -1866.375          51.000    20809020.797 7  85209438.321 7     -1454.321          46.000
G15  20341820.461 8 106896980.315 8      -419.836          51.000    20341819.422 8  83296351.558 8      -327.145          51.000
G19  23269697.688 8 122283094.530 8      3041.398          48.000    23269695.430 7  95285501.315 7      2369.921          45.000
G28  22361444.570 5 117510184.974 5     -2593.297          30.000
R02  19801344.992 8 105663734.568 8     -2425.805          51.000    19801349.328 8  82182943.529 8     -1886.737          48.000
R11  22953889.477 5 122658595.322 5     -3456.328          31.000    22953901.648 4  95401203.234 4     -2688.255          26.000
R12  19719896.484 7 105340126.085 7     -1538.844          42.000    19719898.992 5  81931235.260 5     -1196.878          35.000
C20  22962805.391 8 119573490.599 8     -1393.004          51.000
C23  24253005.195 5 126291653.303 5     -2394.969          30.000
E07  25524833.234 8 134133895.021 8     -2641.668          49.000    25524838.445 8 102777916.345 8     -2024.165          50.000
E21  25905977.570 7 136136820.847 7      2290.094          47.000    25905982.188 8 104312702.707 8      1754.702          51.000
E27  23173664.359 8 121778474.430 8        84.293          51.000    23173667.180 8  93310792.767 8        64.597          51.000
E30  24199707.555 5 127170320.651 5     -2240.734          35.000    24199715.391 5  97442196.170 5     -1717.118          35.000
> 2020 05 08 06 11  0.0000000  0 12        .000000000000
G13  20819707.859 8 109408300.457 8     -1876.172          48.000    20819706.750 7  85253194.881 7     -1461.952          47.000
G15  20344259.336 8 106909797.662 8      -433.570          51.000    20344258.469 8  83306339.083 8      -337.847          51.000
G17  22697936.547 5 119278463.673 5      1368.875          35.000    22697939.430 5  92944257.367 5      1066.656          34.000
G19  23252351.125 8 122191940.423 8      3036.453          48.000    23252350.000 7  95214472.122 7      2366.067          47.000
G28  22376262.891 5 117588057.015 5     -2597.523          33.000
R02  19815036.891 8 105736797.138 8     -2443.996          51.000    19815041.523 8  82239769.952 8     -1900.886          48.000
R12  19728564.047 6 105386419.937 6     -1546.062          41.000    19728562.672 5  81967241.523 5     -1202.496          30.000
C20  22970865.180 8 119615459.797 8     -1403.965          51.000
E07  25539923.000 8 134213195.230 8     -2643.891          51.000    25539928.680 8 102838678.802 8     -2025.763          50.000
E21  25892911.703 8 136068158.115 8      2288.559          48.000    25892916.500 8 104260090.974 8      1753.616          51.000
E27  23173200.297 8 121776036.121 8        79.438          51.000    23173203.422 8  93308924.445 8        60.883          51.000
E30  24212501.000 6 127237547.897 6     -2239.738          36.000    24212508.438 5  97493707.900 5     -1716.193          34.000
> 2020 05 08 06 11 30.0000000  0 16        .000000000000
G12  24244903.234 6 127407831.473 6      3837.398          36.000
G13  20830475.375 8 109464889.461 8     -1892.844          49.000    20830475.609 8  85297290.216 8     -1474.943          48.000
G15  20346802.789 8 106923164.229 8      -453.980          51.000    20346802.180 8  83316754.569 8      -353.748          51.000
G17  22690177.258 5 119237669.902 5      1350.648          32.000    22690179.758 5  92912492.915 5      1052.453          33.000
G19  23235058.797 7 122101070.970 7      3024.891          47.000    23235058.719 7  95143664.755 7      2357.058          46.000
G24  21653269.516 5 113788698.581 5      2265.586          30.000
G28  22391129.578 4 117666181.441 4     -2607.273          29.000
R02  19828857.156 8 105810541.855 8     -2468.691          51.000    19828861.414 7  82297126.924 7     -1920.096          47.000
R12  19737295.945 6 105433067.466 6     -1559.656          37.000    19737292.500 5  82003522.899 5     -1213.060          32.000
R21  22940730.898 5 122760486.279 5       990.059          35.000    22940733.039 4  95480375.986 4       770.046          29.000
C20  22979013.711 8 119657891.337 8     -1421.391          51.000
C23  24280630.750 5 126435613.244 5     -2398.516          34.000
E07  25555053.438 8 134292704.104 8     -2653.008          51.000    25555058.828 8 102899601.135 8     -2032.845          51.000
E21  25879881.453 8 135999682.260 8      2280.160          48.000    25879886.336 8 104207622.444 8      1747.115          51.000
E27  23172791.484 8 121773887.253 8        67.492          51.000    23172794.391 8  93307277.902 8        51.754          51.000
E30  24225315.344 6 127304887.964 6     -2245.578          36.000    24225324.023 5  97545306.124 5     -1720.982          33.000
> 2020 05 08 06 12  0.0000000  0 14        .000000000000
G12  24222985.734 6 127292671.412 6      3834.797          36.000    24222991.805 5  99189083.274 5      2988.153          35.000
G13  20841306.594 8 109521807.686 8     -1905.883          51.000    20841306.797 8  85341642.088 8     -1485.103          48.000
G15  20349430.906 8 106936975.217 8      -470.992          51.000    20349430.242 8  83327516.377 8      -367.007          51.000
G17  22682498.875 6 119197299.095 6      1336.254          38.000    22682496.906 6  92881034.922 6      1041.231          36.000
G19  23217801.453 8 122010384.523 8      3016.727          48.000    23217801.969 7  95072999.993 7      2350.696          46.000
R02  19842784.875 8 105884858.563 8     -2490.027          51.000    19842788.242 7  82354928.763 7     -1936.691          46.000
R12  19746073.219 6 105479960.055 6     -1570.340          38.000    19746073.297 5  82039995.003 5     -1221.369          34.000
R21  22935229.539 5 122731059.907 5       966.832          32.000    22935233.680 4  95457488.689 4       751.977          28.000
C20  22987230.734 8 119700680.012 8     -1435.355          51.000
C23  24294435.820 5 126507548.523 5     -2400.648          33.000
E07  25570203.742 8 134372315.487 8     -2658.527          51.000    25570208.570 8 102960602.017 8     -2037.041          51.000
E21  25866866.586 8 135931288.712 8      2275.266          48.000    25866871.227 8 104155216.967 8      1743.475          51.000
E27  23172417.562 8 121771922.132 8        59.395          51.000    23172420.289 8  93305772.167 8        45.522          51.000
E30  24238130.992 6 127372234.753 6     -2248.043          36.000    24238141.422 5  97596909.451 5     -1722.820          33.000
> 2020 05 08 06 12 30.0000000  0 13        .000000000000
G12  24201118.930 6 127177771.991 6      3826.223          36.000    24201124.328 6  99099551.134 6      2981.472          36.000
G13  20852246.258 8 109579292.886 8     -1924.996          51.000    20852245.867 8  85386435.745 8     -1499.997          48.000
G15  20352188.773 8 106951469.200 8      -493.898          50.000    20352188.023 8  83338810.362 8      -384.856          50.000
G19  23200625.406 8 121920123.246 8      3002.148          48.000    23200625.586 7  95002666.534 7      2339.339          46.000
R02  19856864.461 8 105959987.430 8     -2517.219          51.000    19856866.953 7  82413362.266 7     -1957.837          46.000
R12  19754942.469 7 105527338.341 7     -1586.609          42.000    19754945.562 5  82076844.819 5     -1234.030          33.000
R21  22929893.500 5 122702507.035 5       938.430          33.000    22929896.125 4  95435280.929 4       729.890          29.000
C20  22995561.773 8 119744060.877 8     -1455.328          51.000
C23  24308283.203 5 126579704.824 5     -2408.191          32.000
E07  25585418.969 8 134452266.711 8     -2670.098          51.000    25585422.945 8 103021863.323 8     -2045.892          51.000
E21  25853913.070 8 135863216.404 8      2264.336          48.000    25853916.617 8 104103057.648 8      1735.059          51.000
E27  23172123.836 8 121770378.665 8        45.035          51.000    23172126.711 8  93304589.523 8        34.504          51.000
E30  24250993.531 6 127439825.538 6     -2256.613          36.000    24251004.719 5  97648745.746 5     -1728.611          32.000
> 2020 05 08 06 13  0.0000000  0 15        .000000000000
G12  24179282.727 5 127063033.503 5      3821.898          32.000    24179287.453 5  99010144.490 5      2978.100          31.000
G13  20863274.508 8 109637243.490 8     -1938.875          51.000    20863273.664 8  85431592.020 8     -1510.812          48.000
G15  20355057.555 8 106966544.842 8      -511.641          51.000    20355056.430 8  83350557.608 8      -398.681          51.000
G17  22667466.203 5 119118338.870 5      1299.633          32.000
G19  23183511.539 8 121830189.544 8      2992.855          48.000    23183511.297 7  94932588.371 7      2332.095          45.000
G28  22436011.695 5 117902036.213 5     -2634.941          35.000
R02  19871075.180 8 106035822.832 8     -2538.883          49.000    19871077.586 7  82472345.328 7     -1974.687          45.000
R12  19763883.125 6 105575097.396 6     -1597.543          37.000    19763885.102 5  82113990.588 5     -1242.536          32.000
R21  22924690.383 5 122674647.496 5       913.809          31.000
C20  23003987.188 8 119787932.416 8     -1469.953          51.000
C23  24322154.828 5 126651981.176 5     -2410.617          34.000
E07  25600679.234 8 134532455.450 8     -2676.230          51.000    25600682.344 8 103083306.634 8     -2050.576          51.000
E21  25841001.508 8 135795364.528 8      2258.824          49.000    25841003.828 8 104051067.275 8      1730.784          51.000
E27  23171891.008 8 121769154.973 8        36.199          51.000    23171894.125 8  93303651.889 8        27.728          51.000
E30                                                                  24263896.039 5  97700653.682 5     -1731.165          31.000
> 2020 05 08 06 13 30.0000000  0 13        .000000000000
G13  20874371.508 8 109695556.446 8     -1951.527          51.000    20874370.352 8  85477030.622 8     -1520.671          48.000
G15  20358017.859 8 106982100.548 8      -528.242          51.000    20358016.320 8  83362678.947 8      -411.617          51.000
G19  23166441.227 8 121740484.554 8      2984.582          48.000    23166440.648 7  94862688.383 7      2325.648          44.000
G28  22451066.047 6 117981138.315 6     -2641.473          36.000
R02  19885398.008 8 106112258.605 8     -2559.582          49.000    19885400.578 7  82531795.428 7     -1990.786          45.000
R12  19772875.367 6 105623131.604 6     -1607.172          37.000    19772878.219 5  82151350.605 5     -1250.020          34.000
R21  22919635.250 5 122647537.946 5       891.156          31.000    22919639.906 4  95392574.544 4       693.122          26.000
C20  23012487.484 8 119832192.593 8     -1483.480          51.000
C23  24336032.055 4 126724276.250 4     -2411.875          29.000
E07  25615964.828 8 134612778.859 8     -2681.418          51.000    25615967.367 8 103144853.145 8     -2054.629          51.000
E21  25828112.250 8 135727631.842 8      2253.973          49.000    25828113.516 8 103999168.228 8      1727.094          51.000
E27  23171699.438 8 121768148.726 8        28.160          51.000    23171702.742 8  93302880.862 8        21.559          51.000
E30                                                                  24276798.047 5  97752582.455 5     -1733.077          32.000
> 2020 05 08 06 14  0.0000000  0 14        .000000000000
G13  20885557.352 8 109754337.771 8     -1965.895          51.000    20885556.102 7  85522834.192 7     -1531.866          47.000
G15  20361089.680 8 106998243.131 8      -546.512          50.000    20361088.156 8  83375257.571 8      -425.853          51.000
G17  22652791.703 6 119041218.391 6      1268.578          37.000    22652790.141 6  92759382.133 6       988.496          36.000
G19  23149435.227 7 121651118.886 7      2974.387          46.000    23149434.461 7  94793052.813 7      2317.704          44.000
G28  22466172.711 5 118060518.923 5     -2648.730          35.000
R02  19899854.484 8 106189400.631 8     -2581.895          51.000    19899857.016 7  82591794.782 7     -2008.140          47.000
R12  19781939.781 5 105671547.990 5     -1619.188          35.000    19781942.203 5  82189007.759 5     -1259.371          32.000
R21  22914715.070 5 122621210.809 5       865.859          35.000    22914717.703 4  95372109.801 4       673.446          27.000
C20  23021082.555 8 119876945.967 8     -1498.680          51.000
C23  24349935.625 5 126796511.175 5     -2415.312          31.000
E07  25631295.750 8 134693342.620 8     -2688.121          51.000    25631298.141 8 103206583.832 8     -2059.753          51.000
E21  25815265.797 8 135660125.623 8      2247.797          49.000    25815266.820 8 103947442.680 8      1722.317          51.000
E27  23171569.570 8 121767466.090 8        18.727          51.000    23171572.680 8  93302357.796 8        14.361          51.000
E30                                                                  24289730.547 5  97804622.020 5     -1735.196          32.000
> 2020 05 08 06 14 30.0000000  0 13        .000000000000
G13  20896821.695 8 109813533.203 8     -1983.039          51.000    20896820.891 7  85568960.477 7     -1545.225          47.000
G15  20364263.016 8 107014919.263 8      -567.719          51.000    20364261.609 8  83388251.939 8      -442.378          51.000
G19  23132484.305 7 121562042.366 7      2961.395          47.000    23132483.242 7  94723642.552 7      2307.580          44.000
G28  22481320.969 6 118140122.444 6     -2660.184          36.000
R02  19914432.961 8 106267191.471 8     -2606.945          51.000    19914435.773 8  82652298.720 8     -2027.627          48.000
R12  19791064.180 6 105720289.799 6     -1633.340          38.000    19791065.766 5  82226918.110 5     -1270.375          32.000
R21  22909932.055 5 122595612.665 5       838.051          34.000    22909935.805 5  95352200.091 5       651.817          30.000
C20  23029761.398 8 119922138.163 8     -1516.684          51.000
C23  24363854.359 5 126868999.904 5     -2419.910          33.000
E07  25646661.664 8 134774092.021 8     -2697.852          50.000    25646664.148 8 103268456.756 8     -2067.209          51.000
E21  25802452.023 8 135592792.674 8      2238.461          49.000    25802453.906 8 103895849.889 8      1715.178          51.000
E27  23171491.141 8 121767052.846 8         6.277          51.000    23171493.906 8  93302041.152 8         4.756          51.000
E30                                                                  24302679.164 5  97856812.496 5     -1740.751          33.000
> 2020 05 08 06 15  0.0000000  0 13        .000000000000
G13  20908152.023 8 109873076.519 8     -1999.875          50.000    20908152.055 8  85615357.852 8     -1558.344          48.000
G15  20367525.500 8 107032063.313 8      -588.582          51.000    20367524.211 8  83401610.940 8      -458.635          51.000
G17  22638478.875 5 118966005.653 5      1231.238          34.000    22638492.305 5  92700824.706 5       959.419          32.000
G19  23115576.656 7 121473192.789 7      2948.660          46.000    23115575.336 7  94654409.151 7      2297.660          43.000
G28  22496524.914 6 118219985.756 6     -2670.602          36.000
R02  19929120.086 8 106345562.332 8     -2631.473          51.000    19929123.203 8  82713253.781 8     -2046.701          49.000
R12  19800237.312 6 105769288.933 6     -1647.164          38.000    19800239.688 5  82265028.530 5     -1281.131          32.000
R21  22905271.633 4 122570679.042 4       810.621          29.000    22905277.641 5  95332807.308 5       630.483          31.000
C20  23038511.055 8 119967703.080 8     -1534.219          51.000
C23  24377776.273 5 126941493.281 5     -2425.641          32.000
E07  25662050.258 8 134854960.556 8     -2706.797          50.000    25662052.508 8 103330420.944 8     -2074.039          50.000
E21  25789659.336 8 135525568.018 8      2229.785          51.000    25789661.680 8 103844340.071 8      1708.543          51.000
E27  23171451.281 8 121766842.950 8        -5.586          51.000    23171454.016 8  93301880.327 8        -4.292          51.000
> 2020 05 08 06 15 30.0000000  0 12        .000000000000
G12  24070440.500 5 126491020.093 5      3799.359          33.000    24070436.742 5  98564415.636 5      2960.540          33.000
G13  20919594.750 8 109933209.264 8     -2011.254          51.000    20919595.094 8  85662214.542 8     -1567.211          49.000
G15  20370923.102 8 107049916.978 8      -603.918          51.000    20370921.930 8  83415522.874 8      -470.585          51.000
G17  22631486.531 5 118929254.791 5      1217.270          30.000    22631485.906 5  92672187.266 5       948.516          30.000
G19  23098758.852 7 121384815.645 7      2941.055          44.000    23098757.641 7  94585543.888 7      2291.734          44.000
R02  19943961.117 8 106424755.423 8     -2650.375          51.000    19943964.383 8  82774848.391 8     -2061.403          48.000
R12  19809503.539 5 105818789.104 5     -1655.141          35.000    19809507.547 5  82303528.725 5     -1287.329          33.000
C20  23047377.641 8 120013879.077 8     -1546.402          51.000
C23  24391746.125 4 127014230.260 4     -2426.301          29.000
E07  25677506.828 8 134936188.945 8     -2710.594          48.000    25677508.891 8 103392660.846 8     -2076.898          48.000
E21  25776933.945 8 135458693.940 8      2226.316          51.000    25776936.039 8 103793098.887 8      1705.879          51.000
E27  23171495.930 8 121767077.656 8       -12.195          51.000    23171498.758 8  93302060.166 8        -9.327          51.000
> 2020 05 08 06 16  0.0000000  0 12        .000000000000
G12  24048751.086 6 126377033.606 6      3803.430          36.000    24048746.820 5  98475595.043 5      2963.718          35.000
G13  20931101.547 8 109993677.392 8     -2016.426          51.000    20931102.023 8  85709332.536 8     -1571.244          50.000
G15  20374407.648 8 107068227.523 8      -613.246          51.000    20374406.469 8  83429790.827 8      -477.854          51.000
G17  22624567.227 5 118892902.757 5      1210.328          31.000
G19  23081983.055 7 121296661.194 7      2939.477          45.000    23081982.453 7  94516852.200 7      2290.507          43.000
R02  19958907.164 8 106504511.375 8     -2663.090          51.000    19958910.656 8  82836880.789 8     -2071.292          48.000
R11  23167328.070 5 123799096.244 5     -3451.453          31.000
R12  19818815.289 6 105868531.273 6     -1657.184          38.000    19818819.828 5  82342217.081 5     -1288.924          32.000
C20  23056313.547 8 120060414.212 8     -1552.473          51.000
E07  25692982.570 7 135017523.100 7     -2707.988          45.000    25692984.969 7 103454981.799 7     -2075.105          47.000
E21  25764227.328 8 135391917.927 8      2228.969          51.000    25764228.984 8 103741932.865 8      1707.962          51.000
E27  23171576.656 8 121767503.342 8       -12.559          51.000    23171579.656 8  93302386.339 8        -9.641          51.000
> 2020 05 08 06 16 30.0000000  0 13        .000000000000
G12  24027080.930 5 126263158.568 5      3790.109          34.000    24027078.062 5  98386861.329 5      2953.329          34.000
G13  20942683.938 8 110054541.505 8     -2039.609          51.000    20942684.250 8  85756759.082 8     -1589.306          49.000
G15  20377990.742 8 107087056.302 8      -640.406          51.000    20377989.750 8  83444462.583 8      -499.018          51.000
G17  22617735.680 5 118857028.934 5      1183.918          35.000    22617733.344 5  92615838.742 5       922.533          35.000
G19  23065262.570 7 121208794.519 7      2919.988          46.000    23065261.820 6  94448384.651 6      2275.316          40.000
R02  19973969.789 8 106584889.538 8     -2693.867          51.000    19973973.398 8  82899397.095 8     -2095.230          48.000
R11  23186727.953 5 123902778.302 5     -3460.203          32.000
R12  19828183.984 6 105918576.113 6     -1677.629          36.000    19828188.516 5  82381140.809 5     -1304.822          30.000
C20  23065330.148 8 120107367.940 8     -1576.207          50.000
C23  24419697.273 5 127159799.070 5     -2430.969          32.000
E07  25708489.016 7 135099023.173 7     -2723.535          45.000    25708492.305 7 103517429.898 7     -2086.951          46.000
E21  25751551.039 8 135325301.752 8      2213.676          51.000    25751552.156 8 103690889.316 8      1696.244          51.000
