     3.04           OBSERVATION DATA    M (MIXED)           RINEX VERSION / TYPE
Convert 2.6.2       NovAtel             20200515 161317 UTC PGM / RUN BY / DATE 
Rinex Version 3.04 Observation File                         COMMENT             
                                                            MARKER NAME         
                                                            MARKER NUMBER       
                                                            MARKER TYPE         
                                                            OBSERVER / AGENCY   
                    NovAtel GPSCard                         REC # / TYPE / VERS 
                                                            ANT # / TYPE        
        0.0000        0.0000        0.0000                  APPROX POSITION XYZ 
        0.0000        0.0000        0.0000                  ANTENNA: DELTA H/E/N
G    8 C1C L1C D1C S1C C2W L2W D2W S2W                      SYS / # / OBS TYPES 
R    8 C1C L1C D1C S1C C2P L2P D2P S2P                      SYS / # / OBS TYPES 
E    8 C1C L1C D1C S1C C7Q L7Q D7Q S7Q                      SYS / # / OBS TYPES 
C    8 C2I L2I D2I S2I C7I L7I D7I S7I                      SYS / # / OBS TYPES 
DBHZ                                                        SIGNAL STRENGTH UNIT
    30.000                                                  INTERVAL            
  2020    05    13    20    00    0.0000000     GPS         TIME OF FIRST OBS   
  2020    05    13    20    59   30.0000000     GPS         TIME OF LAST OBS    
G L1C  0.00000  09 G01 G22 G14 G08 G11 G32 G03 G04 G17      SYS / PHASE SHIFT   
G L2W  0.00000  09 G01 G22 G08 G11 G32 G03 G04 G17 G14      SYS / PHASE SHIFT   
R L1C  0.00000  07 R02 R18 R17 R03 R04 R05 R19              SYS / PHASE SHIFT   
R L2P  0.25000  07 R18 R03 R04 R17 R02 R05 R19              SYS / PHASE SHIFT   
E L1C  0.50000  05 E13 E03 E07 E08 E15                      SYS / PHASE SHIFT   
E L7Q -0.25000  05 E13 E07 E08 E15 E03                      SYS / PHASE SHIFT   
C L2I  0.00000  03 C05 C28 C14                              SYS / PHASE SHIFT   
C L7I  0.00000  02 C05 C14                                  SYS / PHASE SHIFT   
  7 R02 -4 R18 -3 R17  4 R03  5 R04  6 R05  1 R19  3        GLONASS SLOT / FRQ #
 C1C  -71.950 C2C  -71.950 C2P  -71.950                     GLONASS COD/PHS/BIS 
     0     0     0     0GPS                                 LEAP SECONDS        
                                                            END OF HEADER       
> 2020 05 13 20 00  0.0000000  0 20      -0.000000000000
G01  20291186.867 8 106630909.512 8      -336.898          51.000    20291188.570 8  83089020.399 8      -262.521          51.000  
G22  20642073.789 8 108474828.790 8      -362.074          51.000    20642070.102 8  84525828.245 8      -282.136          51.000  
G14  22325761.039 5 117322663.372 5     -1584.703          35.000                                                                  
G08  23917010.758 5 125684719.161 5     -3693.664          33.000    23917006.992 5  97936137.983 5     -2878.199          31.000  
G11  20962736.758 8 110159919.543 8     -2541.035          50.000    20962736.844 8  85838890.360 8     -1980.028          48.000  
G32  23526105.953 5 123630521.216 5     -2827.895          30.000    23526111.227 4  96335461.392 4     -2203.561          28.000  
G03  20699466.180 7 108776429.899 7      1277.055          45.000    20699467.914 7  84760864.330 7       995.111          45.000  
R02  23179102.062 5 123687687.444 5     -3991.039          33.000                                                                  
R18  19743119.375 8 105389717.381 8     -1957.719          51.000    19743123.039 8  81969789.088 8     -1522.670          48.000  
R17  23348426.055 6 124941748.861 6     -4135.438          40.000                                                                  
R03  19607456.914 7 104959864.170 7     -1727.391          47.000    19607457.555 6  81635457.855 6     -1343.526          41.000  
R04  19981611.789 8 107000259.052 8      2200.477          50.000    19981614.766 7  83222431.541 7      1711.482          47.000  
E13  23121822.891 8 121506014.717 8       117.977          51.000    23121823.711 8  93102012.876 8        90.374          51.000  
E03  25637363.680 5 134725253.972 5     -2144.297          32.000                                                                  
E07  25824408.359 7 135708266.826 7      2717.293          47.000    25824416.352 8 103984265.640 8      2082.080          48.000  
E08  21572460.906 8 113364054.700 8       458.926          51.000    21572463.594 8  86863374.539 8       351.660          51.000  
E15  25099479.125 8 131898639.848 8     -2221.617          51.000    25099482.188 8 101065209.485 8     -1702.306          49.000  
C05  39691323.977 5 206683138.442 5       -29.969          35.000    39691321.008 6 159820501.078 6       -23.298          36.000  
C28  21672124.617 8 112852435.683 8      -794.582          51.000                                                                  
C14  22478734.641 8 117052663.626 8     -1895.051          51.000    22478733.000 8  90512539.289 8     -1465.407          50.000  
> 2020 05 13 20 00 30.0000000  0 18      -0.000000000000
G01  20293151.375 8 106641234.366 8      -354.105          51.000    20293153.227 8  83097065.727 8      -275.926          51.000  
G22  20644174.195 8 108485866.484 8      -376.555          51.000    20644170.430 8  84534429.054 8      -293.419          51.000  
G08  23938103.859 5 125795574.519 5     -3700.379          35.000    23938101.484 5  98022518.657 5     -2883.419          33.000  
G11  20977287.117 8 110236383.609 8     -2559.363          50.000    20977287.695 7  85898472.747 7     -1994.310          47.000  
G32  23542282.734 5 123715533.282 5     -2842.973          33.000    23542289.438 5  96401704.555 5     -2215.304          33.000  
G03  20692214.141 7 108738320.797 7      1261.098          45.000    20692216.055 7  84731168.950 7       982.677          45.000  
R02  23201543.031 5 123807436.959 5     -3995.770          31.000                                                                  
R18  19754182.312 8 105448773.023 8     -1982.223          49.000    19754185.945 7  82015721.204 7     -1541.729          47.000  
R17  23371629.359 7 125065912.958 7     -4145.266          42.000                                                                  
R03  19617191.164 7 105011971.878 7     -1749.211          47.000    19617191.555 7  81675986.058 7     -1360.498          42.000  
R04  19969339.727 8 106934543.732 8      2177.699          50.000    19969343.438 7  83171319.641 7      1693.766          47.000  
E13  23121180.430 8 121502638.273 8       104.324          51.000    23121181.344 8  93099425.725 8        79.940          51.000  
E07  25808916.547 8 135626854.896 8      2707.410          49.000    25808924.914 8 103921885.056 8      2074.501          49.000  
E08  21569879.875 8 113350490.999 8       442.500          51.000    21569882.805 8  86852981.605 8       339.118          51.000  
E15  25112184.180 8 131965405.064 8     -2232.191          51.000    25112187.406 8 101116367.212 8     -1710.408          51.000  
C05  39691500.906 5 206684059.593 5       -33.500          35.000    39691497.867 6 159821213.385 6       -25.980          36.000  
C28  21676749.102 8 112876518.287 8      -813.691          51.000                                                                  
C14  22489678.914 8 117109653.048 8     -1906.875          51.000    22489677.297 8  90556607.134 8     -1474.562          50.000  
> 2020 05 13 20 01  0.0000000  0 18      -0.000000000000
G01  20295216.781 8 106652089.270 8      -367.793          51.000    20295218.648 8  83105524.108 8      -286.592          51.000  
G22  20646358.977 8 108497348.039 8      -387.078          51.000    20646355.188 8  84543375.738 8      -301.619          51.000  
G08  23959241.961 6 125906649.688 6     -3703.227          36.000    23959236.219 5  98109070.725 5     -2885.638          35.000  
G11  20991944.242 8 110313408.647 8     -2573.844          51.000    20991945.008 7  85958492.251 7     -2005.593          46.000  
G32  23558543.852 5 123800985.714 5     -2852.734          33.000    23558550.641 5  96468290.891 5     -2222.911          31.000  
G03  20685054.586 7 108700695.955 7      1248.980          46.000    20685056.219 7  84701850.905 7       973.232          45.000  
R02  23224016.461 4 123927416.855 4     -3997.750          29.000                                                                  
R18  19765383.812 7 105508572.562 7     -2002.691          45.000    19765387.930 7  82062231.940 7     -1557.649          47.000  
R17  23394892.102 6 125190391.973 6     -4151.621          40.000                                                                  
R03  19627048.938 7 105064742.135 7     -1766.812          45.000    19627050.039 7  81717029.632 7     -1374.188          42.000  
R04  19957197.820 8 106869522.453 8      2158.855          50.000    19957201.297 7  83120747.573 7      1679.110          46.000  
E13  23120618.695 8 121499685.848 8        94.316          51.000    23120619.406 8  93097163.482 8        72.304          51.000  
E07  25793484.188 8 135545754.049 8      2701.211          50.000    25793492.500 8 103859742.831 8      2069.709          50.000  
E08  21567394.781 8 113337430.953 8       429.996          51.000    21567397.680 8  86842974.580 8       329.427          51.000  
E15  25124952.406 8 132032501.723 8     -2239.047          51.000    25124956.062 8 101167778.919 8     -1715.658          51.000  
C05  39691700.523 5 206685099.446 5       -33.648          34.000    39691697.414 6 159822016.681 6       -25.832          36.000  
C28  21681486.070 8 112901186.498 8      -829.070          51.000                                                                  
C14  22500693.656 8 117167009.515 8     -1915.066          51.000    22500691.930 8  90600958.791 8     -1480.860          50.000  
> 2020 05 13 20 01 30.0000000  0 18      -0.000000000000
G01  20297357.070 8 106663337.378 8      -381.613          51.000    20297358.914 8  83114288.884 8      -297.358          51.000  
G22  20648601.898 8 108509135.050 8      -398.195          51.000    20648598.156 8  84552560.434 8      -310.282          51.000  
G08  23980393.500 5 126017805.094 5     -3706.699          35.000    23980390.227 6  98195685.249 6     -2888.344          36.000  
G11  21006681.945 8 110390855.749 8     -2588.770          51.000    21006682.164 7  86018840.624 7     -2017.224          45.000  
G32  23574862.398 5 123886738.807 5     -2864.051          33.000    23574868.727 5  96535111.461 5     -2231.732          34.000  
G03  20677960.773 7 108663418.001 7      1236.602          45.000    20677962.508 7  84672803.182 7       963.589          45.000  
R02  23246495.375 5 124047365.779 5     -3998.488          32.000                                                                  
R18  19776698.852 8 105568975.370 8     -2023.758          48.000    19776703.516 8  82109211.953 8     -1574.034          48.000  
R17  23418187.453 6 125315043.547 6     -4158.008          40.000    23418193.734 4  97467278.481 4     -3234.022          25.000  
R03  19637003.789 7 105118032.683 7     -1785.195          46.000    19637005.281 6  81758477.827 6     -1388.485          41.000  
R04  19945159.422 8 106805056.270 8      2139.465          50.000    19945161.844 7  83070607.232 7      1664.029          44.000  
E13  23120111.688 8 121497020.922 8        83.891          51.000    23120112.023 8  93095121.539 8        64.277          51.000  
E07  25778085.227 8 135464828.099 8      2694.391          51.000    25778093.406 8 103797734.632 8      2064.498          51.000  
E08  21564979.438 8 113324737.071 8       416.863          51.000    21564982.102 8  86833248.121 8       319.388          51.000  
E15  25137757.461 8 132099792.140 8     -2246.395          51.000    25137761.625 8 101219339.080 8     -1721.288          51.000  
C05  39691896.602 5 206686119.910 5       -33.785          35.000    39691893.289 6 159822805.776 6       -26.176          36.000  
C28  21686309.484 8 112926304.140 8      -844.934          51.000                                                                  
C14  22511752.422 8 117224595.273 8     -1923.504          51.000    22511750.570 8  90645487.732 8     -1487.342          50.000  
> 2020 05 13 20 02  0.0000000  0 18      -0.000000000000
G01  20299576.664 8 106675002.077 8      -394.957          51.000    20299578.719 8  83123378.255 8      -307.759          51.000  
G22  20650907.117 8 108521249.644 8      -408.598          51.000    20650903.578 8  84562000.391 8      -318.388          51.000  
G08  24001564.859 6 126129061.097 6     -3709.945          37.000    24001563.945 6  98282378.136 6     -2890.870          37.000  
G11  21021504.188 8 110468745.979 8     -2602.992          51.000    21021503.180 7  86079534.294 7     -2028.306          45.000  
G32  23591242.195 5 123972813.006 5     -2873.484          34.000    23591247.320 5  96602182.246 5     -2239.079          34.000  
G03  20670936.852 7 108626509.957 7      1224.875          44.000    20670939.555 7  84644043.682 7       954.445          44.000  
R02  23268983.438 5 124167368.326 5     -3999.941          30.000    23268981.305 4  96574609.52624     -3111.063          26.000  
R18  19788132.555 8 105630004.146 8     -2043.977          51.000    19788136.445 8  82156678.770 8     -1589.760          49.000  
R17  23441519.086 6 125439888.453 6     -4163.836          40.000    23441523.703 4  97564379.976 4     -3238.546          27.000  
R03  19647059.680 7 105171863.742 7     -1802.531          45.000    19647061.359 6  81800346.438 6     -1401.969          41.000  
R04  19933229.070 8 106741169.520 8      2120.645          50.000    19933230.719 7  83020917.546 7      1649.394          46.000  
E13  23119663.789 8 121494667.254 8        74.031          51.000    23119664.000 8  93093318.093 8        56.710          51.000  
E07  25762724.023 8 135384101.173 8      2688.270          51.000    25762731.969 8 103735878.939 8      2059.844          51.000  
E08  21562638.023 8 113312432.095 8       404.445          51.000    21562640.336 8  86823819.674 8       309.894          51.000  
E15  25150603.562 8 132167298.826 8     -2253.035          51.000    25150608.305 8 101271064.939 8     -1726.371          51.000  
C05  39692093.359 5 206687144.820 5       -33.367          35.000    39692090.078 6 159823598.289 6       -25.886          36.000  
C28  21691223.711 8 112951893.800 8      -860.078          51.000                                                                  
C14  22522859.266 8 117282431.647 8     -1931.293          51.000    22522857.445 8  90690210.468 8     -1493.383          51.000  
> 2020 05 13 20 02 30.0000000  0 18      -0.000000000000
G01  20301875.727 8 106687084.506 8      -409.562          51.000    20301878.094 8  83132793.128 8      -319.140          51.000  
G22  20653274.695 8 108533692.121 8      -420.227          51.000    20653271.469 8  84571695.847 8      -327.449          51.000  
G08  24022755.211 5 126240415.522 5     -3713.516          35.000    24022755.961 6  98369147.764 6     -2893.649          36.000  
G11  21036410.695 8 110547078.795 8     -2618.457          51.000    21036408.703 7  86140572.820 7     -2040.357          45.000  
G32  23607682.500 5 124059206.418 5     -2884.906          33.000                                                                  
G03  20663983.477 7 108589972.560 7      1211.773          45.000    20663987.203 7  84615572.957 7       944.236          45.000  
R02  23291481.305 4 124287411.70924     -4002.223          28.000                                                                  
R18  19799683.289 8 105691658.129 8     -2065.551          51.000    19799686.500 8  82204631.839 8     -1606.540          50.000  
R17  23464886.242 6 125564924.869 6     -4170.805          37.000    23464891.930 4  97661649.405 4     -3243.963          28.000  
R03  19657216.273 7 105226232.909 7     -1821.273          45.000    19657218.125 6  81842633.557 6     -1416.546          40.000  
R04  19921407.695 8 106677863.956 8      2100.473          51.000    19921409.094 7  82971679.942 7      1633.704          47.000  
E13  23119275.336 8 121492626.309 8        62.926          51.000    23119275.797 8  93091754.260 8        48.183          51.000  
E07  25747401.047 8 135303575.016 8      2680.875          51.000    25747408.273 8 103674177.073 8      2054.241          50.000  
E08  21560370.719 8 113300516.440 8       390.773          51.000    21560372.570 8  86814689.525 8       299.448          51.000  
E15  25163490.406 8 132235022.046 8     -2260.973          49.000    25163495.523 8 101322956.718 8     -1732.411          51.000  
C05  39692291.141 5 206688174.775 5       -34.516          35.000    39692288.008 6 159824394.704 6       -26.554          36.000  
C28  21696228.750 8 112977955.980 8      -876.613          51.000                                                                  
C14  22534014.023 8 117340517.693 8     -1940.320          51.000    22534012.492 8  90735126.289 8     -1500.367          51.000  
> 2020 05 13 20 03  0.0000000  0 16      -0.000000000000
G01  20304268.023 8 106699656.527 8      -430.895          51.000    20304270.586 8  83142589.498 8      -335.762          51.000  
G22  20655718.148 8 108546533.095 8      -438.496          51.000    20655715.094 8  84581701.803 8      -341.685          51.000  
G08  24043977.383 5 126351938.031 5     -3724.363          34.000    24043978.398 5  98456048.370 5     -2902.105          33.000  
G11  21051414.773 8 110625924.049 8     -2640.461          51.000    21051412.578 7  86202010.642 7     -2057.503          45.000  
G03  20657114.836 7 108553877.125 7      1192.145          46.000    20657118.094 7  84587446.682 7       928.947          46.000  
R18  19811364.055 8 105754008.868 8     -2093.824          51.000    19811367.312 8  82253126.804 8     -1628.533          50.000  
R17  23488302.102 6 125690223.402 6     -4184.496          39.000    23488308.031 4  97759103.740 4     -3254.612          27.000  
R03  19667486.391 7 105281210.247 7     -1846.504          45.000    19667488.922 6  81885393.727 6     -1436.170          40.000  
R04  19909708.516 8 106615213.437 8      2073.551          51.000    19909709.742 7  82922951.807 7      1612.762          47.000  
E13  23118960.211 8 121490970.316 8        45.020          51.000    23118960.844 8  93090485.394 8        34.543          51.000  
E07  25732129.984 8 135223322.262 8      2666.699          51.000    25732136.109 8 103612684.707 8      2043.367          49.000  
E08  21558190.875 8 113289061.335 8       370.398          51.000    21558192.555 8  86805912.276 8       283.806          51.000  
E15  25176431.852 8 132303032.812 8     -2275.590          48.000    25176437.234 8 101375068.838 8     -1743.680          51.000  
C05  39692503.492 5 206689280.677 5       -41.379          35.000    39692500.414 6 159825249.886 6       -32.317          36.000  
C28  21701338.141 8 113004561.328 8      -899.707          51.000                                                                  
C14  22545230.094 8 117398922.666 8     -1955.871          51.000    22545228.836 8  90780288.741 8     -1512.395          51.000  
> 2020 05 13 20 03 30.0000000  0 16      -0.000000000000
G01  20306728.773 8 106712588.015 8      -436.254          51.000    20306731.375 8  83152665.975 8      -339.938          51.000  
G22  20658212.492 8 108559641.011 8      -440.633          51.000    20658209.383 8  84591915.756 8      -343.353          51.000  
G08  24065206.047 5 126463495.003 5     -3717.758          33.000    24065206.789 5  98542975.813 5     -2896.955          32.000  
G11  21066491.055 8 110705149.023 8     -2646.289          51.000    21066489.062 7  86263744.354 7     -2062.044          46.000  
G03  20650305.773 7 108518093.112 7      1188.352          46.000    20650308.062 7  84559563.062 7       925.989          46.000  
R18  19823150.227 8 105816922.580 8     -2105.699          51.000    19823153.195 8  82302059.665 8     -1637.766          50.000  
R17  23511741.336 6 125815648.125 6     -4182.312          39.000    23511747.422 4  97856670.313 4     -3252.907          27.000  
R03  19677845.391 7 105336659.834 7     -1855.410          43.000    19677847.234 6  81928521.169 6     -1443.097          39.000  
R04  19898106.156 8 106553085.743 8      2062.973          49.000    19898107.297 7  82874630.304 7      1604.535          46.000  
E13  23118693.641 8 121489569.397 8        43.184          51.000    23118694.320 8  93089411.969 8        33.134          51.000  
E07  25716885.758 8 135143213.372 8      2668.633          51.000    25716890.750 8 103551302.598 8      2044.810          49.000  
E08  21556073.609 8 113277935.887 8       366.117          51.000    21556075.484 8  86797387.623 8       280.517          51.000  
E15  25189402.859 8 132371200.011 8     -2274.121          48.000    25189408.297 8 101427300.848 8     -1742.443          50.000  
C05  39692705.602 5 206690333.071 5       -32.941          35.000    39692702.625 6 159826063.635 6       -25.675          36.000  
C28  21706527.281 8 113031580.178 8      -906.836          51.000                                                                  
C14  22556482.297 8 117457515.582 8     -1955.434          51.000    22556481.117 8  90825596.508 8     -1512.060          51.000  
> 2020 05 13 20 04  0.0000000  0 15      -0.000000000000
G01  20309271.562 8 106725950.387 8      -452.312          51.000    20309274.016 8  83163078.198 8      -352.451          51.000  
G22  20660771.062 8 108573086.230 8      -453.641          51.000    20660767.836 8  84602392.536 8      -353.486          51.000  
G04  23574539.836 6 123885029.258 6      3688.176          39.000    23574541.062 5  96533814.239 5      2873.910          34.000  
G11  21081652.734 8 110784823.241 8     -2662.961          51.000    21081651.117 7  86325828.154 7     -2075.035          47.000  
G03  20643569.336 7 108482691.619 7      1173.789          45.000    20643571.383 7  84531977.477 7       914.644          46.000  
R18  19835054.953 8 105880470.290 8     -2128.500          51.000    19835057.633 8  82351485.647 8     -1655.503          49.000  
R03  19688304.969 7 105392651.166 7     -1875.137          43.000    19688306.516 6  81972069.988 6     -1458.443          39.000  
R04  19886614.906 8 106491554.127 8      2041.461          49.000    19886615.922 7  82826772.407 7      1587.806          44.000  
E13  23118489.242 8 121488495.484 8        30.633          51.000    23118489.945 8  93088589.120 8        23.475          51.000  
E07  25701682.016 8 135063320.575 8      2659.918          51.000    25701685.906 7 103490086.088 7      2038.027          47.000  
E08  21554032.602 8 113267210.929 8       351.109          51.000    21554034.688 8  86789169.819 8       269.071          51.000  
E15  25202417.055 8 132439594.351 8     -2283.355          48.000    25202422.422 8 101479706.909 8     -1749.555          50.000  
C05  39692910.969 5 206691402.426 5       -35.086          35.000    39692907.953 6 159826890.527 6       -27.372          36.000  
C28  21711809.125 8 113059082.792 8      -924.559          51.000                                                                  
C14  22567783.820 8 117516365.336 8     -1965.727          51.000    22567782.445 8  90871102.859 8     -1519.928          50.000  
> 2020 05 13 20 04 30.0000000  0 16      -0.000000000000
G01  20311875.109 8 106739631.874 8      -463.527          51.000    20311877.484 8  83173739.101 8      -361.190          51.000  
G22  20663372.219 8 108586755.570 8      -461.309          51.000    20663369.125 8  84613043.960 8      -359.461          51.000  
G04  23553482.000 6 123774362.778 6      3685.977          40.000    23553481.469 4  96447580.516 4      2872.190          28.000  
G11  21096878.148 8 110864832.677 8     -2674.516          51.000    21096876.859 7  86388173.147 7     -2084.039          46.000  
G32  23674037.172 4 124407904.55324     -2923.391          29.000                                                                  
G03  20636884.133 7 108447560.373 7      1164.594          44.000    20636886.250 7  84504602.477 7       907.476          44.000  
R18  19847056.391 8 105944536.773 8     -2146.156          51.000    19847059.172 8  82401315.116 8     -1669.233          49.000  
R03  19698844.086 7 105449066.890 7     -1889.730          42.000    19698845.742 6  82015948.882 6     -1469.791          39.000  
R04  19875214.164 8 106430505.333 8      2024.902          50.000    19875215.023 7  82779290.032 7      1574.924          44.000  
E13  23118325.711 8 121487637.107 8        23.000          51.000    23118326.406 8  93087931.410 8        17.608          51.000  
E07  25686498.016 8 134983532.776 8      2655.918          51.000    25686500.648 7 103428950.014 7      2034.944          47.000  
E08  21552046.305 8 113256773.984 8       341.105          51.000    21552048.469 8  86781172.692 8       261.376          51.000  
E15  25215453.750 8 132508103.140 8     -2287.445          49.000    25215458.977 8 101532200.635 8     -1752.764          50.000  
C05  39693098.188 5 206692377.595 5       -33.172          35.000    39693095.305 6 159827644.564 6       -25.451          36.000  
C28  21717162.016 8 113086957.759 8      -937.281          50.000                                                                  
C14  22579112.961 8 117575359.177 8     -1970.844          51.000    22579111.328 8  90916720.629 8     -1523.964          50.000  
> 2020 05 13 20 05  0.0000000  0 15      -0.000000000000
G01  20314569.109 8 106753788.357 8      -478.973          51.000    20314571.688 8  83184770.121 8      -373.229          51.000  
G22  20666045.570 8 108600804.179 8      -473.809          51.000    20666042.547 8  84623990.926 8      -369.202          51.000  
G04  23532463.695 6 123663908.455 6      3679.207          39.000    23532461.961 5  96361512.159 5      2866.909          31.000  
G11  21112196.367 8 110945330.981 8     -2690.711          51.000    21112195.375 7  86450899.096 7     -2096.658          45.000  
G03  20630279.789 7 108412854.884 7      1150.438          46.000    20630282.008 7  84477559.244 7       896.445          46.000  
R18  19859184.797 8 106009278.828 8     -2168.500          51.000    19859187.523 8  82451670.042 8     -1686.611          49.000  
R03  19709491.750 7 105506062.607 7     -1908.691          44.000    19709493.695 6  82060278.900 6     -1484.535          39.000  
R04  19863934.023 8 106370098.687 8      2003.703          51.000    19863934.469 7  82732307.104 7      1558.436          45.000  
E13  23118232.883 8 121487150.569 8        10.691          51.000    23118233.523 8  93087558.625 8         8.255          51.000  
E07  25671363.992 8 134904006.644 8      2647.250          51.000    25671365.625 7 103368014.444 7      2028.470          47.000  
E08  21550144.188 8 113246780.282 8       326.445          51.000    21550146.445 8  86773515.196 8       250.143          51.000  
E15  25228542.055 8 132576881.535 8     -2296.320          48.000    25228546.695 8 101584900.908 8     -1759.618          49.000  
C05  39693296.977 5 206693413.13625       -34.645          35.000    39693293.930 6 159828444.944 6       -26.862          36.000  
C28  21722615.898 8 113115358.931 8      -954.754          51.000                                                                  
C14  22590498.953 8 117634649.708 8     -1980.496          50.000    22590497.328 8  90962567.821 8     -1531.458          50.000  
> 2020 05 13 20 05 30.0000000  0 16      -0.000000000000
G01  20317339.961 8 106768349.250 8      -492.664          51.000    20317342.805 8  83196116.251 8      -383.894          51.000  
G22  20668777.367 8 108615159.847 8      -483.922          51.000    20668774.242 8  84635177.147 8      -377.082          51.000  
G04  23511472.070 6 123553597.830 6      3674.047          39.000    23511472.344 5  96275555.767 5      2862.892          33.000  
G11  21127593.523 8 111026245.308 8     -2704.535          51.000    21127592.508 7  86513949.223 7     -2107.431          45.000  
G32  23707574.523 5 124584110.388 5     -2946.492          32.000    23707575.414 5  97078542.171 5     -2295.978          33.000  
G03  20623743.047 7 108378504.062 7      1138.723          46.000    20623745.227 7  84450792.345 7       887.314          46.000  
R18  19871426.266 8 106074623.113 8     -2188.578          51.000    19871428.867 8  82502493.346 8     -1702.228          48.000  
R03  19720233.688 7 105563562.862 7     -1925.551          43.000    19720235.008 6  82105001.325 6     -1497.648          38.000  
R04  19852760.383 8 106310262.545 8      1984.570          50.000    19852760.688 7  82685767.888 7      1543.558          46.000  
E13  23118197.477 8 121486965.537 8         0.758          51.000    23118198.141 8  93087416.864 8         0.581          51.000  
E07  25656266.836 8 134824672.123 8      2640.887          51.000    25656268.227 8 103307225.714 8      2023.580          49.000  
E08  21548313.008 8 113237158.464 8       314.152          51.000    21548315.312 8  86766142.637 8       240.729          51.000  
E15  25241668.383 8 132645857.947 8     -2302.902          49.000    25241672.281 8 101637752.881 8     -1764.569          49.000  
C05  39693493.805 5 206694437.70025       -34.852          35.000    39693490.695 5 159829237.188 5       -26.756          35.000  
C28  21728157.367 8 113144215.647 8      -969.961          51.000                                                                  
C14  22601928.141 8 117694164.901 8     -1987.945          50.000    22601926.539 8  91008588.753 8     -1537.203          50.000  
> 2020 05 13 20 06  0.0000000  0 17      -0.000000000000
G01  20320165.445 8 106783196.996 8      -497.270          51.000    20320168.367 8  83207685.913 8      -387.483          51.000  
G22  20671545.023 8 108629704.077 8      -485.734          51.000    20671541.898 8  84646510.293 8      -378.494          51.000  
G04  23490485.570 6 123443315.442 6      3677.844          37.000    23490489.859 5  96189621.421 5      2865.856          33.000  
G11  21143046.922 8 111107456.197 8     -2709.656          50.000    21143045.883 7  86577230.431 7     -2111.421          45.000  
G32  23724392.414 5 124672499.017 5     -2947.055          32.000    23724395.328 5  97147416.399 5     -2296.413          30.000  
G03  20617251.391 7 108344389.980 7      1135.539          46.000    20617253.633 7  84424209.958 7       884.839          46.000  
R18  19883757.523 8 106140448.721 8     -2199.863          51.000    19883760.023 8  82553691.008 8     -1711.008          48.000  
R03  19731046.172 7 105621444.603 7     -1933.402          45.000    19731046.898 6  82150020.442 6     -1503.758          38.000  
R04  19841670.984 8 106250877.675 8      1974.352          50.000    19841671.156 7  82639579.658 7      1535.607          46.000  
E13  23118197.258 8 121486964.939 8        -0.730          51.000    23118198.188 8  93087416.420 8        -0.578          51.000  
E03  25787512.930 5 135514242.439 5     -2226.227          35.000                                                                  
E07  25641184.102 8 134745412.501 8      2643.129          51.000    25641186.039 8 103246494.376 8      2025.211          50.000  
E08  21546530.172 8 113227790.383 8       310.449          51.000    21546532.398 8  86758964.494 8       237.844          51.000  
E15  25254809.891 8 132714913.976 8     -2300.820          48.000    25254812.797 8 101690665.913 8     -1762.940          48.000  
C05  39693666.047 5 206695334.91825       -24.891          34.000    39693662.953 6 159829931.008 6       -19.537          36.000  
C28  21733764.070 8 113173410.819 8      -976.512          51.000                                                                  
C14  22613377.875 8 117753786.525 8     -1986.812          51.000    22613376.219 8  91054691.971 8     -1536.272          50.000  
> 2020 05 13 20 06 30.0000000  0 16      -0.000000000000
G01  20323094.430 8 106798588.371 8      -520.535          51.000    20323097.367 8  83219679.192 8      -405.612          51.000  
G22  20674397.156 8 108644692.339 8      -505.676          51.000    20674394.211 8  84658189.442 8      -394.033          51.000  
G04  23469553.516 6 123333320.260 6      3662.965          36.000    23469559.867 5  96103910.884 5      2854.265          35.000  
G11  21158605.227 8 111189218.065 8     -2733.234          49.000    21158604.406 7  86640940.956 7     -2129.794          45.000  
G32  23741291.367 5 124761309.747 5     -2965.586          32.000    23741294.984 5  97216619.584 5     -2310.844          34.000  
G03  20610853.680 7 108310769.005 7      1113.910          46.000    20610856.133 7  84398011.839 7       867.982          46.000  
R18  19896227.391 8 106207014.652 8     -2229.699          51.000    19896230.125 8  82605464.518 8     -1734.211          49.000  
R03  19741978.758 7 105679966.125 7     -1959.844          45.000    19741979.164 6  82195537.153 6     -1524.323          38.000  
R04  19830714.367 8 106192206.191 8      1945.184          50.000    19830715.273 7  82593946.285 7      1512.921          47.000  
E13  23118281.211 8 121487405.911 8       -20.719          51.000    23118282.453 8  93087754.321 8       -15.854          51.000  
E07  25626164.539 8 134666485.299 8      2626.676          50.000    25626167.547 8 103186017.722 8      2012.691          51.000  
E08  21544844.273 8 113218932.079 8       288.129          51.000    21544846.297 8  86752176.954 8       220.804          51.000  
E15  25268014.516 7 132784305.634 7     -2317.320          45.000    25268017.414 8 101743836.111 8     -1775.547          48.000  
C05  39693862.836 5 206696358.565 5       -34.570          35.000    39693859.727 6 159830722.920 6       -27.061          36.000  
C28  21739484.453 8 113203198.270 8     -1001.352          51.000                                                                  
C14  22624896.609 8 117813767.066 8     -2003.914          50.000    22624894.891 8  91101072.730 8     -1549.551          49.000  
> 2020 05 13 20 07  0.0000000  0 16      -0.000000000000
G01  20326111.227 8 106814441.007 8      -533.445          51.000    20326114.016 8  83232031.889 8      -415.672          51.000  
G22  20677317.938 8 108660041.186 8      -514.992          51.000    20677315.062 8  84670149.579 8      -401.290          51.000  
G04  23448661.008 6 123223532.141 6      3658.879          37.000    23448668.406 6  96018361.662 6      2851.075          36.000  
G11  21174252.812 8 111271447.036 8     -2745.977          50.000    21174252.133 7  86705015.444 7     -2139.726          43.000  
G32  23758254.469 5 124850472.342 5     -2974.688          34.000    23758258.898 5  97286085.184 5     -2317.942          34.000  
G03  20604533.961 7 108277558.374 7      1103.012          47.000    20604536.352 7  84372133.444 7       859.490          47.000  
R18  19908819.711 8 106274235.604 8     -2248.852          50.000    19908822.914 8  82657747.493 8     -1749.104          49.000  
R03  19753014.375 7 105739039.924 7     -1975.410          45.000    19753014.945 6  82241483.447 6     -1536.430          37.000  
R04  19819875.047 8 106134164.638 8      1926.918          50.000    19819877.336 7  82548802.876 7      1498.714          47.000  
E13  23118433.531 8 121488206.439 8       -29.996          51.000    23118434.906 8  93088367.717 8       -22.942          51.000  
E07  25611192.719 8 134587808.830 8      2621.070          50.000    25611196.828 8 103125733.169 8      2008.345          51.000  
E08  21543239.852 8 113210500.472 8       276.664          51.000    21543241.602 8  86745716.368 8       212.004          51.000  
E15  25281266.117 7 132853949.611 7     -2323.055          43.000    25281270.555 8 101797199.697 8     -1779.905          48.000  
C05  39694068.203 5 206697428.426 5       -33.832          35.000    39694065.023 6 159831549.416 6       -25.941          36.000  
C28  21745302.477 8 113233495.730 8     -1015.797          51.000                                                                  
C14  22636468.117 8 117874022.939 8     -2010.461          50.000    22636466.445 8  91147666.367 8     -1554.574          49.000  
> 2020 05 13 20 07 30.0000000  0 16      -0.000000000000
G01  20329197.484 8 106830658.903 8      -548.008          51.000    20329199.984 8  83244669.217 8      -427.019          51.000  
G22  20680288.914 8 108675653.565 8      -526.234          51.000    20680285.961 8  84682315.071 8      -410.056          51.000  
G04  23427790.000 5 123113857.208 5      3652.715          35.000    23427797.969 5  95932900.644 5      2846.269          35.000  
G11  21189970.859 8 111354044.277 8     -2760.695          51.000    21189969.664 7  86769376.879 7     -2151.195          44.000  
G32  23775263.602 5 124939857.950 5     -2984.953          35.000    23775267.852 5  97355736.301 5     -2325.935          35.000  
G03  20598273.758 7 108244661.662 7      1089.797          47.000    20598275.773 7  84346499.654 7       849.193          46.000  
R18  19921516.281 8 106342012.103 8     -2269.941          50.000    19921519.906 8  82710462.550 8     -1765.507          49.000  
R03  19764134.461 7 105798565.255 7     -1993.020          45.000    19764134.633 6  82287780.872 6     -1550.130          38.000  
R04  19809135.047 8 106076655.527 8      1906.746          50.000    19809138.367 7  82504073.618 7      1483.025          47.000  
E13  23118635.977 8 121489270.904 8       -41.238          51.000    23118637.281 8  93089183.356 8       -31.613          51.000  
E07  25596250.516 8 134509287.823 8      2613.332          50.000    25596255.586 8 103065567.746 8      2002.415          51.000  
E08  21541698.367 8 113202398.944 8       263.129          51.000    21541699.867 8  86739508.702 8       201.600          51.000  
E15  25294547.250 7 132923749.147 7     -2330.547          43.000    25294553.586 8 101850682.514 8     -1785.775          49.000  
C05  39694263.664 5 206698446.636 5       -34.195          35.000    39694260.508 5 159832336.739 5       -26.348          35.000  
C28  21751200.148 8 113264207.368 8     -1032.008          51.000                                                                  
C14  22648073.742 8 117934457.152 8     -2018.812          49.000    22648072.133 8  91194397.945 8     -1561.089          49.000  
> 2020 05 13 20 08  0.0000000  0 16      -0.000000000000
G01  20332366.570 8 106847312.129 8      -561.699          51.000    20332369.062 8  83257645.769 8      -437.688          51.000  
G22  20683323.094 8 108691598.249 8      -536.430          51.000    20683320.109 8  84694739.496 8      -417.997          51.000  
G04  23406954.297 5 123004367.718 5      3647.457          33.000    23406961.969 5  95847584.116 5      2842.172          32.000  
G11  21205772.031 8 111437077.799 8     -2774.434          51.000    21205770.234 7  86834078.305 7     -2161.897          45.000  
G32  23792330.844 5 125029548.773 5     -2994.762          35.000    23792335.359 5  97425625.234 5     -2333.581          35.000  
G03  20592086.703 7 108212148.475 7      1077.914          47.000    20592088.539 7  84321164.697 7       839.933          47.000  
R18  19934330.430 8 106410413.863 8     -2289.945          51.000    19934334.172 8  82763663.935 8     -1781.069          49.000  
R03  19775350.797 7 105858609.678 7     -2009.668          42.000    19775351.984 6  82334482.121 6     -1563.072          38.000  
R04  19798508.438 8 106019750.477 8      1887.355          50.000    19798511.500 7  82459814.183 7      1467.947          46.000  
E13  23118902.133 8 121490669.737 8       -51.707          51.000    23118903.570 8  93090255.200 8       -39.611          51.000  
E07  25581351.477 8 134430993.024 8      2606.547          50.000    25581356.938 8 103005575.664 8      1997.210          51.000  
E08  21540232.945 8 113194696.774 8       250.609          51.000    21540234.086 8  86733607.037 8       192.014          51.000  
E15  25307872.883 7 132993773.536 7     -2337.438          47.000    25307879.867 8 101904337.544 8     -1790.941          51.000  
C05  39694462.789 5 206699483.329 5       -34.195          35.000    39694459.625 6 159833138.393 6       -26.339          36.000  
C28  21757190.961 8 113295401.849 8     -1047.312          51.000                                                                  
C14  22659726.789 8 117995137.313 8     -2026.184          50.000    22659724.938 8  91241319.716 8     -1566.865          48.000  
> 2020 05 13 20 08 30.0000000  0 16      -0.000000000000
G01  20335614.516 8 106864380.081 8      -575.789          51.000    20335617.109 8  83270945.498 8      -448.667          51.000  
G22  20686416.273 8 108707853.364 8      -546.957          51.000    20686413.297 8  84707405.817 8      -426.197          51.000  
G04  23386150.281 4 122895048.73224      3641.008          28.000    23386157.758 4  95762398.27924      2837.156          28.000  
G11  21221651.938 8 111520524.658 8     -2788.438          51.000    21221649.828 7  86899101.837 7     -2172.812          46.000  
G32  23809452.070 6 125119521.344 6     -3003.840          36.000    23809456.062 6  97495733.705 6     -2340.655          37.000  
G03  20585968.508 7 108179997.835 7      1065.703          47.000    20585970.578 7  84296112.250 7       830.418          47.000  
R18  19947257.367 8 106479418.262 8     -2310.184          50.000    19947261.031 8  82817334.009 8     -1796.810          48.000  
R03  19786660.102 7 105919149.319 7     -2026.055          42.000    19786661.594 6  82381568.463 6     -1575.824          39.000  
R04  19787991.195 8 105963429.190 8      1867.719          50.000    19787993.758 7  82416008.783 7      1452.670          47.000  
E13  23119228.188 8 121492382.688 8       -62.273          51.000    23119229.789 8  93091567.724 8       -47.689          51.000  
E07  25566491.852 8 134352904.552 8      2599.531          50.000    25566496.883 8 102945741.675 8      1991.820          51.000  
E08  21538839.336 8 113187372.666 8       237.926          51.000    21538840.375 8  86727995.068 8       182.322          51.000  
E15  25321238.023 8 133064001.191 8     -2344.262          50.000    25321244.867 8 101958148.317 8     -1796.224          51.000  
C05  39694661.438 5 206700518.20625       -34.234          35.000    39694658.227 6 159833938.272 6       -26.756          36.000  
C28  21763270.312 8 113327058.102 8     -1062.809          51.000                                                                  
C14  22671423.000 8 118056041.009 8     -2033.785          50.000    22671420.852 8  91288414.268 8     -1572.670          49.000  
> 2020 05 13 20 09  0.0000000  0 16      -0.000000000000
G01  20338941.359 8 106881862.940 8      -590.535          51.000    20338943.906 8  83284568.529 8      -460.157          51.000  
G22  20689568.414 8 108724418.124 8      -558.195          51.000    20689565.266 8  84720313.430 8      -434.958          51.000  
G08  24299622.453 5 127695383.60425     -3746.184          31.000                                                                  
G11  21237609.984 8 111604383.133 8     -2802.945          51.000    21237608.016 7  86964446.102 7     -2184.114          47.000  
G32  23826626.836 6 125209773.081 6     -3013.582          37.000    23826629.789 6  97566059.721 6     -2348.250          36.000  
G03  20579919.250 7 108148209.471 7      1052.832          47.000    20579921.320 7  84271342.130 7       820.389          47.000  
R18  19960296.867 8 106549023.711 8     -2331.035          51.000    19960300.039 7  82871471.573 7     -1813.025          46.000  
R03  19798060.367 7 105980180.530 7     -2043.531          42.000    19798063.008 6  82429037.244 6     -1589.413          38.000  
R04  19777583.172 8 105907692.096 8      1847.258          50.000    19777585.516 7  82372657.697 7      1436.756          47.000  
E13  23119614.195 8 121494410.375 8       -73.754          51.000    23119615.859 8  93093121.408 8       -56.507          51.000  
E07  25551671.789 8 134275023.374 8      2591.730          51.000    25551675.844 8 102886066.528 8      1985.846          51.000  
E08  21537517.562 8 113180426.186 8       224.336          51.000    21537518.617 8  86722672.457 8       171.924          51.000  
E15  25334641.859 8 133134431.540 8     -2351.922          51.000    25334648.414 8 102012114.399 8     -1802.132          51.000  
C05  39694859.633 5 206701549.694 5       -34.855          35.000    39694856.422 5 159834736.307 5       -27.520          35.000  
C28  21769438.250 8 113359175.660 8     -1079.164          51.000                                                                  
C14  22683161.812 8 118117166.688 8     -2042.133          49.000    22683159.656 8  91335680.510 8     -1579.071          49.000  
> 2020 05 13 20 09 30.0000000  0 17      -0.000000000000
G01  20342348.195 8 106899765.909 8      -603.219          51.000    20342350.539 8  83298518.898 8      -470.041          51.000  
G22  20692780.242 8 108741296.651 8      -567.383          51.000    20692776.922 8  84733465.534 8      -442.117          51.000  
G04  23344643.781 5 122676911.106 5      3630.168          34.000    23344645.469 5  95592411.787 5      2828.712          33.000  
G08  24321012.266 4 127807780.03724     -3747.746          29.000    24321018.641 5  99590504.99725     -2920.323          30.000  
G11  21253646.703 8 111688656.153 8     -2815.547          51.000    21253645.156 8  87030113.362 8     -2193.936          48.000  
G32  23843855.234 6 125300306.321 6     -3022.090          37.000    23843856.836 6  97636605.096 6     -2354.873          37.000  
G03  20573940.047 8 108116788.272 8      1041.977          48.000    20573941.758 7  84246858.097 7       811.930          47.000  
R18  19973449.617 8 106619233.880 8     -2349.934          51.000    19973452.070 7  82926079.415 7     -1827.729          44.000  
R03  19809553.375 7 106041705.728 7     -2058.543          44.000    19809555.664 6  82476890.129 6     -1601.089          38.000  
R04  19767285.391 8 105852544.671 8      1828.824          49.000    19767287.297 7  82329765.252 7      1422.419          47.000  
E13  23120061.141 8 121496758.396 8       -83.098          51.000    23120062.883 8  93094920.527 8       -63.687          51.000  
E07  25536892.586 8 134197355.404 8      2585.926          51.000    25536895.352 8 102826554.772 8      1981.392          51.000  
E08  21536268.570 8 113173861.821 8       212.977          51.000    21536269.234 8  86717642.630 8       163.181          51.000  
E15  25348084.531 8 133205068.962 8     -2357.516          50.000    25348090.781 8 102066239.135 8     -1806.367          51.000  
C05  39695058.250 5 206702584.64525       -33.980          35.000    39695055.086 5 159835536.172 5       -26.167          35.000  
C28  21775695.883 8 113391758.981 8     -1093.414          51.000                                                                  
C14  22694943.617 8 118178517.631 8     -2048.320          48.000    22694941.773 8  91383120.964 8     -1583.843          50.000  
> 2020 05 13 20 10  0.0000000  0 17      -0.000000000000
G01  20345830.250 8 106918064.253 8      -617.984          51.000    20345832.484 8  83312777.346 8      -481.546          51.000  
G22  20696046.859 8 108758463.015 8      -578.430          51.000    20696043.516 8  84746841.927 8      -450.725          51.000  
G04  23323936.398 6 122568089.203 6      3623.324          39.000    23323934.117 5  95507615.488 5      2823.370          33.000  
G08  24342408.805 4 127920230.43224     -3748.832          29.000    24342418.305 4  99678112.89824     -2921.169          27.000  
G11  21269757.211 8 111773316.987 8     -2829.891          51.000    21269756.203 8  87096082.839 8     -2205.110          49.000  
G32  23861131.781 6 125391093.536 6     -3031.633          38.000    23861132.336 6  97707348.349 6     -2362.312          37.000  
G03  20568025.930 7 108085709.074 7      1028.980          47.000    20568027.117 7  84222640.568 7       801.803          47.000  
R18  19986710.328 8 106690021.428 8     -2370.574          50.000    19986712.305 7  82981136.352 7     -1843.783          46.000  
R03  19821133.820 7 106103696.055 7     -2075.598          43.000    19821136.367 6  82525104.832 6     -1614.354          39.000  
R04  19757092.875 8 105797962.278 8      1808.637          48.000    19757094.203 7  82287312.308 7      1406.718          46.000  
E13  23120564.344 8 121499402.369 8       -94.371          51.000    23120566.156 8  93096946.408 8       -72.310          51.000  
E07  25522149.625 8 134119876.632 8      2578.195          51.000    25522151.406 8 102767187.974 8      1975.531          51.000  
E08  21535087.375 8 113167654.079 8       199.641          51.000    21535087.586 8  86712886.053 8       153.007          51.000  
E15  25361561.211 8 133275887.868 8     -2364.938          48.000    25361566.859 8 102120502.960 8     -1812.072          50.000  
C05  39695252.672 5 206703596.166 5       -34.383          35.000    39695249.438 6 159836318.745 6       -26.726          36.000  
C28  21782038.227 8 113424782.847 8     -1109.535          51.000                                                                  
C14  22706763.484 7 118240067.443 7     -2056.355          47.000    22706761.883 8  91430715.190 8     -1590.060          49.000  
> 2020 05 13 20 10 30.0000000  0 17      -0.000000000000
G01  20349397.656 8 106936811.790 8      -628.605          51.000    20349400.086 8  83327385.796 8      -489.823          51.000  
G22  20699378.312 8 108775970.058 8      -585.387          51.000    20699375.070 8  84760483.790 8      -456.146          51.000  
G04  23303267.914 6 122459477.560 6      3620.977          41.000    23303266.383 5  95422983.046 5      2821.547          31.000  
G08  24363823.391 4 128032757.35124     -3748.402          28.000    24363824.000 4  99765806.47224     -2920.834          27.000  
G11  21285951.359 8 111858417.203 8     -2840.254          51.000    21285950.820 8  87162394.700 8     -2213.182          49.000  
G32  23878466.539 6 125482185.750 6     -3037.562          39.000    23878466.656 6  97778329.271 6     -2366.936          38.000  
G03  20562186.875 7 108055025.237 7      1019.984          46.000    20562187.945 7  84198731.123 7       794.796          46.000  
R18  20000088.844 8 106761439.522 8     -2387.168          50.000    20000091.633 7  83036683.720 7     -1856.687          47.000  
R03  19832811.172 7 106166203.198 7     -2088.410          44.000    19832813.688 6  82573721.509 6     -1624.319          37.000  
R04  19747015.219 8 105743999.697 8      1792.418          48.000    19747016.242 7  82245341.416 7      1394.103          45.000  
E13  23121134.141 8 121502396.549 8      -101.832          51.000    23121135.906 8  93099240.622 8       -78.003          51.000  
E07  25507453.062 8 134042641.631 8      2574.234          51.000    25507454.609 8 102708007.963 8      1972.493          51.000  
E08  21533984.211 8 113161856.110 8       190.254          51.000    21533984.273 8  86708443.470 8       145.758          51.000  
E15  25375081.656 7 133346941.277 7     -2368.527          45.000    25375087.367 8 102174946.448 8     -1814.841          49.000  
C05  39695452.852 5 206704638.865 5       -31.512          35.000    39695449.664 5 159837125.020 5       -24.261          35.000  
C28  21788474.883 8 113458299.839 8     -1121.629          51.000                                                                  
C14  22718631.367 7 118301867.665 7     -2060.316          46.000    22718629.844 8  91478503.076 8     -1593.156          48.000  
> 2020 05 13 20 11  0.0000000  0 16      -0.000000000000
G01  20353062.109 8 106956069.247 8      -654.066          51.000    20353064.625 8  83342391.585 8      -509.665          51.000  
G22  20702785.961 8 108793877.299 8      -607.203          51.000    20702782.719 8  84774437.493 8      -473.145          51.000  
G04  23282651.234 7 122351139.197 7      3602.758          42.000    23282650.508 5  95338563.572 5      2807.348          34.000  
G11  21302240.055 8 111944015.308 8     -2865.133          50.000    21302239.859 8  87229094.522 8     -2232.569          49.000  
G32  23895870.164 6 125573640.874 6     -3058.164          39.000    23895870.109 6  97849592.989 6     -2382.986          39.000  
G03  20556434.594 7 108024797.152 7       996.527          46.000    20556435.789 7  84175176.793 7       776.518          46.000  
R18  20013596.750 8 106833548.134 8     -2418.746          50.000    20013600.797 8  83092768.180 8     -1881.247          48.000  
R03  19844595.695 7 106229285.590 7     -2115.898          42.000    19844596.734 6  82622785.559 6     -1645.699          37.000  
R04  19737065.312 8 105690719.502 8      1761.008          49.000    19737066.148 7  82203901.257 7      1369.673          46.000  
E13  23121782.195 8 121505801.994 8      -123.879          51.000    23121783.914 8  93101849.968 8       -94.893          51.000  
E07  25492814.445 8 133965711.827 8      2555.727          51.000    25492816.312 8 102649061.809 8      1958.324          51.000  
E08  21532970.492 8 113156527.925 8       166.262          51.000    21532970.422 8  86704360.845 8       127.386          51.000  
E15  25388657.523 7 133418289.022 7     -2386.645          42.000    25388663.125 8 102229615.468 8     -1828.690          48.000  
C05  39695670.375 5 206705771.106 5       -43.426          35.000    39695667.172 5 159838001.319 5       -32.948          35.000  
C28  21795017.641 8 113492369.383 8     -1148.441          51.000                                                                  
C14  22730558.617 7 118363976.601 7     -2079.023          46.000    22730557.148 8  91526529.633 8     -1607.536          48.000  
> 2020 05 13 20 11 30.0000000  0 15      -0.000000000000
G01  20356759.695 8 106975500.313 8      -659.637          51.000    20356762.180 8  83357532.657 8      -514.006          51.000  
G22  20706205.719 8 108811847.768 8      -609.164          51.000    20706202.336 8  84788440.468 8      -474.673          51.000  
G04  23262022.984 7 122242740.019 7      3605.211          44.000    23262022.930 4  95254096.740 4      2809.259          29.000  
G11  21318559.078 8 112029772.853 8     -2870.246          51.000    21318559.055 8  87295918.593 8     -2236.553          49.000  
G32  23913278.039 6 125665119.852 6     -3058.809          40.000    23913278.430 6  97920875.297 6     -2383.485          41.000  
G03  20550705.047 7 107994688.044 7       992.777          46.000    20550706.594 7  84151715.200 7       773.593          46.000  
R18  20027169.805 8 106906003.547 8     -2430.211          51.000    20027174.305 7  83149122.396 7     -1890.164          47.000  
R03  19856422.422 7 106292597.288 7     -2123.500          43.000    19856424.578 6  82672028.028 6     -1651.611          36.000  
R04  19727179.000 8 105637779.179 8      1749.750          50.000    19727180.008 7  82162725.473 7      1360.917          47.000  
E13  23122444.688 8 121509282.821 8      -126.352          51.000    23122446.320 8  93104517.064 8       -96.854          51.000  
E07  25478169.703 8 133888751.727 8      2556.781          50.000    25478171.992 8 102590092.453 8      1959.072          51.000  
E08  21531981.922 8 113151332.532 8       161.918          51.000    21531981.547 8  86700379.967 8       124.067          51.000  
E15  25402224.062 6 133489593.936 6     -2385.121          40.000    25402230.914 8 102284251.764 8     -1827.612          49.000  
C28  21801602.227 8 113526657.548 8     -1155.582          51.000                                                                  
C14  22742481.047 7 118426059.298 7     -2077.926          46.000    22742479.586 8  91574535.902 8     -1606.815          48.000  
> 2020 05 13 20 12  0.0000000  0 16      -0.000000000000
G01  20360569.852 8 106995522.832 8      -674.000          51.000    20360572.438 8  83373134.600 8      -525.195          51.000  
G22  20709716.609 8 108830297.574 8      -619.758          51.000    20709713.195 8  84802816.946 8      -482.928          51.000  
G04  23241463.352 7 122134700.193 7      3598.688          44.000    23241464.734 4  95169909.884 4      2804.185          26.000  
G11  21334987.461 8 112116105.170 8     -2884.105          51.000    21334987.547 7  87363190.530 7     -2247.356          47.000  
G32  23930769.391 6 125757037.745 6     -3067.914          41.000    23930770.430 6  97992499.594 6     -2390.586          41.000  
G03  20545077.586 7 107965115.486 7       980.043          46.000    20545079.281 7  84128671.674 7       763.670          46.000  
R18  20040887.750 8 106979228.264 8     -2450.371          51.000    20040891.805 7  83206074.945 7     -1905.845          47.000  
R03  19868371.203 6 106356560.638 6     -2139.641          41.000    19868372.711 5  82721777.275 5     -1664.165          35.000  
R04  19717435.688 8 105585604.614 8      1729.645          51.000    19717437.078 7  82122145.280 7      1345.282          47.000  
E13  23123201.109 8 121513257.308 8      -137.379          51.000    23123202.836 8  93107562.409 8      -105.324          51.000  
E03  25943446.562 5 136333731.027 5     -2316.215          32.000                                                                  
E07  25463598.477 8 133812179.866 8      2549.191          48.000    25463601.031 8 102531420.560 8      1953.281          51.000  
E08  21531097.977 8 113146687.039 8       148.941          51.000    21531097.297 8  86696820.448 8       114.190          51.000  
E15  25415863.477 7 133561273.187 7     -2392.324          46.000    25415870.398 8 102339174.848 8     -1832.997          49.000  
C28  21808307.938 8 113561577.663 8     -1171.359          51.000                                                                  
C14  22754477.734 7 118488527.962 7     -2085.418          45.000    22754476.180 7  91622840.640 7     -1612.629          47.000  
> 2020 05 13 20 12 30.0000000  0 15      -0.000000000000
G01  20364454.570 8 107015937.331 8      -687.043          51.000    20364457.172 8  83389041.982 8      -535.358          51.000  
G22  20713280.453 8 108849026.215 8      -628.965          51.000    20713277.234 8  84817410.690 8      -490.103          51.000  
G04  23220934.602 7 122026822.418 7      3593.090          43.000    23220937.586 4  95085849.318 4      2799.808          27.000  
G11  21351486.875 8 112202810.871 8     -2896.379          51.000    21351487.016 7  87430753.422 7     -2256.919          45.000  
G32  23948305.633 6 125849192.241 6     -3075.809          40.000    23948307.695 6  98064308.262 6     -2396.738          39.000  
