     3.02           OBSERVATION DATA    M (MIXED)           RINEX VERSION / TYPE
SAVERINEX           SC600               20200513 035930 LCL PGM / RUN BY / DATE
       G = GPS       R = GLONASS       C = COMPASS          COMMENT
       S = SBAS      J = QZSS          E = GALILEO          COMMENT
BEAN                                                        MARKER NAME
1                                                           MARKER NUMBER
GEODETIC                                                    MARKER TYPE
Unige DICCA         GTER                                    OBSERVER / AGENCY
SC60291900056       SC600               2.12(191226)        REC # / TYPE / VERS
                    HEMA45          NONE                    ANT # / TYPE
  4509407.8091   693652.4678  4442337.6214                  APPROX POSITION XYZ
        0.0000        0.0000        0.0000                  ANTENNA: DELTA H/E/N
G    8 C1C L1C D1C S1C C2Y L2Y D2Y S2Y                      SYS / # / OBS TYPES
R    8 C1C L1C D1C S1C C2P L2P D2P S2P                      SYS / # / OBS TYPES
C    8 C1I L1I D1I S1I C7I L7I D7I S7I                      SYS / # / OBS TYPES
E    8 C1C L1C D1C S1C C7Q L7Q D7Q S7Q                      SYS / # / OBS TYPES
DBHZ                                                        COMMENT
     30.000                                                 INTERVAL
  2020    05    13    01    00    0.0000000     GPS         TIME OF FIRST OBS
  2020    05    13    01    59   30.0000000     GPS         TIME OF LAST OBS
     0                                                      RCV CLOCK OFFS APPL
G L1C  0.00000                                              SYS / PHASE SHIFT
G L2Y  0.00000                                              SYS / PHASE SHIFT
R L1C  0.00000                                              SYS / PHASE SHIFT
R L2P  0.25000                                              SYS / PHASE SHIFT
C L1I  0.00000                                              SYS / PHASE SHIFT
C L7I  0.00000                                              SYS / PHASE SHIFT
E L1C  0.50000                                              SYS / PHASE SHIFT
E L7Q -0.25000                                              SYS / PHASE SHIFT
 14 R02 -4 R03  5 R04  6 R05  1 R10 -5 R12 -1 R13 -2 R14 -7 GLONASS SLOT / FRQ #
    R15  0 R16 -1 R17  4 R18 -3 R19  3 R20  2               GLONASS SLOT / FRQ #
 C1C   71.950 C2C   71.950 C2P   71.950                     GLONASS COD/PHS/BIS
    18                                                      LEAP SECONDS
*** Above antenna height is from mark to ANTENNA BOTTOM.    COMMENT
    17     4        0.0000        ANT MEASURE TYPE/HEIGT    COMMENT
    0.0000    0.0000    0.0458    0.0405    0.0000          COMMENT
                    BASE STATION                            COMMENT
                                                            END OF HEADER
> 2020 05 13 01 00  0.0000000  0 17        .000000000000
G06  22090109.242 8 116084311.483 8     -2498.504          49.000    22090113.859 8  90455276.432 8     -1946.886          49.000
G07  20941425.805 8 110047916.943 8       957.320          51.000    20941424.656 8  85751603.100 8       745.964          51.000
G09  21007628.484 7 110395952.913 7     -1633.180          46.000    21007628.891 7  86022811.858 7     -1272.608          46.000
G30  22087593.625 8 116071151.948 8      2909.480          49.000    22087596.312 8  90445031.580 8      2267.131          50.000
R04  21101664.094 5 112998545.961 5     -2205.586          35.000    21101671.227 4  87887704.862 4     -1715.456          28.000
R05  19650353.891 5 105042396.662 5       743.707          32.000    19650351.438 4  81699635.320 4       578.436          28.000
R14  20683753.469 6 110256091.261 6     -1386.422          37.000    20683758.031 6  85754682.132 6     -1078.325          37.000
R15  20404451.195 8 109035262.211 8      2738.070          50.000    20404455.289 8  84805150.465 8      2129.607          49.000
R20  22690104.555 6 121334194.723 6     -3604.473          36.000    22690106.156 7  94371048.313 7     -2803.479          44.000
C05  39790283.750 6 207198448.551 6       -13.883          36.000    39790281.016 6 160218970.373 6       -10.548          39.000
C20  21978260.719 8 114446575.438 8      -442.023          51.000
C23  25195021.305 4 131197017.129 4     -2421.820          29.000
E01  25514980.047 7 134082113.959 7      1791.266          43.000    25514981.445 7 102738278.479 7      1372.435          44.000
E04  23599235.070 8 124014940.367 8      -375.777          51.000    23599235.180 8  95024427.063 8      -287.963          51.000
E09                                                                  23195106.578 5  93397082.139 5      1312.876          31.000
E11  25207272.930 7 132465113.435 7     -2626.055          45.000    25207270.734 7 101499220.081 7     -2012.339          44.000
E21  26442451.539 5 138956027.275 5      -836.012          34.000
> 2020 05 13 01 00 30.0000000  0 15        .000000000000
G06  22104469.086 8 116159772.330 8     -2518.227          50.000    22104473.242 8  90514077.086 8     -1962.254          50.000
G07  20936062.672 8 110019732.042 8       935.539          51.000    20936061.188 8  85729640.852 8       728.991          51.000
G09  21017033.250 7 110445375.053 7     -1647.680          47.000    21017033.828 7  86061322.637 7     -1283.903          46.000
G30  22071071.516 8 115984325.424 8      2892.809          49.000    22071073.938 8  90377374.579 8      2254.140          49.000
R04  21114103.484 5 113065156.803 5     -2220.711          33.000    21114111.258 5  87939513.358 5     -1727.217          30.000
R05  19646267.859 6 105020553.299 6       726.703          37.000    19646266.102 5  81682645.574 5       565.211          30.000
R14  20691686.906 6 110298382.407 6     -1418.219          39.000    20691692.094 6  85787575.280 6     -1103.059          37.000
R15  20389195.477 8 108953742.216 8      2710.785          50.000    20389199.844 8  84741746.019 8      2108.388          48.000
R20  22710413.609 6 121442800.162 6     -3621.730          36.000    22710415.977 7  94455519.216 7     -2816.898          44.000
C05  39790419.258 6 207199154.087 6       -19.832          36.000    39790416.508 6 160219515.938 6       -14.834          39.000
C20  21980891.477 8 114460274.988 8      -457.430          51.000
E01  25504844.805 7 134028852.345 7      1773.492          42.000    25504846.773 7 102697467.647 7      1358.963          43.000
E04  23601452.039 8 124026590.350 8      -386.910          51.000    23601451.852 8  95033353.667 8      -296.413          51.000
E11  25222340.312 7 132544291.652 7     -2638.379          44.000    25222337.023 7 101559889.069 7     -2021.558          44.000
E21  26447320.586 5 138981609.927 5      -856.195          34.000    26447310.883 5 106492373.630 5      -656.133          34.000
> 2020 05 13 01 01  0.0000000  0 16        .000000000000
G06  22118855.062 8 116235369.799 8     -2528.504          50.000    22118858.172 8  90572984.187 8     -1970.266          50.000
G07  20930738.320 8 109991750.564 8       923.059          51.000    20930736.453 8  85707837.100 8       719.266          51.000
G09  21026433.320 7 110494771.999 7     -1652.465          46.000    21026434.023 7  86099813.780 7     -1287.635          47.000
G30  22054557.531 8 115897543.014 8      2885.398          48.000    22054559.727 7  90309751.929 7      2248.362          47.000
R04  21126547.000 5 113131714.995 5     -2226.004          30.000    21126555.188 4  87991345.933 4     -1731.336          29.000
R05  19642190.766 6 104998756.051 6       719.508          37.000    19642189.961 5  81665692.133 5       559.617          31.000
R14  20699711.641 6 110341158.223 6     -1440.023          38.000    20699715.039 6  85820845.323 6     -1120.021          36.000
R15  20374006.859 8 108872580.187 8      2692.930          51.000    20374010.836 7  84678619.994 7      2094.501          47.000
R20  22730733.531 6 121551463.266 6     -3629.750          36.000    22730736.484 7  94540034.952 7     -2823.142          44.000
C05  39790500.258 6 207199576.193 6       -15.375          36.000    39790497.500 6 160219842.369 6       -12.209          39.000
C20  21983523.992 8 114473984.700 8      -463.426          51.000
E01  25494723.391 7 133975664.453 7      1765.316          42.000    25494725.273 7 102656713.253 7      1352.765          42.000
E04  23603646.219 8 124038120.827 8      -388.641          51.000    23603645.828 8  95042188.709 8      -297.793          51.000
E09                                                                  23175634.164 5  93318674.895 5      1306.423          30.000
E11  25237392.891 7 132623394.962 7     -2641.680          43.000    25237389.180 7 101620500.674 7     -2024.090          43.000
E21  26452218.000 5 139007347.992 5      -866.801          35.000    26452212.742 5 106512095.032 5      -664.274          32.000
> 2020 05 13 01 01 30.0000000  0 15        .000000000000
G06  22133350.203 8 116311541.516 8     -2542.727          49.000    22133352.945 8  90632338.723 8     -1981.345          49.000
G07  20925536.312 8 109964413.408 8       906.375          51.000    20925534.367 8  85686535.442 8       706.266          51.000
G09  21035912.148 7 110544583.177 7     -1661.359          46.000    21035912.898 7  86138627.694 7     -1294.563          46.000
G30  22038135.375 7 115811246.908 7      2874.301          46.000    22038137.328 7  90242508.198 7      2239.715          46.000
R04  21139083.602 5 113198794.446 5     -2235.027          30.000
R05  19638205.984 6 104977453.600 6       707.832          36.000    19638206.734 5  81649123.533 5       550.533          34.000
R14  20707909.648 6 110384863.182 6     -1466.285          39.000    20707914.484 6  85854838.115 6     -1140.444          38.000
R15  20358970.141 8 108792227.485 8      2670.805          51.000    20358973.516 7  84616123.471 7      2077.293          47.000
R20  22751147.195 6 121660627.038 6     -3640.949          36.000    22751150.969 7  94624940.059 7     -2831.849          44.000
C05  39790610.648 6 207200151.313 6       -16.438          36.000    39790607.977 6 160220287.057 6       -12.375          39.000
C20  21986242.180 8 114488141.335 8      -473.461          51.000
E01  25484699.797 7 133922992.083 7      1752.895          43.000    25484700.844 6 102616353.867 6      1343.148          41.000
E04  23605901.367 8 124049972.168 8      -394.496          51.000    23605900.930 8  95051269.614 8      -302.246          51.000
E09  23165927.227 6 121737775.897 6      1701.172          36.000
E11  25252514.617 7 132702861.621 7     -2649.344          43.000    25252510.828 7 101681390.696 7     -2029.789          43.000
> 2020 05 13 01 02  0.0000000  0 15        .000000000000
G06  22147904.141 8 116388023.109 8     -2551.445          49.000    22147906.977 8  90691934.734 8     -1988.139          48.000
G07  20920407.109 8 109937459.284 8       895.211          51.000    20920404.992 8  85665532.233 8       697.567          51.000
G09  21045419.664 7 110594545.989 7     -1664.836          45.000    21045420.281 7  86177559.747 7     -1297.275          45.000
G30  22021756.344 7 115725177.345 7      2868.262          47.000    22021757.219 7  90175441.000 7      2235.009          47.000
R05  19634264.594 6 104956381.179 6       701.676          38.000    19634266.172 5  81632733.848 5       545.745          34.000
R14  20716232.922 6 110429229.442 6     -1486.742          39.000    20716236.680 5  85889345.269 5     -1156.355          35.000
R15  20344035.836 8 108712421.349 8      2654.141          51.000    20344038.617 7  84554052.053 7      2064.332          47.000
R20  22771604.297 5 121770021.098 5     -3646.918          35.000    22771608.766 7  94710024.305 7     -2836.492          44.000
C05  39790700.766 6 207200619.997 6       -10.754          36.000    39790698.000 6 160220649.479 6        -8.110          39.000
C20  21988996.828 8 114502486.028 8      -478.309          51.000
E01  25474724.523 6 133870575.034 6      1746.266          41.000    25474726.078 7 102576190.131 7      1337.919          42.000
E04  23608167.695 8 124061882.655 8      -394.770          51.000    23608167.305 8  95060395.825 8      -302.438          51.000
E09  23156225.555 6 121686778.572 6      1702.996          38.000
E11  25267655.266 7 132782427.756 7     -2650.617          43.000    25267651.867 7 101742356.975 7     -2030.837          43.000
E21  26462296.914 5 139060308.188 5      -890.922          32.000
> 2020 05 13 01 02 30.0000000  0 14        .000000000000
G06  22162546.727 8 116464970.746 8     -2570.625          48.000    22162549.305 8  90751893.938 8     -2003.081          48.000
G07  20915380.898 8 109911047.083 8       873.414          51.000    20915378.875 8  85644951.313 8       680.582          51.000
G09  21054986.062 7 110644818.488 7     -1678.820          43.000    21054986.461 7  86216733.114 7     -1308.172          43.000
G30  22005451.648 8 115639495.116 8      2851.680          50.000    22005451.164 8  90108675.651 8      2222.088          50.000
R05  19630396.023 6 104935701.171 6       684.805          39.000    19630399.359 5  81616649.430 5       532.626          33.000
R14  20724709.672 6 110474416.274 6     -1517.934          39.000    20724711.711 6  85924490.473 6     -1180.618          37.000
R15  20329234.914 8 108633326.845 8      2626.586          51.000    20329237.062 7  84492534.136 7      2042.900          47.000
R20  22792134.336 5 121879801.916 5     -3663.574          35.000    22792138.883 7  94795409.337 7     -2849.450          44.000
C05  39790800.570 6 207201139.923 6       -16.285          36.000    39790797.820 6 160221051.544 6       -12.584          39.000
C20  21991818.125 8 114517176.682 8      -493.496          51.000
E01  25464828.930 7 133818573.784 7      1728.484          42.000    25464829.953 6 102536345.011 6      1324.408          40.000
E04  23610475.539 8 124074011.277 8      -405.930          51.000    23610475.203 8  95069689.186 8      -311.022          51.000
E09  23146550.930 5 121635944.463 5      1694.504          33.000
E11  25282844.727 7 132862250.467 7     -2662.996          42.000    25282842.109 7 101803519.820 7     -2040.358          43.000
> 2020 05 13 01 03  0.0000000  0 15        .000000000000
G02  22405270.703 5 117740480.663 5      -341.531          33.000
G06  22177258.750 8 116542283.911 8     -2583.586          49.000    22177260.727 8  90812137.964 8     -2013.184          49.000
G07  20910439.219 8 109885079.636 8       857.773          51.000    20910437.344 8  85624716.960 8       668.398          51.000
G09  21064592.609 7 110695301.838 7     -1686.848          43.000    21064593.477 7  86256070.809 7     -1314.427          43.000
G30  21989202.711 8 115554104.284 8      2841.016          51.000    21989202.055 8  90042137.357 8      2213.778          51.000
R04  21176870.445 5 113401163.237 5     -2261.863          35.000
R05  19626581.133 5 104915315.656 5       673.879          35.000    19626584.500 4  81600794.044 4       524.128          29.000
R14  20733321.273 6 110520321.864 6     -1542.652          40.000    20733325.086 6  85960194.866 6     -1199.841          38.000
R15  20314549.305 8 108554847.829 8      2605.266          51.000    20314550.766 7  84431494.912 7      2026.318          46.000
R20  22812717.281 5 121989865.503 5     -3673.793          35.000    22812721.398 7  94881014.321 7     -2857.395          43.000
C05  39790891.531 6 207201613.931 6       -15.371          36.000    39790888.906 6 160221418.097 6       -12.167          39.000
C20  21994687.305 8 114532116.727 8      -502.559          51.000
E01  25454994.789 7 133766891.896 7      1716.891          42.000    25454994.422 6 102496744.617 6      1315.578          40.000
E04  23612806.344 8 124086260.151 8      -410.801          51.000    23612806.055 8  95079074.685 8      -314.829          51.000
E11  25298063.961 7 132942229.728 7     -2669.301          43.000    25298062.500 7 101864802.638 7     -2045.380          42.000
> 2020 05 13 01 03 30.0000000  0 14        .000000000000
G06  22192057.961 8 116620054.926 8     -2600.758          50.000    22192059.156 8  90872738.745 8     -2026.568          50.000
G07  20905600.312 8 109859652.141 8       837.801          51.000    20905598.164 8  85604903.328 8       652.832          51.000
G09  21074257.047 7 110746090.199 7     -1698.914          43.000    21074258.297 7  86295646.183 7     -1323.832          43.000
G30  21973027.727 8 115469101.714 8      2826.230          51.000    21973027.828 8  89975901.586 8      2202.258          51.000
R05  19622839.250 5 104895321.955 5       659.012          34.000    19622841.562 4  81585243.399 4       512.562          26.000
R14  20742085.258 6 110567040.295 6     -1571.082          37.000    20742089.914 6  85996531.571 6     -1221.950          37.000
R15  20299997.352 8 108477084.305 8      2579.309          51.000    20299998.320 7  84371012.155 7      2006.129          47.000
R20  22833369.711 5 122100303.749 5     -3688.125          35.000    22833373.867 7  94966910.696 7     -2868.545          43.000
C05  39790991.812 6 207202135.308 6       -19.395          36.000    39790989.227 6 160221822.004 6       -14.671          39.000
C20  21997622.719 8 114547400.747 8      -515.965          51.000
C23  25294348.789 5 131714316.341 5     -2501.477          32.000
E01  25445239.883 7 133715625.874 7      1701.184          42.000    25445238.539 6 102457462.898 6      1303.546          41.000
E04  23615178.359 8 124098724.295 8      -419.797          51.000    23615178.031 8  95088625.129 8      -321.680          51.000
E11  25313330.742 7 133022458.481 7     -2678.992          43.000    25313330.586 7 101926276.639 7     -2052.866          43.000
> 2020 05 13 01 04  0.0000000  0 15        .000000000000
G06  22206929.766 8 116698206.674 8     -2609.277          51.000    22206930.305 8  90933636.205 8     -2033.203          50.000
G07  20900850.094 8 109834690.384 8       826.363          51.000    20900847.914 8  85585452.612 8       643.919          51.000
G09  21083965.492 7 110797108.387 7     -1702.336          43.000    21083966.656 7  86335400.591 7     -1326.496          43.000
G30  21956912.664 8 115384415.006 8      2819.711          49.000    21956913.484 8  89909911.923 8      2197.177          49.000
R04  21202342.602 5 113537575.068 5     -2279.215          33.000
R05  19619157.898 6 104875645.949 6       652.594          37.000    19619159.203 4  81569947.842 4       507.570          27.000
R14  20750988.164 6 110614494.217 6     -1591.969          40.000    20750991.727 6  86033440.078 6     -1238.198          38.000
R15  20285565.312 8 108399964.101 8      2561.980          49.000    20285566.531 8  84311029.774 8      1992.651          48.000
R20  22854076.930 5 122211036.243 5     -3693.660          34.000    22854081.531 7  95053035.930 7     -2872.847          43.000
C05  39791087.336 6 207202633.270 6       -13.809          36.000    39791084.688 6 160222206.301 6       -10.925          39.000
C20  22000610.117 8 114562955.521 8      -520.922          51.000
C23  25308773.750 5 131789431.074 5     -2506.297          34.000
E01  25435549.953 6 133664702.841 6      1693.699          41.000    25435549.094 7 102418443.993 7      1297.850          43.000
E04  23617577.266 8 124111329.426 8      -420.363          51.000    23617577.000 8  95098283.603 8      -322.159          51.000
E11  25328630.555 7 133102860.449 7     -2680.770          43.000    25328631.781 7 101987883.344 7     -2054.066          43.000
> 2020 05 13 01 04 30.0000000  0 14        .000000000000
G06  22221871.688 8 116776726.829 8     -2613.105          51.000    22221872.211 8  90994820.753 8     -2036.186          51.000
G07  20896186.789 8 109810184.904 8       819.691          51.000    20896184.875 8  85566357.443 8       638.724          51.000
G09  21093715.750 7 110848345.876 7     -1701.230          44.000    21093716.906 7  86375325.911 7     -1325.634          44.000
G30  21940855.828 8 115300036.364 8      2818.105          49.000    21940856.984 8  89844162.328 8      2195.926          49.000
R05  19615536.195 6 104856278.975 6       650.984          40.000    19615536.406 5  81554884.690 5       506.324          30.000
R14  20760026.227 6 110662671.260 6     -1607.242          38.000    20760031.008 6  86070911.131 6     -1250.077          37.000
R15  20271252.031 8 108323480.528 8      2549.570          50.000    20271253.797 7  84251542.528 7      1982.999          47.000
R20  22874836.195 5 122322048.271 5     -3693.984          32.000    22874841.688 7  95139378.609 7     -2873.099          43.000
C05  39791175.938 6 207203094.324 6        -4.102          36.000    39791173.375 6 160222563.607 6        -3.353          39.000
C20  22003647.641 8 114578771.935 8      -521.230          51.000
C23  25323249.203 5 131864817.230 5     -2506.797          32.000
E01  25425923.359 7 133614114.580 7      1691.129          42.000    25425923.516 7 102379681.636 7      1295.821          43.000
E04  23620001.195 8 124124065.900 8      -416.238          51.000    23620000.961 8  95108042.721 8      -318.924          51.000
E11  25343961.453 7 133183423.827 7     -2677.645          44.000    25343963.453 7 102049613.748 7     -2051.782          42.000
> 2020 05 13 01 05  0.0000000  0 16        .000000000000
G02  22413868.969 5 117785675.487 5      -411.688          35.000
G06  22236870.836 8 116855547.865 8     -2637.609          51.000    22236872.062 8  91056239.743 8     -2055.280          51.000
G07  20891598.164 8 109786071.406 8       791.781          51.000    20891596.266 8  85547567.719 8       616.972          51.000
G09  21103495.383 7 110899737.036 7     -1720.941          43.000    21103496.117 7  86415370.927 7     -1340.996          44.000
G30  21924845.438 8 115215902.892 8      2795.062          49.000    21924846.969 8  89778603.765 8      2177.971          48.000
R05  19611960.242 6 104837156.129 6       628.125          36.000    19611961.422 5  81540011.332 5       488.542          33.000
R14  20769187.062 6 110711503.233 6     -1644.234          40.000    20769189.922 6  86108891.547 6     -1278.852          36.000
R15  20257046.609 8 108247571.181 8      2515.184          51.000    20257048.547 8  84192501.892 8      1956.254          48.000
R20  22895634.133 5 122433269.673 5     -3716.551          34.000    22895641.273 7  95225884.140 7     -2890.651          45.000
C05  39791245.586 6 207203456.341 6       -15.809          36.000    39791243.039 6 160222844.298 6       -12.306          39.000
C20  22006723.070 8 114594786.191 8      -542.379          51.000
C23  25337765.359 5 131940391.689 5     -2529.605          30.000
E01  25416348.445 7 133563797.836 7      1667.348          43.000    25416348.984 7 102341127.277 7      1277.530          43.000
E04  23622437.648 8 124136869.035 8      -433.270          51.000    23622437.531 8  95117852.923 8      -331.971          51.000
E11  25359310.727 7 133264081.796 7     -2695.371          44.000    25359312.414 6 102111416.625 6     -2065.275          41.000
E21  26494442.227 5 139229234.727 5      -981.344          34.000
> 2020 05 13 01 05 30.0000000  0 16        .000000000000
G02  22416283.781 6 117798353.714 6      -434.297          36.000
G04  23685157.438 5 124466344.201 5     -2915.156          32.000
G06  22251976.148 8 116934926.302 8     -2655.461          50.000    22251977.953 8  91118093.074 8     -2069.190          51.000
G07  20887133.594 8 109762609.256 8       770.996          51.000    20887131.633 8  85529285.526 8       600.776          51.000
G09  21113353.453 7 110951540.239 7     -1733.676          43.000    21113353.242 7  86455737.035 7     -1350.916          42.000
G30  21908931.516 8 115132275.821 8      2778.789          49.000    21908933.336 8  89713439.799 8      2165.287          49.000
R05  19608478.188 5 104818542.162 5       611.816          35.000    19608480.617 5  81525533.786 5       475.857          32.000
R14  20778519.648 6 110761250.892 6     -1673.738          39.000    20778522.656 6  86147584.166 6     -1301.796          37.000
R15  20242998.789 8 108172503.098 8      2487.965          51.000    20243000.719 8  84134115.607 8      1935.081          48.000
R20  22916520.828 5 122544959.240 5     -3731.172          34.000    22916528.727 7  95312753.754 7     -2902.023          44.000
C05  39791345.625 6 207203978.191 6       -20.121          36.000    39791343.148 6 160223247.055 6       -15.665          39.000
C20  22009886.016 8 114611255.677 8      -556.750          51.000
E01  25406874.695 7 133514013.349 7      1650.488          43.000    25406874.766 7 102302980.705 7      1264.684          43.000
E04  23624936.070 8 124149998.133 8      -443.262          51.000    23624936.148 8  95127912.889 8      -339.657          51.000
E09  23088851.758 5 121332732.558 5      1670.199          32.000
E11  25374726.953 7 133345091.673 7     -2706.164          44.000    25374727.281 6 102173489.109 6     -2073.539          39.000
> 2020 05 13 01 06  0.0000000  0 17        .000000000000
G02  22418790.641 6 117811518.289 6      -447.488          37.000
G04  23701775.906 5 124553692.895 5     -2912.848          32.000
G06  22267149.188 8 117014659.639 8     -2664.160          51.000    22267151.039 8  91180222.947 8     -2075.969          51.000
G07  20882754.906 8 109739598.662 8       758.840          51.000    20882753.062 8  85511355.202 8       591.304          51.000
G09  21123251.703 7 111003554.901 7     -1738.055          43.000    21123251.242 7  86496267.933 7     -1354.328          43.000
G30  21893076.664 8 115048957.179 8      2771.504          50.000    21893078.047 8  89648516.190 8      2159.613          50.000
R04  21253850.945 5 113813421.463 5     -2317.379          32.000
R05  19605053.453 6 104800235.266 6       604.418          36.000    19605055.031 5  81511295.117 5       470.106          31.000
R14  20787986.000 6 110811708.926 6     -1694.539          39.000    20787989.625 5  86186829.363 5     -1317.972          35.000
R15  20229070.984 8 108098076.227 8      2469.605          51.000    20229073.039 7  84076228.061 7      1920.804          47.000
R20  22937456.828 5 122656909.164 5     -3737.203          33.000    22937464.586 7  95399825.889 7     -2906.714          43.000
C05  39791438.062 6 207204459.039 6       -16.246          36.000    39791435.523 6 160223618.872 6       -12.402          39.000
C20  22013098.555 8 114627982.909 8      -562.469          51.000
C23  25367027.531 4 132092766.678 4     -2548.938          28.000
E01  25397464.156 7 133464562.752 7      1642.105          43.000    25397465.352 7 102265090.021 7      1258.320          45.000
E04  23627458.547 8 124163253.528 8      -444.578          51.000    23627458.898 8  95138069.619 8      -340.612          51.000
E11  25390171.250 7 133426251.683 7     -2708.684          43.000    25390168.328 6 102235676.574 6     -2075.458          37.000
> 2020 05 13 01 06 30.0000000  0 15        .000000000000
G02  22421394.633 6 117825194.083 6      -464.711          36.000
G06  22282394.273 8 117094770.376 8     -2677.023          51.000    22282395.602 8  91242646.920 8     -2085.992          51.000
G07  20878467.031 8 109717065.439 8       742.641          51.000    20878465.125 8  85493796.855 8       578.681          51.000
G09  21133194.648 7 111055805.436 7     -1746.004          42.000    21133194.805 7  86536982.620 7     -1360.523          42.000
G30  21877285.852 8 114965974.114 8      2759.980          51.000    21877286.055 8  89583854.095 8      2150.634          51.000
R05  19601691.211 5 104782262.358 5       592.758          34.000    19601691.750 5  81497316.164 5       461.034          30.000
R14  20797589.969 6 110862900.964 6     -1719.062          41.000    20797592.688 5  86226645.344 5     -1337.052          35.000
R15  20215268.719 8 108024319.512 8      2446.883          51.000    20215270.117 7  84018861.746 7      1903.134          46.000
R20  22958444.445 5 122769140.414 5     -3746.074          31.000    22958452.094 6  95487116.924 6     -2913.610          41.000
C05  39791527.523 5 207204924.817 5       -15.496          35.000    39791524.961 6 160223979.056 6       -12.040          39.000
C20  22016365.438 8 114644993.263 8      -572.164          51.000
C23  25381737.188 5 132169362.238 5     -2558.840          31.000
E01  25388122.672 7 133415472.805 7      1629.848          43.000    25388124.281 7 102227475.670 7      1248.886          44.000
E04  23630009.789 8 124176660.484 8      -449.770          51.000    23630010.492 8  95148342.491 8      -344.641          51.000
E11  25405647.930 6 133507584.901 6     -2714.234          40.000    25405641.617 6 102297996.724 6     -2079.543          37.000
> 2020 05 13 01 07  0.0000000  0 14        .000000000000
G06  22297754.219 8 117175485.504 8     -2694.277          50.000    22297755.188 8  91305541.855 8     -2099.437          50.000
G07  20874313.875 8 109695239.632 8       721.969          51.000    20874311.703 8  85476789.727 8       562.573          51.000
G09  21143225.742 6 111108520.734 6     -1758.668          41.000    21143226.766 6  86578059.431 6     -1370.391          41.000
G30  21861602.992 8 114883558.238 8      2743.973          51.000    21861601.812 8  89519633.978 8      2138.164          51.000
R05  19598434.945 5 104764857.950 5       576.762          32.000    19598435.578 5  81483779.353 5       448.592          31.000
R14  20807373.461 5 110915057.309 5     -1748.336          32.000    20807377.977 5  86267211.404 5     -1359.817          35.000
R15  20201636.023 8 107951469.807 8      2419.492          51.000    20201636.586 7  83962200.915 7      1881.827          46.000
R20  22979527.234 5 122881882.013 5     -3760.324          34.000    22979534.133 7  95574804.861 7     -2924.697          42.000
C05  39791657.773 6 207205603.355 6       -20.227          36.000    39791655.195 6 160224503.741 6       -15.480          39.000
C20  22019730.383 8 114662514.905 8      -586.391          51.000
C23  25396544.656 5 132246465.476 5     -2572.727          32.000
E01  25378893.750 6 133366974.619 6      1612.863          40.000    25378894.719 7 102190314.765 7      1235.729          42.000
E04  23632633.547 8 124190448.866 8      -459.762          51.000    23632634.469 8  95158907.608 8      -352.273          51.000
E11  25421200.164 6 133589319.159 6     -2725.055          37.000    25421194.570 6 102360624.245 6     -2087.876          37.000
> 2020 05 13 01 07 30.0000000  0 15        .000000000000
G02  22426929.391 5 117854315.575 5      -497.844          31.000
G06  22313138.797 8 117256333.694 8     -2701.152          48.000    22313140.367 8  91368540.450 8     -2104.794          48.000
G07  20870205.953 8 109673652.413 8       711.605          51.000    20870203.719 8  85459968.541 8       554.498          51.000
G09  21153256.180 6 111161231.339 6     -1760.875          41.000    21153257.195 7  86619132.626 7     -1372.113          42.000
G30  21845939.164 8 114801242.759 8      2738.227          51.000    21845937.836 8  89455492.083 8      2133.683          51.000
R05  19595196.406 6 104747546.773 6       571.328          37.000    19595198.594 5  81470315.091 5       444.363          31.000
R14  20817249.992 6 110967699.692 6     -1766.715          40.000    20817251.781 5  86308155.502 5     -1374.115          33.000
R15  20188084.367 8 107879053.654 8      2402.605          51.000    20188084.750 8  83905877.283 8      1868.693          48.000
R20  23000616.711 5 122994652.614 5     -3763.094          35.000    23000621.680 7  95662515.301 7     -2926.854          43.000
C05  39791739.688 6 207206029.204 6       -13.566          36.000    39791737.227 6 160224833.813 6       -10.862          39.000
C20  22023104.258 8 114680083.868 8      -590.375          51.000
C23  25411360.398 5 132323611.163 5     -2576.395          35.000
E01  25369688.625 6 133318601.104 6      1606.133          39.000    25369688.336 6 102153249.331 6      1230.539          40.000
E04  23635240.797 8 124204150.090 8      -459.305          51.000    23635241.664 8  95169405.947 8      -351.935          51.000
E11  25436739.781 6 133670983.732 6     -2725.133          38.000    25436737.102 6 102423198.396 6     -2088.167          39.000
> 2020 05 13 01 08  0.0000000  0 15        .000000000000
G02  22429828.719 5 117869544.250 5      -518.891          33.000
G06  22328599.180 7 117337582.918 7     -2716.816          46.000    22328601.547 7  91431851.557 7     -2117.000          46.000
G07  20866195.031 8 109652574.972 8       692.277          51.000    20866192.734 8  85443544.565 8       539.437          51.000
G09  21163337.109 7 111214207.285 7     -1772.320          43.000    21163337.938 7  86660412.574 7     -1381.029          42.000
G30  21830346.102 8 114719300.427 8      2723.305          51.000    21830345.688 8  89391640.914 8      2122.056          51.000
R05  19592027.859 6 104730605.514 6       556.184          36.000    19592030.703 5  81457138.582 5       432.587          32.000
R14  20827268.156 5 111021100.972 5     -1794.336          35.000    20827271.016 6  86349689.768 6     -1395.595          36.000
R15  20174665.609 8 107807350.046 8      2376.383          51.000    20174666.531 8  83850107.822 8      1848.298          49.000
R20  23021762.578 5 123107723.154 5     -3775.730          34.000    23021766.602 7  95750459.039 7     -2936.679          44.000
C05  39791824.844 6 207206472.843 6       -16.762          36.000    39791822.398 6 160225176.867 6       -13.136          39.000
C20  22026538.805 8 114697969.014 8      -603.309          51.000
C23  25426235.867 6 132401065.515 6     -2588.871          36.000
E01  25360557.320 6 133270624.511 6      1590.789          36.000    25360556.977 6 102116487.961 6      1218.524          38.000
E04  23637883.039 8 124218035.110 8      -467.840          51.000    23637883.734 8  95180045.122 8      -358.508          51.000
E11  25452318.508 6 133752847.465 6     -2733.965          41.000    25452317.961 6 102485925.144 6     -2094.850          39.000
> 2020 05 13 01 08 30.0000000  0 16        .000000000000
G02  22432833.070 6 117885332.660 6      -534.527          37.000
G06  22344139.156 7 117419249.629 7     -2727.906          46.000    22344141.188 7  91495487.958 7     -2125.641          46.000
G07  20862284.773 8 109632026.713 8       677.445          51.000    20862282.555 8  85427532.925 8       527.879          51.000
G09  21173472.156 7 111267466.870 7     -1778.848          43.000    21173472.781 7  86701913.567 7     -1386.115          42.000
G30  21814827.781 8 114637752.232 8      2712.898          51.000    21814828.461 8  89328096.841 8      2113.947          50.000
R04  21319408.234 5 114164494.927 5     -2361.633          31.000
R05  19588931.844 5 104714054.821 5       546.074          34.000    19588936.359 5  81444265.789 5       424.721          32.000
R14  20837430.406 6 111075229.261 6     -1817.445          37.000    20837434.422 5  86391826.986 5     -1413.575          34.000
R15  20161384.055 8 107736381.085 8      2354.652          50.000    20161386.078 8  83794909.715 8      1831.396          50.000
R20  23042966.234 5 123221108.122 5     -3783.184          31.000    23042971.062 7  95838647.371 7     -2942.476          45.000
C05  39791916.875 6 207206952.331 6       -15.363          36.000    39791914.484 6 160225547.614 6       -11.711          39.000
C20  22030037.898 8 114716189.731 8      -611.703          51.000
C23  25441174.023 6 132478845.588 6     -2596.922          36.000
E01  25351505.617 5 133223062.332 5      1579.609          34.000    25351505.992 6 102080046.456 6      1210.317          39.000
E04  23640563.844 8 124232123.152 8      -471.680          51.000    23640564.359 8  95190839.846 8      -361.435          51.000
E11  25467938.906 7 133834927.452 7     -2738.133          43.000    25467938.789 6 102548817.604 6     -2098.295          39.000
> 2020 05 13 01 09  0.0000000  0 15        .000000000000
G02  22435930.352 5 117901608.118 5      -559.785          34.000
G06  22359744.906 8 117501259.004 8     -2748.629          48.000    22359745.953 8  91559391.341 8     -2141.789          48.000
G07  20858461.492 8 109611935.547 8       652.633          51.000    20858459.578 8  85411877.483 8       508.548          51.000
G09  21183647.359 7 111320937.323 7     -1795.422          43.000    21183648.328 7  86743578.839 7     -1399.030          43.000
G30  21799371.148 8 114556527.946 8      2692.641          51.000    21799372.281 8  89264805.167 8      2098.162          51.000
R05  19585895.852 5 104697822.633 5       525.895          35.000    19585898.172 4  81431640.825 4       409.035          27.000
R14  20847725.383 6 111130105.366 6     -1850.363          38.000    20847729.539 5  86434508.316 5     -1439.174          33.000
R15  20148226.570 8 107666076.972 8      2322.934          49.000    20148230.250 8  83740228.731 8      1806.723          50.000
R20  23064213.055 5 123334729.901 5     -3800.586          32.000    23064219.719 7  95927019.926 7     -2956.011          45.000
C05  39792002.156 6 207207396.291 6       -23.727          36.000    39791999.758 6 160225890.910 6       -17.966          39.000
C20  22033587.812 8 114734675.070 8      -629.777          51.000
C23  25456159.961 6 132556877.892 6     -2614.395          36.000
E01  25342521.281 6 133175849.869 6      1558.738          38.000    25342523.164 6 102043870.762 6      1194.023          40.000
E04  23643269.594 8 124246342.300 8      -485.547          51.000    23643269.938 8  95201735.024 8      -372.009          51.000
E11  25483586.414 7 133917149.767 7     -2752.633          44.000    25483584.891 6 102611819.065 6     -2109.070          39.000
> 2020 05 13 01 09 30.0000000  0 16        .000000000000
G02  22439139.125 5 117918465.859 5      -568.004          32.000
G06  22375433.953 8 117583704.047 8     -2751.945          49.000    22375434.703 8  91623634.194 8     -2144.373          49.000
G07  20854743.445 8 109592397.592 8       645.500          51.000    20854741.703 8  85396653.108 8       502.987          51.000
G09  21193880.680 7 111374713.643 7     -1794.207          42.000    21193881.547 7  86785482.421 7     -1398.086          43.000
G30  21783994.961 8 114475725.196 8      2689.789          51.000    21783995.188 8  89201841.987 8      2095.940          51.000
R05  19582937.117 5 104682007.578 5       524.188          33.000    19582937.883 4  81419340.220 4       407.698          29.000
R14  20858169.086 6 111185775.720 6     -1865.484          38.000    20858171.312 5  86477807.486 5     -1450.935          31.000
R15  20135212.547 8 107596538.144 8      2308.770          48.000    20135217.234 8  83686142.973 8      1795.710          49.000
R20  23085522.148 5 123448681.348 5     -3800.320          34.000    23085529.492 7  96015648.829 7     -2955.805          44.000
C05  39792098.852 6 207207899.704 6       -14.117          36.000    39792096.438 6 160226280.209 6       -11.146          39.000
C20  22037206.688 8 114753520.468 8      -630.801          51.000
C23  25471211.461 6 132635255.463 6     -2614.867          37.000
E01  25333622.547 7 133129081.380 7      1555.008          43.000    25333625.000 6 102008035.196 6      1191.464          39.000
E04  23646018.555 8 124260788.444 8      -481.844          51.000    23646018.773 8  95212804.149 8      -369.205          51.000
E09  23013023.305 5 120934246.562 5      1648.613          33.000
E11  25499278.438 7 133999608.081 7     -2748.957          42.000    25499275.203 6 102675001.376 6     -2106.143          39.000
> 2020 05 13 01 10  0.0000000  0 14        .000000000000
G06  22391191.406 8 117666508.215 8     -2770.410          50.000    22391192.594 8  91688156.889 8     -2158.761          50.000
G07  20851116.852 8 109573339.442 8       623.004          51.000    20851114.977 8  85381802.589 8       485.458          51.000
G09  21204158.094 7 111428721.130 7     -1808.309          42.000    21204157.922 7  86827566.189 7     -1409.072          42.000
G30  21768685.414 8 114395272.022 8      2671.730          51.000    21768683.523 8  89139151.258 8      2081.868          51.000
R05  19580042.516 5 104666535.659 5       505.621          34.000    19580043.773 5  81407306.601 5       393.258          30.000
R14  20868747.492 5 111242163.013 5     -1896.016          35.000    20868749.172 5  86521664.164 5     -1474.685          32.000
R15  20122328.398 8 107527692.631 8      2278.934          48.000    20122333.750 8  83632596.463 8      1772.504          48.000
R20  23106877.977 5 123562882.684 5     -3814.457          34.000    23106885.750 7  96104472.088 7     -2966.800          44.000
C05  39792192.867 5 207208389.568 5       -20.016          35.000    39792190.508 6 160226658.977 6       -15.710          39.000
C20  22040880.828 8 114772653.174 8      -646.770          51.000
C23  25486314.164 6 132713903.028 6     -2630.051          37.000
E01  25324795.180 7 133082684.569 7      1536.090          44.000    25324796.305 7 101972484.363 7      1177.073          42.000
E04  23648796.742 8 124275387.898 8      -493.445          51.000    23648796.812 8  95223990.735 8      -378.133          51.000
E11  25514999.914 6 134082226.542 6     -2760.812          38.000    25514996.867 6 102738306.411 6     -2115.353          40.000
> 2020 05 13 01 10 30.0000000  0 17        .000000000000
G02  22445826.469 5 117953606.986 5      -589.949          34.000
G06  22406995.648 8 117749558.545 8     -2763.848          50.000    22406997.203 8  91752871.403 8     -2153.648          51.000
G07  20847560.469 8 109554650.467 8       625.418          51.000    20847558.711 8  85367239.756 8       487.339          51.000
G09  21214458.195 6 111482848.996 6     -1797.770          41.000    21214457.688 6  86869743.727 6     -1400.862          41.000
G30  21753421.781 8 114315060.146 8      2678.258          51.000    21753418.375 8  89076648.554 8      2086.954          51.000
R04  21372724.289 4 114449952.501 4     -2383.188          27.000
R05  19577192.016 6 104651296.206 6       512.871          37.000    19577194.641 5  81395453.707 5       398.900          31.000
R14  20879465.805 5 111299292.169 5     -1900.859          32.000    20879441.766 5  86566065.448 5     -1478.449          31.000
R15  20109554.406 8 107459431.429 8      2274.336          50.000    20109559.547 7  83579504.403 7      1768.928          47.000
R20  23128258.805 5 123677216.951 5     -3804.660          34.000    23128266.875 7  96193398.744 7     -2959.180          44.000
C05  39792263.461 6 207208756.752 6        -1.637          36.000    39792261.008 6 160226942.916 6        -1.241          39.000
C20  22044589.438 8 114791964.512 8      -638.145          51.000
C23  25501447.609 6 132792709.534 6     -2621.211          39.000
E01  25316017.227 7 133036550.538 7      1542.016          42.000    25316019.453 7 101937134.980 7      1181.434          44.000
E04  23651583.195 8 124290030.641 8      -480.234          51.000    23651583.094 8  95235210.493 8      -367.984          51.000
E09  22994249.805 5 120835599.120 5      1654.566          34.000
E11  25530729.633 6 134164893.138 6     -2747.961          36.000    25530728.758 6 102801648.313 6     -2105.545          41.000
> 2020 05 13 01 11  0.0000000  0 15        .000000000000
G02  22449309.508 5 117971917.136 5      -623.375          33.000
G06  22422875.188 8 117833004.903 8     -2791.805          51.000    22422876.750 8  91817894.531 8     -2175.432          51.000
G07  20844103.422 8 109536483.445 8       593.195          51.000    20844101.773 8  85353083.649 8       462.230          51.000
G09  21224810.297 7 111537248.988 7     -1821.465          43.000    21224809.914 7  86912133.315 7     -1419.323          43.000
G30  21738233.234 8 114235244.071 8      2650.133          51.000    21738230.445 8  89014454.235 8      2065.042          51.000
R04  21386169.031 5 114521993.037 5     -2408.719          31.000    21386178.047 4  89072666.974 4     -1873.448          26.000
R05  19574415.023 6 104636445.734 6       484.895          37.000    19574418.078 5  81383903.326 5       377.146          30.000
R15  20096919.383 8 107391912.625 8      2234.434          51.000    20096924.273 8  83526989.812 8      1737.893          49.000
R20  23149693.305 5 123791835.255 5     -3829.000          34.000    23149700.594 7  96282546.279 7     -2978.111          43.000
C05  39792339.570 6 207209153.597 6       -17.289          36.000    39792336.992 6 160227249.013 6       -13.236          39.000
C20  22048361.406 8 114811606.199 8      -663.859          51.000
C23  25516640.555 6 132871824.201 6     -2645.820          39.000
E01  25307318.102 7 132990833.449 7      1513.328          43.000    25307321.047 7 101902105.040 7      1159.491          44.000
E04  23654406.961 8 124304869.473 8      -501.527          51.000    23654406.734 8  95246580.494 8      -384.281          51.000
E11  25546497.766 6 134247758.325 6     -2768.898          36.000    25546498.875 6 102865142.403 6     -2121.689          41.000
> 2020 05 13 01 11 30.0000000  0 15        .000000000000
G02  22452907.281 5 117990830.668 5      -638.086          34.000
G06  22438839.766 8 117916899.555 8     -2801.398          49.000    22438841.367 8  91883266.984 8     -2182.908          49.000
G07  20840756.359 8 109518893.987 8       579.168          51.000    20840754.453 8  85339377.578 8       451.300          51.000
G09  21235224.570 7 111591975.481 7     -1827.461          44.000    21235224.227 7  86954777.396 7     -1423.996          44.000
G30  21723130.547 8 114155880.654 8      2640.414          50.000    21723129.242 8  88952612.626 8      2057.466          50.000
R04  21399678.695 5 114594352.326 5     -2415.246          31.000    21399694.477 4  89128946.195 4     -1878.534          26.000
R05  19571720.492 5 104622041.565 5       475.074          35.000    19571723.344 5  81372724.152 5       369.505          30.000
R15  20084434.914 8 107325195.487 8      2213.008          51.000    20084439.250 8  83475098.756 8      1721.228          49.000
R20  23171190.727 5 123906788.714 5     -3834.961          34.000    23171195.891 7  96371954.493 7     -2982.750          42.000
C05  39792431.539 6 207209631.806 6       -14.996          36.000    39792429.055 6 160227619.554 6       -11.478          40.000
C20  22052207.391 8 114831633.231 8      -671.484          51.000
C23  25531903.031 6 132951299.602 6     -2652.711          38.000
E01  25298708.586 6 132945589.721 6      1502.691          40.000    25298710.672 7 101867437.767 7      1151.476          43.000
E04  23657278.562 8 124319959.582 8      -504.688          51.000    23657278.188 8  95258143.047 8      -386.676          51.000
E11  25562314.562 6 134330875.227 6     -2772.559          37.000    25562316.750 6 102928829.404 6     -2124.009          41.000
> 2020 05 13 01 12  0.0000000  0 15        .000000000000
G02  22456628.781 5 118010389.731 5      -656.227          35.000
G06  22454896.789 7 118001282.919 7     -2814.742          46.000    22454898.922 7  91949020.260 7     -2193.306          47.000
G07  20837527.281 8 109501925.103 8       561.379          51.000    20837525.375 8  85326155.059 8       437.438          51.000
G09  21245709.008 7 111647070.992 7     -1836.504          44.000    21245708.703 7  86997708.991 7     -1431.042          43.000
G30  21708122.594 8 114077014.996 8      2626.508          50.000    21708122.562 8  88891158.847 8      2046.626          49.000
R04  21413260.969 5 114667111.135 5     -2425.617          31.000    21413272.461 4  89185511.986 4     -1886.591          26.000
R05  19569117.969 5 104608128.894 5       461.961          35.000    19569121.773 5  81361903.145 5       359.300          31.000
R15  20072109.422 8 107259326.868 8      2187.598          51.000    20072112.469 8  83423867.595 8      1701.465          50.000
R20  23192758.383 5 124022116.978 5     -3844.750          34.000    23192761.344 7  96461654.178 7     -2990.361          42.000
C05                                                                  39792545.312 6 160228087.735 6       -12.620          39.000
C20  22056135.562 8 114852088.945 8      -683.070          51.000
C23  25547243.359 6 133031176.569 6     -2663.133          37.000
E01  25290197.172 6 132900863.986 6      1488.004          37.000    25290198.836 7 101833167.413 7      1140.300          43.000
E04  23660206.328 8 124335344.363 8      -511.754          51.000    23660205.766 8  95269931.385 8      -392.159          51.000
E11  25578187.211 6 134414285.144 6     -2779.363          37.000    25578190.102 6 102992740.946 6     -2129.594          41.000
> 2020 05 13 01 12 30.0000000  0 16        .000000000000
G02  22460415.195 5 118030288.205 5      -672.082          35.000
G04  23918996.594 4 125695167.993 4     -2939.480          29.000
G06  22470988.148 7 118085847.144 7     -2824.824          46.000    22470991.289 7  92014914.520 7     -2201.159          46.000
G07  20834358.203 8 109485271.798 8       546.801          50.000    20834356.586 8  85313178.476 8       426.079          51.000
G09  21256205.375 7 111702229.702 7     -1842.547          43.000    21256205.195 7  87040689.764 7     -1435.751          43.000
G30  21693151.984 8 113998343.792 8      2616.102          51.000    21693152.695 8  88829856.608 8      2038.521          51.000
R04  21426864.500 6 114739958.575 6     -2432.660          38.000
R05  19566548.789 6 104594398.531 6       451.469          36.000    19566552.461 4  81351224.039 4       351.142          28.000
R15  20059884.828 8 107193999.337 8      2165.418          51.000    20059887.398 8  83373057.322 8      1684.217          50.000
R20  23214336.781 5 124137504.907 5     -3850.254          35.000    23214339.469 7  96551400.311 7     -2994.642          43.000
C05  39792630.359 6 207210667.789 6       -14.117          36.000    39792627.734 6 160228419.881 6       -11.007          39.000
C20  22060088.242 8 114872671.486 8      -691.207          51.000
C23  25562602.430 5 133111150.913 5     -2670.375          34.000
E01  25281726.031 6 132856352.711 6      1477.066          38.000    25281728.680 7 101799061.277 7      1131.787          42.000
E04  23663132.109 8 124350718.900 8      -515.383          51.000    23663131.406 8  95281711.867 8      -394.892          51.000
E11  25594057.016 5 134497680.986 5     -2782.426          35.000    25594060.602 6 103056641.684 6     -2132.027          39.000
> 2020 05 13 01 13  0.0000000  0 16        .000000000000
G02  22464304.633 5 118050730.693 5      -692.824          33.000    22464297.305 4  91987540.086 4      -539.863          28.000
G06  22487153.102 8 118170794.798 8     -2839.602          48.000    22487156.891 8  92081107.516 8     -2212.677          48.000
G07  20831288.320 8 109469139.745 8       527.152          51.000    20831286.797 8  85300608.049 8       410.768          51.000
G09  21266752.742 6 111757656.168 6     -1853.719          41.000    21266752.109 7  87083879.177 7     -1444.456          42.000
G30  21678258.062 8 113920074.109 8      2600.480          51.000    21678258.906 8  88768867.256 8      2026.348          51.000
R04  21440526.680 5 114813045.286 5     -2445.012          31.000    21440532.680 4  89299060.314 4     -1901.676          29.000
R05  19564053.492 6 104581060.551 6       436.438          38.000    19564057.242 5  81340849.963 5       339.454          31.000
R14  20935044.914 5 111595553.765 5     -2037.004          33.000    20935040.070 4  86796533.306 4     -1584.336          26.000
R15  20047800.945 8 107129424.698 8      2138.117          51.000    20047803.227 8  83322832.627 8      1662.980          50.000
R20  23235963.867 5 124253156.683 5     -3861.352          34.000    23235967.820 7  96641351.672 7     -3003.273          43.000
C05  39792718.094 6 207211124.927 6       -17.570          36.000    39792715.516 6 160228773.373 6       -13.605          40.000
C20  22064104.453 8 114893584.719 8      -704.406          51.000
C23  25578018.102 5 133191424.016 5     -2683.090          32.000
E01  25273334.578 6 132812262.268 6      1460.465          38.000    25273338.312 6 101765277.651 6      1119.405          39.000
E04  23666094.938 8 124366288.644 8      -524.020          51.000    23666094.219 8  95293641.927 8      -401.551          51.000
E11  25609962.320 5 134581260.185 5     -2791.277          32.000    25609966.531 6 103120687.389 6     -2138.600          36.000
> 2020 05 13 01 13 30.0000000  0 14        .000000000000
G04  23952565.164 5 125871576.406 5     -2935.844          32.000
G06  22503374.773 8 118256038.627 8     -2841.312          50.000    22503378.625 8  92147531.263 8     -2214.010          50.000
G07  20828301.461 8 109453444.083 8       521.016          51.000    20828299.805 8  85288377.671 8       405.986          51.000
G09  21277334.961 7 111813265.140 7     -1851.609          42.000    21277333.516 7  87127210.806 7     -1442.812          43.000
G30  21663424.852 8 113842123.345 8      2598.070          51.000    21663425.555 8  88708126.429 8      2024.470          51.000
R05  19561614.617 5 104568030.591 5       434.543          35.000    19561617.297 4  81330715.491 4       337.975          29.000
R15  20035842.102 8 107065520.057 8      2124.117          51.000    20035843.961 8  83273129.023 8      1652.091          48.000
R20  23257623.625 5 124368981.806 5     -3858.238          34.000    23257628.453 7  96731437.850 7     -3000.852          43.000
C05  39792795.125 6 207211525.078 6        -7.438          36.000    39792792.539 6 160229083.571 6        -5.688          39.000
C20  22068168.219 8 114914745.437 8      -704.477          51.000
C23  25593473.758 5 133271910.182 5     -2681.168          32.000
E01  25265007.828 6 132768509.554 6      1457.973          40.000    25265010.289 5 101731752.885 5      1117.298          35.000
E04  23669078.859 8 124381969.349 8      -519.441          51.000    23669078.094 8  95305657.007 8      -398.014          51.000
E11  25625889.266 5 134664953.135 5     -2786.566          33.000    25625889.914 5 103184838.815 5     -2134.715          32.000
> 2020 05 13 01 14  0.0000000  0 15        .000000000000
G04  23969366.633 6 125959862.164 6     -2942.254          37.000
G06  22519664.547 8 118341639.573 8     -2857.859          51.000    22519667.469 8  92214233.271 8     -2226.903          51.000
G07  20825409.836 8 109438248.796 8       499.648          51.000    20825408.094 8  85276537.176 8       389.336          51.000
G09  21287963.805 7 111869119.591 7     -1864.051          42.000    21287962.258 7  87170733.775 7     -1452.507          42.000
G30  21648664.688 8 113764557.089 8      2580.586          51.000    21648665.094 8  88647685.213 8      2010.849          51.000
R04  21467977.617 5 114960043.478 5     -2457.902          32.000    21467982.398 5  89413383.010 5     -1911.705          32.000
R05  19559246.391 6 104555374.308 6       417.047          38.000    19559246.930 5  81320862.732 5       324.373          32.000
R15  20024020.773 8 107002352.958 8      2094.730          51.000    20024022.883 8  83223999.060 8      1629.235          48.000
R20  23279326.820 5 124485040.753 5     -3871.367          31.000    23279332.258 7  96821705.876 7     -3011.063          42.000
C05  39792873.500 5 207211933.571 5       -12.594          35.000    39792871.016 6 160229399.415 6        -9.506          39.000
C20  22072291.773 8 114936217.286 8      -719.457          51.000
C23  25608982.266 5 133352670.672 5     -2694.762          30.000
E01  25256759.305 7 132725159.909 7      1439.645          44.000    25256758.297 6 101698536.961 6      1103.260          37.000
E04  23672096.078 8 124397824.892 8      -529.996          51.000    23672095.266 8  95317806.057 8      -406.059          51.000
E11  25641850.133 5 134748830.593 5     -2796.160          33.000
> 2020 05 13 01 14 30.0000000  0 14        .000000000000
G04  23986188.469 6 126048262.581 6     -2948.316          36.000
G06  22536031.188 8 118427644.586 8     -2873.586          51.000    22536032.516 8  92281250.135 8     -2239.158          51.000
G07  20822622.961 8 109423603.600 8       478.941          51.000    20822621.391 8  85265125.342 8       373.201          51.000
G09  21298648.578 6 111925268.847 6     -1876.613          38.000    21298647.414 6  87214486.408 6     -1462.296          38.000
G30  21633987.055 8 113687426.917 8      2563.680          50.000    21633987.383 8  88587583.806 8      1997.672          50.000
R05  19556957.641 6 104543143.796 6       400.680          38.000    19556958.859 5  81311350.101 5       311.637          31.000
R14  20969957.789 6 111781750.445 6     -2106.234          36.000
R15  20012347.555 8 106939976.974 8      2066.039          50.000    20012349.953 7  83175484.389 7      1606.919          47.000
R20  23301080.039 5 124601379.468 5     -3882.078          30.000    23301088.555 7  96912191.610 7     -3019.394          42.000
C05  39792962.766 6 207212398.756 6       -16.305          36.000    39792960.398 6 160229759.149 6       -12.692          40.000
C20  22076484.727 8 114958050.063 8      -733.785          51.000
C23  25624552.672 5 133433752.966 5     -2708.543          31.000
E01  25248597.508 7 132682264.332 7      1422.352          42.000    25248595.102 6 101665669.001 6      1089.875          38.000
E04  23675156.102 8 124413905.295 8      -539.816          51.000    23675155.320 8  95330127.403 8      -413.602          51.000
> 2020 05 13 01 15  0.0000000  0 13        .000000000000
G04  24003019.102 5 126136710.016 5     -2948.680          35.000
G06  22552461.117 8 118513983.937 8     -2882.949          51.000    22552461.078 8  92348527.519 8     -2246.457          50.000
G07  20819928.062 8 109409441.685 8       464.609          51.000    20819926.648 8  85254090.092 8       362.033          51.000
G09  21309376.586 6 111981645.075 6     -1882.535          41.000    21309375.469 6  87258415.910 6     -1466.911          41.000
G30  21619379.820 8 113610667.725 8      2552.895          51.000    21619380.398 8  88527771.453 8      1989.268          51.000
R05  19554736.984 6 104531272.303 6       390.398          41.000    19554737.594 5  81302116.710 5       303.643          32.000
R15  20000809.875 8 106878326.859 8      2043.492          49.000    20000812.859 7  83127534.328 7      1589.383          46.000
R20  23322874.016 5 124717925.663 5     -3888.008          33.000    23322884.227 7  97002838.636 7     -3024.006          42.000
C05  39793050.273 6 207212854.498 6       -14.258          36.000    39793047.938 6 160230111.556 6       -11.010          40.000
C20  22080734.289 8 114980177.892 8      -742.008          51.000
C23  25640171.914 5 133515088.645 5     -2714.633          31.000
E01  25240508.898 6 132639757.269 6      1410.891          40.000    25240506.312 6 101633098.730 6      1081.096          37.000
E04  23678246.188 8 124430143.835 8      -543.387          51.000    23678245.523 8  95342569.916 8      -416.346          51.000
> 2020 05 13 01 15 30.0000000  0 14        .000000000000
G04  24019858.953 6 126225202.830 6     -2951.141          37.000
G06  22568953.586 8 118600653.651 8     -2895.371          50.000    22568953.289 8  92416062.315 8     -2256.133          50.000
G07  20817324.875 8 109395761.463 8       447.168          51.000    20817323.461 8  85243430.194 8       348.446          51.000
