     3.02           OBSERVATION DATA    M (MIXED)           RINEX VERSION / TYPE
SAVERINEX           SC600               20200515 145930 LCL PGM / RUN BY / DATE
       G = GPS       R = GLONASS       C = COMPASS          COMMENT
       S = SBAS      J = QZSS          E = GALILEO          COMMENT
BEAN                                                        MARKER NAME
1                                                           MARKER NUMBER
GEODETIC                                                    MARKER TYPE
Unige DICCA         GTER                                    OBSERVER / AGENCY
SC60291900056       SC600               2.12(191202)        REC # / TYPE / VERS
                    HEMA45          NONE                    ANT # / TYPE
  4509407.8091   693652.4678  4442337.6214                  APPROX POSITION XYZ
        0.0000        0.0000        0.0000                  ANTENNA: DELTA H/E/N
G    8 C1C L1C D1C S1C C2Y L2Y D2Y S2Y                      SYS / # / OBS TYPES
R    8 C1C L1C D1C S1C C2P L2P D2P S2P                      SYS / # / OBS TYPES
C    8 C1I L1I D1I S1I C7I L7I D7I S7I                      SYS / # / OBS TYPES
E    8 C1C L1C D1C S1C C7Q L7Q D7Q S7Q                      SYS / # / OBS TYPES
DBHZ                                                        COMMENT
     30.000                                                 INTERVAL
  2020    05    15    12    00    0.0000000     GPS         TIME OF FIRST OBS
  2020    05    15    12    59   30.0000000     GPS         TIME OF LAST OBS
     0                                                      RCV CLOCK OFFS APPL
G L1C  0.00000                                              SYS / PHASE SHIFT
G L2Y  0.00000                                              SYS / PHASE SHIFT
R L1C  0.00000                                              SYS / PHASE SHIFT
R L2P  0.25000                                              SYS / PHASE SHIFT
C L1I  0.00000                                              SYS / PHASE SHIFT
C L7I  0.00000                                              SYS / PHASE SHIFT
E L1C  0.50000                                              SYS / PHASE SHIFT
E L7Q -0.25000                                              SYS / PHASE SHIFT
 14 R01  1 R02 -4 R03  5 R08  6 R10 -5 R11  0 R12 -1 R13 -2 GLONASS SLOT / FRQ #
    R14 -7 R15  0 R17  4 R18 -3 R22 -3 R23  3               GLONASS SLOT / FRQ #
 C1C   71.950 C2C   71.950 C2P   71.950                     GLONASS COD/PHS/BIS
    18                                                      LEAP SECONDS
*** Above antenna height is from mark to ANTENNA BOTTOM.    COMMENT
    17     4        0.0000        ANT MEASURE TYPE/HEIGT    COMMENT
    0.0000    0.0000    0.0458    0.0405    0.0000          COMMENT
                    BASE STATION                            COMMENT
                                                            END OF HEADER
> 2020 05 15 12 00  0.0000000  0 15        .000000000000
G18  21456960.102 8 112757158.674 8      2623.988          50.000    21456960.367 7  87862714.425 7      2044.666          47.000
G21  21589205.812 8 113452045.778 8      2273.168          49.000    21589205.492 8  88404246.717 8      1771.300          48.000
G25  22152176.477 6 116410449.317 6     -2675.496          41.000    22152178.234 6  90709468.422 6     -2084.802          41.000
G29  20676210.086 8 108654220.639 8     -1422.488          51.000    20676208.977 8  84665639.228 8     -1108.432          51.000
G31  21187697.555 7 111342088.779 7      -637.555          42.000    21187694.961 6  86760059.891 6      -496.796          41.000
R14  19601494.719 8 104486994.178 8     -1858.105          50.000    19601499.516 8  81267686.601 8     -1445.190          51.000
R17  19650248.781 8 105152505.758 8      1806.984          51.000    19650248.805 7  81785285.099 7      1405.435          44.000
R24  19824488.867 7 106010501.893 7     -2149.211          43.000    19824492.070 6  82452588.431 6     -1671.605          37.000
C05  39641353.195 5 206422927.628 5        24.496          35.000    39641351.289 6 159619292.866 6        19.096          36.000
C29  21870172.664 8 113883716.280 8      1188.719          51.000
C30  22374068.430 8 116507712.447 8     -1814.238          51.000
E13  23567138.414 8 123846142.942 8      -804.852          51.000    23567140.430 8  94895109.141 8      -616.731          51.000
E21  23651391.734 8 124288891.976 8      -864.820          51.000    23651394.055 8  95234361.719 8      -662.666          51.000
E26  23388343.867 8 122906602.233 8      2052.129          51.000    23388348.719 8  94175154.753 8      1572.354          51.000
E27  26851747.203 7 141106865.781 7     -2648.980          43.000    26851756.367 7 108120847.328 7     -2029.864          46.000
> 2020 05 15 12 00 30.0000000  0 16        .000000000000
G18  21442046.734 8 112678788.075 8      2608.012          50.000    21442046.391 7  87801646.429 7      2032.217          47.000
G21  21576294.117 8 113384197.404 8      2257.379          48.000    21576294.656 8  88351377.869 8      1758.997          48.000
G25  22167501.383 7 116490985.638 7     -2686.164          42.000    22167502.531 7  90772223.971 7     -2093.115          42.000
G29  20684387.211 8 108697192.152 8     -1434.965          51.000    20684385.938 8  84699123.534 8     -1118.154          51.000
G31  21191417.789 7 111361639.397 7      -658.508          42.000    21191416.242 7  86775294.089 7      -513.126          42.000
R13  23544236.031 4 125724909.531 4     -4205.621          29.000    23544244.898 4  97786074.019 4     -3271.039          26.000
R14  19612039.484 8 104543201.286 8     -1881.602          51.000    19612044.164 8  81311403.254 8     -1463.468          51.000
R17  19640200.984 8 105098736.781 8      1784.988          51.000    19640201.109 7  81743464.782 7      1388.324          45.000
R24  19836618.680 7 106075364.935 7     -2167.570          43.000    19836621.438 5  82503037.425 5     -1685.894          35.000
C05  39641237.438 5 206422325.073 5        22.551          35.000    39641235.289 6 159618826.201 6        17.528          37.000
C29  21863383.992 8 113848364.938 8      1175.246          51.000
C30  22384571.164 8 116562402.028 8     -1824.500          51.000
E13  23571793.906 8 123870606.941 8      -818.785          51.000    23571795.562 8  94913854.283 8      -627.378          51.000
E21  23656384.477 8 124315128.138 8      -876.969          51.000    23656386.602 8  95254464.753 8      -671.969          51.000
E26  23376684.125 8 122845327.562 8      2040.066          51.000    23376687.859 8  94128204.049 8      1563.183          51.000
E27  26866910.625 7 141186544.825 7     -2655.586          47.000    26866919.133 8 108181900.069 8     -2034.788          48.000
> 2020 05 15 12 01  0.0000000  0 16        .000000000000
G18  21427196.578 8 112600749.587 8      2594.648          50.000    21427195.984 8  87740837.218 8      2021.804          48.000
G21  21563444.953 8 113316675.620 8      2244.176          49.000    21563445.883 8  88298763.472 8      1748.708          49.000
G25  22182858.477 7 116571685.809 7     -2693.891          42.000    22182858.820 7  90835107.205 7     -2099.136          42.000
G29  20692606.695 8 108740386.334 8     -1444.535          51.000    20692605.648 8  84732781.339 8     -1125.612          51.000
G31  21195229.250 7 111381666.437 7      -676.129          43.000    21195227.852 7  86790899.549 7      -526.857          43.000
R13  23567873.969 5 125851135.873 5     -4209.703          30.000    23567881.000 4  97884230.665 4     -3274.217          29.000
R14  19622686.781 8 104599955.861 8     -1901.961          51.000    19622691.477 8  81355545.682 8     -1479.303          50.000
R17  19630247.219 8 105045471.384 8      1766.039          51.000    19630247.562 7  81702036.142 7      1373.586          46.000
R24  19848824.008 6 106140630.938 6     -2183.223          39.000    19848825.234 6  82553799.874 6     -1698.059          37.000
C05  39641103.820 5 206421628.785 5        23.656          35.000    39641101.609 6 159618287.765 6        18.347          37.000
C29  21856644.312 8 113813268.681 8      1164.648          51.000
C30  22395104.109 8 116617249.475 8     -1831.852          51.000
E13  23576499.852 8 123895335.806 8      -829.688          51.000    23576501.352 8  94932802.382 8      -635.750          51.000
E21  23661417.914 8 124341578.182 8      -886.258          51.000    23661419.984 8  95274731.665 8      -679.072          51.000
E26  23365063.633 8 122784260.986 8      2031.047          51.000    23365066.148 8  94081412.797 8      1556.254          51.000
E27  26882082.719 7 141266267.224 7     -2659.109          47.000    26882090.000 7 108242986.004 7     -2037.553          47.000
> 2020 05 15 12 01 30.0000000  0 15        .000000000000
G18  21412429.992 8 112523151.247 8      2579.320          49.000    21412429.656 8  87680370.981 8      2009.860          48.000
G21  21550678.906 8 113249587.695 8      2228.930          50.000    21550679.469 8  88246487.186 8      1736.831          48.000
G25  22198266.445 6 116652654.923 6     -2703.383          40.000    22198266.461 6  90898199.915 6     -2106.538          40.000
G29  20700888.422 8 108783907.584 8     -1456.164          51.000    20700887.648 8  84766694.006 8     -1134.673          51.000
G31  21199151.602 7 111402274.921 7      -696.621          46.000    21199149.648 7  86806958.095 7      -542.819          46.000
R14  19633456.758 8 104657364.251 8     -1924.496          51.000    19633461.242 8  81400196.626 8     -1496.833          51.000
R17  19620407.617 8 104992817.798 8      1744.965          50.000    19620408.688 7  81661083.369 7      1357.195          47.000
R24  19861123.680 7 106206404.738 7     -2200.820          43.000    19861126.594 6  82604957.264 6     -1711.752          38.000
C05  39640972.453 5 206420944.645 5        22.613          35.000    39640970.250 6 159617758.749 6        17.568          37.000
C29  21849973.688 8 113778532.272 8      1151.859          51.000
C30  22405687.203 8 116672358.114 8     -1841.270          51.000
E13  23581276.070 8 123920434.274 8      -842.793          51.000    23581277.516 8  94952033.676 8      -645.782          51.000
E21  23666512.281 8 124368348.154 8      -897.684          51.000    23666514.727 8  95295243.708 8      -687.865          51.000
E26  23353502.562 8 122723509.078 8      2019.715          51.000    23353504.438 8  94034862.655 8      1547.628          51.000
E27  26897283.008 8 141346138.125 8     -2664.766          48.000    26897289.234 8 108304185.721 8     -2041.920          48.000
> 2020 05 15 12 02  0.0000000  0 15        .000000000000
G18  21397745.141 8 112445982.226 8      2565.324          50.000    21397745.297 8  87620239.274 8      1998.951          48.000
G21  21537993.492 8 113182922.559 8      2215.316          51.000    21537993.477 7  88194540.355 7      1726.221          47.000
G25  22213721.977 6 116733879.027 6     -2711.609          37.000    22213723.203 6  90961491.403 6     -2112.936          36.000
G29  20709229.656 8 108827741.461 8     -1466.070          51.000    20709228.906 8  84800850.297 8     -1142.392          51.000
G31  21203181.758 7 111423451.472 7      -715.062          44.000    21203179.352 7  86823459.350 7      -557.189          44.000
R14  19644346.430 8 104715411.836 8     -1945.312          51.000    19644350.742 8  81445344.695 8     -1513.024          50.000
R17  19610679.477 8 104940763.487 8      1725.410          50.000    19610681.633 7  81620596.697 7      1341.986          46.000
R24  19873516.328 6 106272669.308 6     -2217.023          37.000    19873518.203 6  82656496.325 6     -1724.349          38.000
C05  39640841.039 5 206420260.770 5        22.727          35.000    39640838.602 6 159617229.174 6        17.697          37.000
C29  21843369.719 8 113744142.735 8      1140.711          51.000
C30  22416317.664 8 116727713.467 8     -1849.062          51.000
E13  23586119.758 8 123945888.136 8      -854.180          51.000    23586120.922 8  94971537.285 8      -654.504          51.000
E21  23671664.891 8 124395425.247 8      -907.496          51.000    23671667.602 8  95315991.070 8      -695.339          51.000
E26  23341998.961 8 122663059.582 8      2010.105          51.000    23342000.750 8  93988544.225 8      1540.250          51.000
E27  26912508.273 7 141426143.749 7     -2668.777          46.000    26912514.133 8 108365488.650 8     -2044.979          49.000
> 2020 05 15 12 02 30.0000000  0 15        .000000000000
G18  21383146.047 8 112369264.004 8      2550.207          50.000    21383146.727 8  87560458.838 8      1987.174          48.000
G21  21525392.477 8 113116701.232 8      2200.488          51.000    21525391.867 7  88142939.349 7      1714.666          47.000
G25  22229229.070 6 116815376.498 6     -2721.129          36.000    22229232.492 6  91024995.996 6     -2120.360          36.000
G29  20717633.844 8 108871905.636 8     -1477.129          51.000    20717632.969 8  84835263.928 8     -1151.010          51.000
G31  21207322.633 7 111445214.796 7      -734.613          42.000    21207320.602 7  86840417.766 7      -572.426          42.000
R14  19655358.984 8 104774117.112 8     -1967.316          51.000    19655363.242 8  81491004.315 8     -1530.135          48.000
R17  19601067.602 8 104889328.415 8      1704.746          51.000    19601069.875 7  81580591.637 7      1325.914          47.000
R24  19886002.430 7 106339441.154 7     -2233.641          42.000    19886005.219 6  82708430.025 6     -1737.276          39.000
C05  39640713.102 5 206419594.159 5        22.410          35.000    39640710.547 6 159616713.701 6        17.383          37.000
C29  21836836.078 8 113710119.131 8      1128.504          51.000
C30  22426998.656 8 116783333.147 8     -1857.891          51.000
E13  23591034.461 8 123971715.545 8      -866.602          51.000    23591035.508 8  94991327.115 8      -664.043          51.000
E21  23676879.633 8 124422829.023 8      -918.418          51.000    23676882.500 8  95336988.754 8      -703.717          51.000
E26  23330556.672 8 122602932.523 8      1999.293          51.000    23330559.000 8  93942472.863 8      1531.941          51.000
E27  26927762.453 7 141506302.718 7     -2673.953          44.000    26927768.102 8 108426909.106 8     -2048.918          48.000
> 2020 05 15 12 03  0.0000000  0 16        .000000000000
G18  21368618.430 8 112292921.628 8      2542.902          50.000    21368619.547 8  87500971.274 8      1981.482          48.000
G21  21512861.086 8 113050847.324 8      2193.348          51.000    21512860.188 7  88091624.635 7      1709.105          47.000
G25  22244775.078 6 116897069.684 6     -2722.434          41.000    22244778.023 6  91088652.982 6     -2121.380          41.000
G29  20726086.016 8 108916321.822 8     -1480.367          51.000    20726085.039 8  84869873.926 8     -1153.533          51.000
G31  21211560.578 7 111467486.829 7      -746.449          45.000    21211558.703 7  86857772.619 7      -581.649          44.000
R14  19666479.992 8 104833400.559 8     -1981.348          50.000    19666483.891 8  81537113.669 8     -1541.048          48.000
R17  19591556.805 8 104838434.719 8      1691.840          51.000    19591559.008 7  81541007.659 7      1315.878          47.000
R23  22740079.633 5 121644054.356 5     -3965.746          34.000
R24  19898569.227 6 106406638.840 6     -2242.844          38.000    19898570.789 6  82760694.834 6     -1744.431          39.000
C05  39640573.953 5 206418871.008 5        29.551          35.000    39640571.414 6 159616153.376 6        22.603          37.000
C29  21830358.000 8 113676384.980 8      1123.930          51.000
C30  22437715.516 8 116839139.213 8     -1858.992          51.000
E13  23596005.359 8 123997838.296 8      -871.289          51.000    23596006.719 8  95011343.247 8      -667.614          51.000
E21  23682141.758 8 124450482.544 8      -921.582          51.000    23682144.875 8  95358177.808 8      -706.159          51.000
E26  23319161.047 8 122543051.471 8      1996.320          51.000    23319164.680 8  93896590.002 8      1529.672          51.000
E27  26943029.867 7 141586537.310 7     -2671.402          44.000    26943036.484 8 108488387.454 8     -2046.928          48.000
> 2020 05 15 12 03 30.0000000  0 16        .000000000000
G18  21354173.859 8 112217014.742 8      2520.809          51.000    21354175.109 7  87441823.087 7      1964.269          47.000
G21  21500410.531 8 112985420.008 8      2171.742          51.000    21500409.672 7  88040642.323 7      1692.267          47.000
G25  22260369.727 7 116979015.044 7     -2737.871          43.000    22260370.695 7  91152506.443 7     -2133.409          43.000
G29  20734596.648 8 108961045.476 8     -1497.918          51.000    20734595.531 8  84904723.525 8     -1167.206          51.000
G31  21215906.445 7 111490324.246 7      -772.691          46.000    21215904.688 7  86875568.023 7      -602.097          46.000
R14  19677720.523 8 104893319.457 8     -2009.902          50.000    19677724.312 8  81583717.247 8     -1563.257          48.000
R17  19582158.070 8 104788141.215 8      1664.301          50.000    19582160.039 7  81501890.540 7      1294.459          47.000
R23  22762358.695 5 121763229.565 5     -3975.539          33.000    22762363.977 4  94704785.014 4     -3092.086          25.000
R24  19911224.789 6 106474317.293 6     -2266.008          40.000    19911227.984 6  82813333.709 6     -1762.447          40.000
C05  39640434.414 6 206418143.763 6        21.574          36.000    39640432.070 6 159615592.143 6        17.148          37.000
C29  21823946.211 8 113642997.079 8      1105.152          51.000
C30  22448479.125 8 116895187.091 8     -1874.379          51.000
E13  23601043.297 8 124024312.644 8      -890.418          51.000    23601044.906 8  95031628.802 8      -682.235          51.000
E21  23687462.109 8 124478443.466 8      -939.219          51.000    23687466.125 8  95379602.387 8      -719.640          51.000
E26  23307823.484 8 122483474.651 8      1978.699          50.000    23307828.641 8  93850940.249 8      1516.197          51.000
E27  26958322.938 7 141666904.241 7     -2683.172          45.000    26958329.812 7 108549967.276 7     -2055.916          47.000
> 2020 05 15 12 04  0.0000000  0 16        .000000000000
G18  21339826.711 8 112141618.634 8      2506.602          51.000    21339827.547 7  87383072.915 7      1953.196          46.000
G21  21488055.312 8 112920494.193 8      2157.648          51.000    21488054.688 8  87990050.801 8      1681.288          48.000
G25  22276026.164 7 117061284.847 7     -2745.777          42.000    22276026.859 7  91216612.667 7     -2139.570          42.000
G29  20743179.492 8 109006148.940 8     -1507.898          51.000    20743178.125 8  84939869.069 8     -1174.986          51.000
G31  21220373.891 7 111513799.616 7      -791.312          47.000    21220372.180 7  86893860.505 7      -616.607          47.000
R14  19689094.438 8 104953946.967 8     -2030.793          51.000    19689097.188 7  81630871.944 7     -1579.506          47.000
R17  19572885.320 8 104738523.030 8      1644.609          50.000    19572887.227 7  81463298.631 7      1279.138          46.000
R23  22784662.727 5 121882556.046 5     -3977.559          31.000    22784671.047 4  94797596.423 4     -3093.660          25.000
R24  19923984.602 6 106542547.979 6     -2281.453          41.000    19923987.008 6  82866401.970 6     -1774.467          39.000
C05  39640308.641 5 206417488.251 5        22.414          35.000    39640306.453 6 159615086.061 6        17.184          37.000
C29  21817614.609 8 113610027.851 8      1093.902          50.000
C30  22459302.695 8 116951547.738 8     -1881.938          51.000
E13  23606161.750 8 124051210.617 8      -901.793          51.000    23606163.344 8  95052238.943 8      -690.978          51.000
E21  23692854.953 8 124506785.207 8      -949.203          51.000    23692859.688 8  95401318.766 8      -727.300          51.000
E26  23296558.227 8 122424275.971 8      1968.906          50.000    23296564.500 8  93805580.227 8      1508.616          51.000
E27  26973654.875 7 141747476.074 7     -2687.227          47.000    26973662.250 7 108611704.049 7     -2059.038          47.000
> 2020 05 15 12 04 30.0000000  0 15        .000000000000
G18  21325563.023 8 112066661.142 8      2492.188          51.000    21325562.766 7  87324664.527 7      1941.964          44.000
G21  21475781.898 8 112855997.159 8      2143.590          51.000    21475781.422 8  87939793.396 8      1670.330          48.000
G25  22291729.891 7 117143803.983 7     -2754.148          42.000    22291729.531 6  91280913.127 6     -2146.093          41.000
G29  20751820.219 8 109051556.442 8     -1517.785          51.000    20751818.703 8  84975251.530 8     -1182.690          51.000
G31  21224948.328 7 111537837.677 7      -809.688          47.000    21224946.680 7  86912591.440 7      -630.925          46.000
R14  19700587.172 8 105015206.137 8     -2051.605          51.000    19700588.789 7  81678517.941 7     -1595.693          47.000
R17  19563724.859 8 104689504.925 8      1624.746          49.000    19563726.477 7  81425173.401 7      1263.691          46.000
R24  19936833.078 6 106611251.991 6     -2297.215          41.000    19936834.859 6  82919838.416 6     -1786.723          41.000
C05  39640182.539 6 206416831.360 6        22.793          36.000    39640180.359 6 159614578.090 6        17.903          37.000
C29  21811348.828 8 113577403.546 8      1082.625          49.000
C30  22470171.719 8 117008146.030 8     -1889.758          51.000
E13  23611346.375 8 124078456.739 8      -913.094          51.000    23611348.000 8  95073115.828 8      -699.667          51.000
E21  23698306.414 8 124535433.610 8      -959.227          51.000    23698311.352 8  95423270.124 8      -734.947          51.000
E26  23285351.133 8 122365381.750 8      1958.973          50.000    23285357.812 8  93760453.476 8      1501.046          51.000
E27  26989012.320 8 141828177.687 8     -2691.344          48.000    26989018.664 7 108673540.287 7     -2062.109          44.000
> 2020 05 15 12 05  0.0000000  0 16        .000000000000
G18  21311388.688 8 111992174.655 8      2481.953          51.000    21311387.758 7  87266623.145 7      1933.989          46.000
G21  21463596.320 8 112791960.539 8      2133.805          51.000    21463595.875 8  87889894.777 8      1662.705          49.000
G25  22307485.812 5 117226601.522 5     -2757.863          34.000    22307484.359 5  91345430.709 5     -2148.981          35.000
G29  20760524.289 8 109097296.584 8     -1523.301          51.000    20760522.859 8  85010893.201 8     -1186.988          51.000
G31  21229634.930 7 111562467.857 7      -824.000          45.000    21229633.539 7  86931783.762 7      -642.081          45.000
R14  19712203.266 8 105077126.664 8     -2067.918          51.000    19712205.031 7  81726678.296 7     -1608.384          47.000
R17  19554682.422 8 104641117.904 8      1609.488          49.000    19554683.414 7  81387539.064 7      1251.824          45.000
R23  22829323.281 5 122121447.382 5     -3978.051          30.000
R24  19949774.906 6 106680456.705 6     -2308.230          41.000    19949777.016 6  82973664.292 6     -1795.290          40.000
C05  39640061.758 6 206416203.158 6        27.211          36.000    39640059.586 6 159614091.550 6        20.984          37.000
C29  21805154.820 8 113545153.953 8      1075.734          49.000
C30  22481091.867 8 117065010.292 8     -1893.008          51.000
E13  23616602.953 8 124106080.020 8      -920.059          51.000    23616604.859 8  95094281.707 8      -704.908          51.000
E21  23703822.172 8 124564419.064 8      -964.773          51.000    23703827.008 8  95445479.754 8      -739.197          51.000
E26  23274207.977 8 122306822.896 8      1953.418          50.000    23274214.469 8  93715583.722 8      1496.760          51.000
E27  27004399.969 8 141909038.719 8     -2691.031          49.000    27004404.617 7 108735498.663 7     -2061.908          43.000
> 2020 05 15 12 05 30.0000000  0 15        .000000000000
G18  21297283.812 8 111918054.309 8      2461.801          51.000    21297283.203 7  87208867.055 7      1918.286          46.000
G21  21451478.266 8 112728278.895 8      2114.000          51.000    21451477.773 8  87840272.745 8      1647.273          49.000
G29  20769271.031 8 109143260.932 8     -1538.586          51.000    20769269.734 8  85046709.574 8     -1198.895          51.000
G31  21234413.672 7 111587582.482 7      -847.820          46.000    21234412.539 7  86951353.592 7      -660.639          46.000
R14  19723922.086 8 105139598.719 8     -2094.371          48.000    19723924.805 7  81775267.634 7     -1628.955          47.000
R17  19545738.039 8 104593253.613 8      1583.930          50.000    19545738.492 7  81350311.294 7      1231.945          46.000
R23  22851661.719 4 122240935.497 4     -3985.645          28.000
R24  19962789.031 6 106750050.158 6     -2329.000          40.000    19962791.727 6  83027792.562 6     -1811.441          40.000
C05  39639925.828 5 206415495.685 5        22.223          35.000    39639923.781 6 159613544.500 6        17.045          37.000
C29  21799012.562 8 113513173.039 8      1058.941          48.000
C30  22492042.445 8 117122033.162 8     -1906.078          51.000
E13  23621910.695 8 124133972.384 8      -936.988          51.000    23621912.812 8  95115653.803 8      -717.973          51.000
E21  23709381.922 8 124593634.891 8      -980.539          51.000    23709386.445 8  95467865.901 8      -751.343          51.000
E26  23263108.453 8 122248493.223 8      1937.609          51.000    23263114.281 8  93670889.578 8      1484.710          51.000
E27  27019797.773 8 141989951.473 8     -2700.766          49.000    27019800.273 7 108797496.647 7     -2069.361          43.000
> 2020 05 15 12 06  0.0000000  0 16        .000000000000
G18  21283272.195 8 111844424.267 8      2447.152          51.000    21283272.227 7  87151493.007 7      1906.872          47.000
G21  21439451.094 8 112665075.922 8      2100.102          51.000    21439450.570 8  87791023.687 8      1636.443          48.000
G25  22339116.016 6 117392855.405 6     -2778.590          39.000    22339116.953 6  91474939.765 6     -2165.138          39.000
G29  20778083.414 8 109189570.206 8     -1548.023          51.000    20778082.195 8  85082794.725 8     -1206.252          51.000
G31  21239307.852 7 111613302.794 7      -866.023          47.000    21239306.852 7  86971395.381 7      -674.823          47.000
R14  19735766.375 7 105202744.362 7     -2114.750          47.000    19735770.625 7  81824380.944 7     -1644.803          46.000
R17  19536915.070 8 104546036.474 8      1564.426          51.000    19536915.578 7  81313586.861 7      1216.776          47.000
R23  22874022.328 4 122360534.073 4     -3987.270          29.000
R24  19975898.227 7 106820153.327 7     -2344.098          42.000    19975901.859 6  83082317.283 6     -1823.187          38.000
C05  39639798.172 5 206414829.781 5        22.527          35.000    39639796.102 6 159613030.332 6        17.646          37.000
C29  21792945.500 8 113481581.606 8      1047.770          49.000
C30  22503046.406 8 117179334.007 8     -1913.402          51.000
E13  23627292.703 8 124162254.687 8      -948.008          51.000    23627294.414 8  95137324.663 8      -726.351          51.000
E21  23715009.055 8 124623203.228 8      -990.172          51.000    23715012.828 8  95490522.145 8      -758.691          51.000
E26  23252075.883 8 122190515.395 8      1928.078          51.000    23252080.711 8  93626465.037 8      1477.368          51.000
E27  27035228.516 8 142071037.363 8     -2704.430          50.000    27035228.766 7 108859627.217 7     -2072.207          43.000
> 2020 05 15 12 06 30.0000000  0 15        .000000000000
G18  21269354.344 8 111771287.170 8      2421.316          49.000    21269355.180 7  87094503.051 7      1886.737          47.000
G21  21427514.977 8 112602353.373 8      2074.355          50.000    21427514.531 8  87742148.956 8      1616.381          48.000
G25  22355017.266 7 117476407.538 7     -2798.258          43.000    22355018.594 7  91540045.240 7     -2180.464          42.000
G29  20786961.297 8 109236223.530 8     -1569.254          51.000    20786960.148 8  85119147.963 8     -1222.795          51.000
G31  21244317.594 8 111639628.461 8      -895.879          48.000    21244316.461 8  86991908.888 8      -698.091          48.000
R14  19747738.539 8 105266563.192 8     -2146.957          50.000    19747742.711 7  81874017.830 7     -1669.859          46.000
R17  19528212.891 8 104499467.613 8      1533.023          50.000    19528214.156 7  81277366.635 7      1192.352          47.000
R24  19989102.430 7 106890763.508 7     -2370.582          44.000    19989106.078 6  83137236.313 6     -1843.789          36.000
C05  39639678.805 5 206414209.005 5        11.633          35.000    39639676.781 6 159612549.533 6         9.119          37.000
C29  21786954.031 8 113450380.053 8      1025.293          50.000
C30  22514103.688 8 117236911.859 8     -1932.121          51.000
E13  23632748.883 8 124190926.296 8      -970.562          51.000    23632750.453 8  95159293.824 8      -743.696          51.000
E21  23720703.414 8 124653124.856 8     -1011.668          51.000    23720706.484 8  95513449.101 8      -775.183          51.000
E26  23241110.352 8 122132890.682 8      1906.488          51.000    23241114.133 8  93582311.068 8      1460.816          51.000
E27  27050692.312 8 142152296.233 8     -2719.914          50.000    27050691.375 7 108921890.391 7     -2084.075          43.000
> 2020 05 15 12 07  0.0000000  0 15        .000000000000
G18  21255525.672 7 111698619.998 7      2418.523          47.000    21255527.461 7  87037879.283 7      1884.564          47.000
G21  21415665.633 8 112540087.497 8      2072.133          50.000    21415665.211 7  87693630.067 7      1614.649          46.000
G25  22370967.445 7 117560225.431 7     -2794.012          42.000    22370968.797 6  91605357.755 6     -2177.155          41.000
G29  20795899.594 8 109283194.428 8     -1566.820          51.000    20795898.500 8  85155748.666 8     -1220.899          51.000
G31  21249437.594 8 111666533.498 8      -902.324          48.000    21249436.336 8  87012873.826 8      -703.110          48.000
R14  19759833.055 8 105331028.318 8     -2155.387          51.000    19759836.406 7  81924157.332 7     -1676.415          47.000
R17  19519626.547 8 104453521.686 8      1525.355          50.000    19519628.469 7  81241630.914 7      1186.388          47.000
R24  20002396.938 7 106961851.968 7     -2373.328          44.000    20002400.125 5  83192527.295 5     -1845.922          35.000
C05  39639562.961 6 206413605.533 6        24.094          36.000    39639560.836 6 159612082.919 6        18.582          37.000
C29  21781032.891 8 113419543.385 8      1025.820          51.000
C30  22525209.125 8 117294740.400 8     -1927.680          51.000
E13  23638273.930 8 124219960.914 8      -969.656          51.000    23638275.984 8  95181541.150 8      -742.929          51.000
E21  23726460.031 8 124683374.885 8     -1009.598          51.000    23726462.734 8  95536627.675 8      -773.585          51.000
E26  23230206.953 8 122075594.617 8      1908.590          49.000    23230210.234 8  93538408.914 8      1462.435          51.000
E27  27066183.766 8 142233702.298 8     -2711.730          50.000    27066183.820 7 108984266.339 7     -2077.790          45.000
> 2020 05 15 12 07 30.0000000  0 15        .000000000000
G18  21241768.172 7 111626326.668 7      2402.066          47.000    21241770.820 7  86981546.826 7      1871.740          47.000
G21  21403884.953 8 112478181.560 8      2055.945          50.000    21403884.414 7  87645391.679 7      1602.038          46.000
G25  22386949.242 7 117644209.973 7     -2803.836          42.000    22386950.398 7  91670800.204 7     -2184.807          42.000
G29  20804879.383 8 109330383.335 8     -1578.227          51.000    20804878.312 8  85192519.250 8     -1229.787          51.000
G31  21254648.938 8 111693918.966 8      -922.602          49.000    21254647.203 8  87034213.138 8      -718.910          48.000
R14  19772030.117 8 105396038.888 8     -2177.613          51.000    19772032.492 8  81974721.084 8     -1693.699          48.000
R17  19511137.664 8 104408099.144 8      1503.699          49.000    19511140.352 7  81206302.291 7      1169.544          46.000
R24  20015761.305 7 107033315.451 7     -2389.930          42.000    20015763.555 5  83248109.984 5     -1858.834          33.000
C05  39639431.891 5 206412923.096 5        22.570          35.000    39639429.797 6 159611555.224 6        17.181          37.000
C29  21775162.844 8 113388974.145 8      1013.012          51.000
C30  22536343.562 8 117352720.809 8     -1936.703          51.000
E13  23643849.258 8 124249259.227 8      -982.578          51.000    23643851.180 8  95203990.507 8      -752.870          51.000
E21  23732260.422 8 124713855.238 8     -1021.457          51.000    23732262.781 8  95559982.735 8      -782.651          51.000
E26  23219347.227 8 122018529.748 8      1896.793          49.000    23219350.688 8  93494683.893 8      1453.390          51.000
E27  27081684.266 8 142315156.613 8     -2717.523          50.000    27081686.016 7 109046679.307 7     -2082.231          47.000
> 2020 05 15 12 08  0.0000000  0 15        .000000000000
G18  21228102.195 7 111554512.664 7      2386.285          47.000    21228105.164 7  86925587.884 7      1859.443          47.000
G21  21392193.031 8 112416740.466 8      2040.637          51.000    21392192.266 7  87597515.527 7      1590.110          46.000
G25  22402981.180 6 117728463.770 6     -2812.586          36.000    22402982.914 6  91736452.529 6     -2191.622          37.000
G29  20813920.047 8 109377892.274 8     -1588.551          51.000    20813919.031 8  85229539.208 8     -1237.832          51.000
G31  21259971.203 8 111721887.196 8      -941.422          48.000    21259968.836 8  87056006.564 8      -733.572          48.000
R14  19784348.359 8 105461698.120 8     -2198.938          51.000    19784350.359 8  82025789.340 8     -1710.285          49.000
R17  19502766.336 8 104363305.403 8      1483.117          50.000    19502769.562 7  81171462.763 7      1153.536          46.000
R24  20029214.609 6 107105255.947 6     -2405.523          40.000    20029214.906 5  83304063.674 5     -1870.966          33.000
C05  39639305.109 5 206412263.185 5        21.801          35.000    39639303.281 6 159611045.676 6        17.139          37.000
C29  21769363.977 8 113358774.749 8      1001.039          51.000
C30  22547526.484 8 117410954.092 8     -1944.770          51.000
E13  23649494.336 8 124278923.443 8      -994.441          51.000    23649495.734 8  95226720.221 8      -761.951          51.000
E21  23738124.273 8 124744669.531 8     -1032.277          51.000    23738126.273 8  95583593.680 8      -790.948          51.000
E26  23208551.531 8 121961800.129 8      1885.941          51.000    23208555.406 8  93451215.751 8      1445.006          51.000
E27  27097213.047 8 142396761.958 8     -2722.191          49.000    27097216.367 7 109109208.009 7     -2085.820          47.000
> 2020 05 15 12 08 30.0000000  0 15        .000000000000
G18  21214524.047 7 111483159.621 7      2370.707          47.000    21214526.578 7  86869988.126 7      1847.307          45.000
G21  21380586.289 8 112355745.010 8      2025.598          51.000    21380585.102 7  87549986.661 7      1578.391          45.000
G25  22419060.070 6 117812965.351 6     -2820.938          36.000    22419064.492 6  91802297.931 6     -2198.130          37.000
G29  20823017.383 8 109425699.366 8     -1598.676          51.000    20823016.570 8  85266791.489 8     -1245.721          51.000
G31  21265400.078 8 111750416.882 8      -960.324          48.000    21265397.516 8  87078237.483 8      -748.308          48.000
R14  19796784.055 8 105527984.071 8     -2220.176          51.000    19796785.914 8  82077345.091 8     -1726.803          49.000
R17  19494509.211 8 104319120.076 8      1462.555          51.000    19494512.711 7  81137096.408 7      1137.543          46.000
R24  20042751.812 7 107177649.570 7     -2420.918          42.000    20042753.617 5  83360369.838 5     -1882.936          35.000
C05  39639179.180 6 206411606.633 6        21.758          36.000    39639177.391 6 159610538.782 6        16.604          37.000
C29  21763632.016 8 113328924.791 8       989.027          51.000
C30  22558753.906 8 117469418.539 8     -1952.867          51.000
E13  23655204.844 8 124308931.892 8     -1006.156          51.000    23655206.273 8  95249713.738 8      -770.933          51.000
E21  23744047.656 8 124775797.518 8     -1042.988          51.000    23744049.406 8  95607444.996 8      -799.185          51.000
E26  23197816.586 8 121905386.020 8      1875.066          51.000    23197820.641 8  93407989.347 8      1436.718          51.000
E27  27112766.422 8 142478497.276 8     -2726.844          49.000    27112770.883 8 109171836.313 8     -2089.328          48.000
> 2020 05 15 12 09  0.0000000  0 16        .000000000000
G18  21201034.273 7 111412270.829 7      2354.766          47.000    21201035.875 7  86814750.122 7      1834.882          44.000
G21  21369065.102 8 112295198.056 8      2010.125          51.000    21369063.188 7  87502807.274 7      1566.331          44.000
G25  22435186.344 5 117897715.245 5     -2829.938          35.000    22435192.469 5  91868336.805 5     -2205.146          35.000
G29  20832171.375 8 109473804.200 8     -1609.074          51.000    20832170.758 8  85304275.761 8     -1253.824          51.000
G31  21270935.961 8 111779508.247 8      -979.684          48.000    21270933.562 8  87100906.074 8      -763.390          48.000
R14  19809337.141 8 105594896.527 8     -2241.488          51.000    19809338.977 8  82129388.127 8     -1743.380          50.000
R17  19486365.953 8 104275544.378 8      1441.734          50.000    19486369.789 7  81103204.211 7      1121.349          47.000
R18  23009588.523 6 122826744.114 6      3835.324          38.000    23009598.984 6  95531935.309 6      2983.030          38.000
R24  20056374.211 7 107250494.200 7     -2436.379          43.000    20056377.273 5  83417026.770 5     -1894.961          35.000
C05  39639054.211 6 206410956.633 6        20.109          36.000    39639052.359 6 159610036.353 6        16.184          37.000
C29  21757966.852 8 113299425.235 8       976.859          51.000
C30  22570025.898 8 117528113.896 8     -1960.906          51.000
E13  23660980.883 8 124339284.687 8     -1018.152          51.000    23660982.398 8  95272971.082 8      -780.116          51.000
E21  23750030.906 8 124807240.541 8     -1054.008          51.000    23750032.742 8  95631537.696 8      -807.637          51.000
E26  23187142.500 8 121849289.253 8      1863.938          51.000    23187146.398 8  93365006.114 8      1428.230          51.000
E27  27128344.305 7 142560362.987 7     -2731.809          46.000    27128349.742 8 109234564.538 8     -2093.045          48.000
> 2020 05 15 12 09 30.0000000  0 16        .000000000000
G18  21187633.594 7 111341849.808 7      2339.805          46.000    21187634.352 7  86759876.637 7      1823.224          44.000
G21  21357629.750 8 112235102.297 8      1995.973          51.000    21357627.344 7  87455979.450 7      1555.303          44.000
G25  22451361.156 6 117982714.038 6     -2837.344          37.000    22451366.547 6  91934569.657 6     -2210.917          37.000
G29  20841382.172 8 109522207.397 8     -1618.105          51.000    20841381.680 8  85341992.521 8     -1260.861          51.000
G31  21276578.969 8 111809161.802 8      -997.664          48.000    21276576.867 8  87124012.720 8      -777.401          48.000
R14  19822007.617 8 105662435.480 8     -2261.500          51.000    19822009.438 8  82181918.399 8     -1758.947          50.000
R17  19478337.688 8 104232580.374 8      1422.195          51.000    19478340.570 7  81069787.810 7      1106.155          46.000
R18  22988055.992 6 122711800.264 6      3827.105          39.000    22988067.398 6  95442534.624 6      2976.641          38.000
R24  20070080.398 6 107323788.185 6     -2450.297          41.000    20070082.766 5  83474033.201 5     -1905.786          35.000
C05  39638930.359 6 206410311.652 6        21.879          36.000    39638928.523 6 159609537.655 6        16.837          37.000
C29  21752368.914 8 113270277.530 8       965.961          50.000
C30  22581342.250 8 117587040.226 8     -1967.789          51.000
E13  23666822.375 8 124369982.103 8     -1028.754          51.000    23666823.797 8  95296492.490 8      -788.317          51.000
E21  23756074.180 8 124839000.302 8     -1063.750          51.000    23756076.492 8  95655873.095 8      -815.075          51.000
E26  23176529.188 8 121793512.019 8      1854.078          51.000    23176533.000 8  93322267.724 8      1420.669          51.000
E27  27143946.516 7 142642359.962 7     -2735.121          45.000    27143953.258 8 109297393.339 8     -2095.772          48.000
> 2020 05 15 12 10  0.0000000  0 16        .000000000000
G18  21174319.469 7 111271882.357 7      2324.289          46.000    21174319.688 7  86705356.573 7      1811.137          45.000
G21  21346277.078 8 112175442.962 8      1981.059          51.000    21346274.516 7  87409491.665 7      1543.682          45.000
G25  22467581.172 6 118067944.683 6     -2845.137          39.000    22467584.562 6  92000983.157 6     -2216.990          39.000
G29  20850646.383 8 109570891.178 8     -1627.797          51.000    20850645.906 8  85379927.922 8     -1268.413          51.000
G31  21282325.695 8 111839360.651 8     -1016.121          49.000    21282323.984 8  87147544.271 8      -791.780          49.000
R14  19834792.078 8 105730583.044 8     -2282.086          51.000    19834793.930 8  82234922.010 8     -1774.959          50.000
R17  19470420.766 8 104190211.339 8      1402.047          51.000    19470422.438 7  81036834.147 7      1090.481          46.000
R18  22966568.312 6 122597096.757 6      3818.906          40.000    22966580.391 6  95353320.828 6      2970.260          37.000
R24  20083867.094 7 107397511.953 7     -2465.070          44.000    20083868.984 5  83531373.856 5     -1917.280          35.000
C05  39638804.555 5 206409655.763 5        21.445          35.000    39638802.820 6 159609031.241 6        16.719          37.000
C29  21746835.422 8 113241465.478 8       954.477          50.000
C30  22592699.477 8 117646179.944 8     -1975.254          51.000
E13  23672725.891 8 124401006.785 8     -1040.023          51.000    23672727.445 8  95320264.665 8      -796.961          51.000
E21  23762174.555 8 124871060.786 8     -1074.164          51.000    23762177.398 8  95680438.909 8      -823.049          51.000
E26  23165973.266 8 121738038.756 8      1843.527          51.000    23165977.359 8  93279762.258 8      1412.576          51.000
E27  27159570.297 6 142724471.315 6     -2739.312          41.000    27159578.852 8 109360309.760 8     -2099.115          49.000
> 2020 05 15 12 10 30.0000000  0 16        .000000000000
G18  21161094.508 8 111202383.266 8      2309.090          48.000    21161094.570 7  86651201.489 7      1799.291          46.000
G21  21335009.523 8 112116234.447 8      1966.590          49.000    21335007.398 7  87363355.155 7      1532.408          46.000
G25  22483847.312 6 118153419.267 6     -2852.555          39.000    22483849.289 6  92067586.594 6     -2222.773          40.000
G29  20859966.203 8 109619866.864 8     -1636.926          51.000    20859965.695 8  85418090.768 8     -1275.527          51.000
G31  21288178.383 8 111870116.444 8     -1034.020          49.000    21288176.930 8  87171509.814 8      -805.730          50.000
R14  19847692.547 8 105799350.721 8     -2302.117          51.000    19847694.578 8  82288407.930 8     -1790.539          50.000
R17  19462617.320 8 104148450.961 8      1382.371          51.000    19462618.695 8  81004353.853 8      1075.181          48.000
R18  22945128.211 6 122482648.839 6      3811.164          39.000    22945140.812 6  95264305.831 6      2964.242          36.000
R24  20097737.070 6 107471675.230 6     -2478.895          40.000    20097738.141 5  83589056.376 5     -1928.026          35.000
C05  39638679.273 5 206409003.719 5        22.117          35.000    39638677.680 6 159608527.035 6        16.954          37.000
C29  21741368.836 8 113213001.608 8       943.531          49.000
C30  22604099.688 8 117705544.366 8     -1982.152          51.000
E13  23678694.047 8 124432370.346 8     -1050.672          51.000    23678695.609 8  95344296.492 8      -805.072          51.000
E21  23768334.695 8 124903434.922 8     -1083.859          50.000    23768337.906 8  95705245.073 8      -830.547          51.000
E26  23155477.344 8 121682882.948 8      1833.633          51.000    23155481.898 8  93237500.053 8      1404.967          51.000
E27  27175218.438 7 142806709.184 7     -2742.828          42.000    27175228.297 8 109423323.103 8     -2101.671          49.000
> 2020 05 15 12 11  0.0000000  0 16        .000000000000
G18  21147960.039 8 111133359.334 8      2293.047          50.000    21147960.031 7  86597416.624 7      1786.790          47.000
G21  21323828.492 8 112057482.522 8      1950.852          48.000    21323827.312 7  87317574.458 7      1520.144          46.000
G25  22500160.492 7 118239141.384 7     -2861.312          43.000    22500161.594 7  92134382.989 7     -2229.594          43.000
G29  20869342.297 8 109669138.027 8     -1647.035          51.000    20869341.633 8  85456483.857 8     -1283.404          51.000
G31  21294137.703 8 111901432.937 8     -1052.941          50.000    21294136.016 8  87195912.268 8      -820.474          50.000
R14  19860709.875 8 105868741.717 8     -2323.223          51.000    19860711.992 8  82342378.676 8     -1806.951          50.000
R17  19454928.477 8 104107304.184 8      1361.527          51.000    19454929.477 8  80972350.812 8      1058.966          48.000
R18  22923736.156 6 122368463.234 6      3802.027          38.000    22923750.586 5  95175494.815 5      2957.132          35.000
R24  20111688.055 7 107546279.392 7     -2493.895          42.000    20111689.875 5  83647081.812 5     -1939.699          35.000
C05                                                                  39638553.977 6 159608028.648 6        16.519          37.000
C29  21735969.805 8 113184890.372 8       931.332          49.000
C30  22615543.555 8 117765136.689 8     -1989.980          51.000
E13  23684727.367 8 124464076.245 8     -1062.336          51.000    23684728.992 8  95368590.641 8      -814.046          51.000
E21  23774555.422 8 124936127.581 8     -1094.922          50.000    23774559.578 8  95730295.274 8      -838.984          51.000
E26  23145042.695 8 121628049.894 8      1822.582          51.000    23145047.516 8  93195485.145 8      1396.485          51.000
E27  27190893.031 7 142889077.524 7     -2747.660          44.000    27190902.148 7 109486436.485 7     -2105.362          47.000
> 2020 05 15 12 11 30.0000000  0 16        .000000000000
G18  21134916.055 8 111064810.622 8      2277.402          51.000    21134915.773 7  86544002.045 7      1774.599          47.000
G21  21312734.852 8 111999187.066 8      1935.863          49.000    21312734.172 7  87272149.444 7      1508.465          46.000
G25  22516520.141 6 118325108.334 6     -2869.277          41.000    22516521.031 6  92201370.179 6     -2235.801          41.000
G29  20878773.992 8 109718701.264 8     -1656.664          51.000    20878773.016 8  85495104.548 8     -1290.907          51.000
G31  21300203.008 8 111933307.109 8     -1071.414          50.000    21300201.258 8  87220749.261 8      -834.868          50.000
R14  19873843.141 8 105938752.075 8     -2343.668          50.000    19873845.805 8  82396831.179 8     -1822.853          50.000
R17  19447353.695 8 104066768.936 8      1341.312          51.000    19447354.070 7  80940823.415 7      1043.243          47.000
R18  22902393.094 6 122254539.865 6      3793.281          37.000    22902407.172 5  95086887.799 5      2950.333          33.000
R24  20125721.766 6 107621319.669 6     -2508.227          39.000    20125723.070 5  83705446.455 5     -1950.840          35.000
C05  39638432.711 5 206407720.296 5        21.160          35.000    39638431.281 6 159607534.593 6        16.616          37.000
C29  21730638.555 8 113157129.668 8       919.863          50.000
C30  22627030.633 8 117824953.562 8     -1997.383          51.000
E13  23690825.102 8 124496121.423 8     -1073.594          51.000    23690827.047 8  95393144.742 8      -822.570          51.000
E21  23780836.453 8 124969136.950 8     -1105.230          50.000    23780841.523 8  95755588.128 8      -846.886          51.000
E26  23134669.141 8 121573538.349 8      1812.035          51.000    23134674.047 8  93153716.584 8      1388.410          51.000
E27  27206592.797 7 142971573.783 7     -2751.629          44.000    27206600.344 7 109549647.823 7     -2108.508          47.000
> 2020 05 15 12 12  0.0000000  0 17        .000000000000
G18  21121961.312 8 110996730.609 8      2261.402          51.000    21121960.695 7  86490952.670 7      1762.132          47.000
G21  21301726.984 8 111941339.979 8      1920.707          50.000    21301726.188 7  87227073.796 7      1496.655          45.000
G25  22532924.242 6 118411310.805 6     -2877.473          41.000    22532924.883 7  92268540.883 7     -2242.186          42.000
G29  20888259.305 8 109768546.787 8     -1666.316          51.000    20888258.133 8  85533945.209 8     -1298.428          51.000
G31  21306372.695 8 111965729.328 8     -1089.996          50.000    21306371.375 8  87246013.310 8      -849.348          50.000
R14  19887090.406 8 106009372.268 8     -2364.176          49.000    19887094.016 8  82451758.008 8     -1838.803          51.000
R17  19439891.242 8 104026836.704 8      1321.000          50.000    19439891.172 8  80909765.009 8      1027.444          48.000
R18  22881099.094 6 122140872.337 6      3784.766          41.000    22881111.078 5  94998479.801 5      2943.707          33.000
R24  20139833.664 6 107696783.846 6     -2522.473          36.000    20139835.047 6  83764140.838 6     -1961.923          36.000
C05  39638309.539 6 206407078.659 6        21.133          36.000    39638307.914 6 159607038.435 6        16.628          37.000
C13  38587540.570 4 200935452.388 4      -825.242          29.000
C29  21725373.453 8 113129711.033 8       908.172          50.000
C30  22638559.086 8 117884985.182 8     -2004.809          51.000
E13  23696985.727 8 124528496.150 8     -1084.738          51.000    23696987.672 8  95417951.366 8      -831.103          51.000
E21  23787176.453 8 125002454.755 8     -1115.816          51.000    23787181.781 8  95781117.334 8      -854.967          51.000
E26  23124355.016 8 121519340.479 8      1801.320          51.000    23124360.086 8  93112188.354 8      1380.235          51.000
E27  27222315.438 7 143054188.791 7     -2755.895          47.000    27222321.008 7 109612950.116 7     -2111.695          44.000
> 2020 05 15 12 12 30.0000000  0 17        .000000000000
G18  21109097.023 8 110929125.788 8      2245.035          51.000    21109096.258 7  86438273.589 7      1749.378          47.000
G21  21290805.734 8 111883947.728 8      1905.062          51.000    21290804.578 7  87182352.571 7      1484.464          45.000
G25  22549373.484 6 118497752.371 6     -2886.012          40.000    22549374.961 6  92335897.882 6     -2248.846          39.000
G29  20897798.898 8 109818677.883 8     -1676.230          51.000    20897797.844 8  85573008.395 8     -1306.154          51.000
G31  21312647.320 8 111998703.413 8     -1108.820          49.000    21312646.727 8  87271707.376 8      -864.016          49.000
R14  19900452.906 8 106080605.059 8     -2385.055          51.000    19900457.133 8  82507161.284 8     -1855.039          49.000
R17  19432541.992 8 103987512.328 8      1300.242          50.000    19432542.852 8  80879179.393 8      1011.299          49.000
R18  22859855.250 7 122027467.003 7      3775.371          43.000    22859865.008 5  94910275.696 5      2936.400          32.000
R24  20154024.578 6 107772673.469 6     -2537.281          40.000    20154026.383 6  83823166.141 6     -1973.438          36.000
C05  39638186.586 6 206406438.875 6        21.277          36.000    39638185.047 6 159606543.701 6        16.486          37.000
C13  38592299.789 5 200960232.753 5      -827.867          30.000
C29  21720174.789 8 113102638.695 8       896.184          50.000
C30  22650129.508 8 117945234.563 8     -2012.355          51.000
E13  23703209.914 8 124561203.780 8     -1096.207          51.000    23703211.695 8  95443013.059 8      -840.005          51.000
E21  23793576.180 8 125036085.637 8     -1126.668          51.000    23793581.484 8  95806886.432 8      -863.276          51.000
E26  23114101.523 8 121465461.424 8      1790.266          51.000    23114106.766 8  93070904.395 8      1371.708          51.000
E27  27238061.250 8 143136926.389 8     -2760.363          48.000    27238064.508 7 109676346.335 7     -2115.072          43.000
> 2020 05 15 12 13  0.0000000  0 17        .000000000000
G18  21096323.578 8 110861999.821 8      2229.441          51.000    21096322.445 7  86385967.670 7      1737.227          47.000
G21  21279971.516 8 111827013.221 8      1890.191          50.000    21279970.000 7  87137988.062 7      1472.876          45.000
G25  22565867.703 6 118584433.886 6     -2893.758          37.000    22565869.070 6  92403441.860 6     -2254.879          36.000
G29  20907392.820 8 109869094.701 8     -1685.320          51.000    20907392.055 8  85612294.217 8     -1313.237          51.000
G31  21319026.984 8 112032229.207 8     -1126.852          49.000    21319027.312 8  87297831.356 8      -878.066          49.000
R14  19913931.070 8 106152450.488 8     -2405.078          51.000    19913934.836 7  82563041.070 7     -1870.616          47.000
R17  19425306.992 8 103948797.620 8      1280.309          49.000    19425308.422 8  80849067.945 8       995.796          48.000
R18  22838661.961 6 121914327.839 6      3766.742          41.000    22838670.570 4  94822278.592 4      2929.688          28.000
R24  20168295.961 6 107848987.108 6     -2550.984          41.000    20168298.352 6  83882521.160 6     -1984.099          38.000
C05  39638064.352 6 206405802.704 6        21.301          36.000    39638062.820 6 159606051.789 6        16.356          37.000
C13  38597074.078 5 200985093.813 5      -831.051          30.000
C29  21715042.961 8 113075914.236 8       885.020          51.000
C30  22661741.766 8 118005701.994 8     -2019.230          51.000
E13  23709497.305 8 124594244.788 8     -1106.930          50.000    23709499.438 8  95468330.203 8      -848.155          51.000
E21  23800035.953 8 125070031.422 8     -1136.797          51.000    23800041.180 8  95832896.822 8      -871.034          51.000
E26  23103909.875 8 121411903.480 8      1779.926          51.000    23103914.633 8  93029866.472 8      1363.839          51.000
E27  27253830.062 8 143219787.506 8     -2764.047          49.000    27253831.789 7 109739837.178 7     -2117.948          44.000
> 2020 05 15 12 13 30.0000000  0 17        .000000000000
G18  21083640.227 8 110795347.912 8      2213.852          51.000    21083638.094 7  86334031.156 7      1725.082          46.000
G21  21269223.383 8 111770530.753 8      1875.152          51.000    21269221.648 7  87093975.779 7      1461.161          45.000
G25  22582406.297 6 118671347.718 6     -2901.055          37.000    22582407.523 6  92471166.880 6     -2260.562          36.000
G29  20917039.594 8 109919789.217 8     -1694.352          51.000    20917039.016 8  85651796.442 8     -1320.274          51.000
G31  21325510.281 8 112066299.470 8     -1144.613          49.000    21325511.453 8  87324379.624 8      -891.906          49.000
R14  19927522.391 8 106224900.235 8     -2425.066          51.000    19927525.297 7  82619390.829 7     -1886.163          43.000
R17  19418184.250 8 103910685.607 8      1260.395          48.000    19418186.062 7  80819425.276 7       980.310          47.000
R18  22817517.938 6 121801450.116 6      3758.293          38.000    22817528.945 4  94734484.714 4      2923.111          25.000
R24  20182644.594 6 107925714.730 6     -2564.652          39.000    20182648.266 6  83942198.246 6     -1994.727          38.000
C05  39637941.664 6 206405163.548 6        21.648          36.000    39637940.062 6 159605557.554 6        16.444          37.000
C13  38601863.445 4 201010032.056 4      -831.926          28.000
C29  21709976.930 8 113049530.763 8       873.848          51.000
C30  22673394.344 8 118066379.439 8     -2026.027          51.000
E13  23715846.711 8 124627611.269 8     -1117.699          51.000    23715848.914 8  95493896.727 8      -856.344          51.000
E21  23806554.555 8 125104285.562 8     -1146.906          51.000    23806559.586 8  95859143.486 8      -878.822          51.000
E26  23093778.867 8 121358660.505 8      1769.504          51.000    23093782.648 8  92989069.915 8      1355.833          51.000
E27  27269620.344 8 143302764.744 8     -2767.855          48.000    27269622.180 7 109803416.998 7     -2120.738          44.000
> 2020 05 15 12 14  0.0000000  0 17        .000000000000
G18  21071049.070 8 110729180.626 8      2198.066          51.000    21071046.094 7  86282472.268 7      1712.782          45.000
G21  21258563.273 8 111714510.374 8      1860.180          51.000    21258561.617 7  87050323.562 7      1449.491          44.000
G25  22598991.102 6 118758501.591 6     -2908.742          41.000    22598992.047 6  92539078.969 6     -2266.552          40.000
G29  20926740.586 8 109970768.868 8     -1703.500          51.000    20926740.117 8  85691520.851 8     -1327.403          51.000
G31  21332098.555 8 112100921.746 8     -1162.738          48.000    21332099.711 8  87351358.011 8      -906.033          48.000
R14  19941228.414 8 106297961.177 8     -2445.066          50.000    19941230.305 7  82676215.866 7     -1901.724          44.000
R15  19583642.227 5 104649089.854 5      1706.441          31.000
R17  19411175.828 7 103873185.321 7      1240.309          47.000    19411178.398 8  80790258.406 8       964.684          49.000
R18  22796423.305 5 121688844.606 5      3749.727          32.000    22796442.383 5  94646936.566 5      2916.454          30.000
R24  20197071.688 6 108002861.912 6     -2577.918          41.000    20197074.430 6  84002201.639 6     -2005.047          37.000
C05  39637819.977 5 206404529.028 5        21.461          35.000    39637818.312 6 159605067.663 6        16.649          37.000
C29  21704977.656 8 113023496.666 8       862.469          50.000
C30  22685088.680 8 118127273.982 8     -2032.938          50.000
E13  23722259.625 8 124661310.649 8     -1128.305          49.000    23722261.375 8  95519718.320 8      -864.536          50.000
E21  23813133.672 8 125138856.729 8     -1157.102          51.000    23813138.141 8  95885633.087 8      -886.628          51.000
E26  23083709.719 8 121305741.746 8      1759.152          51.000    23083712.656 8  92948521.799 8      1347.889          51.000
E27  27285433.453 7 143385866.051 7     -2771.496          47.000    27285436.719 7 109867091.935 7     -2123.674          45.000
> 2020 05 15 12 14 30.0000000  0 16        .000000000000
G18  21058548.383 8 110663489.232 8      2180.961          51.000    21058545.492 7  86231284.214 7      1699.450          47.000
