     3.02           OBSERVATION DATA    M (MIXED)           RINEX VERSION / TYPE
SAVERINEX           SC600               20200519 025932 LCL PGM / RUN BY / DATE
       G = GPS       R = GLONASS       C = COMPASS          COMMENT
       S = SBAS      J = QZSS          E = GALILEO          COMMENT
BEAN                                                        MARKER NAME
1                                                           MARKER NUMBER
GEODETIC                                                    MARKER TYPE
Unige DICCA         GTER                                    OBSERVER / AGENCY
SC60291900056       SC600               2.12(191202)        REC # / TYPE / VERS
                    HEMA45          NONE                    ANT # / TYPE
  4509407.8091   693652.4678  4442337.6214                  APPROX POSITION XYZ
        0.0000        0.0000        0.0000                  ANTENNA: DELTA H/E/N
G    8 C1C L1C D1C S1C C2Y L2Y D2Y S2Y                      SYS / # / OBS TYPES
R    8 C1C L1C D1C S1C C2P L2P D2P S2P                      SYS / # / OBS TYPES
C    8 C1I L1I D1I S1I C7I L7I D7I S7I                      SYS / # / OBS TYPES
E    8 C1C L1C D1C S1C C7Q L7Q D7Q S7Q                      SYS / # / OBS TYPES
DBHZ                                                        COMMENT
     30.000                                                 INTERVAL
  2020    05    19    00    00    0.0000000     GPS         TIME OF FIRST OBS
  2020    05    19    00    59   30.0000000     GPS         TIME OF LAST OBS
     0                                                      RCV CLOCK OFFS APPL
G L1C  0.00000                                              SYS / PHASE SHIFT
G L2Y  0.00000                                              SYS / PHASE SHIFT
R L1C  0.00000                                              SYS / PHASE SHIFT
R L2P  0.25000                                              SYS / PHASE SHIFT
C L1I  0.00000                                              SYS / PHASE SHIFT
C L7I  0.00000                                              SYS / PHASE SHIFT
E L1C  0.50000                                              SYS / PHASE SHIFT
E L7Q -0.25000                                              SYS / PHASE SHIFT
 12 R01  1 R02 -4 R03  5 R08  6 R10 -5 R11  0 R12 -1 R13 -2 GLONASS SLOT / FRQ #
    R14 -7 R17  4 R18 -3 R23  3                             GLONASS SLOT / FRQ #
 C1C   71.950 C2C   71.950 C2P   71.950                     GLONASS COD/PHS/BIS
    18                                                      LEAP SECONDS
*** Above antenna height is from mark to ANTENNA BOTTOM.    COMMENT
    17     4        0.0000        ANT MEASURE TYPE/HEIGT    COMMENT
    0.0000    0.0000    0.0458    0.0405    0.0000          COMMENT
                    BASE STATION                            COMMENT
                                                            END OF HEADER
> 2020 05 19 00 00  0.0000000  0 15        .000000000000
G06  21310787.195 8 111988934.630 8     -1334.480          51.000    21310789.297 8  87264102.094 8     -1039.855          51.000
G07  21554395.773 8 113269105.787 8      2039.367          51.000    21554394.656 8  88261644.158 8      1589.117          51.000
G09  20477019.617 8 107607541.111 8      -933.062          51.000    20477020.039 8  83850042.995 8      -727.062          51.000
G30  23390975.484 6 122920441.720 6      3498.320          37.000    23390980.328 6  95782142.097 6      2725.964          38.000
R02  20164060.953 7 107599301.443 7     -1459.254          43.000    20164064.469 5  83688332.745 5     -1134.975          35.000
R12  20476233.516 6 109380457.262 6       458.652          39.000    20476240.797 5  85073652.329 5       356.724          30.000
R13  21800091.922 5 116411292.527 5      3967.895          34.000    21800093.117 6  90542098.389 6      3086.140          36.000
C05  39794968.336 6 207222842.618 6       -22.453          36.000    39794964.234 6 160237829.599 6       -17.338          37.000
C19  21580017.453 8 112372818.746 8      -241.867          51.000
C20  24587376.320 5 128032980.051 5     -2342.992          31.000
C22  23672809.922 5 123270569.524 5      2154.410          30.000
E05  23917379.570 6 125686674.342 6       925.328          36.000    23917381.586 5  96305383.003 5       709.356          32.000
E09  22296279.352 7 117167818.523 7     -1251.406          47.000    22296278.664 6  89777939.468 6      -958.855          38.000
E24  25267759.094 7 132782975.327 7      2962.352          46.000    25267772.523 7 101742823.959 7      2269.815          47.000
E36  26128059.391 6 137303904.130 6     -3009.234          41.000    26128069.398 5 105206833.477 5     -2305.807          35.000
> 2020 05 19 00 00 30.0000000  0 16        .000000000000
G02  22551407.094 5 118508437.331 5       994.504          34.000
G06  21318469.336 8 112029302.486 8     -1352.512          51.000    21318470.398 8  87295557.544 8     -1053.905          51.000
G07  21542803.148 8 113208185.264 8      2026.223          51.000    21542801.953 8  88214173.611 8      1578.875          51.000
G09  20482386.805 8 107635746.269 8      -943.078          51.000    20482387.375 8  83872021.037 8      -734.866          51.000
G30  23371029.648 6 122815623.371 6      3493.949          38.000    23371034.023 6  95700465.482 6      2722.558          39.000
R02  20172301.219 7 107643270.557 7     -1467.730          44.000    20172303.625 5  83722530.975 5     -1141.565          34.000
R11  22785876.625 5 121760722.140 5     -2979.926          31.000    22785874.609 4  94702846.682 4     -2317.726          25.000
R12  20473739.570 6 109367158.127 6       432.270          39.000    20473753.211 5  85063308.596 5       336.213          34.000
R13  21777839.742 5 116292471.796 5      3957.293          33.000    21777843.164 6  90449682.271 6      3077.895          39.000
C05  39795107.055 6 207223563.940 6       -21.941          36.000    39795103.023 6 160238388.146 6       -16.532          37.000
C19  21581445.898 8 112380256.171 8      -249.742          51.000
C22  23660419.195 5 123206011.492 5      2151.324          30.000
E05  23912123.523 6 125659049.495 6       920.996          39.000    23912124.758 5  96284217.031 5       705.154          31.000
E09  22303445.586 7 117205478.509 7     -1254.855          46.000    22303444.875 6  89806795.811 6      -961.632          38.000
E24  25250865.711 7 132694201.310 7      2960.328          47.000    25250878.898 7 101674802.339 7      2268.273          47.000
E36  26145260.781 6 137394299.098 6     -3012.734          41.000    26145271.586 6 105276097.104 6     -2308.561          36.000
> 2020 05 19 00 01  0.0000000  0 16        .000000000000
G06  21326219.273 8 112070027.174 8     -1375.105          51.000    21326220.000 8  87327291.063 8     -1071.511          51.000
G07  21531250.398 8 113147474.712 8      2008.363          51.000    21531249.109 8  88166866.679 8      1564.958          51.000
G09  20487776.133 8 107664067.359 8      -957.555          51.000    20487776.547 8  83894089.422 8      -746.147          51.000
G30  23351077.312 6 122710770.249 6      3484.242          37.000    23351080.930 6  95618761.746 6      2714.994          37.000
R02  20180554.016 7 107687308.361 7     -1480.945          44.000    20180558.078 5  83756782.613 5     -1151.846          34.000
R11  22802631.930 5 121850270.193 5     -3002.039          34.000    22802630.617 4  94772495.136 4     -2334.916          27.000
R12  20471362.477 6 109354473.875 6       400.734          38.000    20471376.617 5  85053442.927 5       311.679          34.000
R13  21755613.289 5 116173788.326 5      3942.480          33.000    21755618.945 6  90357372.928 6      3066.377          41.000
C05  39795205.180 6 207224075.808 6       -25.094          36.000    39795201.102 6 160238783.184 6       -19.326          37.000
C19  21582883.945 8 112387743.833 8      -261.996          51.000
C20  24614408.961 5 128173732.372 5     -2355.527          31.000
C22  23648019.344 5 123141400.904 5      2143.219          32.000
E05  23906857.500 6 125631370.538 6       911.754          39.000    23906858.953 5  96263013.458 5       698.700          34.000
E09  22310596.023 7 117243055.607 7     -1262.816          44.000    22310595.750 6  89835588.633 6      -967.622          39.000
E24  25233948.211 8 132605300.304 8      2953.746          48.000    25233961.719 7 101606683.412 7      2263.278          46.000
E36  26162446.445 6 137484614.406 6     -3020.848          41.000    26162457.703 6 105345299.682 6     -2314.574          37.000
> 2020 05 19 00 01 30.0000000  0 15        .000000000000
G06  21334093.922 8 112111408.859 8     -1390.230          51.000    21334094.867 8  87359536.534 8     -1083.293          51.000
G07  21519795.023 8 113087277.118 8      1998.195          50.000    21519793.891 8  88119959.455 8      1557.035          50.000
G09  20493244.758 8 107692805.085 8      -964.750          51.000    20493244.992 8  83916482.470 8      -751.753          51.000
G30  23331176.148 6 122606186.147 6      3481.473          36.000    23331178.516 6  95537267.669 6      2712.836          36.000
R02  20188876.922 7 107731720.747 7     -1486.398          44.000    20188880.719 5  83791325.628 5     -1156.085          34.000
R11  22819507.422 5 121940458.906 5     -3017.559          32.000    22819508.461 4  94842641.918 4     -2346.990          29.000
R12  20469159.094 6 109342711.676 6       376.707          37.000    20469175.391 6  85044294.503 6       292.991          37.000
R13  21733471.000 5 116055552.105 5      3933.070          34.000    21733478.141 7  90265411.445 7      3059.055          42.000
R18  21513754.758 6 114841898.451 6     -2562.555          36.000    21513760.188 5  89321493.521 5     -1993.101          32.000
C05  39795320.086 6 207224674.125 6       -21.008          36.000    39795315.883 6 160239245.867 6       -16.368          37.000
C19  21584389.031 8 112395580.984 8      -266.973          51.000
E05  23901638.250 6 125603939.007 6       910.305          38.000    23901640.914 5  96241994.512 5       697.841          35.000
E09  22317788.125 7 117280851.193 7     -1263.215          43.000    22317788.141 6  89864548.865 6      -967.927          39.000
E24  25217064.406 8 132516575.987 8      2954.715          48.000    25217078.797 7 101538699.880 7      2264.083          47.000
E36  26179673.688 6 137575149.609 6     -3021.238          41.000    26179683.984 6 105414670.764 6     -2314.822          38.000
> 2020 05 19 00 02  0.0000000  0 16        .000000000000
G06  21342090.492 8 112153431.941 8     -1402.105          51.000    21342091.602 8  87392281.806 8     -1092.550          51.000
G07  21508434.781 8 113027580.205 8      1991.172          49.000    21508434.109 8  88073442.372 8      1551.559          49.000
G09  20498789.766 8 107721944.290 8      -968.441          51.000    20498790.055 8  83939188.348 8      -754.630          51.000
G30  23311323.938 6 122501859.260 6      3482.887          37.000    23311324.281 6  95455973.968 6      2713.935          37.000
R02  20197267.539 7 107776493.630 7     -1488.590          45.000    20197273.953 5  83826148.933 5     -1157.795          34.000
R11  22836500.617 5 122031270.308 5     -3027.746          34.000    22836503.070 4  94913273.013 4     -2354.911          29.000
R12  20467128.305 5 109331857.833 5       356.531          32.000    20467142.586 6  85035852.554 6       277.296          36.000
R13  21711411.664 5 115937754.216 5      3928.652          33.000    21711418.953 7  90173790.849 7      3055.618          42.000
R18  21528227.125 6 114919123.221 6     -2576.078          37.000    21528218.547 4  89381557.178 4     -2003.616          27.000
C05  39795449.031 6 207225345.935 6       -14.473          36.000    39795444.930 6 160239765.346 6       -10.998          37.000
C19  21585958.570 8 112403754.044 8      -268.645          51.000
C20  24641559.695 5 128315096.551 5     -2353.984          34.000
E05  23896462.172 5 125576740.827 5       912.223          34.000    23896466.617 5  96221154.330 5       698.910          34.000
E09  22325019.078 7 117318850.839 7     -1260.711          43.000    22325019.406 6  89893665.495 6      -965.844          39.000
E24  25200211.789 7 132428016.356 7      2958.754          47.000    25200227.344 7 101470842.538 7      2267.106          47.000
E36  26196940.023 6 137665888.676 6     -3018.422          41.000    26196947.672 6 105484198.064 6     -2313.119          39.000
> 2020 05 19 00 02 30.0000000  0 16        .000000000000
G06  21350217.258 8 112196139.006 8     -1432.359          51.000    21350218.445 8  87425560.051 8     -1116.124          51.000
G07  21497178.312 7 112968429.475 7      1965.133          47.000    21497178.531 8  88027350.876 8      1531.269          48.000
G09  20504419.336 8 107751528.136 8      -990.883          51.000    20504419.914 8  83962240.717 8      -772.116          51.000
G30  23291529.875 6 122397835.974 6      3465.531          37.000    23291528.234 6  95374916.924 6      2700.417          37.000
R02  20205733.633 7 107821671.334 7     -1509.855          42.000    20205740.117 4  83861326.203 4     -1174.329          26.000
R12  20465276.234 6 109321957.903 6       317.047          37.000    20465289.195 6  85028152.554 6       246.586          37.000
R13  21689444.242 5 115820444.103 5      3904.512          35.000    21689450.586 6  90082549.623 6      3036.839          40.000
R18  21542832.562 5 114997085.638 5     -2608.512          35.000    21542819.266 4  89442143.622 4     -2028.849          29.000
C05  39795600.539 6 207226134.907 6       -25.516          36.000    39795596.508 6 160240375.464 6       -20.026          37.000
C19  21587601.133 8 112412307.115 8      -288.785          51.000
C20  24655195.336 5 128386143.087 5     -2370.453          31.000
C22  23611034.922 5 122948859.851 5      2130.777          32.000
E05                                                                  23891343.695 5  96200526.669 5       685.953          33.000
E09  22332297.430 7 117357098.424 7     -1276.273          43.000    22332298.148 6  89922972.114 6      -978.053          41.000
E24  25183399.258 7 132339667.576 7      2944.070          47.000    25183415.508 7 101403146.745 7      2255.873          46.000
E36  26214253.242 6 137756873.680 6     -3034.223          40.000    26214258.758 6 105553913.776 6     -2324.969          40.000
> 2020 05 19 00 03  0.0000000  0 17        .000000000000
G02  22524228.164 5 118365621.835 5       911.082          30.000
G06  21358424.273 8 112239268.134 8     -1445.695          51.000    21358425.617 8  87459167.147 8     -1126.516          51.000
G07  21485976.375 7 112909565.621 7      1956.238          47.000    21485977.531 7  87981482.918 7      1524.338          47.000
G09  20510083.766 8 107781295.194 8      -996.285          51.000    20510084.500 8  83985435.842 8      -776.326          51.000
G30  23271744.547 6 122293858.213 6      3463.738          37.000    23271741.148 6  95293895.378 6      2699.017          37.000
R02  20214225.953 7 107866989.681 7     -1513.969          42.000
R11  22870808.141 5 122214614.980 5     -3070.055          33.000
R13  21667520.242 6 115703360.510 6      3897.473          37.000    21667523.641 6  89991484.608 6      3031.368          37.000
R18  21557526.266 6 115075517.317 6     -2623.215          37.000    21557518.328 5  89503146.045 5     -2040.281          35.000
C05  39795724.984 6 207226782.878 6       -19.945          36.000    39795720.938 6 160240876.534 6       -15.958          37.000
C19  21589267.023 8 112420982.478 8      -292.254          51.000
C20  24668831.977 5 128457088.699 5     -2369.340          32.000
C22  23598748.320 5 122884892.820 5      2132.445          32.000
E05  23886219.328 6 125522921.053 6       895.238          37.000    23886223.086 5  96179911.970 5       686.159          34.000
E09  22339573.289 7 117395333.244 7     -1275.473          42.000    22339574.977 7  89952268.925 7      -977.328          42.000
E24  25166577.695 7 132251271.315 7      2946.125          47.000    25166593.844 7 101335414.539 7      2257.397          44.000
E36  26231563.562 6 137847842.129 6     -3033.266          39.000    26231568.117 6 105623616.853 6     -2324.170          41.000
> 2020 05 19 00 03 30.0000000  0 16        .000000000000
G06  21366735.555 8 112282945.372 8     -1466.355          51.000    21366737.023 8  87493201.352 8     -1142.615          51.000
G07  21474853.516 7 112851117.584 7      1940.051          46.000    21474855.328 7  87935938.967 7      1511.725          46.000
G09  20515807.172 8 107811372.113 8     -1009.008          51.000    20515807.758 8  84008872.399 8      -786.240          51.000
G30  23251992.984 6 122190055.797 6      3456.105          38.000    23251988.547 6  95213010.461 6      2693.069          37.000
R02  20222768.469 6 107912577.738 6     -1525.527          40.000
R11  22888102.781 6 122307007.004 6     -3089.719          38.000
R13  21645663.258 6 115586638.161 6      3883.094          37.000    21645663.203 5  89900700.596 5      3020.184          35.000
R18  21572330.500 6 115154543.928 6     -2645.551          37.000    21572326.023 6  89564611.233 6     -2057.651          38.000
C05  39795846.641 6 207227416.468 6       -22.234          36.000    39795842.609 6 160241366.417 6       -17.009          37.000
C19  21590980.797 8 112429907.001 8      -302.965          51.000
C20  24682499.430 5 128528267.796 5     -2376.082          32.000
C22  23586484.367 5 122821039.982 5      2125.164          33.000
E05  23881129.727 6 125496161.691 6       888.273          39.000    23881130.750 6  96159408.026 6       680.622          36.000
E09  22346870.938 7 117433682.689 7     -1281.332          43.000    22346873.406 7  89981653.557 7      -981.899          42.000
E24  25149771.812 8 132162957.255 8      2940.977          48.000    25149786.719 7 101267745.324 7      2253.502          42.000
E36  26248894.922 6 137938919.637 6     -3039.062          37.000    26248898.938 6 105693403.490 6     -2328.554          41.000
> 2020 05 19 00 04  0.0000000  0 17        .000000000000
G06  21375157.594 8 112327204.348 8     -1484.160          51.000    21375159.266 8  87527688.872 8     -1156.488          51.000
G07  21463816.961 7 112793121.869 7      1926.430          47.000    21463818.258 7  87890747.518 7      1501.114          47.000
G09  20521596.062 8 107841793.095 8     -1019.051          51.000    20521596.461 8  84032577.049 8      -794.066          51.000
G30  23232281.578 6 122086466.249 6      3450.238          38.000    23232276.781 6  95132291.363 6      2688.497          38.000
R02  20231369.383 7 107958471.816 7     -1534.031          44.000    20231382.750 4  83967723.756 4     -1193.138          29.000
R11  22905496.156 6 122399952.495 6     -3106.523          38.000    22905488.984 4  95199990.004 4     -2416.185          29.000
R12  20460586.883 5 109296759.085 5       237.707          31.000    20460582.266 6  85008589.292 6       184.883          41.000
R13  21623880.297 6 115470316.469 6      3871.633          38.000    21623877.539 5  89810228.248 5      3011.273          31.000
R18  21587248.406 5 115234196.937 5     -2664.434          34.000    21587249.383 6  89626563.714 6     -2072.331          38.000
C05  39795972.227 6 207228070.356 6       -20.930          36.000    39795968.188 6 160241872.110 6       -16.510          37.000
C19  21592749.344 8 112439115.902 8      -310.820          51.000
C20  24696201.023 4 128599610.787 4     -2380.234          29.000
C22  23574251.516 5 122757336.925 5      2121.574          33.000
E05  23876071.234 6 125469581.914 6       884.207          36.000    23876073.430 6  96139041.715 6       677.177          36.000
E09  22354197.062 6 117472181.758 6     -1285.113          41.000    22354200.227 7  90011152.797 7      -984.494          43.000
E24  25132988.977 8 132074762.654 8      2938.664          48.000    25133000.031 6 101200167.698 6      2251.650          41.000
E36  26266253.727 5 138030139.304 5     -3041.645          33.000    26266257.172 6 105763299.122 6     -2330.934          41.000
> 2020 05 19 00 04 30.0000000  0 15        .000000000000
G06  21383699.398 8 112372091.975 8     -1503.945          51.000    21383701.234 8  87562666.255 8     -1171.905          51.000
G07  21452876.578 8 112735628.986 8      1910.871          50.000    21452876.062 8  87845947.944 8      1488.994          50.000
G09  20527459.461 8 107872605.580 8     -1030.828          51.000    20527459.859 8  84056586.773 8      -803.243          51.000
G30  23212619.227 6 121983140.187 6      3442.930          40.000    23212614.922 6  95051777.572 6      2682.805          39.000
R02  20240037.008 7 108004720.130 7     -1544.586          43.000    20240036.008 4  84003663.244 4     -1201.345          24.000
R11  22923002.539 6 122493497.029 6     -3125.141          36.000    22922997.516 5  95272746.366 5     -2430.665          32.000
R13  21602181.672 6 115354450.315 6      3857.188          38.000    21602178.016 5  89720110.130 5      3000.035          33.000
R18  21602291.078 6 115314521.960 6     -2685.953          37.000    21602297.109 6  89689038.782 6     -2089.075          36.000
C05  39796110.969 6 207228792.708 6       -22.344          36.000    39796106.875 6 160242430.667 6       -17.540          37.000
C19  21594581.742 8 112448657.654 8      -320.914          51.000
C22  23562057.914 5 122693832.603 5      2116.398          32.000
E05  23871055.555 6 125443230.285 6       877.320          36.000    23871059.898 5  96118850.250 5       672.146          34.000
E09  22361560.602 7 117510878.613 7     -1290.477          42.000    22361564.039 7  90040803.634 7      -988.813          43.000
E24  25116238.555 8 131986738.075 8      2934.027          48.000    25116246.094 7 101132720.360 7      2248.148          42.000
E36                                                                  26283651.609 6 105833339.359 6     -2334.951          41.000
> 2020 05 19 00 05  0.0000000  0 17        .000000000000
G02  22504258.789 5 118260672.598 5       841.977          34.000
G06  21392329.891 8 112417444.504 8     -1520.820          51.000    21392331.695 8  87598005.910 8     -1185.055          51.000
G07  21442001.594 8 112678477.889 8      1898.176          51.000    21441999.680 8  87801414.653 8      1479.098          51.000
G09  20533366.312 8 107903646.543 8     -1039.836          51.000    20533366.898 8  84080774.527 8      -810.262          51.000
G30  23192976.484 6 121879917.870 6      3437.684          41.000    23192972.781 6  94971344.598 6      2678.714          41.000
R02  20248739.945 6 108051158.960 6     -1552.324          41.000    20248750.086 5  84039791.863 5     -1207.366          30.000
R11  22940589.156 4 122587472.246 4     -3140.527          29.000    22940586.023 5  95345838.188 5     -2442.632          33.000
R12  20458249.648 6 109284197.604 6       182.902          36.000    20458241.883 7  84998848.318 7       142.248          42.000
R13  21580538.336 6 115238878.351 6      3845.914          40.000    21580536.070 6  89630220.847 6      2991.266          36.000
R18  21617430.867 6 115395350.137 6     -2703.594          39.000    21617437.406 5  89751905.098 5     -2102.792          33.000
C05  39796231.992 6 207229421.846 6       -20.918          36.000    39796227.812 6 160242917.929 6       -15.961          37.000
C19  21596447.344 8 112458371.990 8      -327.902          51.000
C22  23549872.914 4 122630363.033 4      2113.344          28.000
E05  23866053.328 5 125416944.708 5       873.465          33.000
E09  22368931.070 6 117549610.891 6     -1292.980          40.000    22368933.805 7  90070481.613 7      -990.668          44.000
E24  25099490.195 8 131898723.456 8      2932.355          48.000    25099497.797 7 101065280.630 7      2246.864          46.000
E36                                                                  26301050.891 7 105903398.404 7     -2336.669          42.000
> 2020 05 19 00 05 30.0000000  0 14        .000000000000
G02  22499512.414 5 118235727.738 5       819.965          31.000
G06  21401072.297 8 112463384.869 8     -1542.730          51.000    21401073.711 8  87633803.578 8     -1202.128          51.000
G07  21431215.375 8 112621793.982 8      1880.012          48.000    21431213.250 8  87757245.373 8      1464.944          48.000
G09  20539340.117 8 107935039.483 8     -1053.883          51.000    20539340.906 8  84105236.552 8      -821.207          51.000
G30  23173377.672 6 121776926.108 6      3427.480          41.000    23173374.516 7  94891091.265 7      2670.764          42.000
R02  20257501.203 6 108097914.199 6     -1565.340          39.000    20257501.227 4  84076156.982 4     -1217.484          25.000
R03  20109680.547 5 107648678.286 5      1470.555          32.000
R13  21558974.930 6 115123731.797 6      3829.188          40.000    21558972.773 5  89540662.424 5      2978.257          35.000
R18  21632688.602 6 115476803.981 6     -2727.074          39.000    21632693.430 5  89815258.078 5     -2121.058          33.000
C05  39796359.039 6 207230084.191 6       -23.906          36.000    39796354.828 6 160243429.333 6       -18.622          37.000
C19  21598369.867 8 112468382.723 8      -340.219          51.000
E09  22376331.906 6 117588502.962 6     -1300.734          41.000    22376334.273 7  90100282.001 7      -996.547          44.000
E24  25082767.703 8 131810845.479 8      2925.309          48.000    25082777.430 8 100997945.569 8      2241.569          48.000
E36                                                                  26318477.945 7 105973570.136 7     -2342.233          42.000
> 2020 05 19 00 06  0.0000000  0 15        .000000000000
G04  22561941.320 4 118563801.234 4     -2678.938          29.000
G06  21409924.625 8 112509902.640 8     -1555.977          51.000    21409925.383 8  87670051.168 8     -1212.449          51.000
G07  21420516.266 7 112565570.275 7      1870.719          47.000    21420514.586 7  87713434.688 7      1457.703          46.000
G09  20545379.156 8 107966774.653 8     -1059.305          51.000    20545379.828 8  84129965.244 8      -825.432          51.000
G30  23153821.438 5 121674158.314 5      3425.777          35.000    23153818.633 6  94811012.440 6      2669.437          36.000
R02  20266321.117 6 108144977.096 6     -1569.676          41.000    20266322.984 4  84112733.568 4     -1220.856          29.000
R11  22976067.984 5 122777090.180 5     -3173.121          31.000
R13  21537490.500 6 115009006.714 6      3821.457          39.000    21537488.164 6  89451431.851 6      2972.247          36.000
R18  21648060.953 6 115558870.538 6     -2741.305          41.000    21648066.117 6  89879087.618 6     -2132.126          37.000
C05  39796490.367 6 207230767.977 6       -19.262          36.000    39796486.156 6 160243958.080 6       -14.798          37.000
C19  21600347.758 8 112478681.463 8      -343.875          51.000
C20  24751304.781 5 128886534.534 5     -2397.172          30.000
E09  22383761.695 6 117627545.717 6     -1299.664          40.000    22383763.742 7  90130197.895 7      -995.921          45.000
E24  25066069.555 7 131723097.369 7      2926.973          47.000    25066081.891 8 100930710.014 8      2242.727          50.000
E36                                                                  26335930.539 7 106043846.281 7     -2341.057          42.000
> 2020 05 19 00 06 30.0000000  0 15        .000000000000
G06  21418860.844 8 112556861.219 8     -1579.297          51.000    21418860.914 8  87706642.259 8     -1230.621          51.000
G07  21409879.367 8 112509672.969 8      1850.969          49.000    21409878.242 8  87669878.353 8      1442.313          49.000
G09  20551457.523 8 107998716.182 8     -1074.801          51.000    20551457.836 8  84154854.747 8      -837.507          51.000
R02  20275173.125 6 108192210.550 6     -1584.219          40.000    20275178.484 5  84149470.660 5     -1232.170          32.000
R03  20093251.664 5 107560748.261 5      1453.258          30.000    20093254.648 4  83658372.991 4      1130.312          28.000
R13  21516059.383 6 114894569.794 6      3802.602          36.000    21516058.273 6  89362425.391 6      2957.582          37.000
R18  21663522.883 7 115641408.471 7     -2766.039          43.000    21663529.875 6  89943283.762 6     -2151.367          40.000
C05  39796600.273 6 207231339.586 6       -24.086          36.000    39796596.117 6 160244400.864 6       -18.474          37.000
C19  21602355.219 8 112489135.004 8      -357.668          51.000
C20  24765131.492 5 128958510.688 5     -2406.371          30.000
C22  23513463.422 5 122440748.243 5      2097.176          30.000
E05  23851234.445 6 125339083.680 6       854.707          36.000    23851236.344 6  96039032.985 6       654.887          37.000
E09  22391194.875 6 117666604.135 6     -1309.148          39.000    22391196.500 7  90160125.736 7     -1002.991          45.000
E24  25049369.922 7 131635346.331 7      2918.359          43.000    25049385.375 8 100863472.213 8      2236.151          51.000
E36                                                                  26353383.023 7 106114121.957 7     -2347.591          42.000
> 2020 05 19 00 07  0.0000000  0 14        .000000000000
G06  21427919.094 8 112604462.113 8     -1611.758          51.000    21427919.266 8  87743733.868 8     -1255.915          51.000
G07  21399344.008 8 112454306.867 8      1822.262          51.000    21399342.914 8  87626735.949 8      1419.944          51.000
G09  20557613.617 8 108031066.286 8     -1099.562          51.000    20557613.875 8  84180062.628 8      -856.802          51.000
R02  20284093.711 5 108239820.590 5     -1607.762          32.000    20284102.102 5  84186500.657 5     -1250.487          35.000
R11  23011901.297 5 122968622.839 5     -3227.379          31.000    23011904.422 4  95642275.157 4     -2510.184          25.000
R13  21494721.625 6 114780632.290 6      3774.754          36.000    21494723.031 6  89273807.338 6      2935.917          40.000
R18  21679112.391 7 115724620.198 7     -2799.660          45.000    21679119.320 6  90008003.993 6     -2177.513          39.000
C05  39796727.523 6 207232002.271 6       -37.980          36.000    39796723.422 6 160244913.300 6       -29.191          37.000
C19  21604431.023 8 112499945.067 8      -380.523          51.000
C22  23501402.398 5 122377847.414 5      2078.031          31.000
E05  23846364.336 6 125313467.039 6       835.406          37.000    23846364.414 6  96019404.662 6       640.060          37.000
E09  22398669.391 6 117705881.115 6     -1326.922          40.000    22398670.852 7  90190221.070 7     -1016.924          44.000
E24  25032708.086 7 131547797.689 7      2900.480          42.000    25032726.789 8 100796389.490 8      2222.515          51.000
E36  26370879.516 5 138579904.975 5     -3081.281          33.000    26370873.562 6 106184551.284 6     -2361.341          40.000
> 2020 05 19 00 07 30.0000000  0 16        .000000000000
G06  21437060.531 8 112652502.398 8     -1607.277          50.000    21437061.703 8  87781167.838 8     -1252.424          50.000
G07  21388871.578 8 112399271.976 8      1830.633          50.000    21388870.078 8  87583851.618 8      1426.467          50.000
G09  20563808.984 8 108063622.716 8     -1087.242          51.000    20563809.453 8  84205431.283 8      -847.202          51.000
G30  23095325.172 5 121366752.531 5      3408.660          34.000    23095345.000 5  94571557.389 5      2656.093          34.000
R02  20293053.852 6 108287627.179 6     -1594.312          39.000    20293050.359 5  84223697.920 5     -1240.018          34.000
R11  23029964.820 5 123065065.753 5     -3220.797          34.000    23029962.148 4  95717326.773 4     -2505.067          28.000
R12  20455090.023 6 109267468.551 6        48.656          38.000    20455077.602 6  84985748.355 6        37.835          37.000
R13  21473440.805 6 114666993.665 6      3784.102          36.000    21473443.695 6  89185421.738 6      2943.190          41.000
R18  21694793.750 7 115808295.137 7     -2795.426          44.000    21694790.477 6  90073103.012 6     -2174.220          37.000
C05  39796833.812 6 207232556.196 6       -15.238          36.000    39796829.805 6 160245341.255 6       -11.735          37.000
C19  21606537.109 8 112510912.589 8      -366.820          51.000
C22  23489328.742 5 122314972.392 5      2096.793          34.000
E05  23841500.570 6 125287899.175 6       853.074          36.000    23841498.617 5  95999813.674 5       653.457          35.000
E09  22406146.422 6 117745175.244 6     -1308.688          36.000    22406148.062 7  90220329.532 7     -1002.755          44.000
E24  25016047.648 7 131460252.298 7      2919.844          42.000    25016068.125 8 100729309.229 8      2237.058          51.000
E36                                                                  26388362.758 6 106254978.542 6     -2346.313          38.000
> 2020 05 19 00 08  0.0000000  0 16        .000000000000
G06  21446314.734 8 112701135.967 8     -1631.445          49.000    21446316.727 8  87819064.118 8     -1271.256          49.000
G07  21378491.672 8 112344725.065 8      1809.574          49.000    21378489.523 8  87541347.549 8      1410.058          49.000
G09  20570073.062 8 108096540.189 8     -1103.777          51.000    20570073.648 8  84231081.266 8      -860.086          51.000
G30  23075910.664 5 121264726.715 5      3395.492          35.000    23075927.328 6  94492056.709 6      2645.838          36.000
R02  20302064.711 5 108335740.438 5     -1609.855          34.000    20302069.156 5  84261119.262 5     -1252.113          33.000
R11  23048121.000 5 123162079.593 5     -3243.590          35.000    23048118.977 4  95792781.974 4     -2522.792          28.000
R12  20454903.648 5 109266571.545 5        14.113          34.000    20454911.516 6  84985050.726 6        10.989          40.000
R13  21452246.359 6 114553816.465 6      3764.121          37.000    21452250.414 7  89097395.064 7      2927.653          42.000
R18  21710584.781 7 115892587.485 7     -2820.805          43.000    21710582.273 6  90138664.798 6     -2193.956          38.000
C05  39796948.664 6 207233154.658 6       -21.227          37.000    39796944.742 6 160245804.027 6       -16.320          37.000
C19  21608703.141 8 112522192.267 8      -381.707          51.000
C22  23477290.508 5 122252278.257 5      2086.164          33.000
E05  23836673.219 5 125262535.672 5       841.559          34.000    23836667.438 5  95980379.238 5       645.028          33.000
E09  22413656.000 6 117784641.959 6     -1318.863          37.000    22413658.547 7  90250570.226 7     -1010.593          44.000
E24  24999419.297 7 131372867.899 7      2909.543          45.000    24999439.297 8 100662352.323 8      2229.456          51.000
E36                                                                  26405879.539 5 106325521.500 5     -2353.768          35.000
> 2020 05 19 00 08 30.0000000  0 15        .000000000000
G04  22638800.375 6 118967698.154 6     -2713.395          36.000
G06  21455721.305 8 112750570.445 8     -1660.434          49.000    21455723.570 8  87857584.511 8     -1293.841          49.000
G07  21368244.570 8 112290876.714 8      1784.016          49.000    21368241.984 8  87499387.823 8      1390.145          49.000
G09  20576445.328 8 108130027.051 8     -1124.930          51.000    20576446.039 8  84257174.911 8      -876.569          51.000
G30  23056584.789 5 121163168.421 5      3377.793          34.000    23056597.898 5  94412920.310 5      2632.043          35.000
R02  20311181.023 4 108384396.216 4     -1629.719          29.000    20311186.156 5  84298962.724 5     -1267.565          33.000
R12  20454934.969 6 109266771.271 6       -24.109          40.000    20454948.664 6  84985206.008 6       -18.755          39.000
R13  21431179.336 6 114441318.604 6      3739.324          39.000    21431183.539 7  89009896.715 7      2908.360          42.000
R18  21726526.961 6 115977711.486 6     -2850.410          40.000    21726529.703 6  90204872.399 6     -2216.983          38.000
C05  39797112.141 6 207234005.483 6       -31.562          36.000    39797108.125 6 160246461.949 6       -24.460          37.000
C19  21610969.203 8 112533991.845 8      -401.191          51.000
E05  23831923.375 5 125237605.794 5       825.641          33.000    23831917.328 5  95961261.843 5       632.568          35.000
E09  22421238.438 6 117824490.388 6     -1333.773          37.000    22421241.859 7  90281103.404 7     -1021.931          44.000
E24  24982862.672 7 131285855.763 7      2895.051          47.000    24982880.539 8 100595680.720 8      2218.319          50.000
E36                                                                  26423463.820 5 106396338.990 5     -2364.280          35.000
> 2020 05 19 00 09  0.0000000  0 14        .000000000000
G06  21465193.758 8 112800350.878 8     -1668.715          48.000    21465196.023 8  87896374.476 8     -1300.294          48.000
G07  21358044.469 8 112237275.159 8      1778.941          50.000    21358041.883 8  87457620.384 8      1386.188          50.000
G09  20582839.406 8 108163629.187 8     -1125.703          51.000    20582840.367 8  84283358.387 8      -877.171          51.000
G30  23037263.195 5 121061626.689 5      3380.699          35.000    23037272.406 6  94333796.757 6      2634.308          37.000
R02  20320320.789 5 108433107.735 5     -1629.582          32.000    20320317.391 5  84336870.184 5     -1267.453          31.000
R12  20455087.672 6 109267606.830 6       -42.355          38.000    20455103.500 6  84985855.810 6       -32.943          40.000
R13  21410154.469 6 114329042.971 6      3734.961          41.000    21410158.188 7  88922571.220 7      2904.970          42.000
R18  21742538.633 7 116063198.629 7     -2859.402          42.000    21742544.070 6  90271362.462 6     -2223.977          37.000
C05  39797237.648 6 207234659.241 6       -22.121          36.000    39797233.820 6 160246967.885 6       -17.090          38.000
C19  21613249.086 8 112545862.740 8      -400.531          51.000
E05  23827167.031 6 125212608.504 6       830.070          36.000    23827162.961 6  95942114.296 6       635.917          36.000
E09  22428807.727 6 117864267.134 6     -1328.043          36.000    22428810.727 7  90311581.674 7     -1017.825          44.000
E24  24966291.516 8 131198764.992 8      2900.574          49.000    24966306.570 8 100528948.865 8      2222.533          50.000
E36                                                                  26441030.289 5 106467082.223 5     -2359.521          35.000
> 2020 05 19 00 09 30.0000000  0 14        .000000000000
G06  21474770.297 8 112850676.308 8     -1686.648          49.000    21474772.258 8  87935589.101 8     -1314.272          49.000
G07  21347929.914 8 112184122.572 8      1764.207          50.000    21347927.711 8  87416202.762 8      1374.704          50.000
G09  20589293.414 8 108197546.420 8     -1136.004          51.000    20589294.586 8  84309787.400 8      -885.198          51.000
G30  23017982.922 6 120960304.471 6      3373.672          39.000    23017989.766 6  94254844.303 6      2628.832          38.000
R02  20329507.109 6 108482132.594 6     -1638.969          36.000    20329510.625 5  84375000.583 5     -1274.753          34.000
R12  20455400.234 6 109269282.232 6       -69.859          38.000    20455417.766 6  84987158.984 6       -54.338          40.000
R13  21389210.695 6 114217198.650 6      3720.703          41.000    21389213.344 7  88835581.203 7      2893.880          42.000
R18  21758658.133 6 116149248.870 6     -2877.957          40.000    21758664.234 5  90338290.405 5     -2238.411          35.000
C05  39797363.844 6 207235315.936 6       -22.176          36.000    39797359.930 6 160247475.678 6       -17.175          37.000
C19  21615580.898 8 112558004.357 8      -409.383          51.000
E05  23822442.281 5 125187780.668 5       825.156          35.000    23822440.250 6  95923090.400 6       632.083          37.000
E09  22436401.289 6 117904172.850 6     -1332.719          37.000    22436403.734 7  90342158.773 7     -1021.021          43.000
E24  24949743.867 8 131111798.479 8      2896.688          49.000    24949756.836 8 100462312.210 8      2219.510          50.000
E36                                                                  26458617.984 6 106537903.547 6     -2362.170          36.000
> 2020 05 19 00 10  0.0000000  0 15        .000000000000
G06  21484446.125 8 112901521.365 8     -1703.594          51.000    21484447.891 8  87975208.602 8     -1327.476          51.000
G07  21337896.594 8 112131396.589 8      1750.305          50.000    21337894.938 8  87375117.558 8      1363.874          51.000
G09  20595802.859 8 108231754.228 8     -1145.215          51.000    20595803.852 8  84336442.823 8      -892.375          51.000
G30  22998740.227 6 120859180.481 6      3367.465          40.000    22998745.398 6  94176046.339 6      2623.996          40.000
R02  20338772.305 5 108531504.380 5     -1647.355          30.000    20338743.703 5  84413345.665 5     -1281.276          32.000
R03  20037403.375 4 107261766.208 4      1393.523          28.000    20037405.242 4  83425838.136 4      1083.852          27.000
R12  20455865.867 6 109271773.808 6       -96.863          36.000    20455884.125 6  84989096.880 6       -75.335          40.000
R13  21368343.500 6 114105765.967 6      3707.391          40.000    21368345.062 6  88748911.335 6      2883.526          40.000
R18  21774878.406 6 116235833.877 6     -2895.516          36.000    21774883.023 5  90405634.293 5     -2252.068          30.000
C05  39797485.992 6 207235951.596 6       -21.215          36.000    39797481.977 6 160247967.230 6       -16.393          38.000
C19  21617960.195 8 112570393.630 8      -417.188          51.000
E05  23817742.703 5 125163083.695 5       819.910          32.000    23817743.680 6  95904172.120 6       628.728          37.000
E09  22444014.875 5 117944093.751 5     -1335.262          35.000    22444016.977 7  90372816.447 7     -1023.278          43.000
E24  24933214.898 8 131024934.664 8      2893.625          48.000    24933227.297 8 100395754.256 8      2217.148          51.000
E36                                                                  26476222.117 6 106608783.323 6     -2363.643          37.000
> 2020 05 19 00 10 30.0000000  0 16        .000000000000
G04  22700720.461 6 119293072.571 6     -2720.746          37.000
G06  21494220.609 8 112952884.423 8     -1722.820          51.000    21494222.023 8  88015231.748 8     -1342.457          51.000
G07  21327944.594 8 112079098.245 8      1734.082          51.000    21327943.453 8  87334365.634 8      1351.233          50.000
G09  20602367.648 8 108266251.855 8     -1156.785          51.000    20602368.367 8  84363324.091 8      -901.391          51.000
G30  22979535.391 7 120758257.187 7      3358.871          42.000    22979539.773 7  94097404.769 7      2617.302          42.000
R02  20348026.070 5 108580963.258 5     -1657.965          31.000    20348033.117 5  84451867.078 5     -1289.519          32.000
R03  20029617.344 4 107220092.549 4      1382.770          29.000    20029623.797 4  83393415.901 4      1075.490          28.000
R12  20456487.336 6 109275081.540 6      -126.047          37.000    20456503.547 6  84991669.666 6       -98.036          39.000
R13  21347552.938 6 113994749.562 6      3691.148          36.000    21347554.852 6  88662565.250 6      2870.896          40.000
R18  21791196.758 5 116322949.785 5     -2914.867          32.000
C05  39797604.078 6 207236566.508 6       -22.582          36.000    39797600.047 6 160248442.707 6       -17.078          38.000
C19  21620387.047 8 112583031.246 8      -427.453          51.000
E05                                                                  23813072.367 6  95885359.556 6       623.666          37.000
E09  22451648.938 6 117984209.922 6     -1341.102          36.000    22451651.078 7  90403554.757 7     -1027.555          43.000
E24  24916705.250 7 130938175.922 7      2888.109          47.000    24916717.984 8 100329276.792 8      2212.931          51.000
E36  26493849.750 5 139226115.091 5     -3089.129          35.000    26493841.086 6 106679720.201 6     -2367.198          38.000
> 2020 05 19 00 11  0.0000000  0 15        .000000000000
G04  22716245.625 5 119374656.681 5     -2722.520          35.000
G06  21504088.703 8 113004740.186 8     -1738.180          51.000    21504089.633 8  88055638.835 8     -1354.426          51.000
G07  21318069.734 8 112027205.458 8      1721.461          51.000    21318069.023 8  87293929.724 8      1341.398          51.000
G09  20608982.969 8 108301014.802 8     -1164.559          51.000    20608983.672 8  84390412.107 8      -907.448          51.000
G30  22960364.812 7 120657513.430 7      3353.551          45.000    22960368.648 7  94018903.132 7      2613.156          45.000
R12  20457258.453 5 109279181.465 5      -151.168          30.000    20457270.883 6  84994858.454 6      -117.572          39.000
R13  21326834.719 5 113884129.533 5      3679.355          32.000    21326838.219 6  88576527.423 6      2861.724          40.000
R18  21807612.062 6 116410568.159 6     -2930.441          37.000    21807611.273 5  90541497.646 5     -2279.235          32.000
C05  39797713.695 6 207237137.435 6       -19.488          36.000    39797709.727 6 160248884.192 6       -15.378          37.000
C19  21622857.102 8 112595894.260 8      -434.008          51.000
C22  23405666.633 5 121879457.948 5      2059.484          31.000
E05                                                                  23808421.547 6  95866634.769 6       621.676          36.000
E09  22459298.492 6 118024407.548 6     -1342.645          36.000    22459300.953 7  90434355.536 7     -1028.810          42.000
E24  24900211.078 7 130851500.894 7      2886.359          47.000    24900224.648 8 100262863.451 8      2211.593          51.000
E36  26511474.242 6 139318742.794 6     -3090.152          37.000    26511469.578 6 106750694.651 6     -2367.552          38.000
> 2020 05 19 00 11 30.0000000  0 17        .000000000000
G04  22731784.461 5 119456311.367 5     -2726.703          35.000
G06  21514048.109 8 113057077.066 8     -1756.070          50.000    21514048.820 8  88096420.834 8     -1368.366          49.000
G07  21308270.531 8 111975709.826 8      1706.301          51.000    21308269.773 8  87253803.265 8      1329.585          51.000
G09  20615646.719 8 108336032.475 8     -1175.043          51.000    20615647.492 8  84417698.602 8      -915.618          51.000
G30  22941226.984 7 120556941.684 7      3345.992          45.000    22941229.602 7  93940535.562 7      2607.270          45.000
R02  20366733.078 5 108680797.876 5     -1674.543          34.000    20366732.477 5  84529496.846 5     -1302.419          31.000
R12  20458176.531 6 109283887.549 6      -179.473          40.000    20458184.266 6  84998655.759 6      -139.593          38.000
R13  21306190.430 5 113773900.230 5      3664.203          34.000    21306195.641 6  88490793.551 6      2849.936          41.000
R18  21824119.633 6 116498675.362 6     -2948.609          39.000    21824120.820 6  90610025.477 6     -2293.366          38.000
C05  39797812.984 6 207237654.759 6       -19.871          36.000    39797809.055 6 160249284.230 6       -15.505          38.000
C19  21625368.664 8 112608973.497 8      -443.219          51.000
C20  24904958.211 4 129686657.285 4     -2449.723          29.000
C22  23393795.828 4 121817633.598 4      2055.965          27.000
E05  23803792.094 5 125089769.904 5       805.836          35.000    23803790.906 6  95847990.353 6       617.713          36.000
E09  22466962.383 6 118064676.923 6     -1346.801          38.000    22466964.062 7  90465211.253 7     -1032.305          42.000
E24  24883731.555 8 130764901.915 8      2881.871          48.000    24883745.789 8 100196508.357 8      2208.097          51.000
E36  26529106.883 6 139411407.816 6     -3092.738          36.000    26529105.742 6 106821697.755 6     -2369.976          38.000
> 2020 05 19 00 12  0.0000000  0 16        .000000000000
G04  22747375.961 5 119538238.545 5     -2739.680          33.000
G06  21524137.352 8 113110096.355 8     -1782.957          50.000    21524138.227 8  88137734.568 8     -1389.317          51.000
G07  21298585.820 8 111924815.721 8      1682.062          51.000    21298584.781 8  87214145.521 8      1310.698          51.000
G09  20622397.391 8 108371507.021 8     -1194.262          51.000    20622398.102 8  84445341.107 8      -930.594          51.000
G30  22922160.750 7 120456747.394 7      3329.262          44.000    22922159.703 7  93862462.193 7      2594.236          44.000
R11  23196729.938 5 123956272.436 5     -3379.977          30.000
R12  20459278.141 5 109289757.837 5      -216.512          33.000    20459283.008 6  85003221.553 6      -168.389          37.000
R13  21285660.414 5 113664273.228 5      3639.188          35.000    21285666.445 7  88405528.135 7      2830.479          42.000
R18  21840755.680 6 116587473.270 6     -2975.805          39.000    21840758.016 6  90679090.585 6     -2314.512          40.000
C05  39797940.656 6 207238319.873 6       -29.102          36.000    39797936.805 6 160249798.538 6       -22.733          37.000
C19  21627960.664 8 112622470.630 8      -461.148          51.000
C20  24919097.297 4 129760276.583 4     -2463.641          29.000
E05  23799220.789 5 125065750.518 5       791.559          31.000    23799219.008 5  95829582.056 5       606.166          35.000
E09  22474678.375 6 118105220.851 6     -1360.520          40.000    22474679.344 7  90496277.396 7     -1042.431          42.000
E24  24867306.000 8 130678584.232 8      2868.152          48.000    24867320.570 8 100130368.814 8      2197.717          51.000
E36  26546784.641 5 139504294.378 5     -3104.695          33.000    26546787.430 6 106892883.554 6     -2379.120          38.000
> 2020 05 19 00 12 30.0000000  0 14        .000000000000
G06  21534337.805 8 113163698.854 8     -1797.430          51.000    21534338.789 8  88179502.761 8     -1400.595          51.000
G07  21288997.180 8 111874427.079 8      1670.207          51.000    21288995.914 8  87174881.670 8      1301.460          51.000
G09  20629216.312 8 108407340.235 8     -1201.457          51.000    20629216.961 8  84473263.092 8      -936.200          51.000
G30  22903147.531 7 120356835.496 7      3324.902          42.000    22903143.648 7  93784608.828 7      2590.833          42.000
R02  20385713.180 6 108782110.769 6     -1699.684          36.000    20385706.844 5  84608263.781 5     -1321.970          34.000
R12  20460544.922 6 109296517.449 6      -241.211          39.000    20460548.742 5  85008479.134 5      -187.609          34.000
R13  21265226.648 6 113555153.663 6      3627.922          37.000    21265232.273 7  88320657.351 7      2821.717          42.000
R18  21857502.023 6 116676858.792 6     -2990.332          41.000    21857504.766 6  90748612.662 6     -2325.814          41.000
C05  39798078.195 6 207239036.301 6       -25.922          36.000    39798074.406 6 160250352.500 6       -19.860          38.000
C19  21630614.469 8 112636289.652 8      -466.992          51.000
E05                                                                  23794686.609 5  95811335.276 5       604.771          34.000
E09  22482427.930 6 118145941.941 6     -1361.301          40.000    22482428.039 7  90527479.297 7     -1043.030          42.000
E24  24850916.211 8 130592452.653 8      2866.949          49.000    24850930.648 8 100064371.908 8      2196.777          51.000
E36  26564489.367 5 139597333.203 5     -3104.824          33.000    26564495.445 6 106964176.073 6     -2378.967          37.000
> 2020 05 19 00 13  0.0000000  0 14        .000000000000
G06  21544626.297 8 113217763.416 8     -1809.258          51.000    21544627.352 8  88221630.987 8     -1409.814          51.000
G07  21279482.273 8 111824425.732 8      1660.785          51.000    21279480.906 8  87135919.598 8      1294.118          51.000
G09  20636080.641 8 108443411.904 8     -1205.809          51.000    20636081.242 8  84501370.876 8      -939.591          51.000
G30  22884164.836 6 120257089.101 6      3322.758          40.000    22884162.508 6  93706884.328 6      2589.159          41.000
R03  19991474.367 5 107015926.861 5      1339.125          30.000
R12  20461954.602 6 109304044.744 6      -263.266          37.000    20461954.977 4  85014297.723 4      -204.762          26.000
R13  21244866.289 6 113446424.389 6      3618.223          38.000    21244871.117 7  88236090.122 7      2814.173          43.000
R18  21874334.688 6 116766706.516 6     -3001.926          41.000    21874336.758 6  90818494.193 6     -2334.834          40.000
C05  39798202.953 6 207239685.899 6       -19.961          36.000    39798199.211 6 160250854.817 6       -15.495          37.000
C19  21633307.359 8 112650312.832 8      -470.301          51.000
E05                                                                  23790170.922 5  95793158.700 5       605.193          33.000
E09  22490188.328 5 118186720.901 5     -1359.805          34.000    22490187.945 7  90558725.486 7     -1041.913          43.000
E24  24834539.562 8 130506390.131 8      2868.055          50.000    24834553.523 8  99998427.900 8      2197.606          51.000
E36                                                                  26582207.469 6 107035482.353 6     -2376.609          38.000
> 2020 05 19 00 13 30.0000000  0 13        .000000000000
G06  21555007.789 8 113272317.822 8     -1827.551          51.000    21555008.188 8  88264140.908 8     -1424.066          51.000
G07  21270046.891 8 111774842.528 8      1644.855          51.000    21270045.477 8  87097283.349 8      1281.709          51.000
G09  20642995.781 8 108479750.765 8     -1216.609          51.000    20642996.289 8  84529686.853 8      -948.007          51.000
G30  22865220.438 7 120157540.044 7      3313.566          42.000    22865220.180 7  93629313.619 7      2582.000          42.000
R12  20463513.281 6 109312369.591 6      -291.164          38.000
R13  21224585.148 6 113338120.306 6      3602.238          38.000    21224589.680 7  88151853.628 7      2801.741          43.000
R18  21891256.680 6 116857042.475 6     -3020.012          37.000    21891259.812 6  90888755.476 6     -2348.898          40.000
C05  39798320.547 6 207240298.147 6       -20.461          36.000    39798316.805 6 160251328.294 6       -16.084          38.000
C19  21636045.219 8 112664569.945 8      -480.000          51.000
E05                                                                  23785679.500 5  95775075.090 5       600.332          34.000
E09  22497963.859 6 118227587.203 6     -1364.684          36.000    22497965.227 7  90590038.543 7     -1045.601          43.000
E24  24818181.430 8 130420428.361 8      2862.672          48.000    24818195.227 8  99932561.087 8      2193.605          51.000
E36                                                                  26599928.938 6 107106823.613 6     -2379.189          38.000
> 2020 05 19 00 14  0.0000000  0 15        .000000000000
G04  22809928.047 4 119866980.673 4     -2748.098          29.000
G06  21565481.867 8 113327360.757 8     -1845.324          50.000    21565481.953 8  88307031.473 8     -1437.915          50.000
G07  21260691.328 8 111725679.131 8      1629.398          51.000    21260689.914 8  87058974.202 8      1269.661          51.000
G09  20649961.664 8 108516356.536 8     -1226.980          51.000    20649962.094 8  84558210.823 8      -956.089          51.000
G30  22846315.148 7 120058191.143 7      3306.023          44.000    22846315.938 7  93551898.875 7      2576.122          44.000
R12  20465221.273 6 109321492.359 6      -320.238          38.000
R13  21204384.266 6 113230246.179 6      3586.133          39.000    21204388.781 7  88067951.568 7      2789.214          42.000
R18  21908268.398 6 116947862.621 6     -3037.723          38.000    21908273.305 6  90959393.432 6     -2362.673          39.000
C05  39798431.141 6 207240873.814 6       -21.328          36.000    39798427.422 6 160251773.377 6       -16.248          38.000
C19  21638828.477 8 112679062.085 8      -489.438          51.000
C20  24975894.258 4 130056034.842 4     -2473.652          27.000
E05                                                                  23781212.055 5  95757085.094 5       596.154          33.000
E09  22505757.023 6 118268541.301 6     -1369.125          41.000    22505758.883 7  90621418.911 7     -1049.079          43.000
E24  24801842.086 7 130334570.129 7      2857.680          47.000    24801856.406 8  99866773.628 8      2189.624          50.000
E36                                                                  26617658.156 6 107178198.921 6     -2381.577          36.000
> 2020 05 19 00 14 30.0000000  0 13        .000000000000
G06  21576071.992 8 113383013.423 8     -1862.164          50.000    21576072.188 8  88350397.148 8     -1451.037          50.000
G07  21251439.219 8 111677059.581 8      1614.707          50.000    21251438.133 8  87021088.831 8      1258.213          50.000
G09  20657001.531 8 108553351.426 8     -1236.535          51.000    20657002.055 8  84587037.998 8      -963.534          51.000
G30  22827472.125 7 119959167.900 7      3298.352          44.000    22827473.523 7  93474737.892 7      2570.141          44.000
R12  20467102.359 5 109331537.715 5      -347.465          33.000    20467117.203 5  85035728.715 5      -270.244          32.000
R13  21184288.508 6 113122931.982 6      3571.043          40.000    21184292.234 6  87984485.005 6      2777.478          40.000
R18  21925394.688 6 117039287.974 6     -3054.379          41.000    21925400.844 6  91030502.074 6     -2375.628          40.000
C05  39798558.031 6 207241534.785 6       -20.125          36.000    39798554.352 6 160252284.506 6       -15.595          38.000
C19  21641680.656 8 112693911.646 8      -497.891          51.000
E05  23776792.906 6 124947890.641 6       773.836          36.000    23776789.367 5  95739283.054 5       592.769          31.000
E09  22513590.758 6 118309706.151 6     -1372.430          41.000    22513592.312 7  90652960.804 7     -1051.785          44.000
E24  24785545.906 7 130248940.773 7      2853.664          46.000    24785561.234 8  99801161.487 8      2186.505          50.000
E36                                                                  26635416.781 6 107249701.098 6     -2383.203          37.000
> 2020 05 19 00 15  0.0000000  0 16        .000000000000
G06  21586743.250 8 113439092.254 8     -1873.977          50.000    21586744.336 8  88394094.931 8     -1460.241          50.000
G07  21242256.164 8 111628803.976 8      1604.812          50.000    21242255.914 8  86983487.064 8      1250.503          50.000
G09  20664080.688 8 108590552.926 8     -1241.125          51.000    20664081.414 8  84616026.178 8      -967.110          51.000
G30  22808656.734 7 119860290.918 7      3295.766          45.000    22808658.680 7  93397690.889 7      2568.129          45.000
R02  20434021.234 5 109039808.138 5     -1736.133          32.000    20433998.227 5  84808689.319 5     -1350.313          31.000
R11  23311865.469 5 124571465.131 5     -3457.355          32.000
R12  20469121.445 5 109342320.586 5      -369.508          33.000    20469126.531 5  85044115.450 5      -287.401          31.000
R13  21164263.477 6 113015996.822 6      3560.516          40.000    21164265.750 6  87901313.265 6      2769.293          38.000
