     3.02           OBSERVATION DATA    M (MIXED)           RINEX VERSION / TYPE
SAVERINEX           SC600               20200506 105930 LCL PGM / RUN BY / DATE
       G = GPS       R = GLONASS       C = COMPASS          COMMENT
       S = SBAS      J = QZSS          E = GALILEO          COMMENT
BEAN                                                        MARKER NAME
1                                                           MARKER NUMBER
GEODETIC                                                    MARKER TYPE
Unige DICCA         GTER                                    OBSERVER / AGENCY
SC60291900056       SC600               2.12(191226)        REC # / TYPE / VERS
                    HEMA45          NONE                    ANT # / TYPE
  4509407.8091   693652.4678  4442337.6214                  APPROX POSITION XYZ
        0.0000        0.0000        0.0000                  ANTENNA: DELTA H/E/N
G    8 C1C L1C D1C S1C C2Y L2Y D2Y S2Y                      SYS / # / OBS TYPES
R    8 C1C L1C D1C S1C C2P L2P D2P S2P                      SYS / # / OBS TYPES
C    4 C1I L1I D1I S1I                                      SYS / # / OBS TYPES
E    8 C1C L1C D1C S1C C7Q L7Q D7Q S7Q                      SYS / # / OBS TYPES
DBHZ                                                        COMMENT
     30.000                                                 INTERVAL
  2020    05    06    08    00    0.0000000     GPS         TIME OF FIRST OBS
  2020    05    06    08    59   30.0000000     GPS         TIME OF LAST OBS
     0                                                      RCV CLOCK OFFS APPL
G L1C  0.00000                                              SYS / PHASE SHIFT
G L2Y  0.00000                                              SYS / PHASE SHIFT
R L1C  0.00000                                              SYS / PHASE SHIFT
R L2P  0.25000                                              SYS / PHASE SHIFT
C L1I  0.00000                                              SYS / PHASE SHIFT
E L1C  0.50000                                              SYS / PHASE SHIFT
E L7Q -0.25000                                              SYS / PHASE SHIFT
 12 R01  1 R02 -4 R07  5 R08  6 R09 -2 R10 -7 R11  0 R12 -1 GLONASS SLOT / FRQ #
    R19  3 R20  2 R21  4 R22 -3                             GLONASS SLOT / FRQ #
 C1C   71.950 C2C   71.950 C2P   71.950                     GLONASS COD/PHS/BIS
    18                                                      LEAP SECONDS
*** Above antenna height is from mark to ANTENNA BOTTOM.    COMMENT
    17     4        0.0000        ANT MEASURE TYPE/HEIGT    COMMENT
    0.0000    0.0000    0.0458    0.0405    0.0000          COMMENT
                    BASE STATION                            COMMENT
                                                            END OF HEADER
> 2020 05 06 08 00  0.0000000  0 13        .000000000000
G12  20782377.383 8 109212127.435 8      1876.336          50.000    20782375.570 8  85100347.230 8      1462.083          50.000
G15  22748911.922 8 119546318.085 8     -3375.070          50.000    22748913.406 8  93152959.356 8     -2629.925          49.000
G17  23193654.281 5 121883475.396 5     -2158.730          30.000
G19  21608092.648 5 113551312.582 5      -620.988          34.000
G24  20151746.836 8 105898138.968 8       163.488          51.000    20151748.078 8  82518041.157 8       127.390          51.000
G25  23063491.906 7 121199479.787 7      3144.145          42.000    23063492.930 6  94441149.314 6      2449.983          41.000
R01  21705356.008 6 116027582.598 6     -3733.938          38.000    21705365.820 6  90243672.163 6     -2904.177          36.000
R21  21613935.094 6 115660501.605 6      3051.059          41.000    21613936.883 5  89958185.295 5      2373.046          34.000
C21  24430454.828 8 127215772.623 8     -2306.477          50.000
C29  23470245.266 8 122215759.792 8      2213.809          49.000
E02                                                                  24288515.008 5  97799791.822 5      1018.001          32.000
E03  24912545.789 8 130916306.833 8     -2225.082          51.000    24912546.789 8 100312499.936 8     -1704.870          51.000
E25  23805410.148 8 125098284.229 8      -927.379          51.000    23805412.484 8  95854524.245 8      -710.655          51.000
> 2020 05 06 08 00 30.0000000  0 15        .000000000000
G12  20771665.898 8 109155839.462 8      1869.422          49.000    20771663.883 8  85056486.512 8      1456.695          49.000
G13  24350492.789 5 127962687.608 5     -3827.160          33.000
G15  22768163.273 8 119647484.297 8     -3376.098          50.000    22768164.961 8  93231790.148 8     -2630.725          50.000
G19  21611664.031 5 113570055.869 5      -635.730          32.000
G24  20150813.227 8 105893232.309 8       156.980          51.000    20150814.203 8  82514217.777 8       122.322          51.000
G25  23045525.031 7 121105064.623 7      3143.301          44.000    23045527.086 7  94367579.044 7      2449.322          42.000
R01  21726307.656 5 116139582.988 5     -3739.441          34.000    21726315.781 5  90330783.541 5     -2908.451          34.000
R11  19669691.133 5 105108837.838 5      -363.672          31.000
R21  21596843.062 6 115569036.089 6      3039.664          39.000    21596846.562 5  89887045.418 5      2364.183          33.000
C21  24443734.031 8 127284917.282 8     -2309.914          51.000
C29  23457488.000 8 122149327.748 8      2208.277          50.000
C30  23997020.000 5 124958770.822 5      -741.398          32.000
E02                                                                  24280908.320 5  97769156.814 5      1018.388          31.000
E03  24925237.836 8 130983004.662 8     -2228.152          51.000    24925239.688 8 100363606.043 8     -1707.271          51.000
E25  23810681.703 8 125125986.503 8      -926.117          51.000    23810684.000 8  95875750.654 8      -709.610          51.000
> 2020 05 06 08 01  0.0000000  0 14        .000000000000
G12  20761042.031 8 109100012.711 8      1856.270          48.000    20761040.703 8  85012985.135 8      1446.441          48.000
G15  22787468.211 8 119748932.072 8     -3383.301          50.000    22787469.930 8  93310840.342 8     -2636.338          50.000
G24  20149964.414 8 105888771.728 8       144.289          51.000    20149965.281 8  82510741.988 8       112.430          51.000
G25  23027610.648 7 121010922.104 7      3136.562          46.000    23027612.586 7  94294221.245 7      2444.075          43.000
R01  21747338.781 5 116252018.030 5     -3752.340          30.000    21747346.250 5  90418233.066 5     -2918.484          31.000
R10  22553057.727 5 120220461.932 5     -2907.746          35.000
R11  19671779.867 5 105119955.535 5      -373.492          33.000
R21  21579862.094 5 115478171.644 5      3021.555          34.000    21579868.180 5  89816373.133 5      2350.104          32.000
C21  24457080.992 8 127354416.170 8     -2319.445          50.000
C29  23444810.867 8 122083312.762 8      2196.465          51.000
C30  24001382.727 4 124981506.572 4      -757.367          28.000
E02                                                                  24273346.312 5  97738706.436 5      1014.658          30.000
E03  24937995.477 8 131050048.045 8     -2237.551          51.000    24937998.742 8 100414976.934 8     -1714.430          51.000
E25  23815993.438 8 125153899.940 8      -930.879          51.000    23815995.719 8  95897138.884 8      -713.292          51.000
> 2020 05 06 08 01 30.0000000  0 13        .000000000000
G12  20750486.258 8 109044543.192 8      1842.496          48.000    20750485.734 8  84969762.125 8      1435.711          48.000
G15  22806806.242 8 119850554.217 8     -3390.684          50.000    22806807.898 8  93390026.422 8     -2642.094          50.000
G24  20149180.672 8 105884653.469 8       131.000          51.000    20149181.602 8  82507532.952 8       102.078          51.000
G25  23009728.477 7 120916948.571 7      3129.074          47.000    23009730.062 7  94220995.151 7      2438.240          43.000
R01  21768432.945 6 116364777.192 6     -3764.750          36.000    21768438.734 5  90505934.671 5     -2928.142          30.000
R10  22569433.109 5 120307754.179 5     -2910.605          32.000
R11  19673903.273 5 105131338.345 5      -384.234          33.000
R21  21562971.898 5 115387805.909 5      3003.180          30.000    21562982.477 4  89746088.819 4      2335.819          25.000
C21  24470475.258 8 127424163.146 8     -2329.449          50.000
C29  23432194.180 8 122017613.213 8      2184.207          51.000
C30  24005779.703 5 125004359.446 5      -773.695          30.000
E03  24950798.648 8 131117330.797 8     -2247.262          50.000    24950803.297 8 100466531.246 8     -1721.910          51.000
E25  23821325.305 8 125181919.233 8      -936.328          51.000    23821327.516 8  95918608.220 8      -717.428          51.000
> 2020 05 06 08 02  0.0000000  0 11        .000000000000
G12  20740001.641 8 108989446.611 8      1826.375          49.000    20740001.445 8  84926829.740 8      1423.152          49.000
G15  22826179.719 8 119952363.163 8     -3400.734          49.000    22826181.266 8  93469358.066 8     -2649.923          49.000
G24  20148465.094 8 105880893.360 8       115.383          51.000    20148466.094 8  82504602.994 8        89.909          51.000
G25  22991881.578 7 120823160.428 7      3119.250          46.000    22991883.266 7  94147913.528 7      2430.587          44.000
R01  21789592.094 7 116477871.477 7     -3779.367          42.000    21789595.742 5  90593896.826 5     -2939.511          31.000
R21  21546182.039 6 115297959.139 6      2982.254          37.000
C21  24483919.391 8 127494171.084 8     -2341.930          50.000
C29  23419641.312 8 121952246.397 8      2169.441          51.000
C30  24010289.992 6 125027824.983 6      -793.953          36.000
E03  24963650.289 8 131184866.773 8     -2259.367          50.000    24963655.930 8 100518279.572 8     -1731.266          51.000
E25  23826680.172 8 125210059.103 8      -943.914          51.000    23826682.266 8  95940169.935 8      -723.337          51.000
> 2020 05 06 08 02 30.0000000  0 12        .000000000000
G12  20729618.242 8 108934881.458 8      1805.746          49.000    20729618.000 8  84884311.445 8      1407.075          49.000
G15  22845618.414 8 120054514.412 8     -3415.004          49.000    22845619.539 8  93548956.445 8     -2661.042          49.000
G24  20147847.914 8 105877650.187 8        95.203          51.000    20147848.898 8  82502075.836 8        74.184          51.000
G25  22974099.758 7 120729716.429 7      3104.363          46.000    22974102.109 7  94075100.034 7      2418.984          44.000
R01  21810843.477 7 116591456.733 7     -3798.770          44.000    21810845.203 5  90682240.857 5     -2954.599          31.000
R10  22602243.781 4 120482684.520 4     -2926.352          29.000
R21  21529521.969 6 115208796.091 6      2955.984          37.000    21529530.102 4  89606882.062 4      2299.108          27.000
C21  24497443.562 8 127564593.895 8     -2358.641          50.000
C29  23407182.938 8 121887370.782 8      2150.039          51.000
E02  24250833.273 5 127438993.274 5      1297.219          34.000
E03  24976580.031 8 131252812.136 8     -2276.000          51.000    24976586.273 8 100570341.580 8     -1743.927          51.000
E25  23832087.922 8 125238476.721 8      -956.230          51.000    23832089.852 8  95961944.456 8      -732.720          51.000
> 2020 05 06 08 03  0.0000000  0 13        .000000000000
G12  20719296.203 8 108880638.492 8      1804.387          50.000    20719295.688 8  84842044.167 8      1406.016          50.000
G15  22865082.109 8 120156795.918 8     -3409.797          49.000    22865082.297 8  93628656.310 8     -2656.985          49.000
G24  20147289.312 8 105874714.508 8        94.484          51.000    20147290.234 8  82499788.302 8        73.624          51.000
G25  22956343.656 7 120636408.107 7      3109.641          45.000    22956346.594 7  94002392.247 7      2423.097          43.000
R01  21832146.070 7 116705315.467 7     -3797.922          43.000    21832146.531 5  90770797.573 5     -2953.945          32.000
R11  19680665.672 5 105167509.404 5      -413.395          35.000
R21  21512950.430 5 115120107.496 5      2950.309          35.000    21512950.414 4  89537904.016 4      2294.684          29.000
C21  24511007.164 8 127635221.579 8     -2355.965          50.000
C29  23394779.289 8 121822780.807 8      2149.871          51.000
C30  24019621.062 6 125076421.665 6      -821.523          36.000
E02  24243392.328 6 127399898.574 6      1303.988          37.000    24243398.430 5  97618115.334 5       999.618          34.000
E03  24989547.484 8 131320955.803 8     -2272.973          50.000    24989554.031 8 100622555.536 8     -1741.572          51.000
E25  23837508.562 8 125266961.939 8      -948.770          51.000    23837510.328 8  95983770.771 8      -727.006          51.000
> 2020 05 06 08 03 30.0000000  0 16        .000000000000
G12  20709053.352 8 108826809.750 8      1784.512          50.000    20709052.156 8  84800099.697 8      1390.532          50.000
G13  24481886.188 4 128653169.499 4     -3846.625          27.000
G15  22884587.750 8 120259296.516 8     -3423.262          50.000    22884586.586 8  93708526.878 8     -2667.480          50.000
G24  20146806.828 8 105872178.615 8        74.910          51.000    20146807.742 8  82497812.283 8        58.372          51.000
G25  22938631.055 7 120543328.012 7      3095.934          46.000    22938633.742 7  93929862.320 7      2412.416          43.000
R01  21853515.641 6 116819536.473 6     -3816.410          38.000    21853514.250 4  90859636.058 4     -2968.322          29.000
R02  20869555.164 4 111363938.234 4       513.230          28.000
R10  22635101.016 5 120657834.986 5     -2926.066          32.000
R21  21496485.469 5 115031991.032 5      2924.891          34.000    21496487.797 5  89469369.074 5      2274.918          31.000
C21  24524627.047 8 127706142.548 8     -2371.738          50.000
C29  23382447.656 8 121758569.294 8      2131.121          50.000
C30  24024431.227 5 125101428.605 5      -845.242          32.000
E02  24235981.820 6 127360958.525 6      1292.090          38.000    24235986.203 5  97588278.231 5       989.621          34.000
E03  25002569.648 8 131389387.824 8     -2288.820          50.000    25002576.141 8 100674990.450 8     -1753.730          51.000
E24  25641281.891 5 134745845.700 5     -2366.297          34.000
E25  23842959.328 8 125295605.805 8      -960.484          51.000    23842961.047 8  96005718.652 8      -735.968          51.000
> 2020 05 06 08 04  0.0000000  0 14        .000000000000
G12  20698901.797 8 108773460.819 8      1773.062          51.000    20698900.297 8  84758529.128 8      1381.607          51.000
G15  22904147.102 8 120362079.029 8     -3427.945          50.000    22904143.500 8  93788617.070 8     -2671.129          50.000
G24  20146412.922 8 105870108.021 8        64.051          51.000    20146413.828 8  82496198.825 8        49.910          51.000
G25  22920974.766 7 120450542.403 7      3090.730          46.000    22920976.773 7  93857561.864 7      2408.361          43.000
R01  21874961.234 5 116934181.374 5     -3825.922          30.000    21874960.062 4  90948804.341 4     -2975.714          28.000
R02  20866737.047 5 111348910.429 5       488.859          32.000
R11  19685455.297 4 105193103.924 4      -438.383          29.000
R21  21480141.172 5 114944517.467 5      2907.934          34.000    21480143.211 5  89401334.112 5      2261.720          30.000
C21  24538314.984 8 127777419.025 8     -2378.945          50.000
C29  23370201.203 8 121694802.933 8      2120.926          49.000
E02  24228616.828 6 127322257.234 6      1289.043          38.000    24228620.406 5  97558623.979 5       987.199          33.000
E03  25015658.625 8 131458171.853 8     -2295.922          50.000    25015664.234 8 100727695.098 8     -1759.204          51.000
E24  25654789.188 5 134816820.879 5     -2364.102          34.000
E25  23848452.508 8 125324472.895 8      -963.043          51.000    23848454.266 8  96027837.575 8      -737.940          51.000
> 2020 05 06 08 04 30.0000000  0 13        .000000000000
G12  20688820.625 8 108720482.854 8      1758.863          51.000    20688819.414 8  84717247.584 8      1370.543          51.000
G15  22923738.641 8 120465031.324 8     -3435.547          50.000    22923733.828 8  93868839.546 8     -2677.053          50.000
G17  23307496.562 5 122481720.570 5     -2278.605          31.000
G24  20146086.859 8 105868394.397 8        50.246          51.000    20146087.805 8  82494863.528 8        39.153          51.000
G25  22903353.930 7 120357942.995 7      3082.531          45.000    22903355.445 7  93785406.505 7      2401.972          43.000
R01  21896458.141 5 117049096.263 5     -3837.941          32.000    21896466.250 4  91038210.322 4     -2985.066          29.000
C21  24552049.617 8 127848940.273 8     -2389.012          49.000
C29  23358020.422 8 121631375.484 8      2107.602          50.000
C30  24034322.250 5 125153038.817 5      -876.570          31.000
E02  24221276.320 6 127283685.140 6      1282.793          36.000    24221279.781 5  97529068.719 5       983.371          33.000
E03  25028793.680 8 131527197.021 8     -2305.727          51.000    25028797.516 8 100780584.514 8     -1766.654          50.000
E24  25668287.719 5 134887754.787 5     -2364.887          33.000
E25  23853967.273 8 125353453.338 8      -968.805          51.000    23853969.102 8  96050043.357 8      -742.301          51.000
> 2020 05 06 08 05  0.0000000  0 15        .000000000000
G12  20678815.125 8 108667903.422 8      1746.098          51.000    20678814.070 8  84676276.574 8      1360.596          51.000
G15  22943366.867 8 120568178.035 8     -3441.238          49.000    22943363.625 8  93949213.526 8     -2681.487          49.000
G17  23320537.234 5 122550258.011 5     -2289.586          33.000
G24  20145833.977 8 105867065.409 8        38.055          51.000    20145834.938 8  82493827.939 8        29.653          51.000
G25  22885773.305 7 120265557.665 7      3076.062          42.000    22885774.922 7  93713417.924 7      2396.929          42.000
R01  21918035.172 6 117164380.516 6     -3848.367          37.000    21918031.969 5  91127875.829 5     -2993.174          30.000
R10  22684523.414 4 120921319.254 4     -2930.188          29.000
R11  19690484.914 5 105219994.364 5      -458.906          34.000    19690490.148 5  81837773.995 5      -356.921          32.000
R12  21088269.789 5 112649741.693 5      2220.266          31.000
C21  24565835.539 8 127920730.525 8     -2397.258          48.000
C29  23345910.562 8 121568315.618 8      2095.973          50.000
C30  24039413.758 5 125179557.516 5      -891.422          31.000
E02  24213965.414 5 127245269.024 5      1278.309          35.000    24213969.750 5  97499633.049 5       979.564          32.000
E03  25041979.820 8 131596488.698 8     -2314.074          51.000    25041981.625 8 100833678.128 8     -1773.083          50.000
E25  23859508.625 8 125382573.455 8      -972.762          51.000    23859510.625 8  96072356.162 8      -745.384          51.000
> 2020 05 06 08 05 30.0000000  0 15        .000000000000
G12  20668919.852 8 108615904.241 8      1738.398          50.000    20668918.641 8  84635757.736 8      1354.596          50.000
G13  24569782.977 6 129115085.033 6     -3847.023          36.000    24569783.352 5 100609154.911 5     -2997.681          33.000
G15  22963065.820 8 120671697.623 8     -3442.234          48.000    22963064.891 8  94029878.100 8     -2682.261          48.000
G24  20145688.844 8 105866302.521 8        30.598          51.000    20145689.727 8  82493233.492 8        23.842          51.000
G25  22868267.516 6 120173569.005 6      3074.293          41.000    22868270.594 6  93641738.441 6      2395.553          41.000
R01  21939698.070 5 117280176.449 5     -3853.508          34.000    21939695.539 5  91217939.217 5     -2997.173          31.000
R10  22701054.766 5 121009412.183 5     -2927.105          31.000
R11  19693123.984 6 105234087.571 6      -463.016          39.000    19693131.352 5  81848735.484 5      -360.120          34.000
R21  21431753.336 6 114685644.636 6      2856.137          36.000    21431750.266 4  89199923.666 4      2221.443          29.000
C21  24579707.266 7 127992967.299 7     -2400.844          47.000
C29  23333906.250 8 121505805.252 8      2089.055          50.000
E02  24206718.891 5 127207166.353 5      1278.668          34.000
E03  25055251.062 8 131666226.872 8     -2317.473          51.000    25055251.219 8 100887113.859 8     -1775.702          49.000
E24  25695306.656 5 135029745.999 5     -2357.660          34.000
E25  23865111.078 8 125412014.265 8      -972.129          51.000    23865113.250 8  96094914.705 8      -744.872          51.000
> 2020 05 06 08 06  0.0000000  0 13        .000000000000
G12  20659053.031 8 108564054.843 8      1717.980          51.000    20659051.523 8  84595355.640 8      1338.686          50.000
G13  24591769.625 5 129230614.301 5     -3855.664          35.000
G15  22982753.297 8 120775156.808 8     -3455.508          48.000    22982754.047 8  94110495.619 8     -2692.603          48.000
G24  20145569.695 8 105865676.399 8        10.723          51.000    20145570.609 8  82492745.591 8         8.355          51.000
G25  22850756.055 7 120081547.007 7      3059.992          44.000    22850759.672 6  93570032.960 6      2384.409          41.000
R11  19695771.703 6 105248227.507 6      -480.105          41.000    19695779.289 5  81859733.118 5      -373.418          33.000
R21  21415816.672 6 114600351.990 6      2829.562          36.000    21415814.906 5  89133585.010 5      2200.780          30.000
C21  24593582.789 7 128065221.147 7     -2416.586          46.000
C29  23321925.953 8 121443419.403 8      2069.566          50.000
C30  24049910.453 6 125234154.795 6      -925.809          36.000
E03  25068524.906 8 131735979.000 8     -2333.156          51.000    25068524.320 8 100940560.261 8     -1787.785          49.000
E24  25708784.945 6 135100571.461 6     -2364.051          38.000    25708798.406 5 103518659.534 5     -1811.682          35.000
E25  23870692.414 8 125441344.186 8      -983.664          51.000    23870694.781 8  96117388.283 8      -753.735          51.000
> 2020 05 06 08 06 30.0000000  0 13        .000000000000
G12  20649286.570 8 108512732.109 8      1698.973          51.000    20649284.977 8  84555363.905 8      1323.875          51.000
G13  24613790.984 5 129346322.554 5     -3862.465          35.000
G15  23002500.422 8 120878929.595 8     -3467.281          48.000    23002502.242 7  94191357.501 7     -2701.778          47.000
G24  20145548.078 8 105865562.921 8        -7.789          51.000    20145549.117 8  82492657.151 8        -6.072          51.000
G25  22833310.594 7 119989869.051 7      3047.055          45.000    22833314.086 7  93498595.606 7      2374.328          42.000
R11  19698498.344 6 105262796.306 6      -495.773          40.000    19698501.469 5  81871064.392 5      -385.602          31.000
R21  21400008.344 7 114515768.160 7      2804.605          42.000
C21  24607532.812 7 128137862.671 7     -2430.750          46.000
C29  23310041.969 8 121381533.123 8      2051.539          51.000
C30  24055308.109 5 125262182.008 5      -947.059          33.000
E03  25081872.492 8 131806119.914 8     -2347.496          51.000    25081871.953 8 100994304.564 8     -1798.791          50.000
E24  25722283.297 6 135171504.507 6     -2369.254          38.000    25722296.727 5 103573010.715 5     -1815.328          35.000
E25  23876324.156 8 125470939.101 8      -993.988          51.000    23876326.523 8  96140064.908 8      -761.639          51.000
> 2020 05 06 08 07  0.0000000  0 16        .000000000000
G10  24366709.328 5 128047921.564 5     -1439.930          30.000
G12  20639605.992 8 108461860.941 8      1690.199          50.000    20639604.844 8  84515724.061 8      1317.038          50.000
G13  24635830.531 5 129462132.564 5     -3859.945          34.000
G15  23022292.484 7 120982938.211 7     -3468.754          47.000    23022295.078 7  94272403.140 7     -2702.925          47.000
G24  20145609.805 8 105865887.773 8       -15.992          51.000    20145610.961 8  82492910.260 8       -12.464          51.000
G25  22815916.578 7 119898461.050 7      3044.578          45.000    22815919.578 7  93427368.608 7      2372.395          42.000
R11  19701288.602 6 105277717.567 6      -501.129          37.000    19701291.461 5  81882669.864 5      -389.764          32.000
R12  21038738.438 5 112385157.823 5      2190.895          31.000    21038740.258 4  87410690.157 4      1704.029          27.000
R21  21384321.242 6 114431821.056 6      2789.691          40.000    21384324.867 5  89002496.624 5      2169.772          32.000
C21  24621542.398 7 128210814.968 7     -2434.918          46.000
C29  23298239.703 8 121320073.938 8      2043.660          50.000
C30  24060802.047 5 125290742.238 5      -958.480          32.000
E02  24185078.031 6 127093415.771 6      1254.758          39.000
E03  25095279.234 8 131876572.887 8     -2351.645          50.000    25095279.250 8 101048287.991 8     -1801.886          51.000
E24  25735787.375 6 135242473.648 6     -2363.816          37.000    25735802.664 5 103627389.683 5     -1811.553          35.000
E25  23881991.875 8 125500723.259 8      -993.805          51.000    23881994.086 8  96162886.534 8      -761.505          51.000
> 2020 05 06 08 07 30.0000000  0 16        .000000000000
G12  20630002.883 8 108411396.799 8      1675.730          51.000    20630002.000 8  84476401.392 8      1305.767          51.000
G13  24657879.602 5 129577997.123 5     -3863.016          35.000
G15  23042120.141 7 121087134.649 7     -3476.023          45.000    23042123.367 7  94353595.172 7     -2708.590          45.000
G19  21674675.469 5 113901196.882 5      -939.391          35.000    21674679.758 5  88754189.718 5      -731.993          34.000
G24  20145746.438 8 105866606.425 8       -30.207          51.000    20145747.672 8  82493470.237 8       -23.538          51.000
G25  22798565.359 7 119807278.813 7      3035.797          44.000    22798568.203 7  93356317.528 7      2365.556          42.000
R01  22026836.219 6 117746048.402 6     -3904.332          36.000
R11  19704137.102 6 105292944.801 6      -512.367          38.000    19704142.273 5  81894513.289 5      -398.505          33.000
R12  21026458.000 5 112319570.143 5      2183.801          32.000    21026467.516 4  87359664.484 4      1698.524          24.000
R21  21368744.578 6 114348468.803 6      2768.930          40.000    21368748.383 5  88937667.177 5      2153.612          33.000
C21  24635602.508 7 128284030.863 7     -2444.508          46.000
C29  23286510.711 8 121258999.074 8      2029.695          50.000
E02  24177944.422 6 127055894.674 6      1248.293          41.000
E03  25108736.164 8 131947291.131 8     -2361.242          50.000    25108737.219 8 101102474.695 8     -1809.263          51.000
E24  25749289.523 6 135313433.490 6     -2364.441          36.000    25749306.758 5 103681761.445 5     -1811.673          33.000
E25  23887686.875 8 125530651.010 8      -999.613          51.000    23887689.016 8  96185818.192 8      -765.937          51.000
> 2020 05 06 08 08  0.0000000  0 16        .000000000000
G12  20620473.977 8 108361322.151 8      1662.027          51.000    20620472.922 8  84437382.169 8      1295.086          51.000
G13  24679934.477 5 129693895.508 5     -3865.117          32.000
G15  23061979.102 7 121191498.461 7     -3482.246          43.000    23061983.086 7  94434917.638 7     -2713.435          43.000
G19  21680097.086 5 113929691.191 5      -960.449          34.000    21680096.164 4  88776358.173 4      -748.408          27.000
G24  20145954.562 8 105867700.688 8       -43.359          51.000    20145955.727 8  82494322.898 8       -33.787          51.000
G25  22781253.625 7 119716305.171 7      3028.379          45.000    22781257.047 6  93285429.042 6      2359.779          41.000
R01  22048780.234 6 117863334.209 6     -3915.125          39.000
R02  20849715.008 5 111258082.278 5       268.988          32.000
R11  19707039.930 6 105308459.625 6      -522.691          39.000    19707045.930 5  81906580.272 5      -406.541          34.000
R12  21014211.742 5 112254150.800 5      2176.602          31.000
R21  21353276.578 6 114265696.949 6      2748.402          36.000    21353279.016 5  88873289.105 5      2137.649          34.000
C21  24649709.617 7 128357490.003 7     -2453.391          47.000
C29  23274852.703 8 121198292.595 8      2016.711          51.000
E03  25122239.539 8 132018254.983 8     -2370.219          50.000    25122241.883 8 101156849.601 8     -1816.172          51.000
E24  25762786.422 6 135384365.589 6     -2364.840          36.000    25762803.164 4 103736131.984 4     -1812.119          29.000
E25  23893405.633 8 125560703.654 8     -1004.480          51.000    23893407.844 8  96208845.557 8      -769.694          51.000
> 2020 05 06 08 08 30.0000000  0 15        .000000000000
G12  20611028.453 8 108311686.086 8      1648.578          51.000    20611027.258 8  84398704.690 8      1284.606          51.000
G15  23081878.664 7 121296075.963 7     -3488.008          43.000    23081883.359 7  94516406.621 7     -2717.925          43.000
G19  21685645.867 6 113958848.645 6      -981.605          38.000    21685643.352 5  88799078.213 5      -764.897          35.000
G24  20146243.680 8 105869220.802 8       -56.434          51.000    20146244.828 8  82495507.394 8       -43.977          51.000
G25  22763991.102 7 119625590.047 7      3020.801          45.000    22763994.703 6  93214741.974 6      2353.871          41.000
R01  22070786.297 6 117980958.095 6     -3925.176          37.000
R02  20848281.484 4 111250435.950 4       241.137          27.000
R11  19710006.242 6 105324311.049 6      -532.352          36.000    19710012.969 5  81918909.142 5      -414.054          34.000
R21  21337929.227 6 114183559.296 6      2728.875          37.000    21337929.102 5  88809404.260 5      2122.455          33.000
C21  24663872.703 7 128431238.389 7     -2461.688          47.000
C29  23263274.805 8 121138004.934 8      2003.910          48.000
C30  24077801.219 4 125379418.365 4     -1008.191          29.000
E03  25135798.578 8 132089511.737 8     -2378.746          50.000    25135802.070 8 101211448.917 8     -1822.691          51.000
E24  25776288.188 6 135455318.657 6     -2363.992          37.000
E25  23899157.430 8 125590929.561 8     -1009.070          51.000    23899159.695 8  96232005.660 8      -773.202          51.000
> 2020 05 06 08 09  0.0000000  0 16        .000000000000
G12  20601658.414 8 108262445.888 8      1634.188          51.000    20601657.336 8  84360335.698 8      1273.393          51.000
G15  23101811.070 7 121400821.667 7     -3494.883          43.000    23101815.539 7  94598026.692 7     -2723.285          43.000
G19  21691312.383 6 113988625.174 6     -1003.898          40.000    21691310.945 5  88822280.779 5      -782.255          35.000
G24  20146605.711 8 105871124.547 8       -70.336          51.000    20146607.047 8  82496990.833 8       -54.807          51.000
G25  22746769.852 7 119535091.575 7      3012.672          44.000    22746773.062 6  93144223.716 6      2347.537          40.000
R01  22092842.820 5 118098871.731 5     -3935.875          32.000
R02  20846991.273 5 111243538.870 5       214.172          33.000
R11  19713026.523 6 105340455.330 6      -543.320          36.000    19713034.062 5  81931465.740 5      -422.582          33.000
R12  20989843.977 4 112123977.624 4      2162.672          29.000    20989860.664 4  87207607.781 4      1682.078          25.000
R21  21322691.719 5 114102016.415 5      2707.211          35.000    21322689.984 4  88745981.958 4      2105.612          29.000
C21  24678082.844 8 128505231.195 8     -2471.180          48.000
C29  23251768.227 7 121078095.629 7      1990.105          45.000
E02  24156710.156 5 126944374.158 5      1231.754          32.000    24156700.297 6  97269022.982 6       943.644          38.000
E03  25149405.383 8 132161016.954 8     -2388.117          50.000    25149409.211 8 101266238.610 8     -1829.856          51.000
E24  25789786.586 6 135526249.612 6     -2364.438          38.000
E25  23904933.969 8 125621285.320 8     -1014.520          51.000    23904936.242 8  96255265.267 8      -777.302          51.000
> 2020 05 06 08 09 30.0000000  0 15        .000000000000
G12  20592366.414 8 108213615.138 8      1620.727          51.000    20592365.453 8  84322285.768 8      1262.904          51.000
G15  23121778.523 7 121505745.971 7     -3500.461          45.000    23121781.492 7  94679785.896 7     -2727.635          46.000
G19  21697099.078 6 114019032.883 6     -1024.406          41.000    21697097.195 5  88845975.086 5      -798.242          33.000
G24  20147043.156 8 105873424.397 8       -83.484          51.000    20147044.602 8  82498782.902 8       -65.053          51.000
G25  22729592.391 7 119444823.772 7      3004.969          42.000    22729593.867 6  93073885.187 6      2341.537          38.000
R01  22114952.984 5 118217084.034 5     -3945.949          30.000
R10  22833633.992 5 121716123.154 5     -2955.285          32.000
R11  19716104.562 6 105356905.486 6      -553.438          36.000    19716111.805 5  81944260.346 5      -430.454          34.000
R12  20977715.758 5 112059184.740 5      2155.840          31.000
C21  24692342.164 8 128579478.794 8     -2479.254          48.000
C29  23240337.547 7 121018579.534 7      1977.090          47.000
E02                                                                  24149682.219 6  97240768.816 6       939.717          38.000
E03  25163062.180 8 132232782.045 8     -2396.520          51.000    25163065.562 8 101321227.417 8     -1836.303          51.000
E24  25803283.609 6 135597171.142 6     -2363.953          37.000
E25  23910737.617 8 125651783.452 8     -1019.027          51.000    23910739.844 8  96278633.960 8      -780.807          51.000
> 2020 05 06 08 10  0.0000000  0 15        .000000000000
G12  20583154.805 8 108165207.155 8      1606.551          51.000    20583153.477 8  84284565.267 8      1251.858          51.000
G15  23141782.266 7 121610859.287 7     -3506.930          46.000    23141783.039 7  94761692.356 7     -2732.672          46.000
G19  21703007.914 6 114050082.919 6     -1045.789          37.000    21703003.656 5  88870169.923 5      -814.898          33.000
G24  20147558.906 8 105876135.097 8       -97.168          51.000    20147560.266 8  82500895.130 8       -75.715          51.000
G25  22712461.203 6 119354800.527 6      2996.703          39.000    22712461.234 6  93003737.215 6      2335.096          38.000
R02  20844893.164 5 111232340.565 5       159.910          33.000
R10  22850269.805 4 121804817.702 4     -2957.336          29.000
R11  19719242.922 5 105373674.401 5      -564.203          34.000    19719250.133 5  81957302.839 5      -438.825          32.000
R12  20965629.586 5 111994615.652 5      2148.762          34.000
C21  24706652.117 7 128653991.653 7     -2488.051          47.000
C29  23228986.578 8 120959471.362 8      1963.543          49.000
E02                                                                  24142698.312 6  97212648.630 6       935.341          37.000
E03  25176770.969 8 132304818.349 8     -2405.746          51.000    25176773.359 8 101376424.008 8     -1843.295          50.000
E24  25816780.727 5 135668095.988 5     -2364.273          34.000
E25  23916570.719 8 125682436.328 8     -1024.316          51.000    23916572.898 8  96302121.213 8      -784.845          51.000
> 2020 05 06 08 10 30.0000000  0 16        .000000000000
G12  20574027.688 8 108117245.332 8      1586.184          50.000    20574025.742 8  84247192.422 8      1235.987          50.000
G15  23161825.734 8 121716182.368 8     -3519.418          48.000    23161823.789 7  94843762.273 7     -2742.407          45.000
G19  21709042.820 6 114081797.774 6     -1072.945          41.000    21709037.688 5  88894882.843 5      -836.064          31.000
G24  20148157.234 8 105879279.623 8      -117.250          51.000    20148158.586 8  82503345.396 8       -91.364          51.000
G25  22695380.711 6 119265046.274 6      2982.004          37.000    22695381.266 6  92933798.824 6      2323.639          37.000
R01  22159368.922 5 118454508.507 5     -3972.137          32.000
R02  20844073.898 5 111227998.783 5       125.418          35.000
R10  22866926.680 5 121893619.031 5     -2966.789          34.000
R11  19722443.891 6 105390785.351 6      -581.172          36.000    19722448.734 5  81970614.487 5      -452.013          30.000
R12  20953587.695 5 111930289.379 5      2134.934          33.000
C21  24721016.336 7 128728790.476 7     -2503.043          46.000
C29  23217719.414 8 120900796.226 8      1943.551          50.000
C30  24101819.219 4 125504459.582 4     -1080.977          29.000
E02                                                                  24135752.367 6  97184680.267 6       925.685          36.000
E03  25190535.695 8 132377147.582 8     -2420.980          51.000    25190536.617 8 101431845.050 8     -1855.106          48.000
E25  23922437.555 8 125713266.836 8     -1035.773          51.000    23922439.812 8  96325744.575 8      -793.630          51.000
> 2020 05 06 08 11  0.0000000  0 17        .000000000000
G12  20564972.172 8 108069660.131 8      1580.141          50.000    20564969.852 8  84210113.035 8      1231.278          50.000
G15  23181895.023 7 121821642.701 7     -3517.344          47.000    23181891.219 7  94925939.114 7     -2740.787          42.000
G19  21715191.078 7 114114106.389 7     -1086.711          42.000    21715186.945 5  88920058.357 5      -846.788          33.000
G24  20148824.969 8 105882788.593 8      -122.875          51.000    20148826.211 8  82506079.637 8       -95.747          51.000
G25  22678339.344 6 119175491.740 6      2982.270          41.000    22678340.570 6  92864015.987 6      2323.843          40.000
R01  22181651.469 5 118573606.069 5     -3973.809          34.000
R02  20843404.617 4 111224439.559 4       105.727          29.000    20843420.242 5  86507926.522 5        82.226          32.000
R10  22883591.617 5 121982455.012 5     -2961.461          34.000
R11  19725696.445 6 105408167.021 6      -583.652          41.000    19725698.812 4  81984133.481 4      -453.955          29.000
R12  20941579.664 5 111866135.132 5      2135.215          33.000    20941579.156 4  87007001.232 4      1660.723          29.000
R21  21262901.992 6 113782069.856 6      2625.637          38.000    21262899.641 5  88497147.466 5      2042.162          31.000
C21  24735420.766 7 128803803.291 7     -2503.812          43.000
C29  23206522.438 8 120842486.593 8      1937.754          51.000
E02  24128833.219 5 126797875.783 5      1210.496          35.000    24128830.570 5  97156809.830 5       927.469          35.000
E03  25204342.453 8 132449698.027 8     -2421.824          51.000    25204341.367 7 101487435.566 7     -1855.576          47.000
E24  25843774.523 5 135809950.459 5     -2362.969          33.000
E25  23928324.680 8 125744204.302 8     -1032.910          51.000    23928327.141 8  96349449.881 8      -791.427          51.000
> 2020 05 06 08 11 30.0000000  0 16        .000000000000
G12  20556000.836 8 108022515.676 8      1564.449          51.000    20555998.703 8  84173377.090 8      1219.051          51.000
G15  23202001.555 7 121927301.578 7     -3524.910          46.000    23201995.406 6  95008270.639 6     -2746.686          36.000
G19  21721464.070 6 114147070.462 6     -1109.363          41.000    21721460.297 5  88945744.734 5      -864.436          31.000
G24  20149574.375 8 105886726.319 8      -138.227          51.000    20149575.570 8  82509147.972 8      -107.712          51.000
G25  22661348.555 7 119086201.552 7      2972.391          42.000    22661350.508 6  92794439.224 6      2316.149          36.000
R01  22203989.570 5 118693014.636 5     -3985.051          32.000
R10  22900276.250 5 122071390.357 5     -2965.711          30.000
R11  19729012.828 7 105425884.033 7      -595.863          44.000    19729013.742 5  81997913.316 5      -463.449          32.000
R12  20929614.852 4 111802255.373 4      2126.910          28.000
R21  21248247.523 6 113703672.821 6      2602.629          37.000    21248251.297 5  88436172.106 5      2024.267          31.000
C21  24749877.438 7 128879090.646 7     -2514.027          43.000
C29  23195408.188 8 120784607.477 8      1922.340          51.000
E02                                                                  24121944.297 5  97129085.976 5       921.875          31.000
E03  25218202.742 8 132522531.715 8     -2432.344          51.000    25218199.922 7 101543243.138 7     -1863.705          46.000
E24  25857271.266 5 135880877.313 5     -2364.762          34.000
E25  23934244.102 8 125775311.910 8     -1039.441          51.000    23934246.867 8  96373285.573 8      -796.482          51.000
> 2020 05 06 08 12  0.0000000  0 14        .000000000000
G12  20547106.594 8 107975775.276 8      1550.594          51.000    20547104.992 8  84136956.017 8      1208.255          51.000
G15  23222137.688 7 122033118.859 7     -3530.652          44.000    23222125.602 5  95090725.572 5     -2751.158          30.000
G19  21727854.328 6 114180652.461 6     -1130.438          38.000    21727848.977 5  88971912.479 5      -880.854          31.000
G24  20150398.523 8 105891056.758 8      -151.480          51.000    20150399.875 8  82512522.328 8      -118.040          51.000
G25  22644401.188 6 118997139.842 6      2964.078          41.000    22644403.016 6  92725040.523 6      2309.668          37.000
R01  22226376.891 5 118812692.618 5     -3994.492          32.000    22226370.461 4  92409854.015 4     -3106.827          26.000
R10  22916971.812 5 122160373.865 5     -2968.262          31.000
R11  19732385.172 7 105443898.433 7      -606.164          43.000    19732385.977 5  82011924.451 5      -471.461          34.000
R21  21233712.867 6 113625900.546 6      2581.152          38.000    21233718.695 5  88375682.580 5      2007.563          33.000
C21  24764381.195 7 128954613.775 7     -2521.969          44.000
C29  23184369.508 8 120727124.271 8      1908.777          51.000
E03  25232109.023 8 132595610.165 8     -2440.590          51.000    25232106.078 7 101599238.269 7     -1870.089          47.000
E24  25870764.844 5 135951786.540 5     -2363.730          33.000
E25  23940188.797 8 125806552.280 8     -1044.223          51.000    23940191.812 8  96397222.983 8      -800.110          51.000
> 2020 05 06 08 12 30.0000000  0 12        .000000000000
G12  20538302.922 8 107929510.598 8      1534.547          51.000    20538301.500 8  84100905.625 8      1195.751          51.000
G15  23242316.703 7 122139164.122 7     -3538.430          42.000    23242299.547 4  95173337.005 4     -2757.221          28.000
G19  21734375.305 6 114214913.986 6     -1153.457          38.000    21734371.141 5  88998616.030 5      -898.801          30.000
G24  20151310.930 8 105895851.013 8      -167.301          51.000    20151312.406 8  82516258.097 8      -130.364          51.000
G25  22627510.688 6 118908378.993 6      2953.918          40.000    22627510.891 5  92655876.260 5      2301.754          35.000
R01  22248826.984 4 118932730.986 4     -4006.793          27.000    22248822.656 4  92503199.362 4     -3116.391          28.000
R10  22933692.930 5 122249504.051 5     -2972.707          32.000
R11  19735826.773 6 105462282.535 6      -618.910          41.000    19735826.828 5  82026223.179 5      -481.378          34.000
C21  24778943.781 7 129030441.048 7     -2532.398          45.000
C29  23173420.672 8 120670109.683 8      1892.988          51.000
E03  25246074.539 8 132669003.235 8     -2451.277          51.000    25246073.164 7 101655474.494 7     -1878.257          47.000
E25  23946172.336 8 125837996.370 8     -1051.043          51.000    23946175.430 8  96421316.481 8      -805.345          51.000
> 2020 05 06 08 13  0.0000000  0 14        .000000000000
G12  20529570.398 8 107883619.446 8      1523.176          51.000    20529568.914 8  84065146.287 8      1186.890          51.000
G15  23262518.594 6 122245332.058 6     -3541.250          38.000    23262502.062 5  95256065.137 5     -2759.419          30.000
G19  21741007.672 5 114249767.729 5     -1171.277          35.000    21741003.703 5  89025774.811 5      -912.684          30.000
G24  20152292.188 8 105901007.427 8      -178.215          51.000    20152293.805 8  82520276.070 8      -138.869          51.000
G25  22610657.930 6 118819817.556 6      2948.195          40.000    22610656.148 5  92586867.432 5      2297.301          34.000
R01  22271309.039 5 119052934.116 5     -4012.844          30.000    22271317.961 4  92596735.695 4     -3121.107          27.000
R10  22950419.047 5 122338663.478 5     -2972.438          31.000
R11  19739317.453 6 105480931.890 6      -626.480          39.000    19739315.930 5  82040728.229 5      -487.260          32.000
R12  20893965.336 5 111611797.022 5      2106.289          34.000
R21  21205020.758 5 113472319.844 5      2538.641          35.000    21205025.867 5  88256289.990 5      1974.486          33.000
C21  24793544.383 7 129106468.317 7     -2537.832          45.000
C29  23162542.445 8 120613464.075 8      1881.621          50.000
E03  25260079.539 8 132742606.771 8     -2457.250          51.000    25260080.641 8 101711872.020 8     -1882.855          48.000
E25  23952175.117 8 125869541.224 8     -1053.574          51.000    23952178.164 8  96445487.208 8      -807.314          51.000
> 2020 05 06 08 13 30.0000000  0 12        .000000000000
G12  20520916.492 8 107838143.388 8      1508.816          51.000    20520915.141 8  84029710.386 8      1175.701          51.000
G15  23282751.242 6 122351661.250 6     -3547.176          37.000    23282742.453 6  95338918.997 6     -2764.036          36.000
G19  21747759.125 6 114285243.603 6     -1193.180          37.000
G24  20153350.367 8 105906568.083 8      -192.152          51.000    20153352.133 8  82524609.031 8      -149.732          51.000
G25  22593851.133 6 118731497.796 6      2940.086          39.000    22593847.375 5  92518046.900 5      2290.979          34.000
R01  22293863.281 6 119173444.842 6     -4021.434          36.000    22293867.797 4  92690499.384 4     -3127.782          24.000
R11  19742863.531 6 105499888.404 6      -636.941          38.000    19742863.477 5  82055472.258 5      -495.396          33.000
R21  21190856.594 5 113396496.840 5      2516.355          35.000    21190856.172 5  88197316.463 5      1957.168          33.000
C21  24808190.375 7 129182734.244 7     -2546.145          45.000
C29  23151742.984 8 120557230.363 8      1867.477          50.000
E03  25274132.070 8 132816460.569 8     -2465.996          50.000    25274135.336 8 101768461.316 8     -1889.464          48.000
E25  23958204.906 8 125901227.713 8     -1058.535          51.000    23958207.859 8  96469766.457 8      -811.079          51.000
> 2020 05 06 08 14  0.0000000  0 12        .000000000000
G12  20512351.938 8 107793137.974 8      1492.465          51.000    20512350.914 8  83994641.218 8      1162.960          51.000
G15  23303024.945 6 122458204.628 6     -3554.773          37.000    23303024.180 6  95421939.823 6     -2769.950          38.000
G24  20154495.953 8 105912588.026 8      -208.293          51.000    20154497.805 8  82529299.870 8      -162.306          51.000
G25  22577101.359 5 118643475.811 5      2929.445          34.000    22577098.648 5  92449458.316 5      2282.685          31.000
R01  22316475.312 5 119294273.404 5     -4032.871          35.000    22316473.078 4  92784485.202 4     -3136.671          26.000
R11  19746477.797 6 105519207.956 6      -649.672          39.000    19746479.867 5  82070498.575 5      -505.300          33.000
R21  21176816.344 6 113321380.230 6      2492.047          37.000    21176820.164 5  88138892.541 5      1938.259          33.000
C21  24822891.930 7 129259290.755 7     -2556.816          44.000
C29  23141033.156 8 120501464.750 8      1851.090          49.000
E02  24088013.688 5 126583361.358 5      1172.625          35.000    24088019.109 6  96992466.793 6       898.708          36.000
E03  25288243.430 8 132890617.913 8     -2476.977          51.000    25288247.719 8 101825283.197 8     -1897.970          49.000
E25  23964272.055 8 125933110.292 8     -1066.141          51.000    23964274.953 8  96494195.959 8      -816.952          51.000
> 2020 05 06 08 14 30.0000000  0 15        .000000000000
G12  20503833.688 8 107748374.373 8      1486.414          51.000    20503832.820 8  83959760.500 8      1158.245          51.000
G15  23323295.852 5 122564730.081 5     -3552.676          35.000    23323301.000 6  95504946.709 6     -2768.319          37.000
G19  21761634.000 5 114358135.002 5     -1229.641          34.000
G24  20155685.664 8 105918839.194 8      -213.906          51.000    20155687.391 8  82534170.888 8      -166.680          51.000
G25  22560363.891 5 118555523.227 5      2928.156          34.000    22560364.125 5  92380923.838 5      2281.677          34.000
R01  22339095.109 5 119415182.304 5     -4033.012          31.000    22339090.594 4  92878525.547 4     -3136.784          29.000
R02  20843088.078 4 111222704.974 4       -82.543          29.000    20843083.320 5  86506538.699 5       -64.206          32.000
R11  19750117.375 7 105538657.209 7      -652.230          42.000    19750119.195 5  82085625.752 5      -507.290          32.000
R21  21162865.516 5 113246740.891 5      2478.398          34.000    21162872.617 5  88080839.837 5      1927.652          31.000
C21  24837604.820 7 129335908.367 7     -2556.777          43.000
C29  23130370.422 8 120445942.151 8      1844.910          49.000
E02  24081295.250 5 126548055.328 5      1175.727          35.000    24081296.820 6  96965413.951 6       900.675          37.000
E03  25302369.625 8 132964848.043 8     -2477.195          51.000    25302373.977 8 101882160.812 8     -1898.129          49.000
E24  25938227.023 5 136306306.043 5     -2357.648          34.000
E25  23970332.820 8 125964959.333 8     -1062.652          51.000    23970335.766 8  96518599.755 8      -814.180          51.000
> 2020 05 06 08 15  0.0000000  0 14        .000000000000
G12  20495412.117 8 107704118.240 8      1461.418          51.000    20495411.203 8  83925275.209 8      1138.767          51.000
G15  23343613.906 6 122671501.070 6     -3568.242          39.000    23343621.578 6  95588144.889 6     -2780.448          39.000
G24  20156969.992 8 105925587.185 8      -238.531          51.000    20156971.492 8  82539429.065 8      -185.865          51.000
G25  22543689.625 5 118467889.639 5      2909.285          31.000    22543692.312 4  92312651.256 4      2266.982          28.000
R01  22361762.930 5 119536436.594 5     -4053.477          31.000    22361772.984 5  92972835.294 5     -3152.704          30.000
R11  19753832.266 7 105558505.995 7      -673.863          42.000    19753834.516 5  82101063.685 5      -524.119          33.000
R21  21149055.875 6 113172853.137 6      2445.242          39.000    21149064.461 4  88023371.670 4      1901.855          29.000
C21  24852379.617 7 129412847.976 7     -2575.230          43.000
C29  23119805.078 8 120390927.714 8      1820.055          48.000
C30  24161265.195 5 125814020.527 5     -1225.160          35.000
E02  24074624.938 6 126513004.693 6      1158.949          36.000    24074627.508 6  96938556.934 6       887.864          39.000
E03  25316560.398 8 133039415.095 8     -2496.398          51.000    25316563.805 8 101939296.576 8     -1912.789          49.000
E24  25951709.352 5 136377159.851 5     -2368.590          34.000
E25  23976437.680 8 125997040.167 8     -1078.602          51.000    23976440.688 8  96543181.158 8      -826.482          51.000
> 2020 05 06 08 15 30.0000000  0 14        .000000000000
G12  20487093.352 8 107660403.162 8      1455.375          51.000    20487092.375 8  83891211.517 8      1134.058          51.000
G15  23363984.844 6 122778548.067 6     -3565.602          38.000    23363993.094 6  95671558.173 6     -2778.391          38.000
G24  20158355.266 8 105932866.269 8      -244.273          51.000    20158356.648 8  82545101.080 8      -190.343          51.000
G25  22527086.750 5 118380639.636 5      2909.672          30.000    22527090.750 5  92244667.292 5      2267.274          30.000
R01  22384520.016 5 119658067.350 5     -4053.621          34.000    22384526.750 5  93067437.016 5     -3152.816          31.000
R11  19757628.906 7 105578787.855 7      -675.992          42.000    19757630.180 5  82116838.404 5      -525.775          32.000
R21  21135395.938 5 113099754.636 5      2430.348          34.000    21135403.398 5  87966517.341 5      1890.276          30.000
C21  24867222.852 7 129490140.094 7     -2575.109          45.000
C29  23109343.586 8 120336456.265 8      1813.750          48.000
C30  24168362.148 4 125850998.245 4     -1232.508          28.000
E02  24068010.953 6 126478242.562 6      1160.836          37.000    24068012.695 6  96911921.001 6       889.711          38.000
E03  25330821.305 8 133114350.666 8     -2496.812          51.000    25330823.562 8 101996714.712 8     -1913.130          50.000
E24  25965213.914 5 136448119.908 5     -2360.320          33.000
E25  23982592.836 8 126029385.562 8     -1075.363          51.000    23982595.828 8  96567965.260 8      -823.989          51.000
> 2020 05 06 08 16  0.0000000  0 12        .000000000000
G12  20478850.461 8 107617085.748 8      1431.102          51.000    20478849.188 8  83857457.692 8      1115.144          51.000
G15  23384380.680 6 122885725.208 6     -3580.934          36.000    23384388.578 6  95755072.815 6     -2790.338          36.000
G24  20159814.227 8 105940533.007 8      -268.289          51.000    20159815.711 8  82551075.147 8      -209.056          51.000
G25  22510528.289 5 118293621.478 5      2890.809          35.000    22510531.445 6  92176860.837 6      2252.572          36.000
R01  22407319.164 5 119779923.570 5     -4072.398          35.000    22407322.625 5  93162214.064 5     -3167.418          31.000
R11  19761479.617 6 105599356.832 6      -696.719          41.000    19761479.359 5  82132836.440 5      -541.895          31.000
R21  21121855.938 5 113027302.980 5      2397.750          35.000    21121864.055 5  87910166.039 5      1864.911          31.000
C21  24882106.750 7 129567640.134 7     -2592.832          47.000
C29  23098959.992 8 120282387.414 8      1789.426          50.000
E02  24061423.406 6 126443625.385 6      1145.020          37.000    24061424.133 5  96885396.120 5       877.493          35.000
E03  25345124.539 8 133189509.590 8     -2515.332          51.000    25345126.062 8 102054303.981 8     -1927.320          51.000
E25  23988770.945 8 126061851.582 8     -1090.484          51.000    23988773.891 8  96592841.805 8      -835.620          51.000
> 2020 05 06 08 16 30.0000000  0 13        .000000000000
G12  20470682.102 8 107574159.144 8      1425.227          51.000    20470680.453 8  83824008.390 8      1110.566          51.000
G15  23404798.969 5 122993022.794 5     -3577.125          35.000    23404806.805 5  95838681.383 5     -2787.367          35.000
G24  20161345.625 8 105948580.652 8      -273.777          51.000    20161347.242 8  82557346.026 8      -213.333          51.000
G25  22494011.641 6 118206824.804 6      2890.293          39.000    22494015.367 6  92109227.073 6      2252.179          39.000
R01  22430156.742 5 119901993.159 5     -4071.855          33.000    22430157.234 4  93257157.087 4     -3166.999          28.000
R11  19765381.555 6 105620205.558 6      -698.664          38.000    19765380.000 5  82149052.172 5      -543.399          31.000
R12  20812182.227 5 111174964.585 5      2054.945          35.000    20812187.727 4  86469429.402 4      1598.288          26.000
C21  24897029.039 8 129645338.446 8     -2592.371          49.000
C29  23088653.156 8 120228715.901 8      1783.234          50.000
C30  24182796.195 4 125926164.100 4     -1266.445          28.000
E02  24054859.492 5 126409140.667 5      1148.102          31.000    24054860.945 5  96858976.658 5       879.804          32.000
E03  25359468.234 8 133264883.066 8     -2515.047          51.000    25359469.609 8 102112057.641 8     -1927.156          51.000
E25  23994970.562 8 126094430.618 8     -1086.852          51.000    23994973.516 8  96617804.957 8      -832.803          51.000
> 2020 05 06 08 17  0.0000000  0 12        .000000000000
G12  20462582.336 8 107531594.658 8      1412.797          51.000    20462580.703 8  83790841.248 8      1100.881          51.000
G15  23425233.922 5 123100434.442 5     -3580.062          32.000    23425241.602 5  95922359.518 5     -2789.653          32.000
G24  20162944.023 8 105956980.757 8      -285.836          51.000    20162945.797 8  82563891.560 8      -222.729          51.000
G25  22477532.227 5 118120221.627 5      2883.895          34.000    22477536.609 5  92041743.986 5      2247.188          33.000
R01  22453026.094 5 120024242.216 5     -4077.707          31.000
R11  19769328.312 6 105641303.931 6      -707.211          41.000    19769328.328 5  82165462.069 5      -550.053          32.000
R21  21095136.070 5 112884333.341 5      2362.246          31.000
C21  24911983.344 8 129723203.785 8     -2598.219          49.000
C29  23078417.609 8 120175414.665 8      1770.469          51.000
E02                                                                  24048319.547 5  96832617.256 5       876.290          32.000
E03  25373846.375 8 133340440.338 8     -2521.586          51.000    25373848.125 8 102169952.141 8     -1932.115          51.000
E25  24001186.102 8 126127093.132 8     -1090.121          51.000    24001189.133 8  96642832.068 8      -835.335          51.000
> 2020 05 06 08 17 30.0000000  0 16        .000000000000
G12  20454561.141 8 107489443.880 8      1395.988          51.000    20454559.828 8  83757996.496 8      1087.783          51.000
G15  23445695.930 6 123207959.921 6     -3588.676          36.000    23445702.773 6  96006143.985 6     -2796.368          36.000
G19  21806032.688 5 114591471.165 5     -1359.238          31.000
G24  20164619.297 8 105965785.017 8      -302.191          51.000    20164621.203 8  82570752.019 8      -235.474          50.000
G25  22461101.078 5 118033897.629 5      2872.859          32.000    22461105.758 5  91974458.795 5      2238.592          30.000
R01  22475936.570 5 120146718.734 5     -4088.227          31.000
R02  20848836.008 5 111253376.882 5      -253.059          33.000    20848836.414 5  86530387.539 5      -196.823          30.000
R11  19773333.141 7 105662704.406 7      -720.590          43.000    19773334.305 5  82182106.830 5      -560.465          33.000
R12  20789170.125 5 111052014.792 5      2039.074          33.000
R21  21081970.758 5 112813815.285 5      2337.594          31.000    21081959.453 4  87744081.184 4      1818.128          26.000
C21  24926978.461 7 129801284.552 7     -2608.297          47.000
C29  23068263.555 8 120122536.426 8      1753.551          51.000
C30  24197557.336 5 126003021.106 5     -1299.672          33.000
E02  24041808.320 5 126340554.577 5      1135.855          34.000    24041809.422 5  96806403.122 5       870.139          33.000
E03  25388268.078 8 133416231.064 8     -2532.355          49.000    25388270.789 8 102228025.534 8     -1940.421          51.000
