     3.02           OBSERVATION DATA    M (MIXED)           RINEX VERSION / TYPE
SAVERINEX           SC600               20200514 215931 LCL PGM / RUN BY / DATE
       G = GPS       R = GLONASS       C = COMPASS          COMMENT
       S = SBAS      J = QZSS          E = GALILEO          COMMENT
BEAN                                                        MARKER NAME
1                                                           MARKER NUMBER
GEODETIC                                                    MARKER TYPE
Unige DICCA         GTER                                    OBSERVER / AGENCY
SC60291900056       SC600               2.12(191202)        REC # / TYPE / VERS
                    HEMA45          NONE                    ANT # / TYPE
  4509407.8091   693652.4678  4442337.6214                  APPROX POSITION XYZ
        0.0000        0.0000        0.0000                  ANTENNA: DELTA H/E/N
G    8 C1C L1C D1C S1C C2Y L2Y D2Y S2Y                      SYS / # / OBS TYPES
R    8 C1C L1C D1C S1C C2P L2P D2P S2P                      SYS / # / OBS TYPES
C    8 C1I L1I D1I S1I C7I L7I D7I S7I                      SYS / # / OBS TYPES
E    8 C1C L1C D1C S1C C7Q L7Q D7Q S7Q                      SYS / # / OBS TYPES
DBHZ                                                        COMMENT
     30.000                                                 INTERVAL
  2020    05    14    19    00    0.0000000     GPS         TIME OF FIRST OBS
  2020    05    14    19    59   30.0000000     GPS         TIME OF LAST OBS
     0                                                      RCV CLOCK OFFS APPL
G L1C  0.00000                                              SYS / PHASE SHIFT
G L2Y  0.00000                                              SYS / PHASE SHIFT
R L1C  0.00000                                              SYS / PHASE SHIFT
R L2P  0.25000                                              SYS / PHASE SHIFT
C L1I  0.00000                                              SYS / PHASE SHIFT
C L7I  0.00000                                              SYS / PHASE SHIFT
E L1C  0.50000                                              SYS / PHASE SHIFT
E L7Q -0.25000                                              SYS / PHASE SHIFT
 12 R02 -4 R03  5 R04  6 R05  1 R10 -5 R13 -2 R14 -7 R15  0 GLONASS SLOT / FRQ #
    R16 -1 R17  4 R18 -3 R19  3                             GLONASS SLOT / FRQ #
 C1C   71.950 C2C   71.950 C2P   71.950                     GLONASS COD/PHS/BIS
    18                                                      LEAP SECONDS
*** Above antenna height is from mark to ANTENNA BOTTOM.    COMMENT
    17     4        0.0000        ANT MEASURE TYPE/HEIGT    COMMENT
    0.0000    0.0000    0.0458    0.0405    0.0000          COMMENT
                    BASE STATION                            COMMENT
                                                            END OF HEADER
> 2020 05 14 19 00  0.0000000  0 18        .000000000000
G03  21934016.914 8 115264040.662 8      2574.191          49.000    21934019.289 8  89816165.206 8      2005.863          50.000
G08  21791491.109 8 114515060.220 8     -2795.922          51.000    21791491.727 8  89232487.199 8     -2178.640          51.000
G11  19922299.180 8 104692386.483 8      -654.480          50.000    19922296.523 8  81578475.024 8      -509.985          50.000
G14  21931544.320 6 115251080.474 6       398.508          39.000    21931547.102 5  89806024.783 5       310.526          31.000
G22  20824876.961 8 109435490.716 8       981.938          51.000    20824873.461 8  85274372.834 8       765.146          51.000
R03  21017702.984 5 112509353.149 5     -3162.273          31.000
R04  19211808.805 8 102878452.048 8       662.352          48.000    19211812.109 7  80016513.013 7       515.162          47.000
R05  21881156.984 7 116967355.207 7      3922.488          42.000    21881164.008 4  90974615.308 4      3050.839          27.000
R18  21408100.352 8 114277879.556 8     -3033.004          50.000    21408104.625 7  88882795.644 7     -2359.009          45.000
R19  19286602.594 6 103170316.906 6        60.379          40.000    19286602.367 7  80243579.668 7        46.961          44.000
C11  21686478.648 8 112927223.916 8      -145.883          51.000    21686476.625 8  87322458.984 8      -112.803          51.000
C12  23872058.977 7 124308068.605 7     -2819.602          44.000    23872063.656 8  96122870.933 8     -2180.280          51.000
C14  23328001.953 7 121475018.378 7      2630.672          47.000    23327998.617 7  93932271.854 7      2034.272          46.000
C21  22559534.906 7 117473375.390 7     -1654.629          43.000
E04  26753730.758 5 140591806.225 5     -2319.406          35.000
E05  25327520.281 8 133097022.749 8      2638.699          50.000    25327523.531 8 101983478.238 8      2021.854          51.000
E09  22005538.305 8 115639939.197 8       170.832          51.000    22005540.555 8  88607222.021 8       130.882          51.000
E36  23235650.906 8 122104162.725 8      -446.574          51.000    23235654.312 8  93560357.581 8      -342.162          51.000
> 2020 05 14 19 00 30.0000000  0 19        .000000000000
G03  21919350.688 8 115186970.148 8      2561.090          49.000    21919352.930 8  89756110.284 8      1995.657          49.000
G08  21807486.781 8 114599118.094 8     -2810.855          50.000    21807488.047 8  89297986.823 8     -2190.277          50.000
G11  19926085.750 8 104712285.436 8      -674.934          50.000    19926083.211 8  81593980.710 8      -525.922          49.000
G14  21929320.023 6 115239390.314 6       377.621          37.000    21929322.883 5  89796915.639 5       294.253          33.000
G22  20819307.320 8 109406222.765 8       966.496          51.000    20819304.320 8  85251566.647 8       753.114          51.000
G32  22213472.914 6 116732597.140 6     -1176.453          37.000
R03  21035453.086 5 112604409.425 5     -3179.102          34.000
R04  19208167.211 8 102858951.973 8       634.824          49.000    19208170.352 7  80001346.284 7       493.752          47.000
R05  21859174.547 6 116849845.820 6      3908.684          41.000    21859177.789 5  90883218.710 5      3040.090          32.000
R18  21425181.977 8 114369058.330 8     -3048.477          51.000    21425185.922 7  88953712.381 7     -2371.040          46.000
R19  19286316.289 6 103168786.534 6        38.883          40.000    19286316.141 7  80242389.372 7        30.242          45.000
C11  21687359.719 8 112931811.504 8      -162.812          50.000    21687357.891 8  87326006.384 8      -125.879          51.000
C12  23888325.516 7 124392772.562 7     -2830.129          46.000    23888330.242 8  96188369.369 8     -2188.429          51.000
C14  23312870.375 7 121396230.789 7      2619.043          45.000    23312866.602 7  93871348.336 7      2025.077          46.000
C21  22569099.320 7 117523179.176 7     -1668.324          45.000
E04  26766991.445 5 140661488.501 5     -2329.695          34.000
E05  25312476.453 8 133017969.821 8      2628.488          48.000    25312480.789 8 101922905.256 8      2014.075          51.000
E09  22004602.141 8 115635019.539 8       154.359          51.000    22004604.203 8  88603452.415 8       118.230          51.000
E36  23238223.461 8 122117680.531 8      -457.496          51.000    23238227.070 8  93570715.382 8      -350.600          51.000
> 2020 05 14 19 01  0.0000000  0 20        .000000000000
G03  21904736.523 8 115110172.461 8      2551.051          51.000    21904738.844 8  89696267.949 8      1987.832          51.000
G08  21823543.648 8 114683499.453 8     -2822.387          49.000    21823545.680 8  89363738.535 8     -2199.262          49.000
G11  19929965.562 8 104732674.215 8      -692.094          49.000    19929963.016 8  81609868.072 8      -539.294          49.000
G14  21927191.797 5 115228205.621 5       360.156          30.000    21927194.391 4  89788200.115 4       280.623          25.000
G22  20813803.125 8 109377297.829 8       954.160          51.000    20813799.969 8  85229027.737 8       743.501          51.000
G27  24399698.180 6 128221307.023 6     -3774.441          36.000    24399696.641 5  99912679.633 5     -2941.117          35.000
G32  22220222.578 6 116768037.676 6     -1193.406          39.000    22220195.977 6  90988058.597 6      -929.936          36.000
R03  21053290.500 5 112699851.063 5     -3192.035          34.000
R04  19204657.055 8 102840153.290 8       610.566          49.000    19204659.727 7  79986725.086 7       474.885          46.000
R05  21837246.398 6 116732634.987 6      3897.621          41.000    21837250.508 6  90792054.731 6      3031.486          36.000
R18  21442327.570 8 114460579.817 8     -3060.785          50.000    21442331.500 7  89024895.728 7     -2380.614          46.000
R19  19286129.781 6 103167790.121 6        19.863          41.000    19286129.898 7  80241614.372 7        15.449          44.000
C11  21688314.727 8 112936784.938 8      -176.469          50.000    21688313.320 8  87329852.141 8      -136.339          51.000
C12  23904630.648 7 124477672.643 7     -2837.543          47.000    23904634.500 8  96254019.487 8     -2194.026          51.000
C14  23297783.438 7 121317674.677 7      2610.270          45.000    23297780.102 7  93810603.750 7      2018.625          47.000
C21  22578719.984 7 117573276.956 7     -1679.027          44.000
E04  26780288.109 5 140731362.968 5     -2336.320          33.000
E05  25297466.734 7 132939099.577 7      2621.789          46.000    25297472.781 8 101862472.232 8      2008.903          51.000
E09  22003737.070 8 115630473.172 8       141.094          51.000    22003738.922 8  88599968.841 8       108.120          51.000
E36  23240835.016 8 122131403.777 8      -465.090          51.000    23240838.812 8  93581230.590 8      -356.383          51.000
> 2020 05 14 19 01 30.0000000  0 18        .000000000000
G03  21890203.656 8 115033801.211 8      2538.152          50.000    21890205.203 8  89636757.924 8      1977.781          50.000
G08  21839689.898 7 114768354.556 7     -2836.816          47.000    21839693.344 7  89429859.413 7     -2210.506          47.000
G11  19933967.656 8 104753705.724 8      -712.062          50.000    19933965.266 8  81626256.260 8      -554.854          50.000
G22  20808393.250 8 109348868.582 8       938.992          51.000    20808389.578 8  85206875.094 8       731.682          51.000
G27  24421254.789 6 128334581.488 6     -3779.609          38.000    24421250.891 6 100000945.396 6     -2945.150          37.000
G32  22227096.914 6 116804116.784 6     -1214.262          37.000    22227063.562 5  91016171.803 5      -946.184          33.000
R04  19201306.875 8 102822211.410 8       583.402          50.000    19201309.203 7  79972770.308 7       453.757          46.000
R05  21815403.883 7 116615880.774 7      3883.809          43.000    21815409.211 6  90701245.937 6      3020.743          38.000
R18  21459565.938 8 114552597.826 8     -3075.977          48.000    21459570.000 7  89096465.290 7     -2392.426          47.000
R19  19286072.773 6 103167484.624 6        -1.668          41.000    19286072.961 7  80241376.759 7        -1.297          44.000
C11  21689373.016 8 112942295.989 8      -193.047          50.000    21689372.102 8  87334113.627 8      -149.418          51.000
C12  23921002.383 7 124562919.096 7     -2847.648          47.000    23921005.594 8  96319937.472 8     -2202.046          51.000
C14  23282771.102 7 121239502.287 7      2598.918          46.000    23282768.453 8  93750155.939 8      2009.612          48.000
C21  22588425.648 7 117623818.208 7     -1692.332          44.000
E04  26793649.359 5 140801576.797 5     -2346.020          31.000
E05  25282521.211 7 132860566.110 7      2611.688          46.000    25282528.906 8 101802297.254 8      2001.193          51.000
E09  22002972.195 8 115626452.579 8       124.840          51.000    22002973.859 8  88596888.139 8        95.671          51.000
E36  23243514.859 8 122145485.750 8      -475.785          51.000    23243518.609 8  93592020.666 8      -364.590          51.000
> 2020 05 14 19 02  0.0000000  0 19        .000000000000
G03  21875731.297 8 114957748.272 8      2529.344          49.000    21875732.023 8  89577495.919 8      1970.917          49.000
G08  21855905.719 8 114853572.415 8     -2847.070          48.000    21855909.523 8  89496262.957 8     -2218.496          48.000
G11  19938071.297 8 104775271.134 8      -728.109          49.000    19938069.109 8  81643060.463 8      -567.358          49.000
G14  21923289.156 5 115207677.168 5       323.379          33.000
G22  20803056.672 8 109320825.691 8       927.961          51.000    20803053.125 8  85185023.524 8       723.086          51.000
G27  24442827.828 5 128447945.174 5     -3781.141          35.000    24442823.250 5 100089280.657 5     -2946.343          33.000
G32  22234071.125 6 116840741.259 6     -1230.309          37.000    22234040.625 5  91044710.163 5      -958.691          32.000
R03  21089183.547 5 112892049.355 5     -3219.480          32.000
R04  19198096.094 8 102805014.954 8       560.352          50.000    19198098.203 7  79959395.303 7       435.829          46.000
R05  21793627.836 7 116499475.277 7      3873.977          44.000    21793631.672 6  90610708.399 6      3013.093          38.000
R18  21476875.633 7 114645000.448 7     -3086.863          45.000    21476880.328 7  89168334.004 7     -2400.894          47.000
R19  19286124.258 6 103167760.496 6       -19.703          41.000    19286124.312 7  80241591.314 7       -15.325          44.000
C11  21690514.172 8 112948237.386 8      -205.688          50.000    21690513.406 8  87338707.869 8      -158.948          51.000
C12  23937419.055 7 124648402.803 7     -2853.973          45.000    23937422.273 8  96386038.876 8     -2206.734          51.000
C14  23267812.320 8 121161606.828 8      2591.406          48.000    23267810.609 8  93689922.281 8      2003.888          49.000
C21  22598195.867 7 117674693.347 7     -1701.621          45.000
E05  25267620.344 8 132782261.925 8      2605.859          48.000    25267628.297 8 101742297.953 8      1996.706          51.000
E09  22002286.570 8 115622848.449 8       112.773          51.000    22002288.078 8  88594126.538 8        86.411          51.000
E36  23246242.453 8 122159818.107 8      -482.270          51.000    23246245.812 8  93603002.606 8      -369.552          51.000
> 2020 05 14 19 02 30.0000000  0 18        .000000000000
G03  21861296.938 8 114881895.394 8      2522.254          50.000    21861297.750 8  89518389.797 8      1965.393          50.000
G08  21872168.359 8 114939031.883 8     -2855.395          50.000    21872171.047 8  89562854.747 8     -2224.983          50.000
G11  19942253.961 8 104797251.293 8      -742.395          50.000    19942251.789 8  81660187.845 8      -578.489          50.000
G14  21921474.984 6 115198131.186 6       308.184          39.000    21921474.398 5  89764754.928 5       240.134          30.000
G22  20797770.891 8 109293049.796 8       918.590          51.000    20797767.797 8  85163379.979 8       715.784          51.000
G27  24464394.422 5 128561260.194 5     -3779.691          31.000    24464391.398 5 100177591.330 5     -2945.217          31.000
R03  21107279.008 6 112988814.207 6     -3229.410          36.000
R04  19195001.906 8 102788442.303 8       539.180          50.000    19195003.367 7  79946505.486 7       419.365          46.000
R05  21771895.977 7 116383300.156 7      3865.797          42.000    21771897.016 6  90520350.053 6      3006.731          39.000
R18  21494234.547 8 114737664.981 8     -3095.895          48.000    21494238.906 7  89240406.447 7     -2407.918          45.000
R19  19286262.227 6 103168497.848 6       -35.043          41.000    19286261.977 7  80242164.804 7       -27.256          44.000
C11  21691715.328 8 112954491.753 8      -216.523          49.000    21691714.516 8  87343544.144 8      -167.354          51.000
C12  23953857.711 7 124734004.458 7     -2858.219          43.000    23953861.164 8  96452231.503 8     -2210.096          51.000
C14  23252884.508 8 121083871.348 8      2585.777          48.000    23252883.555 8  93629812.303 8      1999.487          51.000
C21  22608007.000 7 117725782.625 7     -1709.199          44.000
E05  25252741.484 8 132704069.060 8      2601.754          50.000    25252748.586 8 101682383.973 8      1993.543          51.000
E09  22001657.273 8 115619541.333 8       102.535          51.000    22001658.617 8  88591592.540 8        78.533          51.000
E36  23248995.125 8 122174282.133 8      -487.094          51.000    23248998.031 8  93614085.435 8      -373.213          51.000
> 2020 05 14 19 03  0.0000000  0 17        .000000000000
G03  21846948.203 8 114806491.516 8      2507.281          50.000    21846949.883 8  89459633.544 8      1953.729          50.000
G08  21888524.078 8 115024979.066 8     -2871.789          51.000    21888525.469 8  89629826.531 8     -2237.761          51.000
G11  19946562.820 8 104819894.366 8      -764.512          50.000    19946560.500 8  81677831.792 8      -595.723          50.000
G14  21919787.664 6 115189264.545 6       285.309          40.000    21919786.359 5  89757846.003 5       222.321          34.000
G22  20792583.133 8 109265788.801 8       901.383          51.000    20792580.016 8  85142137.644 8       702.376          51.000
G32  22248267.789 4 116915431.342 4     -1266.586          28.000
R04  19192071.070 8 102772745.807 8       509.867          50.000    19192072.164 7  79934297.126 7       396.563          46.000
R05  21750254.891 5 116267610.910 5      3849.219          33.000    21750253.969 6  90430369.561 6      2993.837          40.000
R18  21511690.078 8 114830842.387 8     -3113.176          49.000    21511692.852 7  89312877.684 7     -2421.362          43.000
R19  19286533.578 6 103169950.846 6       -58.996          40.000    19286533.609 7  80243294.903 7       -45.886          43.000
C11  21693023.844 8 112961305.573 8      -235.203          50.000    21693023.258 8  87348813.030 8      -181.959          51.000
C12  23970365.414 6 124819968.916 6     -2870.211          41.000    23970369.039 8  96518704.653 8     -2219.638          49.000
C14  23238034.797 8 121006542.792 8      2572.000          48.000    23238034.516 8  93570016.982 8      1988.788          51.000
C21  22617905.828 7 117777330.183 7     -1724.711          44.000
E05  25237931.617 8 132626237.164 8      2589.473          51.000    25237937.344 8 101622746.591 8      1984.171          51.000
E09  22001131.859 8 115616779.239 8        84.156          51.000    22001132.922 8  88589476.146 8        64.444          51.000
E36  23251820.125 8 122189126.441 8      -500.027          51.000    23251822.656 8  93625459.653 8      -383.183          51.000
> 2020 05 14 19 03 30.0000000  0 19        .000000000000
G01  20494517.008 6 107699405.302 6       978.727          36.000    20494523.266 5  83921632.442 5       762.647          35.000
G03  21832651.539 8 114731361.906 8      2502.039          50.000    21832654.055 8  89401091.013 8      1949.641          50.000
G08  21904938.406 8 115111236.273 8     -2878.184          49.000    21904938.547 8  89697039.875 8     -2242.744          49.000
G11  19950964.398 8 104843024.781 8      -776.746          50.000    19950962.039 8  81695855.480 8      -605.257          50.000
G14  21918196.289 6 115180902.116 6       272.648          41.000    21918195.109 5  89751329.949 5       212.459          33.000
G22  20787459.945 8 109238866.705 8       894.105          51.000    20787456.484 8  85121159.386 8       696.706          51.000
G27  24507611.781 5 128788370.687 5     -3785.652          33.000    24507617.281 5 100354588.763 5     -2949.859          32.000
R04  19189270.227 8 102757746.189 8       490.684          49.000    19189271.180 7  79922630.767 7       381.646          46.000
R05  21728663.836 5 116152231.899 5      3843.000          35.000    21728670.086 6  90340630.133 6      2989.000          41.000
R18  21529208.102 8 114924353.128 8     -3120.227          50.000    21529209.898 7  89385608.147 7     -2426.846          43.000
R19  19286905.625 6 103171941.952 6       -72.930          41.000    19286905.805 7  80244843.525 7       -56.723          43.000
C11  21694406.484 8 112968505.219 8      -244.203          50.000    21694406.188 8  87354380.248 8      -188.851          51.000
C12  23986908.773 7 124906120.886 7     -2872.578          42.000    23986911.859 7  96585322.770 7     -2221.314          45.000
C14  23223229.750 8 120929448.176 8      2568.258          48.000    23223230.219 8  93510402.535 8      1985.889          51.000
C21  22627859.148 7 117829160.311 7     -1729.988          45.000
E04  26847497.547 5 141084550.612 5     -2369.863          31.000
E05  25223157.039 8 132548591.939 8      2587.328          51.000    25223161.398 8 101563252.239 8      1982.546          51.000
E09  22000676.570 8 115614386.045 8        75.961          51.000    22000677.586 8  88587642.410 8        58.195          51.000
E36  23254684.023 8 122204175.826 8      -502.801          51.000    23254686.469 8  93636990.998 8      -385.266          51.000
> 2020 05 14 19 04  0.0000000  0 21        .000000000000
G01  20488965.719 5 107670235.082 5       964.410          30.000    20488968.797 4  83898902.355 4       751.482          28.000
G03  21818403.688 8 114656489.174 8      2488.305          51.000    21818406.180 8  89342748.616 8      1938.939          51.000
G08  21921407.227 7 115197783.138 7     -2892.707          47.000    21921408.023 7  89764478.927 7     -2254.057          47.000
G11  19955455.219 8 104866624.332 8      -797.559          51.000    19955452.875 8  81714244.739 8      -621.474          50.000
G14  21916697.695 7 115173026.083 7       251.383          42.000    21916695.594 5  89745192.808 5       195.889          31.000
G22  20782397.961 8 109212265.205 8       878.273          51.000    20782394.344 8  85100430.940 8       684.369          51.000
G27  24529229.547 5 128901970.667 5     -3790.070          31.000    24529233.078 5 100443105.907 5     -2953.295          33.000
G32  22262925.906 6 116992460.958 6     -1300.949          38.000    22262927.883 6  91162948.949 6     -1013.721          36.000
R03  21161940.211 5 113281537.513 5     -3271.438          34.000    21161935.539 4  88107811.702 4     -2544.454          28.000
R04  19186595.672 8 102743424.450 8       462.957          48.000    19186597.016 7  79911491.651 7       360.078          47.000
R05  21707133.008 6 116037146.755 6      3828.211          41.000    21707141.297 7  90251119.508 7      2977.497          42.000
R18  21546784.945 8 115018177.048 8     -3135.812          50.000    21546786.094 7  89458582.284 7     -2438.962          45.000
R19  19287375.086 6 103174454.046 6       -95.547          40.000    19287375.656 7  80246797.362 7       -74.314          43.000
C11  21695859.984 8 112976073.395 8      -261.520          50.000    21695859.719 8  87360232.435 8      -202.190          51.000
C12  24003484.750 7 124992441.218 7     -2883.168          42.000    24003484.586 6  96652071.102 6     -2229.476          40.000
C14  23208466.008 8 120852570.548 8      2555.781          48.000    23208467.148 8  93450955.898 8      1976.325          51.000
C21  22637862.797 7 117881253.268 7     -1743.910          45.000
E04  26861053.164 5 141155786.731 5     -2380.418          33.000
E05  25208414.344 8 132471116.543 8      2576.496          51.000    25208417.680 8 101503888.018 8      1974.186          51.000
E09  22000287.789 8 115612343.430 8        59.137          51.000    22000288.719 8  88586077.315 8        45.307          51.000
E36  23257583.516 8 122219412.652 8      -514.148          51.000    23257585.930 8  93648665.955 8      -393.949          51.000
> 2020 05 14 19 04 30.0000000  0 20        .000000000000
G01  20483478.664 5 107641408.121 5       952.371          34.000    20483478.008 5  83876419.343 5       742.107          35.000
G03  21804217.578 8 114581939.906 8      2475.910          51.000    21804218.930 8  89284658.298 8      1929.284          51.000
G08  21937943.453 7 115284682.916 7     -2906.277          47.000    21937945.141 7  89832193.008 7     -2264.632          47.000
G11  19960047.875 8 104890759.045 8      -817.066          51.000    19960045.680 8  81733050.992 8      -636.675          50.000
G14  21915304.148 6 115165702.970 6       231.441          40.000    21915303.062 5  89739486.434 5       180.344          35.000
G22  20777409.656 8 109186050.163 8       863.660          51.000    20777405.891 8  85080003.630 8       672.982          51.000
G32  22270383.125 6 117031692.949 6     -1320.465          36.000    22270393.469 6  91193519.387 6     -1028.934          36.000
R03  21180293.734 5 113379815.062 5     -3285.180          31.000    21180300.844 4  88184249.755 4     -2555.143          29.000
R04  19184059.734 8 102729847.182 8       436.508          48.000    19184061.578 7  79900931.562 7       339.503          46.000
R05  21685671.828 7 115922425.925 7      3814.273          44.000    21685680.508 7  90161892.222 7      2966.657          42.000
R18  21564432.141 8 115112379.567 8     -3149.855          48.000    21564434.141 7  89531850.877 7     -2449.891          47.000
R19  19287954.992 6 103177555.607 6      -117.016          40.000    19287955.766 7  80249209.665 7       -91.012          44.000
C11  21697396.922 8 112984075.912 8      -277.602          50.000    21697396.438 8  87366420.489 8      -214.553          51.000
C12  24020105.852 7 125078993.918 7     -2892.383          42.000    24020102.516 6  96718999.125 6     -2236.607          36.000
C14  23193756.938 8 120775976.224 8      2544.844          48.000    23193757.344 8  93391728.320 8      1967.883          49.000
C21  22647929.523 7 117933672.562 7     -1756.438          47.000
E04  26874649.711 5 141227236.438 5     -2388.664          32.000
E05  25193716.289 8 132393878.191 8      2567.230          51.000    25193719.148 8 101444705.434 8      1967.033          50.000
E09  21999978.242 8 115610716.904 8        43.770          51.000    21999978.969 8  88584831.024 8        33.559          51.000
E36  23260531.281 8 122234903.340 8      -524.059          51.000    23260533.609 8  93660535.447 8      -401.509          51.000
> 2020 05 14 19 05  0.0000000  0 18        .000000000000
G01  20478088.281 6 107613077.701 6       938.234          37.000    20478086.039 6  83854343.755 6       731.098          37.000
G03  21790124.836 8 114507881.243 8      2462.602          51.000    21790125.719 8  89226950.303 8      1918.913          51.000
G08  21954578.648 8 115372100.262 8     -2920.387          49.000    21954580.703 8  89900310.408 8     -2275.626          49.000
G11  19964774.047 8 104915595.043 8      -837.277          51.000    19964771.875 8  81752403.718 8      -652.424          50.000
G14  21914047.539 6 115159098.951 6       210.406          38.000    21914047.531 5  89734340.513 5       163.959          34.000
G22  20772526.250 8 109160387.454 8       848.320          51.000    20772522.562 8  85060006.710 8       661.029          51.000
G27  24572540.766 5 129129573.012 5     -3798.547          30.000
R04  19181694.414 8 102717183.493 8       409.160          49.000    19181696.617 7  79891082.034 7       318.236          47.000
R05  21664311.516 7 115808241.025 7      3799.398          45.000    21664319.492 6  90073081.767 6      2955.088          41.000
R18  21582181.000 7 115207128.038 7     -3165.082          47.000    21582184.477 7  89605544.095 7     -2461.734          47.000
R19  19288676.938 6 103181417.230 6      -139.148          39.000    19288677.750 7  80252213.147 7      -108.227          44.000
C11  21699048.891 8 112992678.160 8      -294.492          50.000    21699048.383 8  87373072.292 8      -227.675          51.000
C12  24036803.844 7 125165942.546 7     -2902.680          44.000    24036799.375 5  96786233.223 5     -2244.500          35.000
C14  23179134.180 8 120699830.888 8      2532.887          48.000    23179132.156 7  93332847.983 7      1958.682          47.000
C21  22658090.430 8 117986581.137 8     -1769.566          48.000
E05  25179095.094 8 132317044.548 8      2556.664          51.000    25179097.898 8 101385832.936 8      1959.026          50.000
E09  21999779.352 8 115609672.410 8        27.410          51.000    21999780.445 8  88584030.706 8        21.039          51.000
E36  23263559.031 8 122250814.610 8      -535.035          51.000    23263561.266 8  93672727.181 8      -409.974          51.000
> 2020 05 14 19 05 30.0000000  0 19        .000000000000
G01  20472734.391 6 107584941.497 6       935.488          37.000    20472731.031 6  83832419.378 6       728.952          36.000
G03  21776066.258 8 114434003.802 8      2460.227          50.000    21776067.875 8  89169383.501 8      1917.060          50.000
G08  21971253.000 8 115459723.159 8     -2923.461          50.000    21971254.945 8  89968587.989 8     -2278.022          49.000
G11  19969574.523 8 104940822.002 8      -846.734          50.000    19969572.578 8  81772061.083 8      -659.796          50.000
G14  21912868.719 6 115152904.275 6       200.172          37.000    21912868.742 5  89729513.467 5       155.969          30.000
G22  20767688.805 8 109134966.233 8       844.070          51.000    20767685.234 8  85040197.966 8       657.717          51.000
G32  22285638.000 4 117111818.042 4     -1349.344          28.000
R03  21217268.148 5 113577654.913 5     -3306.055          32.000
R04  19179440.922 8 102705116.571 8       393.000          49.000    19179443.078 7  79881696.657 7       305.667          47.000
R05  21642993.523 7 115694279.201 7      3795.570          46.000    21642999.727 6  89984444.872 6      2952.113          40.000
R18  21599973.336 8 115302106.068 8     -3169.102          49.000    21599977.484 7  89679415.926 7     -2464.854          47.000
R19  19289482.141 6 103185724.320 6      -150.164          40.000    19289483.000 7  80255563.102 7      -116.791          45.000
C11  21700757.102 8 113001573.232 8      -300.617          51.000    21700756.531 8  87379950.524 8      -232.553          51.000
C12  24053519.406 7 125252978.573 7     -2902.055          45.000    24053514.648 6  96853534.995 6     -2243.932          41.000
C14  23164539.281 8 120623828.363 8      2531.641          49.000    23164534.359 8  93274078.119 8      1957.622          48.000
C21  22668285.680 8 118039670.017 8     -1772.016          48.000
E05  25164492.219 8 132240306.776 8      2557.012          51.000    25164494.992 8 101327033.915 8      1959.200          50.000
E09  21999631.867 8 115608899.321 8        21.953          51.000    21999633.586 8  88583438.374 8        16.800          51.000
E36  23266608.062 8 122266836.728 8      -535.262          51.000    23266609.992 8  93685003.871 8      -410.210          51.000
> 2020 05 14 19 06  0.0000000  0 18        .000000000000
G01  20467445.570 5 107557148.474 5       920.090          35.000    20467442.164 5  83810762.435 5       716.956          34.000
G03  21762070.484 8 114360456.758 8      2444.797          51.000    21762072.828 8  89112074.098 8      1905.037          51.000
G08  21987994.156 8 115547697.231 8     -2939.617          50.000    21987996.156 8  90037139.185 8     -2290.611          50.000
G11  19974477.656 8 104966588.540 8      -869.039          50.000    19974475.992 8  81792138.888 8      -677.173          50.000
G14  21911795.500 5 115147267.631 5       177.387          32.000
G22  20762925.617 8 109109934.828 8       826.711          51.000    20762921.969 8  85020692.988 8       644.190          51.000
R03  21235847.570 5 113677118.352 5     -3322.801          33.000    21235857.938 4  88415614.986 4     -2584.404          27.000
R04  19177326.844 8 102693796.953 8       363.578          49.000    19177329.156 7  79872892.537 7       282.783          47.000
R05  21621745.688 7 115580694.365 7      3778.613          44.000    21621750.391 6  89896101.241 6      2938.924          39.000
R18  21617837.094 8 115397462.727 8     -3186.090          51.000    21617841.477 7  89753582.222 7     -2478.070          46.000
R19  19290399.445 6 103190629.051 6      -174.426          39.000    19290400.016 7  80259377.897 7      -135.664          45.000
C11  21702550.078 8 113010908.541 8      -319.727          51.000    21702549.180 8  87387169.185 8      -247.314          51.000
C12  24070279.906 7 125340247.677 7     -2913.984          46.000    24070275.656 7  96921016.972 7     -2253.344          47.000
C14  23150000.047 8 120548116.486 8      2517.676          48.000    23149994.812 8  93215532.955 8      1946.769          50.000
C21  22678543.477 8 118093084.368 8     -1787.043          49.000
E05  25149936.172 8 132163814.449 8      2544.312          51.000    25149938.859 8 101268422.954 8      1949.535          50.000
E09  21999564.383 8 115608545.630 8         3.605          51.000    21999566.195 8  88583167.377 8         2.670          51.000
E36  23269706.250 8 122283118.431 8      -548.281          51.000    23269708.180 8  93697479.446 8      -420.183          51.000
> 2020 05 14 19 06 30.0000000  0 18        .000000000000
G01  20462227.992 5 107529730.457 5       909.117          32.000    20462225.242 5  83789397.837 5       708.409          30.000
G03  21748143.953 8 114287271.708 8      2434.098          51.000    21748146.133 8  89055046.783 8      1896.699          51.000
G08  22004807.734 8 115636051.194 8     -2950.793          51.000    22004809.414 8  90105986.383 8     -2299.319          51.000
G11  19979489.234 8 104992924.991 8      -886.676          50.000    19979487.695 8  81812660.777 8      -690.916          50.000
G14  21910832.367 5 115142206.519 5       159.668          34.000
G22  20758242.094 8 109085323.745 8       814.043          51.000    20758238.359 8  85001515.546 8       634.322          51.000
R03  21254506.500 5 113776996.575 5     -3335.371          33.000    21254512.602 4  88493297.899 4     -2594.184          28.000
R04  19175358.312 8 102683255.751 8       339.156          49.000    19175360.680 7  79864693.827 7       263.788          47.000
R05  21600573.469 6 115467520.632 6      3766.215          41.000    21600578.680 6  89808077.321 6      2929.278          40.000
R18  21635777.672 8 115493228.083 8     -3198.230          50.000    21635781.180 7  89828066.347 7     -2487.516          43.000
R19  19291434.648 6 103196164.368 6      -194.125          40.000    19291434.898 7  80263683.153 7      -150.986          45.000
C11  21704433.414 8 113020715.347 8      -334.062          51.000    21704432.430 8  87394752.428 8      -258.306          51.000
C12  24087090.609 7 125427779.233 7     -2921.344          45.000    24087087.625 8  96988701.874 8     -2259.026          48.000
C14  23135521.586 7 120472727.051 7      2508.180          46.000    23135518.328 8  93157237.049 8      1939.580          51.000
C21  22688869.352 8 118146853.133 8     -1797.496          50.000
E05  25135433.086 8 132087599.833 8      2536.539          51.000    25135435.641 8 101210024.797 8      1943.600          49.000
E09  21999582.461 8 115608641.830 8        -9.996          51.000    21999584.594 8  88583241.091 8        -7.677          51.000
E36  23272859.766 8 122299691.197 8      -556.562          51.000    23272861.977 8  93710178.033 8      -426.475          51.000
> 2020 05 14 19 07  0.0000000  0 19        .000000000000
G01  20457071.320 4 107502635.217 4       896.633          27.000    20457070.242 4  83768286.267 4       698.678          25.000
G03  21734276.828 8 114214398.225 8      2423.324          51.000    21734278.508 8  88998262.303 8      1888.308          51.000
G08  22021683.492 8 115724731.601 8     -2962.062          50.000    22021684.992 8  90175087.963 8     -2308.101          50.000
G11  19984599.602 8 105019780.304 8      -904.426          50.000    19984598.094 8  81833586.990 8      -704.747          49.000
G14  21909975.359 6 115137696.857 6       140.961          39.000
G22  20753628.734 8 109061081.419 8       801.352          51.000    20753625.000 8  84982625.428 8       624.430          51.000
G32  22309283.719 5 117236101.140 5     -1406.832          33.000
R03  21273234.672 5 113877233.134 5     -3347.582          33.000    21273232.625 4  88571259.620 4     -2603.672          25.000
R04  19173525.312 8 102673440.020 8       314.426          49.000    19173527.391 7  79857059.373 7       244.553          46.000
R05  21579466.828 6 115354708.853 6      3753.676          38.000    21579475.086 6  89720334.853 6      2919.526          41.000
R18  21653784.320 8 115589348.617 8     -3210.508          49.000    21653787.312 7  89902826.656 7     -2497.065          44.000
R19  19292577.852 6 103202279.305 6      -214.250          40.000    19292577.969 7  80268439.232 7      -166.639          45.000
C11  21706397.539 8 113030943.354 8      -348.508          51.000    21706396.609 8  87402661.367 8      -269.482          51.000
C12  24103941.055 7 125515521.386 7     -2928.832          44.000    24103939.594 8  97056549.636 8     -2264.701          48.000
C14  23121095.016 7 120397610.264 7      2498.715          46.000    23121094.508 8  93099151.961 8      1932.204          51.000
C21  22699253.047 8 118200923.800 8     -1807.934          49.000
E05  25120973.328 8 132011613.008 8      2528.555          51.000    25120975.836 8 101151801.181 8      1937.458          49.000
E09  21999676.305 8 115609136.455 8       -23.703          51.000    21999678.867 8  88583620.101 8       -18.180          51.000
E36  23276059.273 8 122316504.254 8      -565.023          51.000    23276061.641 8  93723060.762 8      -432.946          51.000
> 2020 05 14 19 07 30.0000000  0 18        .000000000000
G03  21720479.195 8 114141891.894 8      2413.227          50.000    21720480.742 8  88941763.895 8      1880.436          50.000
G08  22038631.008 8 115813791.517 8     -2972.410          48.000    22038632.602 8  90244485.289 8     -2316.164          49.000
G11  19989819.094 8 105047209.446 8      -921.445          49.000    19989817.758 8  81854960.328 8      -718.012          49.000
G14  21909230.859 6 115133780.493 6       123.211          41.000    21909229.977 5  89714639.135 5        95.993          31.000
G22  20749096.367 8 109037263.074 8       789.422          51.000    20749092.641 8  84964065.679 8       615.134          51.000
G32  22317377.406 5 117278628.125 5     -1424.023          34.000
R03  21292030.422 4 113977842.740 4     -3359.352          29.000    21292035.578 4  88649493.164 4     -2612.829          24.000
R04  19171838.242 8 102664404.988 8       290.746          48.000    19171839.445 7  79850032.116 7       226.136          45.000
R05  21558440.430 6 115242317.560 6      3741.840          38.000    21558449.211 6  89632919.360 6      2910.320          41.000
R18  21671867.375 8 115685878.354 8     -3221.898          48.000    21671870.211 7  89977905.220 7     -2505.921          45.000
R19  19293839.750 6 103209030.891 6      -233.098          41.000    19293840.078 7  80273690.459 7      -181.298          45.000
C11  21708453.211 8 113041647.332 8      -362.270          51.000    21708452.203 8  87410938.354 8      -280.054          51.000
C12  24120841.398 7 125603527.098 7     -2935.613          44.000    24120841.094 7  97124601.197 7     -2269.794          47.000
C14  23106732.062 7 120322821.387 7      2489.984          46.000    23106733.617 8  93041320.443 8      1925.468          51.000
C21  22709704.727 8 118255348.899 8     -1817.590          50.000
E05  25106567.641 8 131935910.114 8      2521.359          51.000    25106570.172 8 101093795.115 8      1931.849          49.000
E09  21999856.562 8 115610083.834 8       -36.586          51.000    21999859.148 8  88584346.001 8       -27.965          51.000
E36  23279315.023 8 122333612.836 8      -572.641          51.000    23279317.406 8  93736169.925 8      -438.759          51.000
> 2020 05 14 19 08  0.0000000  0 18        .000000000000
G01  20446966.969 6 107449532.637 6       874.844          37.000    20446970.320 6  83726918.462 6       681.696          37.000
G03  21706740.367 8 114069695.384 8      2402.133          50.000    21706742.289 8  88885506.884 8      1871.792          50.000
G08  22055638.625 7 115903170.166 7     -2983.891          47.000    22055640.977 7  90314130.963 7     -2325.113          46.000
G11  19995136.398 7 105075153.646 7      -939.207          47.000    19995135.586 7  81876735.009 7      -731.850          47.000
G14  21908588.047 7 115130399.216 7       104.684          42.000    21908584.539 5  89712004.406 5        81.572          32.000
G22  20744633.297 8 109013809.106 8       776.570          51.000    20744629.672 8  84945789.864 8       605.120          51.000
G32  22325567.062 6 117321665.678 6     -1442.418          36.000
R04  19170285.766 8 102656090.639 8       265.941          48.000    19170286.430 7  79843565.398 7       206.843          46.000
R05  21537484.234 7 115130290.013 7      3728.844          43.000    21537490.398 7  89545786.899 7      2900.218          42.000
R18  21690014.883 7 115782756.709 7     -3234.352          46.000    21690018.773 7  90053255.073 7     -2515.604          45.000
R19  19295210.180 7 103216361.183 7      -253.309          42.000    19295210.469 7  80279391.802 7      -197.018          45.000
C11  21710589.242 8 113052770.306 8      -377.000          51.000    21710588.203 8  87419539.332 8      -291.575          51.000
C12  24137780.875 7 125691737.638 7     -2942.898          44.000    24137780.953 7  97192811.161 7     -2275.751          47.000
C14  23092421.945 7 120248303.794 7      2480.141          47.000    23092424.375 8  92983698.723 8      1917.769          51.000
C21  22720213.156 8 118310069.177 8     -1828.281          50.000
E05  25092205.133 8 131860434.367 8      2512.664          51.000    25092208.055 8 101035963.084 8      1925.321          50.000
E09  22000111.852 8 115611425.385 8       -50.578          51.000    22000114.508 8  88585373.960 8       -38.752          51.000
E36  23282615.898 8 122350959.366 8      -581.527          51.000    23282618.352 8  93749461.404 8      -445.625          51.000
> 2020 05 14 19 08 30.0000000  0 18        .000000000000
G01  20442005.930 6 107423458.742 6       862.488          38.000    20442008.055 6  83706601.159 6       672.069          39.000
G03  21693059.250 8 113997801.323 8      2390.117          50.000    21693061.594 8  88829485.582 8      1862.429          50.000
G08  22072705.336 8 115992857.916 8     -2996.098          49.000    22072708.180 8  90384017.491 8     -2334.622          49.000
G11  20000550.242 7 105103604.983 7      -958.285          47.000    20000549.922 7  81898904.876 7      -746.716          47.000
G14  21908045.305 7 115127545.155 7        85.094          42.000    21908044.266 5  89709780.486 5        66.310          35.000
G22  20740237.930 8 108990711.627 8       762.531          51.000    20740234.398 8  84927791.834 8       594.180          51.000
R04  19168866.250 8 102648488.068 8       240.086          49.000    19168866.789 7  79837652.301 7       186.734          46.000
R05  21516595.438 7 115018621.062 7      3714.871          47.000    21516599.164 7  89458933.353 7      2889.347          43.000
R18  21708226.070 7 115879974.118 7     -3247.688          46.000    21708231.039 7  90128868.647 7     -2525.979          45.000
R19  19296686.945 6 103224262.814 6      -274.336          41.000    19296687.484 7  80285537.508 7      -213.375          45.000
C11  21712804.211 8 113064304.568 8      -392.754          51.000    21712803.164 8  87428458.345 8      -303.729          51.000
C12  24154757.430 7 125780143.773 7     -2951.422          42.000    24154758.188 7  97261172.345 7     -2282.366          47.000
C14  23078162.953 7 120174050.594 7      2469.289          47.000    23078165.477 8  92926281.446 8      1909.329          51.000
C21  22730776.508 8 118365074.848 8     -1839.617          51.000
E05  25077884.398 8 131785178.996 8      2503.371          51.000    25077888.023 8 100978299.893 8      1918.197          51.000
E09  22000440.516 8 115613152.744 8       -65.453          51.000    22000443.289 8  88586697.519 8       -50.185          51.000
E11  25825758.375 5 135715275.673 5     -2383.172          33.000
E36  23285960.703 8 122368536.200 8      -591.168          51.000    23285963.180 8  93762929.354 8      -453.015          51.000
> 2020 05 14 19 09  0.0000000  0 18        .000000000000
G01  20437115.172 6 107397758.247 6       850.738          38.000    20437117.805 6  83686574.835 6       662.913          38.000
G03  21679446.492 8 113926267.127 8      2379.098          49.000    21679449.258 8  88773744.692 8      1853.845          48.000
G08  22089841.562 8 116082908.825 8     -3007.020          48.000    22089844.711 8  90454187.024 8     -2343.132          48.000
G11  20006071.461 7 105132619.746 7      -975.848          46.000    20006071.055 7  81921513.784 7      -760.401          46.000
G14  21907613.523 6 115125274.889 6        66.516          38.000    21907613.266 6  89708011.500 6        51.836          37.000
G22  20735921.305 8 108968027.086 8       749.988          51.000    20735917.625 8  84910115.568 8       584.406          51.000
R04  19167590.289 8 102641654.115 8       215.727          50.000    19167590.445 7  79832337.007 7       167.787          46.000
R05  21495784.992 8 114907370.936 8      3702.137          48.000    21495787.547 7  89372405.557 7      2879.443          44.000
R18  21726512.898 8 115977586.800 8     -3259.664          49.000    21726517.438 7  90204789.585 7     -2535.294          46.000
R19  19298281.773 6 103232795.234 6      -294.227          41.000    19298282.297 7  80292173.823 7      -228.843          45.000
C11  21715109.156 8 113076306.784 8      -407.281          51.000    21715108.039 8  87437739.204 8      -314.842          51.000
C12  24171782.383 7 125868800.327 7     -2958.625          44.000    24171783.422 7  97329727.201 7     -2287.957          47.000
C14  23063965.656 7 120100118.711 7      2459.844          47.000    23063967.695 8  92869112.644 8      1902.038          50.000
C21  22741405.000 8 118420420.326 8     -1849.828          50.000
E05  25063616.531 8 131710201.923 8      2495.281          50.000    25063620.820 8 100920849.928 8      1912.056          51.000
E09  22000853.250 8 115615322.053 8       -78.961          51.000    22000856.062 8  88588359.716 8       -60.512          51.000
E11  25839373.945 5 135786825.796 5     -2387.156          32.000
E36  23289360.406 8 122386400.401 8      -599.512          51.000    23289362.820 8  93776617.496 8      -459.345          51.000
> 2020 05 14 19 09 30.0000000  0 18        .000000000000
G01  20432287.367 5 107372392.253 5       839.730          33.000    20432291.547 5  83666809.203 5       654.335          33.000
G03  21665894.812 8 113855053.888 8      2368.273          49.000    21665897.406 8  88718253.823 8      1845.408          49.000
G08  22107038.805 8 116173280.963 8     -3017.875          48.000    22107042.211 8  90524606.850 8     -2351.591          48.000
G11  20011692.414 7 105162158.308 7      -993.512          47.000    20011691.836 7  81944530.867 7      -774.165          47.000
G14  21907285.312 6 115123549.095 6        48.223          36.000    21907283.539 5  89706666.685 5        37.561          31.000
G22  20731675.523 8 108945715.088 8       737.391          51.000    20731671.797 8  84892729.606 8       574.590          51.000
R04  19166450.062 8 102635547.768 8       191.301          49.000    19166450.312 7  79827587.638 7       148.789          47.000
R05  21475045.570 8 114796501.954 8      3689.086          49.000    21475047.320 7  89286174.194 7      2869.289          45.000
R18  21744866.266 8 116075552.615 8     -3271.457          51.000    21744870.219 7  90280985.170 7     -2544.470          46.000
R19  19299986.969 6 103241918.827 6      -314.188          40.000    19299987.875 7  80299269.937 7      -244.368          45.000
C11  21717496.383 8 113088738.073 8      -421.586          51.000    21717495.359 8  87447351.849 8      -326.054          51.000
C12  24188848.812 7 125957666.685 7     -2965.789          47.000    24188848.914 7  97398444.295 7     -2293.318          47.000
C14  23049822.648 7 120026469.902 7      2450.148          47.000    23049823.172 8  92812162.733 8      1894.683          48.000
C21  22752090.672 8 118476064.471 8     -1859.812          50.000
E05  25049394.328 8 131635464.741 8      2487.160          50.000    25049398.969 8 100863583.776 8      1905.770          51.000
E09  22001342.547 8 115617893.158 8       -92.504          51.000    22001345.305 8  88590329.784 8       -70.886          51.000
E11  25853013.953 5 135858504.346 5     -2391.965          31.000
E36  23292807.250 8 122404512.778 8      -607.992          51.000    23292809.742 8  93790495.806 8      -465.840          51.000
> 2020 05 14 19 10  0.0000000  0 17        .000000000000
G01  20427504.875 6 107347263.102 6       831.320          36.000    20427509.289 6  83647228.000 6       647.785          36.000
G03  21652386.062 8 113784063.650 8      2360.266          51.000    21652388.383 8  88662936.766 8      1839.171          51.000
G08  22124277.727 8 116263873.297 8     -3025.820          48.000    22124281.516 8  90595198.255 8     -2357.785          48.000
G11  20017394.438 8 105192121.806 8     -1008.102          48.000    20017393.711 8  81967879.046 8      -785.534          48.000
G22  20727481.664 8 108923677.027 8       727.758          51.000    20727478.289 8  84875557.105 8       567.084          51.000
G32  22359328.969 6 117499079.596 6     -1509.816          37.000    22359335.719 5  91557730.207 5     -1176.480          35.000
R04  19165426.609 8 102630067.414 8       169.879          50.000    19165427.164 7  79823325.161 7       132.128          47.000
R05  21454358.336 7 114685916.457 7      3679.020          47.000    21454360.172 7  89200163.323 7      2861.463          45.000
R18  21763266.617 8 116173769.835 8     -3280.445          50.000    21763269.742 7  90357376.303 7     -2551.461          46.000
R19  19301784.523 6 103251534.240 6      -331.207          40.000    19301785.500 7  80306748.565 7      -257.605          45.000
C11  21719947.352 8 113101501.147 8      -433.270          51.000    21719946.422 8  87457221.052 8      -335.116          51.000
C12  24205937.289 8 126046643.981 8     -2970.074          48.000    24205936.031 8  97467247.197 8     -2296.659          48.000
C14  23035715.141 7 119953007.425 7      2443.137          46.000    23035713.219 7  92755356.931 7      1889.218          46.000
C21  22762814.742 8 118531907.934 8     -1867.051          51.000
E05  25035199.484 8 131560870.213 8      2481.723          51.000    25035204.172 8 100806426.920 8      1901.565          51.000
E09  22001889.445 8 115620767.078 8      -103.180          51.000    22001892.250 8  88592531.876 8       -79.060          51.000
E36  23296282.445 8 122422775.222 8      -613.660          51.000    23296285.078 8  93804489.091 8      -470.180          51.000
> 2020 05 14 19 10 30.0000000  0 19        .000000000000
G01  20422812.539 6 107322604.925 6       817.207          40.000    20422816.477 6  83628013.863 6       636.788          40.000
G03  21638964.508 8 113713530.613 8      2346.609          51.000    21638966.109 8  88607975.988 8      1828.530          51.000
G08  22141602.453 8 116354917.466 8     -3039.137          48.000    22141606.477 7  90666141.750 7     -2368.158          47.000
G11  20023221.891 8 105222743.414 8     -1028.699          50.000    20023220.719 8  81991740.033 8      -801.584          49.000
G14  21906927.672 5 115121692.289 5        12.105          34.000
G22  20723384.406 8 108902145.982 8       712.262          51.000    20723381.148 8  84858779.649 8       555.009          51.000
G32  22368017.711 6 117544750.670 6     -1530.117          38.000    22368024.859 6  91593318.203 6     -1192.290          37.000
R03  21406208.711 4 114589114.752 4     -3431.172          28.000    21406210.602 4  89124871.628 4     -2668.689          28.000
R04  19164564.352 8 102625450.093 8       142.797          50.000    19164564.820 7  79819733.922 7       111.064          47.000
R05  21433767.992 7 114575854.910 7      3663.145          47.000    21433770.609 7  89114559.907 7      2849.112          45.000
R18  21781757.711 8 116272474.075 8     -3295.066          49.000    21781760.383 7  90434146.231 7     -2562.829          44.000
R19  19303718.891 6 103261880.473 6      -354.016          41.000    19303719.516 7  80314795.639 7      -275.345          45.000
C11  21722506.570 8 113114827.724 8      -450.570          51.000    21722505.586 8  87467525.995 8      -348.286          51.000
C12  24223090.828 7 126135962.200 7     -2979.887          47.000    24223089.195 8  97536313.655 8     -2304.092          49.000
C14  23021686.992 7 119879963.462 7      2430.855          45.000    23021682.766 7  92698874.778 7      1879.674          45.000
C21  22773621.188 8 118588180.151 8     -1879.785          51.000
E05  25021076.695 8 131486652.937 8      2470.797          51.000    25021080.922 8 100749559.151 8      1893.190          51.000
E09  22002538.250 8 115624176.713 8      -119.430          51.000    22002541.250 8  88595144.450 8       -91.517          51.000
E36  23299830.680 8 122441421.525 8      -624.777          51.000    23299833.227 8  93818776.514 8      -478.755          51.000
> 2020 05 14 19 11  0.0000000  0 18        .000000000000
G01  20418180.195 6 107298261.766 6       805.777          40.000    20418183.672 6  83609045.182 6       627.878          40.000
G03  21625600.078 8 113643298.534 8      2335.848          50.000    21625601.031 8  88553249.746 8      1820.141          50.000
G08  22158983.070 8 116446254.047 8     -3049.668          48.000    22158986.633 8  90737313.108 8     -2376.365          48.000
G11  20029144.828 8 105253866.277 8     -1046.105          51.000    20029142.984 8  82015991.599 8      -815.147          49.000
G14  21906914.609 6 115121614.206 6        -6.422          40.000    21906913.734 5  89705134.470 5        -5.001          35.000
G22  20719353.672 8 108880964.463 8       699.898          51.000    20719350.227 8  84842274.565 8       545.375          51.000
R04  19163833.094 8 102621535.127 8       118.488          50.000    19163834.023 8  79816688.960 8        92.158          48.000
R05  21413246.570 7 114466160.198 7      3649.957          47.000    21413249.992 7  89029241.798 7      2838.855          46.000
R18  21800309.477 8 116371504.238 8     -3306.746          48.000    21800311.688 7  90511169.659 7     -2571.914          44.000
R19  19305760.133 6 103272798.664 6      -373.887          40.000    19305760.414 7  80323287.563 7      -290.801          44.000
C11  21725144.094 8 113128562.662 8      -465.031          50.000    21725143.000 8  87478146.720 8      -359.601          51.000
C12  24240278.883 7 126225464.535 7     -2986.801          44.000    24240277.688 7  97605522.469 7     -2309.535          47.000
C14  23007709.109 7 119807183.548 7      2421.289          44.000    23007705.000 7  92642596.789 7      1872.249          47.000
C21  22784479.805 8 118644723.902 8     -1889.590          51.000
E04  27055183.914 5 142175950.336 5     -2476.098          35.000
E05  25006996.078 8 131412657.308 8      2462.469          51.000    25006999.508 8 100692861.241 8      1886.866          51.000
E09  22003259.156 8 115627964.659 8      -132.949          51.000    22003262.078 8  88598046.901 8      -101.867          51.000
E36  23303422.305 8 122460295.221 8      -633.301          51.000    23303424.414 8  93833238.177 8      -485.259          51.000
> 2020 05 14 19 11 30.0000000  0 19        .000000000000
G01  20413621.930 6 107274306.910 6       790.207          37.000    20413623.641 6  83590379.006 6       615.740          37.000
G03  21612306.734 8 113573440.602 8      2320.699          50.000    21612307.266 8  88498815.030 8      1808.340          50.000
G08  22176433.039 8 116537953.410 8     -3064.523          49.000    22176435.508 8  90808767.171 8     -2387.940          49.000
G11  20035176.750 8 105285562.298 8     -1067.930          51.000    20035174.430 8  82040689.771 8      -832.156          50.000
G14  21907012.297 6 115122131.744 6       -28.875          41.000    21907013.164 5  89705537.809 5       -22.494          34.000
G22  20715403.016 8 108860204.433 8       683.184          51.000    20715399.484 8  84826097.930 8       532.351          51.000
G32  22385701.250 5 117637672.224 5     -1567.570          31.000
R04  19163246.547 8 102618395.166 8        89.926          49.000    19163247.859 8  79814246.788 8        69.942          48.000
R05  21392808.969 8 114356908.622 8      3632.406          50.000    21392812.258 7  88944268.374 7      2825.205          47.000
R18  21818935.023 8 116470932.277 8     -3322.727          48.000    21818937.734 7  90588502.564 7     -2584.343          43.000
R19  19307922.312 6 103284363.846 6      -398.109          41.000    19307922.320 7  80332282.701 7      -309.641          45.000
C11  21727873.883 8 113142778.226 8      -483.637          50.000    21727872.836 8  87489139.092 8      -373.945          51.000
C12  24257515.289 7 126315221.525 7     -2997.902          42.000    24257514.266 7  97674928.257 7     -2318.192          47.000
C14  22993796.391 7 119734740.416 7      2407.277          45.000    22993793.727 8  92586579.188 8      1861.586          50.000
C21  22795404.195 8 118701609.298 8     -1903.719          51.000
E04  27069346.828 5 142250377.144 5     -2486.742          35.000
E05  24992971.609 8 131338957.058 8      2449.961          51.000    24992974.164 8 100636389.677 8      1877.288          50.000
E09  22004065.766 8 115632202.907 8      -150.531          51.000    22004068.391 8  88601294.391 8      -115.378          51.000
E36  23307071.016 8 122479469.280 8      -645.953          51.000    23307072.875 8  93847929.995 8      -494.927          51.000
> 2020 05 14 19 12  0.0000000  0 20        .000000000000
G01  20409123.844 6 107250669.199 6       781.934          37.000    20409124.070 6  83571960.000 6       609.296          37.000
G03  21599070.828 8 113503885.561 8      2312.898          50.000    21599071.633 8  88444616.317 8      1802.259          50.000
G08  22193938.266 8 116629941.182 8     -3071.598          51.000    22193939.008 8  90880445.922 8     -2393.453          51.000
G11  20041303.797 8 105317759.133 8     -1082.012          51.000    20041301.344 8  82065778.190 8      -843.126          49.000
G14  21907209.906 7 115123172.426 7       -43.750          44.000    21907206.727 4  89706348.626 4       -34.100          28.000
G22  20711518.938 8 108839793.911 8       674.082          51.000    20711515.297 8  84810193.637 8       525.259          51.000
G32  22394683.219 6 117684874.936 6     -1582.195          38.000
R04  19162791.094 8 102615956.047 8        69.195          49.000    19162792.344 8  79812349.690 8        53.819          48.000
R05  21372441.508 8 114248029.812 8      3622.492          51.000    21372444.508 8  88859584.882 8      2817.497          48.000
R18  21837621.211 8 116570683.725 8     -3330.926          49.000    21837624.430 7  90666086.977 7     -2590.720          44.000
R19  19310191.867 6 103296503.707 6      -414.660          41.000    19310191.430 7  80341724.813 7      -322.513          44.000
