     3.04           OBSERVATION DATA    M (MIXED)           RINEX VERSION / TYPE
Convert 2.6.2       NovAtel             20200515 160116 UTC PGM / RUN BY / DATE 
Rinex Version 3.04 Observation File                         COMMENT             
                                                            MARKER NAME         
                                                            MARKER NUMBER       
                                                            MARKER TYPE         
                                                            OBSERVER / AGENCY   
                    NovAtel GPSCard                         REC # / TYPE / VERS 
                                                            ANT # / TYPE        
        0.0000        0.0000        0.0000                  APPROX POSITION XYZ 
        0.0000        0.0000        0.0000                  ANTENNA: DELTA H/E/N
G    8 C1C L1C D1C S1C C2W L2W D2W S2W                      SYS / # / OBS TYPES 
R    8 C1C L1C D1C S1C C2P L2P D2P S2P                      SYS / # / OBS TYPES 
E    8 C1C L1C D1C S1C C7Q L7Q D7Q S7Q                      SYS / # / OBS TYPES 
C    8 C2I L2I D2I S2I C7I L7I D7I S7I                      SYS / # / OBS TYPES 
DBHZ                                                        SIGNAL STRENGTH UNIT
    30.000                                                  INTERVAL            
  2020    05    10    08    00    0.0000000     GPS         TIME OF FIRST OBS   
  2020    05    10    08    59   30.0000000     GPS         TIME OF LAST OBS    
G L1C  0.00000  09 G24 G15 G12 G25 G17 G19 G02 G32 G29      SYS / PHASE SHIFT   
G L2W  0.00000  08 G24 G15 G12 G25 G17 G02 G32 G29          SYS / PHASE SHIFT   
R L1C  0.00000  06 R15 R14 R05 R17 R18 R24                  SYS / PHASE SHIFT   
R L2P  0.25000  06 R15 R14 R05 R17 R18 R24                  SYS / PHASE SHIFT   
E L1C  0.50000  06 E31 E24 E25 E05 E12 E09                  SYS / PHASE SHIFT   
E L7Q -0.25000  06 E31 E24 E05 E12 E09 E25                  SYS / PHASE SHIFT   
C L2I  0.00000  04 C25 C11 C12 C23                          SYS / PHASE SHIFT   
C L7I  0.00000  02 C11 C12                                  SYS / PHASE SHIFT   
  6 R15  0 R14 -7 R05  1 R17  4 R18 -3 R24  2               GLONASS SLOT / FRQ #
 C1C  -71.950 C2C  -71.950 C2P  -71.950                     GLONASS COD/PHS/BIS 
     0     0     0     0GPS                                 LEAP SECONDS        
                                                            END OF HEADER       
> 2020 05 10 08 00  0.0000000  0 17      -0.000000000000
G24  20161157.750 8 105947593.080 8      -272.086          51.000    20161159.258 8  82556581.474 8      -212.015          51.000  
G15  23400927.117 5 122972676.467 5     -3577.398          35.000    23400934.805 5  95822867.523 5     -2787.581          35.000  
G12  20476236.961 8 107603397.159 8      1432.324          51.000    20476235.703 8  83846773.387 8      1116.097          51.000  
G25  22479217.430 6 118129066.827 6      2884.484          41.000    22479217.055 6  92048622.972 6      2247.648          41.000  
R15  19820927.156 7 105916650.299 7      -883.836          44.000    19820933.828 6  82379620.913 6      -687.428          36.000  
R14  22860654.445 5 121859762.622 5     -2950.828          33.000    22860654.180 4  94779827.326 4     -2295.089          26.000  
R05  21910819.773 6 117125503.540 6     -3831.453          37.000    21910827.688 5  91097619.940 5     -2980.023          35.000  
R17  20943667.102 5 112073430.515 5      2191.758          32.000    20943671.508 4  87168208.385 4      1704.704          29.000  
E31  25117943.883 6 131995677.945 6     -1788.543          36.000    25117949.500 5 101139551.748 5     -1370.185          35.000  
E24  21768698.484 7 114395313.994 7       247.996          44.000    21768710.617 7  87653544.680 7       190.029          44.000  
E25  26417630.656 5 138825594.808 5      2064.238          32.000                                                                  
E05  24656354.172 8 129570018.481 8     -1142.375          48.000    24656356.023 8  99280913.075 8      -875.309          48.000  
E12  25244625.305 7 132661396.130 7      2784.066          46.000    25244626.320 7 101649664.943 7      2133.208          46.000  
E09  24572098.539 5 129127248.239 5     -3036.133          34.000    24572100.969 6  98941676.671 6     -2326.072          39.000  
C25  22336784.516 8 116313476.207 8     -1137.004          51.000                                                                  
C11  23467232.648 7 122200083.601 7      2067.719          46.000    23467233.539 8  94492878.535 8      1598.858          51.000  
C12  23937420.180 5 124648439.429 5      -961.996          32.000    23937426.562 5  96386102.144 5      -744.478          32.000  
> 2020 05 10 08 00 30.0000000  0 18      -0.000000000000
G24  20162765.539 8 105956042.284 8      -297.465          51.000    20162767.219 8  82563165.267 8      -231.791          51.000  
G12  20468115.461 8 107560717.177 8      1406.719          51.000    20468113.953 8  83813516.267 8      1096.145          51.000  
G25  22462788.078 5 118042739.578 5      2864.590          33.000    22462790.312 5  91981354.947 5      2232.149          34.000  
R15  19825932.562 7 105943395.363 7      -905.445          44.000    19825939.453 6  82400422.609 6      -704.235          36.000  
R18  23136328.344 6 123502906.728 6      4401.355          38.000    23136329.352 5  96057817.355 5      3423.283          31.000  
R14  22877285.055 5 121948413.230 5     -2965.488          33.000                                                                  
R05  21932371.328 5 117240698.716 5     -3854.949          33.000    21932377.094 5  91187216.138 5     -2998.294          35.000  
R17  20931455.750 6 112008122.858 6      2156.246          40.000    20931473.016 4  87117413.592 4      1677.081          27.000  
E31  25128177.875 6 132049456.069 6     -1803.164          40.000    25128180.523 5 101180771.333 5     -1381.194          33.000  
E24  21767315.961 7 114388047.639 7       230.285          46.000    21767328.086 7  87647976.958 7       176.452          44.000  
E25  26405871.266 5 138763789.017 5      2049.312          32.000    26405860.508 5 106325486.404 5      1569.873          34.000  
E05  24662930.672 8 129604571.871 8     -1167.191          48.000    24662931.664 8  99307389.039 8      -894.456          49.000  
E12  25228758.438 7 132578015.191 7      2768.371          46.000    25228759.820 7 101585775.689 7      2121.197          46.000  
E09  24589455.797 6 129218453.059 6     -3050.863          36.000    24589456.930 6  99011560.841 6     -2337.433          40.000  
C25  22343371.672 8 116347777.156 8     -1155.922          51.000                                                                  
C11  23455373.758 7 122138333.808 7      2042.898          45.000    23455375.195 8  94445129.694 8      1579.617          51.000  
C12  23943030.852 4 124677642.75124      -989.859          28.000    23943023.695 5  96408686.665 5      -766.232          34.000  
C23  22561896.641 5 117485740.139 5      1360.969          30.000                                                                  
> 2020 05 10 08 01  0.0000000  0 21      -0.000000000000
G24  20164445.242 8 105964869.586 8      -295.488          51.000    20164447.047 8  82570043.689 8      -230.251          51.000  
G15  23441850.367 5 123187754.62625     -3582.914          32.000                                                                  
G17  23662159.352 5 124345476.17625     -2592.590          30.000                                                                  
G19  21801616.102 5 114568255.160 5     -1345.031          32.000                                                                  
G12  20460067.266 8 107518424.410 8      1408.434          51.000    20460065.898 8  83780560.862 8      1097.481          51.000  
G25  22446402.664 6 117956633.158 6      2871.734          36.000    22446403.742 6  91914259.022 6      2237.716          36.000  
R24  22085535.656 5 118100858.567 5     -1634.930          32.000                                                                  
R15  19830987.281 7 105970403.242 7      -899.492          44.000    19830991.875 6  82421428.723 6      -699.605          36.000  
R18  23111542.148 6 123370602.058 6      4413.754          36.000    23111543.492 5  95954913.789 5      3432.927          32.000  
R14  22893925.109 5 122037112.968 5     -2952.465          32.000    22893933.227 5  94917776.315 5     -2296.362          30.000  
R05  21953977.047 5 117356214.325 5     -3850.938          35.000    21953987.156 6  91277060.117 6     -2995.174          36.000  
R17  20919376.273 6 111943482.166 6      2148.785          41.000                                                                  
E31  25138422.094 6 132103286.330 6     -1790.262          41.000    25138423.328 5 101222017.888 5     -1371.778          34.000  
E24  21765962.578 7 114380932.745 7       239.727          47.000    21765974.586 7  87642525.287 7       183.603          45.000  
E25  26394127.961 5 138702074.522 5      2061.312          35.000    26394120.672 5 106278193.466 5      1579.454          35.000  
E05  24669576.344 7 129639492.569 7     -1165.070          47.000    24669577.188 8  99334146.442 8      -892.666          49.000  
E12  25212908.312 7 132494723.930 7      2779.977          45.000    25212910.414 7 101521955.131 7      2130.089          47.000  
E09  24606826.852 5 129309732.030 5     -3038.441          35.000    24606826.711 6  99081501.927 6     -2328.397          41.000  
C25  22349995.336 8 116382268.626 8     -1147.777          51.000                                                                  
C11  23443585.641 7 122076952.887 7      2045.164          45.000    23443587.773 8  94397666.092 8      1581.261          51.000  
C12                                                                  23948711.797 5  96431635.604 5      -767.005          30.000  
> 2020 05 10 08 01 30.0000000  0 18      -0.000000000000
G24  20166189.109 8 105974034.024 8      -305.242          51.000    20166190.773 8  82577184.823 8      -237.851          50.000  
G15  23462336.438 6 123295406.847 6     -3583.457          37.000    23462342.906 6  96074358.451 6     -2792.305          36.000  
G17  23677014.688 5 124423549.956 5     -2600.484          35.000    23677019.016 5  96953432.475 5     -2026.349          35.000  
G12  20452085.102 8 107476477.965 8      1398.309          51.000    20452083.789 8  83747875.320 8      1089.591          51.000  
G25  22430051.406 6 117870707.049 6      2866.918          38.000    22430051.719 6  91847303.744 6      2233.969          38.000  
R15  19836083.539 7 105997631.725 7      -905.305          44.000    19836085.648 6  82442606.402 6      -704.126          36.000  
R18  23086759.789 4 123238331.301 4      4415.031          28.000    23086765.781 5  95852036.558 5      3433.914          33.000  
R14  22910566.602 5 122125819.917 5     -2951.262          32.000                                                                  
R05  21975638.656 7 117472000.292 7     -3858.082          43.000    21975649.312 6  91367115.857 6     -3000.734          38.000  
R17  20907414.617 6 111879469.850 6      2129.508          39.000                                                                  
E31  25148667.672 6 132157126.899 6     -1788.859          41.000    25148669.352 5 101263272.362 5     -1370.907          35.000  
E24  21764629.695 7 114373927.657 7       237.629          46.000    21764641.688 7  87637157.762 7       181.999          45.000  
E25  26382388.289 6 138640379.092 6      2062.012          36.000    26382382.406 5 106230920.365 5      1580.029          35.000  
E05  24676283.125 7 129674738.392 7     -1174.426          46.000    24676284.289 8  99361152.984 8      -899.858          49.000  
E12  25197067.531 7 132411483.237 7      2779.445          43.000    25197070.820 7 101458173.299 7      2130.071          47.000  
E09  24624203.531 5 129401042.225 5     -3038.520          31.000    24624203.109 6  99151466.807 6     -2328.089          41.000  
C25  22356647.562 8 116416909.654 8     -1151.367          51.000                                                                  
C11  23431861.625 7 122015901.999 7      2035.285          47.000    23431863.469 8  94350457.636 8      1573.884          51.000  
> 2020 05 10 08 02  0.0000000  0 17      -0.000000000000
G24  20168026.516 8 105983689.952 8      -331.918          51.000    20168028.023 8  82584708.927 8      -258.637          51.000  
G15  23482864.930 6 123403274.802 6     -3600.863          39.000    23482870.078 6  96158411.419 6     -2805.865          39.000  
G17  23691948.383 5 124502029.692 5     -2625.367          34.000    23691953.305 5  97014585.546 5     -2045.747          35.000  
G19  21817253.719 5 114650453.640 5     -1394.176          34.000                                                                  
G12  20444198.070 8 107435031.598 8      1371.359          51.000    20444196.727 8  83715579.442 8      1068.592          51.000  
G25  22413763.672 6 117785116.429 6      2845.500          40.000    22413763.703 6  91780609.856 6      2217.273          40.000  
R15  19841250.078 7 106025237.065 7      -928.262          45.000    19841250.516 6  82464077.154 6      -721.984          37.000  
R05  21997381.555 7 117588210.832 7     -3882.707          45.000    21997390.695 6  91457501.790 6     -3019.884          37.000  
R17  20895599.977 6 111816246.237 6      2092.375          39.000    20895599.727 4  86968146.11124      1627.403          26.000  
E31  25158943.789 7 132211131.710 7     -1804.957          42.000    25158946.984 5 101304652.566 5     -1382.714          34.000  
E24  21763346.695 7 114367186.229 7       218.324          46.000    21763358.617 7  87631992.243 7       167.276          44.000  
E25  26370682.133 5 138578863.842 5      2045.539          34.000                                                                  
E05  24683080.641 7 129710462.624 7     -1200.664          46.000    24683081.852 8  99388526.088 8      -919.978          49.000  
E12  25181266.156 7 132328449.361 7      2762.457          44.000    25181270.523 7 101394549.988 7      2116.719          47.000  
E09                                                                  24641614.812 7  99221572.264 7     -2340.681          42.000  
C25  22363357.727 8 116451852.958 8     -1171.637          51.000                                                                  
C11  23420231.078 8 121955335.720 8      2008.828          48.000    23420232.359 8  94303623.941 8      1553.465          51.000  
> 2020 05 10 08 02 30.0000000  0 17      -0.000000000000
G24  20169938.492 8 105993737.269 8      -338.574          51.000    20169939.875 8  82592538.005 8      -263.824          51.000  
G15  23503414.289 6 123511259.146 6     -3598.902          39.000    23503419.695 6  96242555.090 6     -2804.340          39.000  
G17  23706943.438 5 124580829.909 5     -2629.078          33.000    23706948.500 5  97075988.249 5     -2048.630          33.000  
G19  21825252.781 6 114692483.929 6     -1407.992          38.000                                                                  
G12  20436386.836 8 107393985.150 8      1364.484          51.000    20436385.664 8  83683595.198 8      1063.235          51.000  
G25  22397521.078 6 117699761.520 6      2843.883          40.000    22397520.734 6  91714099.618 6      2216.016          40.000  
R24  22113749.867 5 118251744.259 5     -1711.203          34.000                                                                  
R15  19846467.477 7 106053116.537 7      -930.988          43.000    19846467.047 6  82485761.170 6      -724.102          38.000  
R05  22019183.797 7 117704738.965 7     -3886.492          44.000    22019190.359 6  91548134.798 6     -3022.828          36.000  
R17  20883914.430 5 111753711.850 5      2075.902          34.000    20883921.641 5  86919507.726 5      1614.591          35.000  
E31  25169232.477 6 132265199.351 6     -1800.359          41.000    25169235.875 5 101346081.038 5     -1379.820          34.000  
E24  21762094.562 7 114360607.361 7       219.566          46.000    21762106.469 7  87626951.302 7       168.239          44.000  
E05  24689950.047 7 129746563.676 7     -1206.684          47.000    24689950.906 8  99416187.906 8      -924.608          49.000  
E12  25165485.867 7 132245523.772 7      2765.211          44.000    25165489.945 7 101331009.618 7      2118.895          45.000  
E09                                                                  24659041.570 7  99291739.697 7     -2337.670          42.000  
C25  22370107.000 8 116486998.667 8     -1172.109          51.000                                                                  
C11  23408674.906 8 121895156.359 8      2002.367          49.000    23408675.719 8  94257089.448 8      1548.361          51.000  
> 2020 05 10 08 03  0.0000000  0 18      -0.000000000000
G24  20171905.867 8 106004075.335 8      -349.246          51.000    20171907.258 8  82600593.629 8      -272.140          51.000  
G15  23523964.945 5 123619256.244 5     -3599.758          35.000    23523971.898 5  96326708.627 5     -2805.010          35.000  
G17  23721979.641 5 124659843.96525     -2637.695          31.000    23721985.664 5  97137560.11125     -2055.348          30.000  
G12  20428632.891 8 107353237.813 8      1353.441          51.000    20428631.664 8  83651844.033 8      1054.630          51.000  
G25  22381304.492 6 117614541.939 6      2838.477          40.000    22381302.930 6  91647694.734 6      2211.801          40.000  
R24  22123417.008 5 118303420.746 5     -1732.957          30.000                                                                  
R15  19851716.266 6 106081167.024 6      -937.727          39.000    19851716.078 6  82507578.207 6      -729.343          39.000  
R18  23012575.469 5 122842308.620 5      4399.676          34.000    23012583.812 4  95544036.890 4      3421.968          29.000  
R14  22960603.133 5 122392546.582 5     -2961.781          33.000    22960605.078 4  95194209.048 4     -2303.611          29.000  
R05  22041024.234 7 117821476.686 7     -3894.398          43.000    22041028.141 6  91638930.841 6     -3028.977          38.000  
R17  20872336.664 5 111691767.130 5      2055.254          34.000    20872346.867 5  86871328.420 5      1598.525          35.000  
E31  25179514.023 6 132319228.357 6     -1800.266          38.000    25179517.180 5 101387479.833 5     -1379.332          35.000  
E24  21760854.211 7 114354089.533 7       216.328          46.000    21760865.883 7  87621957.083 7       165.911          44.000  
E05  24696871.703 7 129782939.385 7     -1217.020          46.000    24696872.344 8  99444060.191 8      -932.468          49.000  
E12  25149707.797 7 132162607.311 7      2763.957          46.000    25149710.555 7 101267476.273 7      2117.809          43.000  
E09  24676461.539 6 129675683.483 6     -3051.078          36.000    24676464.062 6  99361890.183 6     -2337.846          41.000  
C25  22376876.062 8 116522246.453 8     -1176.438          51.000                                                                  
C11  23397174.016 8 121835265.498 8      1991.730          49.000    23397174.500 8  94210778.035 8      1540.115          51.000  
> 2020 05 10 08 03 30.0000000  0 16      -0.000000000000
G24  20173981.172 8 106014980.458 8      -370.078          51.000    20173982.430 8  82609091.121 8      -288.373          51.000  
G15  23544569.547 6 123727539.635 6     -3611.250          37.000    23544577.977 6  96411085.229 6     -2813.962          37.000  
G19  21841581.203 4 114778282.29624     -1452.930          28.000                                                                  
G12  20420988.680 8 107313065.591 8      1332.340          51.000    20420987.453 8  83620541.027 8      1038.190          51.000  
G25  22365166.484 6 117529734.909 6      2822.805          40.000    22365164.984 6  91581611.360 6      2199.589          40.000  
R24  22133254.297 5 118355991.931 5     -1764.031          33.000                                                                  
R15  19857049.180 6 106109669.011 6      -954.430          40.000    19857049.625 6  82529746.413 6      -742.337          40.000  
R18  22987905.453 6 122710611.145 6      4388.184          38.000    22987911.117 5  95441605.585 5      3413.035          33.000  
R05  22062954.391 6 117938700.967 6     -3912.504          40.000    22062957.141 6  91730105.214 6     -3043.062          38.000  
E31  25189840.312 6 132373494.781 6     -1810.258          37.000    25189843.609 6 101429060.531 6     -1386.836          36.000  
E24  21759678.055 7 114347908.780 7       203.227          46.000    21759689.438 7  87617221.185 7       155.677          44.000  
E05  24703897.508 7 129819865.244 7     -1237.121          46.000    24703898.961 8  99472354.054 8      -948.035          50.000  
E12  25133984.664 7 132079978.631 7      2752.320          46.000    25133985.461 7 101204163.402 7      2108.883          43.000  
E09  24693932.961 6 129767488.257 6     -3061.512          39.000    24693934.930 7  99432234.091 7     -2345.712          42.000  
C25  22383717.406 8 116557870.189 8     -1190.902          51.000                                                                  
C11  23385781.125 8 121775938.972 8      1970.930          48.000    23385781.352 8  94164902.997 8      1524.072          51.000  
> 2020 05 10 08 04  0.0000000  0 18      -0.000000000000
G24  20176126.812 8 106026255.606 8      -382.883          51.000    20176128.117 8  82617876.947 8      -298.350          51.000  
G15  23565191.312 5 123835909.499 5     -3615.125          35.000    23565200.977 5  96495529.353 5     -2816.978          34.000  
G17  23752286.805 5 124819109.42625     -2665.242          34.000                                                                  
G19  21849922.148 5 114822117.300 5     -1472.238          32.000                                                                  
G12  20413416.133 8 107273271.317 8      1319.234          51.000    20413414.828 8  83589532.530 8      1027.975          51.000  
G25  22349068.984 6 117445143.682 6      2815.379          38.000    22349068.844 6  91515696.174 6      2193.802          38.000  
R24  22143216.266 5 118409254.710 5     -1788.148          32.000                                                                  
R15  19862429.273 6 106138421.805 6      -963.504          38.000    19862430.594 6  82552109.689 6      -749.392          40.000  
R18  22963250.430 6 122579000.945 6      4384.781          39.000    22963255.539 5  95339242.199 5      3410.389          32.000  
R05  22084937.125 6 118056206.285 6     -3922.535          39.000    22084937.633 6  91821498.172 6     -3050.864          36.000  
R17  20849641.906 6 111570233.172 6      2001.113          37.000    20849647.680 4  86776884.516 4      1556.422          28.000  
E31  25200175.023 6 132427800.479 6     -1811.844          40.000    25200176.625 6 101470671.404 6     -1388.482          36.000  
E24  21758528.070 7 114341867.204 7       198.098          44.000    21758539.477 7  87612591.933 7       151.756          44.000  
E05  24710990.578 8 129857142.788 8     -1249.438          48.000    24710993.445 8  99500917.391 8      -957.353          50.000  
E12  25118279.070 7 131997442.323 7      2748.609          46.000    25118277.922 7 101140921.308 7      2106.150          42.000  
E09  24711413.836 6 129859346.156 6     -3063.719          40.000    24711415.594 6  99502618.706 6     -2347.592          41.000  
C25  22390593.477 8 116593674.077 8     -1197.441          51.000                                                                  
C11  23374459.391 8 121716982.970 8      1958.074          49.000    23374459.156 8  94119314.479 8      1514.026          51.000  
> 2020 05 10 08 04 30.0000000  0 17      -0.000000000000
G24  20178311.125 8 106037734.063 8      -391.223          51.000    20178312.617 8  82626821.181 8      -304.852          51.000  
G15  23585798.344 5 123944195.853 5     -3613.516          35.000    23585809.523 5  96579908.362 5     -2815.733          31.000  
G17  23767504.898 6 124899066.202 6     -2671.074          36.000    23767509.570 5  97323959.458 5     -2081.360          33.000  
G12  20405883.641 8 107233687.547 8      1310.809          51.000    20405881.781 8  83558688.003 8      1021.407          51.000  
R24  22153272.500 5 118463036.492 5     -1806.879          31.000    22153267.203 4  92137951.576 4     -1405.351          28.000  
R15  19867824.266 6 106167254.652 6      -967.684          41.000    19867826.734 6  82574535.223 6      -752.643          40.000  
R18  22938580.250 6 122447312.757 6      4385.320          37.000    22938585.945 4  95236818.045 4      3410.802          29.000  
R05  22106938.820 6 118173818.003 6     -3927.387          36.000    22106936.383 5  91912973.902 5     -3054.638          34.000  
R17  20838454.469 6 111510348.143 6      1982.391          41.000                                                                  
E31  25210485.422 6 132481977.960 6     -1808.805          36.000    25210486.195 6 101512184.017 6     -1386.148          37.000  
E24  21757372.539 7 114335797.358 7       197.652          45.000    21757384.219 7  87607941.002 7       151.547          44.000  
E25  26312356.961 5 138272362.223 5      2038.695          35.000                                                                  
E05  24718119.648 8 129894603.975 8     -1256.988          50.000    24718123.180 8  99529621.409 8      -963.153          51.000  
E12  25102559.070 7 131914833.356 7      2749.625          45.000    25102557.039 7 101077623.541 7      2106.961          42.000  
E09  24728872.180 7 129951088.242 7     -3061.355          42.000    24728873.625 6  99572914.525 6     -2345.700          41.000  
C25  22397472.062 8 116629492.448 8     -1199.387          50.000                                                                  
C11  23363177.148 8 121658233.773 8      1949.719          48.000    23363176.742 8  94073885.891 8      1507.571          51.000  
> 2020 05 10 08 05  0.0000000  0 16      -0.000000000000
G24  20180617.625 8 106049854.826 8      -410.930          51.000    20180619.141 8  82636265.915 8      -320.205          51.000  
G15  23606473.234 6 124052834.628 6     -3623.316          37.000                                                                  
G17  23782819.062 6 124979542.159 6     -2687.816          37.000    23782827.727 5  97386667.978 5     -2094.403          35.000  
G12  20398474.992 8 107194753.071 8      1290.809          51.000    20398472.898 8  83528349.453 8      1005.825          51.000  
R15  19873317.938 7 106196613.445 7      -983.609          42.000    19873321.055 6  82597369.850 6      -765.030          41.000  
R14  23027504.250 4 122749166.913 4     -2978.910          29.000    23027510.086 4  95471594.640 4     -2316.934          29.000  
R05  22129042.336 5 118291977.751 5     -3943.324          33.000    22129037.930 5  92004875.748 5     -3067.040          34.000  
R17  20827444.422 6 111451421.947 6      1952.109          39.000    20827441.719 5  86684457.959 5      1518.314          30.000  
E31  25220854.039 6 132536465.488 6     -1817.617          36.000    25220855.344 6 101553934.117 6     -1392.897          38.000  
E24  21756295.219 7 114330137.456 7       185.523          45.000    21756307.039 7  87603604.173 7       142.113          44.000  
E25  26300763.602 5 138211442.082 5      2029.605          34.000                                                                  
E05  24725367.336 8 129932686.383 8     -1275.953          50.000    24725370.922 8  99558801.409 8      -977.715          51.000  
E12  25086908.219 7 131832592.446 7      2738.875          42.000    25086907.039 7 101014607.771 7      2098.611          43.000  
E09  24746391.461 7 130043151.134 7     -3070.293          42.000    24746392.391 6  99643456.194 6     -2352.638          40.000  
C25  22404436.406 8 116665759.798 8     -1212.672          49.000                                                                  
C11  23352018.258 8 121600127.826 8      1929.852          48.000    23352017.922 8  94028954.710 8      1492.260          51.000  
> 2020 05 10 08 05 30.0000000  0 17      -0.000000000000
G24  20182994.297 8 106062344.457 8      -422.391          51.000    20182995.805 8  82645998.089 8      -329.136          51.000  
G15  23627162.258 6 124161549.622 6     -3624.637          36.000    23627157.344 5  96749265.380 5     -2824.381          32.000  
G17  23798186.188 5 125060299.258 5     -2695.969          34.000    23798196.359 5  97449595.584 5     -2100.768          32.000  
G12  20391137.711 8 107156194.882 8      1279.219          51.000    20391136.250 8  83498304.145 8       996.797          51.000  
R15  19878858.414 7 106226219.557 7      -990.781          43.000    19878861.898 6  82620396.851 6      -770.608          41.000  
R14  23044274.398 5 122838551.129 5     -2979.891          34.000    23044279.391 5  95541107.249 5     -2317.693          33.000  
R05  22151194.672 5 118410402.403 5     -3951.520          33.000    22151190.750 5  92096983.740 5     -3073.405          35.000  
R17  20816560.469 6 111393179.018 6      1930.109          40.000    20816558.914 5  86639157.965 5      1501.193          34.000  
E31  25231229.148 6 132590988.772 6     -1817.594          38.000    25231231.000 6 101595711.708 6     -1392.783          38.000  
E24  21755243.953 7 114324613.501 7       182.082          45.000    21755255.984 7  87599371.496 7       139.491          45.000  
E25  26289177.961 5 138150564.500 5      2028.727          35.000    26289185.320 5 105855655.800 5      1554.109          35.000  
E05  24732680.609 8 129971115.380 8     -1286.531          49.000    24732684.336 8  99588246.976 8      -985.674          51.000  
E12  25071275.883 7 131750448.061 7      2736.625          43.000    25071276.195 7 100951665.962 7      2096.947          43.000  
E09  24763918.641 6 130135259.454 6     -3070.812          40.000    24763919.305 6  99714032.649 6     -2353.012          39.000  
C25  22411435.039 8 116702204.914 8     -1217.637          49.000                                                                  
C11  23340931.133 7 121542395.960 7      1918.211          47.000    23340930.789 8  93984312.762 8      1483.458          51.000  
C12  24004248.594 5 124996371.101 5     -1144.551          31.000                                                                  
> 2020 05 10 08 06  0.0000000  0 19      -0.000000000000
G24  20185449.508 8 106075246.895 8      -437.777          51.000    20185451.047 8  82656051.919 8      -341.125          51.000  
G15  23647873.031 6 124270382.481 6     -3630.398          37.000    23647873.633 6  96834070.176 6     -2828.883          36.000  
G17  23813614.719 5 125141391.203 5     -2709.590          34.000    23813625.266 5  97512813.634 5     -2111.394          31.000  
G12  20383880.023 8 107118056.655 8      1263.453          51.000    20383879.023 8  83468586.049 8       984.509          50.000  
G25  22285128.609 5 117109139.97125      2780.742          35.000                                                                  
R15  19884453.758 7 106256117.672 7     -1002.562          43.000    19884457.445 6  82643650.887 6      -779.771          40.000  
R18  22864840.531 5 122053685.474 5      4366.230          32.000    22864843.516 5  94930659.533 5      3395.961          33.000  
R14  23061056.656 5 122928002.099 5     -2983.461          33.000    23061060.500 4  95610680.115 4     -2320.473          29.000  
R05  22173404.656 5 118529132.421 5     -3963.793          33.000    22173403.109 5  92189329.319 5     -3082.954          35.000  
R17  20805812.633 6 111335667.531 6      1904.141          37.000    20805810.586 5  86594426.803 5      1480.995          34.000  
E31  25241619.570 6 132645591.696 6     -1822.055          36.000    25241622.094 6 101637550.369 6     -1396.402          38.000  
E24  21754226.812 7 114319269.289 7       174.355          45.000    21754239.289 7  87595276.569 7       133.645          45.000  
E25  26277611.086 6 138089789.761 6      2023.344          38.000    26277620.703 5 105809088.184 5      1550.469          35.000  
E05  24740067.398 8 130009934.112 8     -1301.207          49.000    24740071.391 8  99617991.177 8      -997.068          51.000  
E12  25055671.875 7 131668446.481 7      2730.137          46.000    25055672.805 7 100888833.567 7      2092.026          45.000  
E09  24781462.523 6 130227455.443 6     -3075.379          40.000    24781462.594 6  99784676.282 6     -2356.377          39.000  
C25  22418476.391 8 116738871.499 8     -1226.680          48.000                                                                  
C11  23329924.086 7 121485083.605 7      1902.590          46.000    23329924.227 8  93939995.223 8      1471.267          51.000  
C12  24010898.867 5 125030978.776 5     -1162.453          35.000                                                                  
> 2020 05 10 08 06 30.0000000  0 19      -0.000000000000
G24  20187992.586 8 106088611.012 8      -451.902          51.000    20187993.906 8  82666465.501 8      -352.132          51.000  
G15  23668614.336 6 124379378.301 6     -3634.082          36.000    23668616.984 6  96919001.977 6     -2831.753          37.000  
G17  23829113.906 6 125222839.216 6     -2719.875          36.000                                                                  
G19  21893335.445 4 115050253.49224     -1571.992          28.000                                                                  
G12  20376711.328 8 107080386.364 8      1249.203          51.000    20376710.094 8  83439232.568 8       973.405          51.000  
G25  22269284.023 6 117025874.229 6      2771.449          38.000    22269288.883 6  91188989.117 6      2159.578          37.000  
R15  19890112.859 7 106286355.757 7     -1012.332          44.000    19890115.789 6  82667169.449 6      -787.370          38.000  
R18  22840321.664 5 121922815.957 5      4360.250          34.000    22840328.977 5  94828872.189 5      3391.309          32.000  
R05  22195682.836 5 118648211.470 5     -3974.547          31.000    22195680.891 5  92281946.379 5     -3091.318          33.000  
R17  20795210.914 6 111278939.018 6      1879.293          37.000    20795210.633 5  86550304.596 5      1461.676          33.000  
E31                                                                  25252037.148 6 101679486.210 6     -1398.383          38.000  
E24  21753253.078 7 114314152.106 7       168.062          47.000    21753265.961 7  87591355.618 7       128.697          45.000  
E25  26266072.664 6 138029161.450 6      2019.668          39.000    26266081.641 5 105762632.779 5      1547.883          33.000  
E05  24747536.852 8 130049189.191 8     -1314.473          49.000    24747541.047 8  99648069.739 8     -1007.263          50.000  
E12  25040105.195 7 131586637.505 7      2724.930          46.000    25040106.156 7 100826148.775 7      2088.033          45.000  
E09  24799031.617 6 130319784.936 6     -3078.688          40.000    24799031.516 6  99855422.259 6     -2359.047          37.000  
C25  22425569.406 7 116775806.718 7     -1234.348          47.000                                                                  
C11  23319007.047 7 121428239.931 7      1888.227          44.000    23319007.914 8  93896040.096 8      1460.049          51.000  
C12  24017652.297 5 125066124.983 5     -1179.605          32.000    24017632.359 5  96709093.022 5      -911.753          32.000  
> 2020 05 10 08 07  0.0000000  0 18      -0.000000000000
G24  20190609.617 8 106102364.148 8      -465.680          51.000    20190610.805 8  82677182.213 8      -362.870          51.000  
G15  23689372.320 5 124488462.356 5     -3638.637          34.000    23689376.414 5  97004002.545 5     -2835.299          34.000  
G17  23844668.984 6 125304580.736 6     -2730.809          36.000    23844669.898 5  97639915.856 5     -2127.919          30.000  
G12  20369617.922 8 107043111.502 8      1235.246          51.000    20369616.688 8  83410187.235 8       962.530          51.000  
G25  22253483.211 6 116942846.672 6      2762.859          37.000    22253490.539 6  91124292.325 6      2152.881          37.000  
R24  22205786.117 5 118743919.379 5     -1932.859          32.000    22205789.680 4  92356398.35924     -1503.332          25.000  
R15  19895821.922 7 106316860.316 7     -1022.059          44.000    19895824.094 6  82690895.202 6      -794.938          37.000  
R18  22815828.273 5 121792077.833 5      4354.773          35.000    22815839.336 5  94727187.095 5      3387.053          31.000  
R17  20784741.250 6 111222922.795 6      1854.895          36.000    20784742.086 4  86506736.381 4      1442.693          26.000  
E31                                                                  25262461.734 6 101721463.683 6     -1400.553          38.000  
E24  21752309.031 8 114309189.464 8       162.078          48.000    21752322.383 7  87587553.057 7       124.196          45.000  
E25  26254548.672 6 137968607.301 6      2016.270          36.000    26254556.570 5 105716220.128 5      1545.411          32.000  
E05  24755075.656 8 130088807.432 8     -1327.410          50.000    24755079.133 8  99678426.549 8     -1017.032          50.000  
E12  25024561.633 7 131504950.996 7      2720.109          47.000    25024562.547 7 100763557.843 7      2084.163          46.000  
E09  24816612.008 6 130412173.884 6     -3081.414          41.000    24816611.922 6  99926213.757 6     -2360.896          36.000  
C25  22432700.211 8 116812938.981 8     -1241.711          49.000                                                                  
C11  23308166.984 7 121371795.306 7      1874.020          45.000    23308168.492 8  93852393.545 8      1449.172          51.000  
C12  24024491.141 5 125101736.911 5     -1195.523          33.000    24024471.273 5  96736630.417 5      -924.687          32.000  
> 2020 05 10 08 07 30.0000000  0 17      -0.000000000000
G24  20193307.102 8 106116539.968 8      -476.887          51.000    20193308.477 8  82688228.300 8      -371.600          51.000  
G17  23860285.844 6 125386646.051 6     -2738.199          37.000    23860288.562 5  97703862.901 5     -2133.662          35.000  
G12  20362606.109 8 107006264.925 8      1223.676          51.000    20362605.266 8  83381475.627 8       953.514          51.000  
G25  22237733.766 5 116860090.838 5      2756.520          35.000    22237742.430 6  91059807.346 6      2147.941          36.000  
R24  22216698.547 6 118802261.467 6     -1954.090          38.000    22216702.594 4  92401796.48324     -1519.848          26.000  
R15  19901587.133 7 106347664.223 7     -1029.141          46.000    19901589.406 6  82714853.754 6      -800.443          37.000  
R18  22791368.039 6 121661508.997 6      4352.172          40.000    22791382.109 5  94625633.633 5      3385.026          32.000  
R17  20774411.672 6 111167655.150 6      1832.527          36.000    20774413.805 4  86463763.500 4      1425.308          25.000  
E31  25272902.086 5 132809985.522 5     -1827.242          34.000    25272903.867 6 101763507.501 6     -1400.470          40.000  
E24  21751400.680 8 114304413.714 8       158.707          48.000    21751414.375 7  87583893.704 7       121.664          46.000  
E25                                                                  26243052.156 5 105669898.385 5      1544.764          30.000  
E05  24762690.141 8 130128820.526 8     -1337.656          51.000    24762692.070 8  99709085.904 8     -1024.877          50.000  
E12  25009047.602 7 131423421.836 7      2717.672          46.000    25009048.742 7 100701087.471 7      2082.412          46.000  
E09  24834210.047 6 130504653.194 6     -3081.191          41.000    24834209.383 6  99997074.519 6     -2360.989          37.000  
C25  22439875.461 8 116850300.637 8     -1246.578          50.000                                                                  
C11  23297410.727 7 121315783.764 7      1862.457          47.000    23297412.164 8  93809081.894 8      1440.285          50.000  
C12  24031418.180 5 125137906.757 5     -1209.168          33.000    24031422.180 5  96764577.24125      -935.220          31.000  
> 2020 05 10 08 08  0.0000000  0 18      -0.000000000000
G24  20196078.680 8 106131105.208 8      -490.652          51.000    20196080.445 8  82699577.829 8      -382.327          51.000  
G17  23875958.047 5 125469000.122 5     -2748.488          35.000    23875959.828 5  97768034.856 5     -2141.680          34.000  
G12  20355669.672 8 106969814.108 8      1209.742          51.000    20355668.891 8  83353072.383 8       942.657          51.000  
G25  22222030.609 5 116777574.909 5      2747.820          34.000    22222038.906 5  90995509.271 5      2141.162          34.000  
R24  22227738.219 6 118861293.050 6     -1977.457          37.000                                                                  
R15  19907401.828 7 106378733.885 7     -1038.684          46.000    19907403.789 6  82739019.029 6      -807.865          37.000  
R18  22766934.758 6 121531081.005 6      4346.652          41.000    22766949.125 5  94524189.651 5      3380.730          31.000  
R05  22262811.711 5 119007125.701 5     -4000.000          33.000    22262831.711 5  92561141.571 5     -3111.115          31.000  
R17  20764215.750 4 111113105.699 4      1808.000          29.000    20764229.727 4  86421379.00824      1406.223          24.000  
E31  25283354.102 5 132864927.803 5     -1830.281          33.000    25283357.227 6 101805592.293 6     -1402.403          40.000  
E24  21750521.141 7 114299791.815 7       152.883          47.000    21750535.109 7  87580352.255 7       117.186          47.000  
E05  24770373.523 8 130169194.795 8     -1350.422          51.000    24770374.273 8  99740022.004 8     -1034.775          50.000  
E12  24993557.203 7 131342019.525 7      2712.684          45.000    24993558.594 7 100638714.293 7      2078.494          46.000  
E09  24851819.117 7 130597188.385 7     -3083.910          42.000    24851817.984 6 100067977.991 6     -2362.764          37.000  
C25  22447088.633 8 116887859.265 8     -1253.977          50.000                                                                  
C11  23286732.148 8 121260174.827 8      1848.164          48.000    23286732.672 8  93766081.557 8      1429.175          49.000  
C12  24038444.711 4 125174484.104 4     -1225.895          29.000    24038446.281 5  96792865.312 5      -947.671          30.000  
C23  22447476.578 4 116889919.60724      1276.754          29.000                                                                  
> 2020 05 10 08 08 30.0000000  0 19      -0.000000000000
G24  20198932.594 8 106146102.802 8      -507.875          51.000    20198934.758 8  82711264.248 8      -395.747          51.000  
G17  23891693.203 6 125551682.647 6     -2762.590          36.000    23891693.234 6  97832462.761 6     -2152.671          37.000  
G12  20348816.758 8 106933801.209 8      1192.387          51.000    20348815.461 8  83325010.369 8       929.133          51.000  
G25  22206391.383 5 116695432.887 5      2735.738          33.000    22206387.359 5  90931475.623 5      2131.739          34.000  
R24  22238913.297 5 118921054.583 5     -2005.082          35.000    22238915.953 4  92494176.937 4     -1559.499          27.000  
R15  19913273.867 7 106410112.209 7     -1051.914          47.000    19913276.359 6  82763424.387 6      -818.159          39.000  
R18  22742536.914 7 121400840.968 7      4337.320          42.000    22742547.938 5  94422891.784 5      3373.472          35.000  
R14  23145208.047 5 123376599.00225     -2997.816          30.000                                                                  
R05  22285310.789 5 119127338.192 5     -4012.621          35.000    22285321.453 5  92654640.227 5     -3120.928          33.000  
E31  25293821.539 5 132919930.471 5     -1836.168          32.000    25293828.281 6 101847750.214 6     -1406.818          40.000  
E24  21749678.562 8 114295365.713 8       143.562          48.000    21749692.594 7  87576960.840 7       109.880          47.000  
E25  26220095.352 5 137787533.744 5      2005.684          31.000    26220090.180 5 105577438.546 5      1536.826          33.000  
E05  24778133.414 8 130209971.427 8     -1366.742          51.000    24778133.977 8  99771266.403 8     -1047.251          51.000  
E12  24978099.203 7 131260788.390 7      2703.996          45.000    24978100.797 7 100576472.257 7      2071.912          45.000  
E09  24869446.508 7 130689819.821 7     -3089.934          42.000    24869445.258 5 100138955.262 5     -2367.589          35.000  
C25  22454347.320 8 116925656.708 8     -1264.578          51.000                                                                  
C11  23276139.312 8 121205012.163 8      1830.551          49.000    23276138.992 8  93723426.308 8      1415.429          50.000  
C12  24045564.727 4 125211552.703 4     -1244.859          29.000    24045573.367 5  96821537.138 5      -962.547          30.000  
C23  22440155.781 5 116851784.582 5      1266.828          32.000                                                                  
> 2020 05 10 08 09  0.0000000  0 18      -0.000000000000
G24  20201858.000 8 106161475.610 8      -519.023          51.000    20201860.203 8  82723243.052 8      -404.434          51.000  
G17  23907479.633 5 125634633.128 5     -2769.902          33.000    23907477.656 5  97897099.470 5     -2158.366          32.000  
G12  20342036.289 8 106898168.479 8      1181.156          51.000    20342034.680 8  83297244.594 8       920.382          51.000  
R24  22250213.133 5 118981484.323 5     -2026.098          34.000    22250220.727 4  92541177.911 4     -1575.848          25.000  
R15  19919192.352 8 106441739.750 8     -1058.746          48.000    19919195.148 6  82788023.594 6      -823.469          39.000  
R18  22718164.062 6 121270734.873 6      4334.391          40.000    22718171.734 5  94321698.140 5      3371.193          35.000  
R05  22307853.961 5 119247787.873 5     -4019.484          33.000    22307854.430 5  92748323.386 5     -3126.266          32.000  
R17  20744251.750 5 111006335.951 5      1756.906          34.000    20744258.414 5  86338248.578 5      1366.486          33.000  
E31  25304299.180 6 132974987.382 6     -1836.305          38.000    25304305.609 6 101889936.657 6     -1406.986          40.000  
E24  21748862.492 8 114291077.258 8       140.266          49.000    21748875.961 7  87573674.869 7       107.515          46.000  
E25                                                                  26208633.734 5 105531308.434 5      1536.752          35.000  
E05  24785958.461 8 130251091.505 8     -1376.766          51.000    24785959.414 8  99802773.977 8     -1054.913          51.000  
E12  24962663.242 7 131179672.727 7      2701.531          46.000    24962664.508 7 100514318.725 7      2070.051          45.000  
E09  24887080.898 6 130782487.873 6     -3089.621          41.000    24887078.266 5 100209960.626 5     -2367.406          33.000  
C25  22461640.898 8 116963635.567 8     -1269.340          51.000                                                                  
C11  23265621.406 8 121150240.259 8      1818.914          50.000    23265620.984 8  93681073.261 8      1406.461          51.000  
C12  24052770.109 5 125249059.801 5     -1259.086          30.000                                                                  
C23  22432860.734 4 116813798.449 4      1262.312          28.000                                                                  
> 2020 05 10 08 09 30.0000000  0 15      -0.000000000000
G24  20204887.258 8 106177393.795 8      -538.750          51.000    20204889.094 8  82735646.832 8      -419.805          51.000  
G12  20335360.438 8 106863086.398 8      1161.145          51.000    20335358.930 8  83269907.909 8       904.788          51.000  
R24  22261670.703 6 119042753.325 6     -2055.355          39.000                                                                  
R15  19925189.859 8 106473789.730 8     -1074.410          48.000    19925192.383 6  82812951.360 6      -835.653          41.000  
R18  22693849.055 6 121140940.145 6      4322.262          41.000    22693854.102 5  94220746.659 5      3361.757          32.000  
R05  22330466.750 5 119368643.299 5     -4033.961          34.000    22330464.039 5  92842321.992 5     -3137.529          35.000  
R17  20734494.969 6 110954143.423 6      1726.172          39.000    20734500.195 4  86297654.454 4      1342.581          26.000  
E31  25314815.633 6 133030251.452 6     -1844.699          40.000    25314820.922 6 101932281.887 6     -1413.238          38.000  
E24  21748105.219 8 114287096.591 8       128.457          49.000    21748117.938 7  87570624.734 7        98.458          47.000  
E25  26197226.305 5 137667353.435 5      1996.398          34.000    26197222.844 5 105485357.737 5      1529.517          34.000  
E05  24793880.930 8 130292724.459 8     -1395.320          51.000    24793882.602 8  99834674.561 8     -1069.160          51.000  
E12  24947282.391 7 131098845.158 7      2690.391          46.000    24947283.266 7 100452385.969 7      2061.481          44.000  
E09  24904754.125 6 130875361.219 6     -3098.125          39.000    24904748.805 5 100281111.290 5     -2374.452          32.000  
C25  22469001.859 8 117001964.728 8     -1282.527          51.000                                                                  
C11  23255211.133 8 121096029.797 8      1798.559          50.000    23255210.789 8  93639154.322 8      1390.863          51.000  
> 2020 05 10 08 10  0.0000000  0 17      -0.000000000000
G24  20208002.414 8 106193763.092 8      -545.703          51.000    20208003.727 8  82748402.128 8      -425.223          51.000  
G12  20328771.250 8 106828460.097 8      1154.000          51.000    20328769.758 8  83242926.378 8       899.221          51.000  
G25  22159776.445 6 116450415.296 6      2712.711          38.000    22159778.977 6  90740577.929 6      2113.801          37.000  
R24  22273270.422 6 119104787.268 6     -2072.016          38.000                                                                  
R15  19931248.375 7 106506165.563 7     -1077.031          47.000    19931250.836 7  82838132.556 7      -837.691          42.000  
R18  22669574.469 6 121011365.016 6      4322.891          39.000    22669577.758 5  94119966.068 5      3362.249          32.000  
R05  22353134.438 5 119489803.329 5     -4036.383          35.000    22353129.203 5  92936557.626 5     -3139.409          33.000  
R17  20724889.320 6 110902741.773 6      1707.766          38.000    20724895.523 4  86257654.337 4      1328.266          28.000  
E31  25325352.891 6 133085627.618 6     -1840.254          37.000    25325356.477 6 101974712.996 6     -1410.221          38.000  
E24  21747388.281 8 114283328.515 8       129.539          49.000    21747400.812 7  87567737.505 7        99.317          46.000  
E25  26185835.453 6 137607515.783 6      1999.785          38.000    26185839.422 5 105439509.686 5      1532.346          32.000  
E05  24801882.547 8 130334774.357 8     -1401.113          51.000    24801885.078 8  99866894.609 8     -1073.608          51.000  
E12  24931938.805 7 131018212.930 7      2691.914          45.000    24931938.508 7 100390602.871 7      2062.739          42.000  
E09  24922448.016 6 130968343.162 6     -3093.902          38.000    24922439.555 5 100352339.020 5     -2370.280          31.000  
C25  22476411.680 8 117040550.181 8     -1283.133          51.000                                                                  
C11  23244890.812 8 121042288.568 8      1790.812          50.000    23244890.289 8  93597598.211 8      1384.831          51.000  
C23  22418441.086 4 116738724.589 4      1249.953          27.000                                                                  
> 2020 05 10 08 10 30.0000000  0 17      -0.000000000000
G24  20211146.547 8 106210284.513 8      -559.262          51.000    20211147.406 8  82761275.955 8      -435.788          51.000  
G15  23835251.625 5 125255093.143 5     -3658.965          35.000    23835247.680 5  97601348.895 5     -2851.136          34.000  
G12  20322211.852 8 106793990.344 8      1140.430          50.000    20322210.273 8  83216066.830 8       888.647          50.000  
G25  22144306.109 6 116369113.231 6      2703.969          38.000    22144306.789 6  90677225.681 6      2106.986          38.000  
R24  22284950.391 6 119167241.72226     -2094.258          36.000    22284953.727 5  92685652.53125     -1628.868          31.000  
R15  19937310.969 8 106538562.894 8     -1086.379          48.000    19937313.430 7  82863330.482 7      -844.962          43.000  
R18  22645284.625 6 120881710.267 6      4316.996          39.000    22645287.016 5  94019123.602 5      3357.670          34.000  
R05  22375799.891 5 119610959.491 5     -4044.070          35.000    22375794.625 4  93030790.188 4     -3145.385          27.000  
R17  20715373.422 6 110851828.885 6      1683.000          38.000                                                                  
E31  25335854.250 6 133140816.554 6     -1842.672          39.000    25335856.922 6 102017000.538 6     -1411.834          37.000  
E24  21746654.547 8 114279473.660 8       123.883          48.000    21746667.406 7  87564783.786 7        95.067          47.000  
E25  26174417.047 5 137547515.015 5      1997.043          35.000                                                                  
E05  24809906.172 8 130376941.049 8     -1413.453          51.000    24809909.328 8  99899204.128 8     -1083.000          51.000  
E12  24916575.539 7 130937479.115 7      2686.891          44.000    24916574.812 7 100328741.952 7      2058.829          42.000  
E09  24940104.891 5 131061132.683 5     -3094.930          33.000                                                                  
C25  22483813.805 8 117079095.510 8     -1290.145          51.000                                                                  
C11  23234603.953 8 120988721.943 8      1776.633          49.000    23234603.414 8  93556177.112 8      1373.866          51.000  
> 2020 05 10 08 11  0.0000000  0 18      -0.000000000000
G24  20214380.273 8 106227276.685 8      -570.781          51.000    20214380.781 8  82774516.615 8      -444.765          51.000  
G15  23856148.016 6 125364905.025 6     -3659.496          36.000    23856139.789 5  97686916.407 5     -2851.572          33.000  
G19  21978605.203 5 115498334.299 5     -1741.562          34.000                                                                  
G12  20315742.922 8 106759996.322 8      1128.719          50.000    20315741.672 8  83189577.986 8       879.524          50.000  
G25  22128896.141 5 116288135.431 5      2697.039          35.000    22128896.266 5  90614126.050 5      2101.583          34.000  
R24  22296764.977 5 119230428.655 5     -2115.922          33.000                                                                  
R15  19943438.023 7 106571305.196 7     -1093.648          47.000    19943440.688 7  82888796.708 7      -850.616          44.000  
R18  22621042.508 7 120752304.021 7      4312.895          42.000    22621046.039 6  93918474.333 6      3354.477          36.000  
R05  22398524.070 6 119732431.250 6     -4050.594          36.000                                                                  
R17  20706011.461 5 110801732.432 5      1659.762          34.000                                                                  
E31  25346380.883 6 133196136.154 6     -1842.793          40.000    25346381.945 6 102059388.325 6     -1411.831          36.000  
E24  21745964.953 8 114275850.259 8       120.449          48.000    21745977.938 7  87562007.428 7        92.313          47.000  
E25  26163028.859 6 137487667.600 6      1995.992          36.000    26163043.031 5 105347725.934 5      1529.236          31.000  
E05  24818012.586 8 130419541.990 8     -1423.805          51.000    24818015.836 8  99931846.402 8     -1090.923          51.000  
E12  24901253.562 7 130856964.435 7      2683.508          43.000    24901253.188 7 100267048.916 7      2056.357          43.000  
C25  22491268.852 8 117117916.317 8     -1295.152          51.000                                                                  
C11  23224411.469 8 120935647.366 8      1764.434          49.000    23224411.109 8  93515136.500 8      1364.400          51.000  
C12  24082547.812 4 125404124.57524     -1319.988          28.000                                                                  
> 2020 05 10 08 11 30.0000000  0 18      -0.000000000000
G24  20217720.750 8 106244830.041 8      -589.430          51.000    20217720.898 8  82788194.548 8      -459.296          51.000  
G15  23877088.375 6 125474951.439 6     -3667.121          36.000    23877079.570 4  97772666.601 4     -2857.513          29.000  
G17  23987313.133 5 126054203.15525     -2820.367          34.000                                                                  
G19  21988651.203 5 115551135.502 5     -1765.773          30.000                                                                  
G12  20309381.492 8 106726566.589 8      1109.914          50.000    20309380.602 8  83163528.865 8       864.868          50.000  
G25  22113564.555 6 116207572.445 6      2683.504          38.000    22113561.016 5  90551349.736 5      2091.043          34.000  
R24  22308736.656 5 119294468.176 5     -2144.094          30.000                                                                  
R15  19949646.820 7 106604483.685 7     -1108.082          47.000    19949649.727 7  82914602.172 7      -861.845          45.000  
R18  22596865.289 7 120623242.199 7      4301.418          44.000    22596870.367 6  93818092.946 6      3345.551          38.000  
R05  22421313.547 6 119854388.370 6     -4063.684          36.000    22421319.789 4  93220098.20824     -3160.643          25.000  
R17  20696819.797 5 110752546.054 5      1629.379          35.000                                                                  
E31  25356949.969 6 133251676.187 6     -1849.797          39.000    25356950.000 6 102101944.946 6     -1417.578          37.000  
E24  21745336.539 8 114272547.885 8       109.828          48.000    21745349.641 8  87559477.030 8        84.139          48.000  
E25  26151686.516 6 137428063.589 6      1987.719          38.000                                                                  
E05  24826218.688 8 130462665.943 8     -1441.148          51.000    24826221.789 8  99964889.424 8     -1104.242          51.000  
E12  24885990.508 7 130776760.824 7      2673.297          42.000    24885991.594 7 100205594.242 7      2048.333          44.000  
