     3.02           OBSERVATION DATA    M (MIXED)           RINEX VERSION / TYPE
SAVERINEX           SC600               20200507 135931 LCL PGM / RUN BY / DATE
       G = GPS       R = GLONASS       C = COMPASS          COMMENT
       S = SBAS      J = QZSS          E = GALILEO          COMMENT
BEAN                                                        MARKER NAME
1                                                           MARKER NUMBER
GEODETIC                                                    MARKER TYPE
Unige DICCA         GTER                                    OBSERVER / AGENCY
SC60291900056       SC600               2.12(191226)        REC # / TYPE / VERS
                    HEMA45          NONE                    ANT # / TYPE
  4509407.8091   693652.4678  4442337.6214                  APPROX POSITION XYZ
        0.0000        0.0000        0.0000                  ANTENNA: DELTA H/E/N
G    8 C1C L1C D1C S1C C2Y L2Y D2Y S2Y                      SYS / # / OBS TYPES
R    8 C1C L1C D1C S1C C2P L2P D2P S2P                      SYS / # / OBS TYPES
C    4 C1I L1I D1I S1I                                      SYS / # / OBS TYPES
E    8 C1C L1C D1C S1C C7Q L7Q D7Q S7Q                      SYS / # / OBS TYPES
DBHZ                                                        COMMENT
     30.000                                                 INTERVAL
  2020    05    07    11    00    0.0000000     GPS         TIME OF FIRST OBS
  2020    05    07    11    59   30.0000000     GPS         TIME OF LAST OBS
     0                                                      RCV CLOCK OFFS APPL
G L1C  0.00000                                              SYS / PHASE SHIFT
G L2Y  0.00000                                              SYS / PHASE SHIFT
R L1C  0.00000                                              SYS / PHASE SHIFT
R L2P  0.25000                                              SYS / PHASE SHIFT
C L1I  0.00000                                              SYS / PHASE SHIFT
E L1C  0.50000                                              SYS / PHASE SHIFT
E L7Q -0.25000                                              SYS / PHASE SHIFT
 13 R01  1 R02 -4 R03  5 R08  6 R10 -5 R11  0 R12 -1 R13 -2 GLONASS SLOT / FRQ #
    R14 -7 R17  4 R21  4 R22 -3 R23  3                      GLONASS SLOT / FRQ #
 C1C   71.950 C2C   71.950 C2P   71.950                     GLONASS COD/PHS/BIS
    18                                                      LEAP SECONDS
*** Above antenna height is from mark to ANTENNA BOTTOM.    COMMENT
    17     4        0.0000        ANT MEASURE TYPE/HEIGT    COMMENT
    0.0000    0.0000    0.0458    0.0405    0.0000          COMMENT
                    BASE STATION                            COMMENT
                                                            END OF HEADER
> 2020 05 07 11 00  0.0000000  0 12        .000000000000
G12  21740361.633 5 114246362.912 5     -2315.520          33.000    21740361.031 5  89023146.702 5     -1804.301          33.000
G24  24634637.781 6 129455886.366 6     -3713.625          36.000    24634643.188 6 100874663.666 6     -2893.734          36.000
G25  20282068.781 8 106582996.900 8      -727.641          51.000    20282070.961 8  83051691.845 8      -566.993          51.000
G29  20479743.734 8 107621778.947 8      1241.004          51.000    20479744.258 8  83861146.286 8       967.016          51.000
G32  23282729.914 7 122351554.263 7     -2451.996          47.000    23282733.789 7  95338860.407 7     -1910.649          44.000
R13  20155447.305 7 107628972.117 7     -1948.395          42.000    20155451.367 7  83711423.319 7     -1515.421          46.000
R23  19509189.586 8 104360997.270 8     -1334.621          51.000    19509194.789 7  81169656.641 7     -1038.039          43.000
R24  19678289.180 8 105228682.764 8      2094.051          51.000    19678293.148 7  81844608.809 7      1628.706          46.000
C29  21591173.602 8 112430896.302 8       105.957          51.000
E05                                                                  27898554.320 5 112335916.706 5     -1978.146          32.000
E12  22214564.781 8 116738336.408 8      1093.242          50.000    22214565.367 8  89448913.888 8       837.640          49.000
E24  21669497.367 8 113873967.931 8       170.281          51.000    21669510.445 8  87254144.675 8       130.460          51.000
> 2020 05 07 11 00 30.0000000  0 11        .000000000000
G24  24655849.430 6 129567349.394 6     -3717.445          36.000    24655853.805 5 100961517.884 5     -2896.708          35.000
G25  20286256.562 8 106605003.590 8      -740.098          51.000    20286258.680 8  83068839.925 8      -576.699          51.000
G29  20472706.766 8 107584798.605 8      1223.777          51.000    20472707.336 8  83832330.434 8       953.593          51.000
G32  23296759.133 7 122425278.344 7     -2463.445          45.000    23296763.094 7  95396307.693 7     -1919.568          45.000
R13  20166440.164 7 107687672.402 7     -1965.734          42.000    20166444.219 7  83757079.050 7     -1528.905          45.000
R23  19516745.742 8 104401416.605 8     -1360.621          51.000    19516750.781 7  81201093.891 7     -1058.261          43.000
R24  19666608.836 8 105166220.604 8      2069.492          51.000    19666612.000 7  81796027.143 7      1609.608          45.000
C29  21590609.078 8 112427955.905 8        89.500          51.000
E05                                                                  27913303.492 5 112395305.909 5     -1981.268          31.000
E12  22208365.266 8 116705756.731 8      1078.066          51.000    22208365.336 8  89423950.278 8       826.042          49.000
E24  21668547.203 8 113868974.372 8       162.074          51.000    21668560.320 8  87250318.456 8       124.196          51.000
> 2020 05 07 11 01  0.0000000  0 12        .000000000000
G24  24677076.289 5 129678895.987 5     -3719.125          34.000    24677082.914 5 101048437.349 5     -2898.029          33.000
G25  20290513.562 8 106627373.945 8      -751.188          51.000    20290515.508 8  83086271.378 8      -585.341          51.000
G29  20465766.109 8 107548325.554 8      1207.746          51.000    20465766.781 8  83803909.885 8       941.101          51.000
G32  23310852.641 7 122499341.320 7     -2473.973          43.000    23310856.578 7  95454019.087 7     -1927.768          43.000
R13  20177527.852 7 107746879.201 7     -1981.664          42.000    20177531.531 7  83803128.736 7     -1541.294          44.000
R23  19524445.289 8 104442603.260 8     -1385.219          51.000    19524450.266 7  81233127.948 7     -1077.392          43.000
R24  19655064.844 8 105104487.857 8      2046.023          51.000    19655067.523 7  81748012.833 7      1591.355          45.000
C29  21590137.555 8 112425500.277 8        74.133          51.000
E05                                                                  27928071.461 5 112454765.549 5     -1982.579          32.000
E12  22202250.180 8 116673621.598 8      1064.145          50.000    22202250.117 8  89399327.302 8       815.395          50.000
E24  21667641.797 8 113864216.053 8       155.113          51.000    21667654.898 8  87246672.492 8       118.877          51.000
E31  25554585.516 6 134290242.146 6     -1913.066          37.000
> 2020 05 07 11 01 30.0000000  0 13        .000000000000
G12  21780227.547 5 114455888.125 5     -2338.805          34.000
G24  24698317.469 5 129790533.858 5     -3722.133          32.000    24698324.781 5 101135510.736 5     -2900.366          31.000
G25  20294839.023 8 106650104.327 8      -763.168          51.000    20294840.930 8  83103983.366 8      -594.676          51.000
G29  20458921.516 8 107512356.381 8      1191.133          51.000    20458921.617 8  83775881.968 8       928.155          51.000
G32  23325009.430 7 122573736.670 7     -2484.672          45.000    23325013.242 7  95511989.484 7     -1936.108          45.000
R13  20188709.789 6 107806588.736 6     -1998.156          41.000    20188713.117 7  83849569.451 7     -1554.122          44.000
R23  19532287.008 8 104484550.698 8     -1410.336          51.000    19532292.039 7  81265753.733 7     -1096.931          43.000
R24  19643657.266 8 105043482.903 8      2021.828          51.000    19643659.211 7  81700564.571 7      1572.536          46.000
C29  21589758.086 8 112423525.331 8        58.395          51.000
E05                                                                  27942855.758 5 112514299.367 5     -1984.516          30.000
E12  22196218.992 8 116641928.087 8      1049.602          50.000    22196218.859 8  89375042.712 8       804.291          50.000
E24  21666780.609 8 113859690.159 8       147.535          51.000    21666793.562 8  87243204.613 8       113.031          51.000
E31  25565524.570 5 134347733.771 5     -1918.977          33.000
> 2020 05 07 11 02  0.0000000  0 12        .000000000000
G12  21793608.477 6 114526190.877 6     -2345.402          39.000    21793610.867 5  89241182.572 5     -1827.586          35.000
G24  24719572.867 5 129902232.957 5     -3723.371          30.000    24719579.328 4 101222551.360 4     -2901.331          29.000
G25  20299233.031 8 106673194.786 8      -773.660          51.000    20299234.914 8  83121975.925 8      -602.852          51.000
G29  20452173.117 8 107476891.271 8      1175.840          51.000    20452172.305 8  83748246.823 8       916.242          51.000
G32  23339229.328 7 122648461.696 7     -2494.426          47.000    23339232.977 7  95570216.749 7     -1943.711          45.000
R13  20199985.773 6 107866801.045 6     -2013.461          41.000    20199988.828 7  83896401.204 7     -1566.028          43.000
R23  19540270.562 8 104527256.632 8     -1434.035          51.000    19540275.578 7  81298969.462 7     -1115.361          43.000
R24  19632385.797 8 104983207.801 8      1999.012          51.000    19632387.227 7  81653683.984 7      1554.787          46.000
C29  21589470.867 8 112422030.791 8        43.773          51.000
E12  22190272.094 8 116610677.071 8      1036.371          50.000    22190271.648 8  89351097.176 8       794.046          50.000
E24  21665963.766 8 113855397.493 8       141.156          51.000    21665976.578 8  87239915.439 8       108.135          51.000
E31                                                                  25576502.594 6 102985966.033 6     -1473.641          38.000
> 2020 05 07 11 02 30.0000000  0 12        .000000000000
G12  21807020.945 6 114596673.240 6     -2353.195          41.000    21807024.633 6  89296103.734 6     -1833.659          40.000
G24  24740827.078 5 130013930.237 5     -3725.027          33.000    24740836.828 5 101309588.288 5     -2902.625          32.000
G25  20303685.461 8 106696592.618 8      -785.852          51.000    20303687.438 8  83140208.004 8      -612.352          51.000
G29  20445510.469 8 107441877.847 8      1158.879          51.000    20445509.586 8  83720963.647 8       903.023          51.000
G32  23353501.469 7 122723460.762 7     -2505.168          47.000    23353505.227 7  95628657.523 7     -1952.079          45.000
R13  20211345.500 6 107927462.060 6     -2030.059          40.000    20211348.633 7  83943581.971 7     -1578.937          44.000
R23  19548385.211 8 104570664.691 8     -1459.328          51.000    19548390.203 7  81332731.292 7     -1135.033          43.000
R24  19621240.375 8 104923610.825 8      1974.547          51.000    19621242.180 7  81607330.837 7      1535.759          47.000
C29  21589265.297 8 112420963.876 8        27.719          49.000
E12  22184399.312 8 116579816.390 8      1021.457          48.000    22184398.648 8  89327450.708 8       782.693          51.000
E24  21665181.258 8 113851286.033 8       133.281          51.000    21665194.172 8  87236765.120 8       102.193          51.000
E31  25587490.289 5 134463173.981 5     -1929.426          34.000    25587500.414 6 103030251.703 6     -1478.334          40.000
> 2020 05 07 11 03  0.0000000  0 12        .000000000000
G12  21820475.242 6 114667377.564 6     -2360.125          40.000    21820476.797 6  89351198.030 6     -1839.058          40.000
G24  24762099.312 5 130125717.230 5     -3727.305          35.000    24762108.969 5 101396694.941 5     -2904.396          35.000
G25  20308204.531 8 106720340.742 8      -796.805          51.000    20308206.508 8  83158713.032 8      -620.887          51.000
G29  20438941.656 8 107407359.220 8      1142.996          51.000    20438941.062 8  83694066.032 8       890.646          51.000
G32  23367833.352 8 122798773.875 8     -2514.969          48.000    23367837.266 7  95687343.016 7     -1959.719          44.000
R13  20222797.016 6 107988615.284 6     -2046.074          39.000    20222800.617 7  83991145.567 7     -1591.391          44.000
R23  19556638.852 8 104614815.811 8     -1483.434          51.000    19556643.461 7  81367071.037 7     -1153.782          44.000
R24  19610230.414 8 104864737.663 8      1950.980          51.000    19610232.844 8  81561540.612 8      1517.429          48.000
C29  21589149.898 8 112420366.663 8        12.758          49.000
E12  22178608.648 7 116549389.650 7      1007.637          47.000    22178608.766 8  89304136.736 8       772.052          51.000
E24  21664441.539 8 113847399.470 8       126.406          51.000    21664454.625 8  87233787.122 8        96.905          51.000
E31                                                                  25598529.852 6 103074667.019 6     -1482.207          39.000
> 2020 05 07 11 03 30.0000000  0 12        .000000000000
G12  21833961.500 6 114738251.252 6     -2360.863          41.000    21833963.289 6  89406424.183 6     -1839.637          41.000
G24  24783373.930 5 130237513.399 5     -3722.598          34.000    24783383.109 5 101483808.725 5     -2900.728          34.000
G25  20312780.344 8 106744386.863 8      -802.086          51.000    20312782.094 8  83177450.279 8      -625.002          51.000
G29  20432457.383 8 107373283.931 8      1132.934          51.000    20432456.648 8  83667513.832 8       882.805          51.000
G32  23382214.547 8 122874345.873 8     -2518.859          49.000    23382218.523 7  95746230.257 7     -1962.751          44.000
R13  20234330.789 6 108050206.745 6     -2055.801          40.000    20234334.617 7  84039050.084 7     -1598.956          43.000
R23  19565021.055 8 104659654.731 8     -1501.562          51.000    19565025.820 7  81401945.773 7     -1167.882          43.000
R24  19599346.227 8 104806537.073 8      1933.273          50.000    19599349.094 8  81516273.485 8      1503.657          48.000
C29  21589114.914 8 112420186.944 8         3.355          49.000
E12  22172890.703 7 116519345.286 7       999.629          46.000    22172891.969 8  89281115.743 8       765.887          51.000
E24  21663734.844 8 113843686.254 8       125.207          51.000    21663748.000 8  87230941.940 8        95.947          51.000
E31  25609573.211 6 134579208.666 6     -1933.434          38.000    25609580.148 6 103119172.130 6     -1481.558          39.000
> 2020 05 07 11 04  0.0000000  0 13        .000000000000
G02  23380492.539 5 122865340.618 5     -1617.824          34.000
G12  21847496.367 7 114809378.129 7     -2380.340          42.000    21847498.742 7  89461847.689 7     -1854.810          42.000
G24  24804666.188 5 130349401.422 5     -3736.078          33.000    24804674.266 6 101570994.070 6     -2911.233          36.000
G25  20317428.977 8 106768815.652 8      -826.027          51.000    20317430.695 8  83196485.703 8      -643.658          51.000
G29  20426072.891 8 107339736.369 8      1104.168          49.000    20426072.719 8  83641372.873 8       860.391          49.000
G32  23396660.555 8 122950258.524 8     -2541.441          49.000    23396664.492 7  95805382.931 7     -1980.344          44.000
R13  20245963.062 6 108112322.546 6     -2084.621          40.000    20245967.086 7  84087362.369 7     -1621.372          44.000
R23  19573547.344 8 104705264.529 8     -1538.570          51.000    19573551.867 7  81437420.052 7     -1196.666          43.000
R24  19588604.633 8 104749096.861 8      1896.504          51.000    19588607.633 8  81471597.764 8      1475.059          48.000
C29  21589175.789 8 112420508.037 8       -24.359          48.000
E12  22167261.766 7 116489768.558 7       972.676          45.000    22167263.953 8  89258453.042 8       745.324          51.000
E24  21663077.352 8 113840231.784 8       105.457          51.000    21663090.461 8  87228295.022 8        80.787          51.000
E31  25620665.781 6 134637493.309 6     -1951.676          36.000    25620670.742 6 103163831.835 6     -1495.398          39.000
> 2020 05 07 11 04 30.0000000  0 13        .000000000000
G02  23389743.219 5 122913960.206 5     -1624.465          31.000
G12  21861078.867 6 114880754.548 6     -2379.961          40.000    21861078.727 6  89517465.624 6     -1854.515          40.000
G24  24825975.523 5 130461376.080 5     -3731.320          32.000    24825981.633 5 101658246.868 5     -2907.528          31.000
G25  20322149.812 8 106793623.638 8      -830.059          51.000    20322151.469 8  83215816.611 8      -646.799          51.000
G29  20419788.008 8 107306713.208 8      1095.355          49.000    20419788.312 8  83615640.540 8       853.524          50.000
G32  23411170.023 8 123026505.486 8     -2543.832          48.000    23411173.727 7  95864796.100 7     -1982.207          43.000
R13  20257692.844 6 108174958.660 6     -2093.219          41.000    20257696.867 7  84136079.321 7     -1628.059          44.000
R23  19582216.570 8 104751638.891 8     -1555.238          51.000    19582221.273 7  81473489.019 7     -1209.630          43.000
R24  19578005.422 8 104692415.445 8      1879.996          51.000    19578008.070 8  81427512.223 8      1462.219          48.000
C29  21589332.609 8 112421326.073 8       -32.352          48.000
E12  22161721.648 7 116460656.590 7       965.871          47.000    22161724.492 8  89236146.469 8       740.071          51.000
E24  21662468.570 8 113837033.376 8       105.484          51.000    21662481.703 8  87225844.302 8        80.823          51.000
E31                                                                  25631799.227 6 103208643.634 6     -1493.749          37.000
> 2020 05 07 11 05  0.0000000  0 13        .000000000000
G12  21874680.266 6 114952229.035 6     -2395.816          41.000    21874678.055 6  89573160.017 6     -1866.867          41.000
G24  24847273.414 5 130573297.979 5     -3740.461          30.000    24847277.039 4 101745448.451 4     -2914.654          29.000
G25  20326914.117 8 106818659.694 8      -850.129          51.000    20326915.617 8  83235325.241 8      -662.438          51.000
G29  20413575.141 8 107274063.514 8      1070.453          51.000    20413575.102 8  83590199.228 8       834.122          51.000
G32  23425713.461 7 123102932.754 7     -2562.238          46.000    23425717.023 7  95924349.771 7     -1996.552          43.000
R13  20269491.367 6 108237961.061 6     -2117.996          41.000    20269495.141 7  84185081.176 7     -1647.330          44.000
R23  19590999.562 8 104798621.690 8     -1588.152          51.000    19591003.828 7  81510031.185 7     -1235.230          43.000
R24  19567519.484 8 104636340.861 8      1847.059          51.000    19567521.742 7  81383898.698 7      1436.601          47.000
C29  21589556.016 8 112422490.761 8       -56.246          48.000
E12  22156241.914 8 116431858.909 8       942.895          48.000    22156244.695 8  89214080.703 8       722.484          51.000
E24  21661879.906 8 113833940.624 8        89.504          51.000    21661893.125 8  87223474.552 8        68.596          51.000
E31                                                                  25642936.188 6 103253491.815 6     -1504.623          37.000
E33  25821814.484 5 135694552.269 5     -1853.168          32.000
> 2020 05 07 11 05 30.0000000  0 12        .000000000000
G12  21888349.312 5 115024061.223 5     -2394.426          35.000    21888346.828 5  89629133.149 5     -1865.789          34.000
G24  24868607.742 5 130685405.575 5     -3734.047          31.000    24868609.773 5 101832800.163 5     -2909.659          31.000
G25  20331771.469 8 106844184.854 8      -853.656          51.000    20331773.008 8  83255214.989 8      -665.187          51.000
G29  20407483.203 8 107242048.606 8      1061.871          51.000    20407482.867 8  83565252.584 8       827.435          51.000
G32  23440340.242 7 123179798.451 7     -2564.098          45.000    23440343.594 7  95984245.087 7     -1997.998          44.000
R13  20281408.102 6 108301595.252 6     -2126.246          41.000    20281412.203 7  84234574.415 7     -1653.747          45.000
R23  19599945.383 8 104846475.700 8     -1604.176          51.000    19599949.680 7  81547251.001 7     -1247.692          42.000
R24  19557196.711 8 104581140.496 8      1830.980          51.000    19557198.516 7  81340965.121 7      1424.099          46.000
C29  21589895.852 8 112424260.251 8       -63.730          49.000
E12  22150872.102 8 116403637.118 8       936.480          49.000    22150874.398 8  89192456.244 8       717.620          51.000
E24  21661361.109 8 113831215.326 8        90.102          50.000    21661374.492 8  87221386.343 8        69.090          51.000
E31                                                                  25654131.961 5 103298576.360 5     -1502.474          33.000
> 2020 05 07 11 06  0.0000000  0 10        .000000000000
G12  21902041.812 6 115096016.168 6     -2402.066          37.000    21902039.930 6  89685201.859 6     -1871.740          36.000
G25  20336677.047 8 106869963.579 8      -865.129          51.000    20336678.648 8  83275302.318 8      -674.126          51.000
G29  20401467.078 8 107210433.278 8      1045.598          51.000    20401467.031 8  83540617.320 8       814.754          51.000
G32  23455005.281 7 123256864.128 7     -2573.836          45.000    23455008.102 7  96044296.220 7     -2005.589          44.000
R13  20293398.203 6 108365620.651 6     -2142.520          41.000    20293401.984 7  84284371.972 7     -1666.404          45.000
R23  19609008.750 8 104894958.506 8     -1628.145          51.000    19609012.781 7  81584959.851 7     -1266.335          43.000
R24  19546992.672 8 104526576.449 8      1806.562          51.000    19546994.062 7  81298526.467 7      1405.104          46.000
C29  21590307.289 8 112426400.627 8       -79.051          50.000
E12  22145567.461 8 116375756.325 8       922.117          50.000    22145569.078 8  89171093.068 8       706.488          51.000
E24  21660867.539 8 113828622.725 8        82.594          50.000    21660881.188 8  87219399.813 8        63.268          51.000
> 2020 05 07 11 06 30.0000000  0  9        .000000000000
G25  20341648.719 8 106896089.673 8      -875.191          51.000    20341650.312 8  83295660.319 8      -681.967          51.000
G29  20395545.031 8 107179311.542 8      1030.617          51.000    20395545.258 8  83516366.616 8       803.081          51.000
G32  23469725.852 7 123334220.739 7     -2581.902          46.000    23469728.258 7  96104574.051 7     -2011.875          43.000
R13  20305479.383 6 108430132.832 6     -2156.992          41.000    20305483.273 7  84334548.075 7     -1677.661          45.000
R23  19618206.898 8 104944162.625 8     -1650.641          51.000    19618211.531 7  81623229.762 7     -1283.832          43.000
R24  19536926.047 8 104472745.791 8      1783.676          51.000    19536927.352 7  81256658.224 7      1387.303          46.000
C29  21590807.766 8 112429004.324 8       -93.086          51.000
E12  22140345.477 8 116348310.927 8       909.004          50.000    22140346.469 8  89150063.515 8       696.504          51.000
E24  21660417.297 8 113826257.439 8        76.477          50.000    21660431.211 8  87217587.462 8        58.581          51.000
> 2020 05 07 11 07  0.0000000  0 10        .000000000000
G25  20346683.117 8 106922545.726 8      -887.512          51.000    20346684.797 8  83316275.441 8      -691.568          51.000
G29  20389713.453 8 107148665.858 8      1013.441          51.000    20389713.703 8  83492486.871 8       789.698          51.000
G32  23484497.734 7 123411847.892 7     -2592.215          45.000    23484500.172 7  96165062.696 7     -2019.911          44.000
R13  20317648.398 7 108495112.955 7     -2173.875          42.000    20317651.914 7  84385088.156 7     -1690.792          45.000
R23  19627536.016 8 104994067.791 8     -1675.227          51.000    19627540.320 7  81662044.899 7     -1302.954          42.000
R24  19526993.797 8 104419632.691 8      1758.418          51.000    19526995.055 7  81215348.051 7      1367.658          47.000
C29  21591393.742 8 112432053.459 8      -109.176          51.000
E12  22135202.930 8 116321284.038 8       893.809          50.000    22135203.078 8  89129354.637 8       684.935          51.000
E24  21660007.281 8 113824102.702 8        68.270          50.000    21660021.328 8  87215936.454 8        52.313          51.000
E31  25687864.961 5 134990640.627 5     -1976.867          34.000    25687859.125 5 103434358.171 5     -1514.524          34.000
> 2020 05 07 11 07 30.0000000  0 11        .000000000000
G25  20351783.406 8 106949348.480 8      -899.852          51.000    20351785.148 8  83337160.700 8      -701.183          51.000
G29  20383975.820 8 107118513.183 8       996.195          51.000    20383975.797 8  83468991.298 8       776.256          51.000
G32  23499323.570 7 123489759.454 7     -2602.387          43.000    23499326.648 7  96225772.967 7     -2027.834          43.000
R13  20329907.906 6 108560578.369 6     -2190.770          41.000    20329911.242 7  84436005.672 7     -1703.932          45.000
R23  19636998.820 8 105044688.021 8     -1699.871          51.000    19637003.336 7  81701416.215 7     -1322.122          42.000
R24  19517199.188 8 104367255.661 8      1732.980          51.000    19517200.789 7  81174610.382 7      1347.874          47.000
C29  21592068.398 8 112435564.138 8      -125.258          51.000
E12  22130143.289 8 116294693.017 8       878.461          50.000    22130142.453 8  89108979.729 8       673.151          50.000
E24  21659640.766 8 113822176.085 8        59.875          50.000    21659654.977 8  87214460.230 8        45.854          51.000
E31                                                                  25699162.500 6 103479869.433 6     -1519.732          36.000
E33  25875277.648 5 135975474.036 5     -1900.688          34.000
> 2020 05 07 11 08  0.0000000  0 14        .000000000000
G12  21957170.156 6 115385717.018 6     -2415.727          36.000    21957166.320 5  89910921.841 5     -1882.381          35.000
G14  23041715.516 5 121085031.506 5     -1230.195          35.000
G25  20356909.281 8 106976285.748 8      -896.410          51.000    20356911.250 8  83358150.773 8      -698.501          51.000
G29  20378291.633 8 107088641.712 8       994.773          51.000    20378291.141 8  83445714.845 8       775.148          51.000
G32  23514162.641 7 123567740.357 7     -2596.805          44.000    23514166.320 7  96286537.285 7     -2023.484          44.000
R13  20342217.883 6 108626312.464 6     -2191.594          41.000    20342221.086 7  84487132.144 7     -1704.573          44.000
R23  19646554.352 8 105095804.540 8     -1708.387          51.000    19646559.000 7  81741173.520 7     -1328.745          42.000
R24  19507502.000 8 104315400.377 8      1723.664          51.000    19507503.883 7  81134278.508 7      1340.628          47.000
C29  21592791.219 8 112439325.492 8      -125.949          51.000
C30  24385454.219 5 126981460.802 5     -2792.848          32.000
E12  22125126.070 8 116268326.223 8       878.840          49.000    22125124.609 8  89088776.617 8       673.397          50.000
E24  21659277.430 8 113820266.162 8        67.062          50.000    21659291.773 8  87212996.800 8        51.383          51.000
E31                                                                  25710456.047 6 103525345.958 6     -1512.477          38.000
E33  25886114.961 5 136032451.483 5     -1896.316          34.000
> 2020 05 07 11 08 30.0000000  0 14        .000000000000
G12  21971068.484 6 115458741.784 6     -2450.391          37.000    21971057.578 5  89967824.216 5     -1909.392          32.000
G14  23048868.781 5 121122626.864 5     -1273.773          34.000
G25  20362144.422 8 107003797.260 8      -935.395          51.000    20362146.539 8  83379588.315 8      -728.879          51.000
G29  20372744.414 8 107059491.201 8       950.871          51.000    20372743.367 8  83423000.169 8       740.939          51.000
G32  23529098.273 7 123646227.383 7     -2633.289          45.000    23529102.664 7  96347695.987 7     -2051.914          44.000
R13  20354661.719 6 108692762.367 6     -2235.617          40.000    20354664.805 7  84538815.371 7     -1738.816          44.000
R23  19656285.852 8 105147862.268 8     -1759.910          51.000    19656290.445 7  81781662.890 7     -1368.819          42.000
R24  19497986.320 8 104264516.012 8      1671.016          51.000    19497988.555 7  81094701.820 7      1299.679          47.000
C29  21593645.664 8 112443772.726 8      -168.336          51.000
C30  24401647.484 5 127065770.197 5     -2825.941          32.000
E12  22120234.914 8 116242623.935 8       836.957          49.000    22120233.500 8  89069082.685 8       641.308          50.000
E24  21659001.109 8 113818813.465 8        32.078          51.000    21659015.461 8  87211883.711 8        24.564          51.000
E31  25721822.523 6 135169091.640 6     -2007.031          37.000    25721825.492 6 103571124.663 6     -1537.634          37.000
E33  25897058.648 5 136089960.780 5     -1934.762          32.000
> 2020 05 07 11 09  0.0000000  0 13        .000000000000
G12  21985016.992 6 115532042.852 6     -2441.809          38.000    21985010.727 6  90024941.760 6     -1902.717          38.000
G14  23056126.492 5 121160773.289 5     -1274.250          31.000
G25  20367457.641 8 107031718.988 8      -931.203          51.000    20367459.648 8  83401345.489 8      -725.613          51.000
G29  20367303.211 8 107030897.665 8       950.117          51.000    20367301.891 8  83400719.522 8       740.354          51.000
G32  23544098.516 7 123725053.705 7     -2626.641          45.000    23544103.617 7  96409119.057 7     -2046.733          44.000
R13  20367207.984 6 108759760.546 6     -2235.828          40.000    20367211.734 7  84590925.019 7     -1738.977          45.000
R23  19666161.422 8 105200691.226 8     -1767.379          51.000    19666166.492 7  81822752.097 7     -1374.628          42.000
R24  19488621.320 8 104214437.174 8      1662.277          51.000    19488623.836 7  81055751.620 7      1292.882          47.000
C29  21594600.453 8 112448742.681 8      -168.102          51.000
C30  24417887.148 4 127150334.901 4     -2815.949          29.000
E12  22115438.961 8 116217422.704 8       838.043          48.000    22115437.695 8  89049772.672 8       642.155          49.000
E24  21658780.758 8 113817654.720 8        40.066          51.000    21658794.984 8  87210995.849 8        30.760          51.000
E31  25733235.305 6 135229067.383 6     -1996.586          36.000    25733236.883 5 103617080.177 5     -1530.223          34.000
> 2020 05 07 11 09 30.0000000  0 12        .000000000000
G12  21998985.453 6 115605445.629 6     -2454.191          39.000    21998981.328 6  90082138.641 6     -1912.363          38.000
G25  20372815.875 8 107059876.894 8      -948.215          51.000    20372817.922 8  83423286.709 8      -738.866          51.000
G29  20361934.742 8 107002687.267 8       928.387          51.000    20361933.570 8  83378737.405 8       723.418          51.000
G32  23559129.727 7 123804042.236 7     -2641.363          45.000    23559134.914 7  96470668.541 7     -2058.205          44.000
R13  20379824.000 6 108827129.856 6     -2257.477          39.000    20379827.977 7  84643323.359 7     -1755.815          44.000
R23  19676147.719 8 105254111.432 8     -1796.289          51.000    19676152.805 7  81864301.151 7     -1397.114          42.000
R24  19479374.102 8 104164988.281 8      1632.023          51.000    19479376.477 7  81017291.383 7      1269.355          47.000
C29  21595622.148 8 112454062.286 8      -188.723          51.000
C30  24434141.617 4 127234987.273 4     -2828.453          28.000
E12  22110705.258 8 116192548.917 8       817.973          48.000    22110703.617 8  89030713.565 8       626.803          48.000
E24  21658583.469 8 113816616.622 8        26.926          51.000    21658597.391 8  87210200.425 8        20.652          51.000
E31  25744657.398 6 135289099.715 6     -2007.730          37.000    25744661.000 5 103663079.034 5     -1538.430          33.000
> 2020 05 07 11 10  0.0000000  0 15        .000000000000
G02  23496927.461 4 123477156.141 4     -1782.070          29.000
G12  22012984.031 6 115679009.885 6     -2452.812          39.000    22012982.602 6  90139461.274 6     -1911.286          38.000
G14  23070874.180 5 121238203.379 5     -1303.301          33.000
G25  20378230.453 8 107088330.836 8      -951.203          51.000    20378232.469 8  83445458.610 8      -741.200          51.000
G29  20356650.344 8 106974920.091 8       920.414          49.000    20356649.523 8  83357100.649 8       717.206          49.000
G32  23574202.641 7 123883249.938 7     -2641.664          45.000    23574207.227 7  96532388.799 7     -2058.440          43.000
R13  20392520.828 6 108894930.402 6     -2265.004          40.000    20392524.891 7  84696057.117 7     -1761.670          44.000
R23  19686255.328 8 105308180.619 8     -1810.922          51.000    19686260.789 7  81906354.984 7     -1408.495          42.000
R24  19470256.703 8 104116231.788 8      1615.816          51.000    19470258.547 7  80979369.697 7      1256.746          47.000
C29  21596722.070 8 112459790.227 8      -195.641          51.000
C30  24450421.797 5 127319771.185 5     -2825.582          30.000
E12  22106045.641 8 116168062.961 8       811.820          49.000    22106043.211 8  89011951.604 8       622.053          48.000
E24  21658420.680 8 113815759.815 8        27.645          51.000    21658434.234 8  87209543.919 8        21.179          51.000
E31  25756103.633 6 135349248.615 6     -2004.812          38.000
E33  25930237.695 5 136264319.541 5     -1948.875          35.000
> 2020 05 07 11 10 30.0000000  0 14        .000000000000
G12  22027025.617 6 115752799.346 6     -2470.656          36.000    22027025.969 6  90196959.507 6     -1925.190          36.000
G14  23078382.188 5 121277716.814 5     -1330.832          30.000
G25  20383713.664 8 107117145.558 8      -973.676          51.000    20383715.859 8  83467911.636 8      -758.711          51.000
G29  20351462.758 8 106947660.472 8       893.047          51.000    20351461.945 8  83335859.409 8       695.881          51.000
G32  23589328.828 7 123962738.680 7     -2661.480          44.000    23589332.672 7  96594328.028 7     -2073.884          44.000
R13  20405310.648 6 108963227.285 6     -2292.082          40.000    20405314.797 7  84749176.911 7     -1782.734          44.000
R23  19696496.375 8 105362962.154 8     -1845.258          50.000    19696501.609 7  81948962.841 7     -1435.201          42.000
R24  19461281.234 8 104068234.855 8      1579.891          51.000    19461282.258 7  80942038.754 7      1228.804          46.000
C29  21597912.758 8 112465990.083 8      -221.715          51.000
C30  24466743.289 4 127404752.081 4     -2842.875          29.000
E12  22101472.469 8 116144030.101 8       786.297          49.000    22101469.828 8  88993536.847 8       602.418          48.000
E24  21658304.852 8 113815149.848 8         8.965          51.000    21658318.109 8  87209076.544 8         6.845          51.000
E31  25767584.117 5 135409578.960 5     -2021.258          35.000
E33  25941410.680 6 136323044.809 6     -1970.648          37.000
> 2020 05 07 11 11  0.0000000  0 11        .000000000000
G12  22041117.953 5 115826858.894 5     -2470.957          34.000    22041119.688 5  90254668.130 5     -1925.427          35.000
G25  20389274.125 8 107146365.957 8      -978.641          51.000    20389276.422 8  83490680.774 8      -762.580          51.000
G29  20346380.688 8 106920953.368 8       883.133          51.000    20346379.633 8  83315048.697 8       688.155          51.000
G32  23604516.375 6 124042550.444 6     -2663.625          41.000    23604519.727 6  96656518.944 6     -2075.558          41.000
R13  20418202.016 6 109032065.554 6     -2301.359          41.000    20418206.062 7  84802717.736 7     -1789.949          44.000
R23  19706878.289 8 105418498.629 8     -1861.551          51.000    19706883.531 7  81992157.870 7     -1447.873          42.000
R24  19452456.133 8 104021044.687 8      1561.746          51.000    19452457.250 7  80905335.310 7      1214.691          46.000
C29  21599202.133 8 112472705.659 8      -230.395          51.000
E12  22096994.102 8 116120495.686 8       778.320          49.000    22096991.719 8  88975504.025 8       596.369          49.000
E24  21658244.594 8 113814832.386 8         7.855          51.000    21658257.812 8  87208833.295 8         6.043          51.000
E33  25952657.531 6 136382152.039 6     -1974.375          39.000
> 2020 05 07 11 11 30.0000000  0 12        .000000000000
G25  20394885.680 8 107175854.588 8      -971.672          51.000    20394887.758 8  83513658.930 8      -757.147          51.000
G29  20341377.453 8 106894661.384 8       885.246          51.000    20341376.648 8  83294561.454 8       689.802          51.000
G32  23619738.422 6 124122544.829 6     -2653.824          39.000    23619742.023 6  96718852.211 6     -2067.912          39.000
R13  20431168.961 6 109101305.594 6     -2298.547          41.000    20431172.547 7  84856571.088 7     -1787.759          44.000
R23  19717375.016 8 105474647.027 8     -1865.691          50.000    19717379.805 7  82035828.839 7     -1451.093          42.000
R24  19443755.828 8 103974522.854 8      1555.629          51.000    19443757.312 7  80869151.696 7      1209.937          46.000
C29  21600564.320 8 112479800.157 8      -227.238          51.000
C30  24499507.891 5 127575332.961 5     -2831.730          30.000
E11  25194837.352 6 132399764.800 6      3043.434          41.000    25194835.930 6 101449164.226 6      2332.113          40.000
E12  22092584.477 8 116097322.807 8       782.117          50.000    22092582.203 8  88957748.221 8       599.285          49.000
E24  21658213.938 8 113814670.781 8        18.535          51.000    21658227.070 8  87208709.470 8        14.160          51.000
E33  25963952.219 6 136441502.382 6     -1966.645          39.000
> 2020 05 07 11 12  0.0000000  0 12        .000000000000
G25  20400551.297 8 107205627.323 8     -1008.328          51.000    20400553.398 8  83536858.465 8      -785.710          51.000
G29  20336456.328 8 106868801.072 8       843.695          51.000    20336455.969 8  83274410.578 8       657.428          51.000
G32  23634997.883 6 124202734.813 6     -2687.270          41.000    23635001.961 6  96781337.904 6     -2093.976          41.000
R13  20444213.430 7 109170962.757 7     -2340.188          42.000    20444217.234 7  84910748.835 7     -1820.146          44.000
R23  19727988.125 8 105531420.338 8     -1914.160          51.000    19727992.922 6  82079985.864 6     -1488.791          41.000
R24  19435183.836 8 103928686.750 8      1504.941          51.000    19435185.742 7  80833501.428 7      1170.513          45.000
C29  21602002.156 8 112487288.630 8      -267.258          51.000
C30  24515916.867 5 127660811.712 5     -2861.754          30.000
E11  25177565.773 7 132309001.429 7      3012.707          43.000    25177562.469 6 101379618.319 6      2308.127          39.000
E12  22088246.781 8 116074527.733 8       742.324          51.000    22088244.445 8  88940281.890 8       568.800          50.000
E24  21658216.031 8 113814681.683 8       -14.410          51.000    21658229.047 8  87208717.831 8       -11.095          51.000
E33  25975296.328 6 136501110.208 6     -2002.223          38.000
> 2020 05 07 11 12 30.0000000  0 11        .000000000000
G25  20406305.656 8 107235866.408 8     -1006.234          51.000    20406307.805 8  83560421.393 8      -784.079          51.000
G29  20331652.188 8 106843554.686 8       840.785          51.000    20331651.867 8  83254738.069 8       655.157          51.000
G32  23650329.039 7 124283299.731 7     -2682.250          46.000    23650333.258 7  96844115.720 7     -2090.065          43.000
R13  20457370.633 7 109241221.388 7     -2342.574          42.000    20457374.359 7  84965394.431 7     -1822.002          45.000
R23  19738752.461 8 105589001.253 8     -1923.066          50.000    19738756.977 6  82124771.000 6     -1495.718          41.000
R24  19426774.938 8 103883723.231 8      1493.910          50.000    19426777.594 7  80798529.845 7      1161.933          46.000
C29  21603550.234 8 112495350.978 8      -268.926          51.000
E11  25160350.508 7 132218532.539 7      3020.188          44.000    25160345.141 6 101310298.080 6      2314.044          38.000
E12  22084015.641 8 116052293.209 8       741.238          51.000    22084013.930 8  88923245.076 8       568.001          51.000
E24  21658285.617 8 113815048.099 8        -8.699          51.000    21658298.781 8  87208998.593 8        -6.660          51.000
E33  25986723.367 6 136561156.337 6     -1999.352          38.000
> 2020 05 07 11 13  0.0000000  0 11        .000000000000
G25  20412136.977 8 107266510.365 8     -1023.668          51.000    20412139.164 8  83584299.799 8      -797.663          51.000
G29  20326953.023 8 106818860.089 8       818.590          51.000    20326952.672 8  83235495.544 8       637.862          51.000
G32  23665719.508 7 124364175.209 7     -2696.422          47.000    23665723.352 7  96907135.495 7     -2101.111          43.000
R13  20470628.445 7 109312018.574 7     -2364.125          42.000    20470632.453 7  85020458.889 7     -1838.764          45.000
R23  19749655.125 8 105647324.243 8     -1951.684          51.000    19749659.820 6  82170133.325 6     -1517.976          41.000
R24  19418518.055 8 103839571.083 8      1462.902          50.000    19418521.375 7  80764189.315 7      1137.813          47.000
C29  21605196.594 8 112503925.610 8      -289.699          51.000
E11  25143179.852 7 132128298.477 7      3008.340          45.000    25143171.984 6 101241157.805 6      2304.897          37.000
E12  22079879.414 8 116030558.141 8       720.875          50.000    22079878.469 8  88906590.978 8       552.335          51.000
E24  21658411.312 8 113815709.325 8       -22.367          51.000    21658424.703 8  87209505.249 8       -17.162          51.000
E33  25998221.055 5 136621573.752 5     -2015.512          35.000
> 2020 05 07 11 13 30.0000000  0 11        .000000000000
G14  23125311.203 5 121524283.145 5     -1422.668          31.000
G25  20417987.703 8 107297256.633 8     -1040.281          51.000    20417989.977 8  83608257.918 8      -810.609          51.000
G29  20322301.531 8 106794414.872 8       797.031          51.000    20322301.359 8  83216447.344 8       621.063          51.000
G32  23681110.984 7 124445055.722 7     -2709.621          45.000    23681114.180 7  96970159.174 7     -2111.396          43.000
R13  20483929.719 7 109383046.333 7     -2385.293          42.000    20483933.453 7  85075702.687 7     -1855.231          44.000
R23  19760638.875 8 105706078.272 8     -1979.559          50.000    19760643.414 6  82215830.907 6     -1539.657          40.000
R24  19410355.422 8 103795923.499 8      1432.641          49.000    19410359.703 8  80730241.239 8      1114.279          48.000
C29  21606883.719 8 112512712.067 8      -309.926          51.000
E11  25125996.711 7 132037998.418 7      2997.508          45.000    25125987.469 6 101171966.916 6      2296.989          37.000
E12  22075780.727 8 116009020.447 8       701.152          50.000    22075780.227 8  88890088.092 8       537.303          51.000
E24  21658535.766 8 113816363.621 8       -35.250          51.000    21658549.305 8  87210006.593 8       -26.956          51.000
> 2020 05 07 11 14  0.0000000  0 10        .000000000000
G25  20423941.930 8 107328546.754 8     -1045.387          51.000    20423944.125 8  83632639.830 8      -814.587          51.000
G29  20317781.422 8 106770660.747 8       786.930          51.000    20317781.391 8  83197937.649 8       613.192          51.000
G32  23696586.672 7 124526379.913 7     -2711.395          43.000    23696589.758 7  97033528.609 7     -2112.775          42.000
R13  20497358.000 7 109454752.543 7     -2394.797          42.000    20497361.625 7  85131474.161 7     -1862.620          44.000
R23  19771786.109 8 105765709.548 8     -1995.477          51.000    19771790.883 6  82262210.787 6     -1552.037          40.000
R24  19402371.234 8 103753231.217 8      1413.973          49.000    19402376.180 8  80697036.160 8      1099.757          49.000
C29  21608695.336 8 112522147.202 8      -318.754          51.000
E11  25108885.109 7 131948075.822 7      2997.766          44.000    25108876.242 6 101103065.292 6      2296.864          38.000
E12  22071803.719 8 115988122.141 8       692.617          50.000    22071803.719 8  88874075.125 8       530.674          51.000
E24  21658743.141 8 113817453.348 8       -36.965          51.000    21658756.734 8  87210841.576 8       -28.330          51.000
> 2020 05 07 11 14 30.0000000  0 11        .000000000000
G25  20429932.336 8 107360027.449 8     -1055.055          50.000    20429934.516 8  83657170.246 8      -822.121          50.000
G29  20313325.539 8 106747244.088 8       772.445          51.000    20313325.422 8  83179690.914 8       601.905          51.000
G32  23712078.266 6 124607791.543 6     -2717.637          40.000    23712082.516 6  97096966.229 6     -2117.639          40.000
R13  20510846.172 6 109526777.966 6     -2408.672          41.000    20510849.477 7  85187493.907 7     -1873.411          43.000
R23  19783029.938 8 105825855.522 8     -2015.988          49.000    19783034.547 6  82308990.995 6     -1567.991          40.000
R24  19394498.914 8 103711135.970 8      1390.688          50.000    19394504.289 8  80664295.449 8      1081.646          49.000
C29  21610564.195 8 112531880.208 8      -331.984          51.000
E11  25091778.219 7 131858179.105 7      2993.715          43.000    25091770.523 6 101034183.461 6      2293.993          39.000
E12  22067881.266 8 115967510.296 8       679.793          49.000    22067881.586 8  88858281.657 8       520.743          51.000
E24  21658966.227 8 113818625.960 8       -43.047          51.000    21658979.734 8  87211740.061 8       -33.074          51.000
E31  25860560.023 6 135898164.076 6     -2055.301          37.000
> 2020 05 07 11 15  0.0000000  0 11        .000000000000
G25  20435999.266 8 107391910.445 8     -1068.164          49.000    20436001.594 8  83682014.145 8      -832.336          49.000
G29  20308974.242 8 106724376.902 8       754.277          51.000    20308974.070 8  83161872.369 8       587.752          51.000
G32  23727626.281 6 124689499.441 6     -2727.348          41.000    23727631.914 7  97160634.687 7     -2125.206          42.000
R13  20524434.156 6 109599336.851 6     -2426.332          41.000    20524437.492 7  85243928.573 7     -1887.150          43.000
R23  19794409.305 8 105886728.294 8     -2039.965          51.000    19794413.516 6  82356336.466 6     -1586.639          40.000
R24  19386778.930 8 103669854.092 8      1363.816          51.000    19386784.320 8  80632187.351 8      1060.746          49.000
C29  21612530.617 8 112542120.201 8      -348.559          51.000
E11  25074716.586 7 131768521.875 7      2985.965          42.000    25074710.203 6 100965485.092 6      2288.040          40.000
E12  22064053.500 8 115947397.053 8       663.289          48.000    22064054.156 8  88842870.217 8       508.345          51.000
E24  21659245.445 8 113820094.000 8       -52.578          51.000    21659258.961 8  87212864.902 8       -40.284          51.000
E31  25872317.188 6 135959953.586 6     -2062.402          36.000    25872319.047 5 104177105.488 5     -1580.130          31.000
> 2020 05 07 11 15 30.0000000  0 12        .000000000000
G25  20442128.820 8 107424121.770 8     -1078.711          50.000    20442131.297 8  83707113.871 8      -840.554          50.000
G29  20304713.062 8 106701985.080 8       738.836          51.000    20304713.031 8  83144424.221 8       575.719          51.000
G32  23743216.625 7 124771426.738 7     -2734.133          45.000    23743222.664 7  97224474.101 7     -2130.493          45.000
R13  20538107.602 6 109672353.183 6     -2441.031          40.000    20538111.359 7  85300719.035 7     -1898.580          43.000
R14  19418284.633 6 103510386.394 6      1300.984          36.000    19418281.492 5  80508060.783 5      1011.883          31.000
R23  19805910.164 8 105948249.656 8     -2061.012          49.000    19805914.875 6  82404186.455 6     -1603.006          40.000
R24  19379197.523 8 103629311.584 8      1339.570          51.000    19379202.320 8  80600654.316 8      1041.888          49.000
C29  21614580.188 8 112552793.144 8      -362.453          50.000
E11  25057685.500 6 131679031.977 6      2980.473          40.000    25057681.906 6 100896914.924 6      2283.832          41.000
E12  22060306.570 8 115927708.809 8       649.625          48.000    22060307.617 8  88827784.443 8       497.729          51.000
E24  21659567.031 8 113821784.323 8       -59.688          51.000    21659580.500 8  87214160.084 8       -45.723          51.000
E31  25884102.945 6 136021893.227 6     -2066.758          38.000    25884107.703 6 104224565.630 6     -1583.656          37.000
> 2020 05 07 11 16  0.0000000  0 13        .000000000000
G12  22184052.164 5 116577961.422 5     -2538.148          33.000    22184054.383 5  90840007.576 5     -1977.766          34.000
G25  20448318.266 8 107456646.960 8     -1091.328          51.000    20448320.711 8  83732458.185 8      -850.383          51.000
G29  20300539.312 8 106680054.011 8       721.484          51.000    20300539.539 8  83127335.088 8       562.196          51.000
G32  23758845.594 8 124853556.129 8     -2742.938          48.000    23758850.680 7  97288470.970 7     -2137.357          42.000
R13  20551863.883 6 109745812.431 6     -2458.012          40.000    20551868.000 7  85357854.012 7     -1911.790          45.000
R14  19411007.297 6 103471601.483 6      1282.754          36.000    19411011.797 5  80477894.711 5       997.694          34.000
R23  19817528.617 8 106010401.729 8     -2084.129          50.000    19817533.211 6  82452526.940 6     -1620.992          39.000
R24  19371752.352 8 103589494.988 8      1313.145          51.000    19371755.945 8  80569685.852 8      1021.335          48.000
C29  21616710.359 8 112563884.010 8      -378.520          51.000
E11  25040683.344 6 131589696.690 6      2973.184          41.000    25040683.062 6 100828463.242 6      2278.249          41.000
E12  22056638.023 8 115908431.512 8       633.883          48.000    22056639.195 8  88813013.541 8       485.672          51.000
E24  21659928.430 8 113823683.254 8       -68.672          51.000    21659941.797 8  87215615.113 8       -52.634          51.000
E31  25895914.570 6 136083968.618 6     -2073.551          38.000    25895921.516 5 104272129.777 5     -1588.507          33.000
> 2020 05 07 11 16 30.0000000  0 14        .000000000000
G02  23636266.336 5 124209410.509 5     -1961.434          32.000
G12  22198537.805 6 116654077.321 6     -2538.480          36.000    22198529.172 5  90899318.841 5     -1978.031          32.000
G25  20454559.531 8 107489444.283 8     -1096.551          51.000    20454561.969 8  83758014.564 8      -854.455          51.000
G29  20296445.742 8 106658542.418 8       711.336          51.000    20296445.789 8  83110572.815 8       554.288          51.000
G32  23774504.461 8 124935842.811 8     -2744.355          48.000    23774507.531 6  97352590.430 6     -2138.459          40.000
R13  20565695.180 6 109819671.220 6     -2467.406          40.000    20565699.859 7  85415299.704 7     -1919.094          45.000
R14  19403811.398 6 103433249.747 6      1272.035          38.000    19403814.289 5  80448065.565 5       989.364          32.000
R23  19829256.867 8 106073138.872 8     -2099.719          49.000    19829261.461 6  82501322.492 6     -1633.112          40.000
R24  19364434.844 8 103550362.541 8      1294.195          50.000    19364437.586 8  80539249.503 8      1006.596          48.000
C29  21618912.891 8 112575350.682 8      -387.273          51.000
E11  25023704.281 7 131500476.023 7      2973.090          43.000    25023705.547 6 100760099.403 6      2278.133          41.000
E12  22053039.789 7 115889523.760 7       625.328          47.000    22053041.016 8  88798525.786 8       479.106          51.000
E24  21660321.789 8 113825749.817 8       -70.480          51.000    21660335.023 8  87217198.582 8       -53.987          51.000
E31  25907743.906 6 136146138.084 6     -2072.652          39.000    25907752.398 5 104319766.135 5     -1588.522          34.000
> 2020 05 07 11 17  0.0000000  0 14        .000000000000
G02  23647531.719 5 124268611.301 5     -1976.156          31.000
G12  22213074.531 5 116730462.382 5     -2546.281          33.000    22213072.406 5  90958839.617 5     -1984.115          33.000
G25  20460878.820 8 107522651.588 8     -1109.871          51.000    20460881.219 8  83783890.391 8      -864.835          51.000
G29  20292457.930 8 106637587.155 8       693.066          51.000    20292457.914 8  83094244.066 8       540.052          51.000
G32  23790218.914 8 125018421.780 8     -2753.676          48.000    23790220.336 6  97416937.634 6     -2145.724          40.000
R13  20579627.367 6 109894067.784 6     -2484.906          41.000    20579631.891 7  85473163.692 7     -1932.705          45.000
R14  19396725.117 6 103395473.463 6      1253.645          37.000    19396727.164 5  80418684.053 5       975.057          34.000
R23  19841119.742 8 106136597.993 8     -2123.410          48.000    19841124.898 6  82550679.618 6     -1651.541          38.000
R24  19357271.461 8 103512055.769 8      1267.141          50.000    19357273.852 7  80509455.351 7       985.551          47.000
C29  21621213.375 8 112587328.941 8      -403.969          51.000
E11  25006774.398 7 131411509.640 7      2965.219          43.000    25006776.094 6 100691930.416 6      2271.958          41.000
E12  22049538.047 7 115871123.752 7       608.734          47.000    22049539.367 8  88784427.078 8       466.469          51.000
E24  21660773.383 8 113828122.660 8       -80.336          51.000    21660786.508 8  87219016.742 8       -61.550          51.000
E31  25919618.758 6 136208539.431 6     -2079.645          37.000    25919626.234 5 104367595.242 5     -1594.009          30.000
> 2020 05 07 11 17 30.0000000  0 13        .000000000000
G02  23658869.383 5 124328186.709 5     -1992.961          34.000
G25  20467256.656 8 107556166.542 8     -1122.969          51.000    20467259.078 8  83810005.935 8      -875.041          51.000
G29  20288556.648 8 106617086.259 8       675.086          51.000    20288556.281 8  83078269.357 8       526.041          51.000
G32  23805968.898 8 125101187.767 8     -2762.652          48.000    23805969.781 6  97481430.568 6     -2152.719          41.000
R13  20593640.883 6 109968898.863 6     -2502.422          41.000    20593645.352 7  85531365.632 7     -1946.328          45.000
R14  19389727.945 6 103358171.476 6      1234.586          38.000    19389731.016 5  80389671.398 5       960.234          35.000
R23  19853097.891 7 106200672.258 7     -2146.703          47.000    19853102.805 6  82600515.148 6     -1669.658          38.000
R24  19350243.117 8 103474471.396 8      1240.059          51.000    19350245.008 7  80480223.050 7       964.490          46.000
C29  21623592.594 8 112599716.675 8      -420.461          51.000
E11  24989873.953 7 131322697.080 7      2957.363          43.000    24989875.570 6 100623879.294 6      2266.068          41.000
E12  22046113.508 7 115853129.491 7       592.246          46.000    22046115.000 8  88770639.294 8       453.808          51.000
E24  21661263.820 8 113830700.304 8       -90.070          51.000    21661276.836 8  87220991.834 8       -69.027          51.000
E31  25931518.516 5 136271047.868 5     -2086.855          32.000
> 2020 05 07 11 18  0.0000000  0 15        .000000000000
G12  22242225.508 4 116883684.485 4     -2551.441          29.000
G25  20473680.094 8 107589921.441 8     -1124.352          51.000    20473682.297 8  83836308.450 8      -876.118          51.000
G29  20284729.070 8 106596971.902 8       668.836          51.000    20284727.844 8  83062595.853 8       521.171          51.000
G32  23821741.031 7 125184070.153 7     -2759.852          47.000    23821742.398 7  97546014.209 7     -2150.537          42.000
R13  20607722.734 6 110044094.054 6     -2507.625          41.000    20607726.984 7  85589850.761 7     -1950.378          44.000
R14  19382806.172 6 103321277.797 6      1227.797          36.000    19382809.992 5  80360976.279 5       954.953          35.000
R17  22253000.938 6 119080282.712 6      4169.652          38.000    22252996.141 4  92617995.100 4      3243.060          26.000
R23  19865176.914 7 106265288.871 7     -2158.043          47.000    19865182.219 6  82650772.509 6     -1678.481          38.000
R24  19343336.945 8 103437541.557 8      1224.941          51.000    19343338.938 7  80451499.888 7       952.735          47.000
C29  21626037.188 8 112612445.986 8      -425.355          51.000
E11  24972989.930 7 131233972.411 7      2960.672          43.000    24972991.297 7 100555895.500 7      2268.648          42.000
E12  22042753.695 7 115835473.591 7       587.637          47.000    22042754.984 8  88757110.770 8       450.174          50.000
E24  21661780.523 8 113833415.777 8       -88.133          51.000    21661793.320 8  87223072.536 8       -67.515          51.000
E31                                                                  25943435.336 5 104463460.090 5     -1595.793          30.000
E33  26116066.258 5 137240853.766 5     -2103.629          32.000
> 2020 05 07 11 18 30.0000000  0 14        .000000000000
G25  20480237.617 8 107624381.131 8     -1135.309          51.000    20480239.664 8  83863160.148 8      -884.656          51.000
G29  20281063.578 8 106577709.057 8       653.133          51.000    20281062.031 8  83047585.861 8       508.935          51.000
G32  23837623.188 7 125267530.924 7     -2766.434          46.000    23837625.617 6  97611048.536 6     -2155.663          41.000
R13  20621961.195 6 110120125.197 6     -2522.594          41.000    20621965.133 7  85648986.081 7     -1962.017          44.000
R14  19376050.859 6 103285266.424 6      1211.148          41.000    19376053.430 6  80332967.471 6       942.004          36.000
R17  22229757.891 6 118955901.235 6      4160.641          38.000    22229755.805 4  92521262.148 4      3236.060          29.000
R23  19877445.602 7 106330918.497 7     -2178.863          45.000    19877451.406 6  82701817.774 6     -1694.671          38.000
R24  19336642.125 8 103401740.295 8      1200.195          51.000    19336644.062 7  80423654.526 7       933.488          46.000
C29  21628635.703 8 112625976.831 8      -439.449          51.000
C30  24732307.617 5 128787621.560 5     -2912.633          30.000
E11  24956211.188 7 131145802.294 7      2954.805          43.000    24956212.492 7 100488336.630 7      2264.125          42.000
E12  22039546.977 7 115818621.293 7       573.590          47.000    22039547.898 8  88744198.000 8       439.462          49.000
