     3.02           OBSERVATION DATA    M (MIXED)           RINEX VERSION / TYPE
SAVERINEX           SC600               20200513 165931 LCL PGM / RUN BY / DATE
       G = GPS       R = GLONASS       C = COMPASS          COMMENT
       S = SBAS      J = QZSS          E = GALILEO          COMMENT
BEAN                                                        MARKER NAME
1                                                           MARKER NUMBER
GEODETIC                                                    MARKER TYPE
Unige DICCA         GTER                                    OBSERVER / AGENCY
SC60291900056       SC600               2.12(191226)        REC # / TYPE / VERS
                    HEMA45          NONE                    ANT # / TYPE
  4509407.8091   693652.4678  4442337.6214                  APPROX POSITION XYZ
        0.0000        0.0000        0.0000                  ANTENNA: DELTA H/E/N
G    8 C1C L1C D1C S1C C2Y L2Y D2Y S2Y                      SYS / # / OBS TYPES
R    8 C1C L1C D1C S1C C2P L2P D2P S2P                      SYS / # / OBS TYPES
C    8 C1I L1I D1I S1I C7I L7I D7I S7I                      SYS / # / OBS TYPES
E    8 C1C L1C D1C S1C C7Q L7Q D7Q S7Q                      SYS / # / OBS TYPES
DBHZ                                                        COMMENT
     30.000                                                 INTERVAL
  2020    05    13    14    00    0.0000000     GPS         TIME OF FIRST OBS
  2020    05    13    14    59   30.0000000     GPS         TIME OF LAST OBS
     0                                                      RCV CLOCK OFFS APPL
G L1C  0.00000                                              SYS / PHASE SHIFT
G L2Y  0.00000                                              SYS / PHASE SHIFT
R L1C  0.00000                                              SYS / PHASE SHIFT
R L2P  0.25000                                              SYS / PHASE SHIFT
C L1I  0.00000                                              SYS / PHASE SHIFT
C L7I  0.00000                                              SYS / PHASE SHIFT
E L1C  0.50000                                              SYS / PHASE SHIFT
E L7Q -0.25000                                              SYS / PHASE SHIFT
 13 R01  1 R06 -4 R07  5 R08  6 R10 -5 R11  0 R12 -1 R13 -2 GLONASS SLOT / FRQ #
    R14 -7 R17  4 R21  4 R22 -3 R23  3                      GLONASS SLOT / FRQ #
 C1C   71.950 C2C   71.950 C2P   71.950                     GLONASS COD/PHS/BIS
    18                                                      LEAP SECONDS
*** Above antenna height is from mark to ANTENNA BOTTOM.    COMMENT
    17     4        0.0000        ANT MEASURE TYPE/HEIGT    COMMENT
    0.0000    0.0000    0.0458    0.0405    0.0000          COMMENT
                    BASE STATION                            COMMENT
                                                            END OF HEADER
> 2020 05 13 14 00  0.0000000  0 17        .000000000000
G18  20611156.969 8 108312429.081 8     -1325.801          51.000    20611157.328 8  84399307.156 8     -1033.092          50.000
G20  22238607.938 7 116864696.859 7      2632.105          47.000    22238609.562 7  91063412.898 7      2050.991          43.000
G21  20971649.391 8 110206783.200 8     -1227.219          51.000    20971648.219 8  85875432.688 8      -956.274          50.000
G26  20291108.109 8 106630485.424 8      -348.461          51.000    20291111.359 8  83088696.349 8      -271.528          51.000
G31  24140837.648 5 126860962.628 5     -3336.340          32.000
R13  20369147.320 6 108770101.541 6     -3052.793          41.000    20369150.031 7  84598974.815 7     -2374.398          43.000
R22  23542960.336 5 125673918.854 5     -3497.727          32.000
R23  19538947.719 5 104520203.896 5     -1147.945          31.000
C11  23499953.844 4 122370389.432 4      1926.051          29.000
C12  21654543.078 8 112760968.600 8      -527.047          50.000    21654543.055 8  87193938.312 8      -407.564          51.000
C21  26009408.266 7 135437828.584 7      2972.770          42.000
C24  24358931.680 7 126843345.487 7     -3066.676          44.000
C25  23092810.953 4 120250427.291 4      -459.789          29.000
E02  25215023.367 8 132505823.838 8     -2650.715          51.000    25215025.070 8 101530439.571 8     -2031.169          50.000
E15  25628857.836 8 134680547.679 8      2269.785          49.000    25628863.062 8 103196849.560 8      1739.207          51.000
E30  22359024.859 8 117497483.997 8      -188.711          51.000    22359027.477 8  90030543.015 8      -144.585          51.000
E36  24976088.414 6 131250246.060 6     -2127.594          38.000    24976095.164 5 100568371.225 5     -1630.123          34.000
> 2020 05 13 14 00 30.0000000  0 18        .000000000000
G18  20618757.188 8 108352368.089 8     -1338.961          51.000    20618757.609 8  84430428.465 8     -1043.346          50.000
G20  22223600.766 8 116785834.647 8      2623.102          48.000    22223602.852 7  91001961.830 7      2043.975          43.000
G21  20978676.188 8 110243708.826 8     -1236.691          51.000    20978674.711 8  85904205.905 8      -963.656          50.000
G26  20293135.883 8 106641140.109 8      -363.875          51.000    20293138.859 8  83096998.689 8      -283.539          51.000
G29  23576086.602 5 123893152.213 5     -2820.660          34.000
G31  24159880.383 5 126961027.422 5     -3336.504          34.000    24159889.008 5  98930707.048 5     -2599.879          34.000
R13  20386341.117 6 108861913.199 6     -3070.297          39.000    20386343.898 7  84670383.799 7     -2388.012          43.000
R22  23562600.625 4 125778760.231 4     -3493.598          29.000
R23  19545406.719 4 104554766.017 4     -1157.863          28.000
R24  20092574.461 5 107444013.501 5      1480.891          31.000
C05  39618385.734 5 206303329.778 5         8.805          34.000
C12  21657589.164 8 112776829.670 8      -532.516          50.000    21657588.938 8  87206203.081 8      -411.781          51.000
C21  25992271.250 7 135348592.705 7      2974.074          44.000
C24  24376607.305 7 126935381.585 7     -3071.086          44.000
E02  25230165.328 8 132585392.306 8     -2655.992          51.000    25230167.133 8 101591407.571 8     -2035.156          51.000
E15  25615903.664 8 134612472.689 8      2266.312          49.000    25615908.305 8 103144688.251 8      1736.438          51.000
E30  22360127.984 8 117503280.340 8      -199.988          51.000    22360130.219 8  90034984.370 8      -153.247          51.000
E36  24988232.523 5 131314067.398 5     -2129.402          34.000    24988240.219 5 100617288.347 5     -1631.797          33.000
> 2020 05 13 14 01  0.0000000  0 15        .000000000000
G18  20626457.039 8 108392830.374 8     -1358.930          51.000    20626457.344 8  84461957.511 8     -1058.906          50.000
G20  22208672.125 8 116707383.831 8      2606.406          49.000    22208673.891 7  90940831.330 7      2030.966          43.000
G21  20985782.719 8 110281053.653 8     -1253.434          51.000    20985780.969 8  85933305.778 8      -976.702          50.000
G26  20295276.320 8 106652386.744 8      -386.336          51.000    20295278.898 8  83105762.293 8      -301.041          51.000
G31  24178948.367 5 127061229.048 5     -3344.250          35.000    24178952.523 5  99008786.115 5     -2605.906          32.000
R13  20403658.234 6 108954384.071 6     -3094.910          38.000    20403661.539 7  84742305.565 7     -2407.155          45.000
R24  20084319.492 5 107399855.136 5      1462.902          30.000
C05  39618349.977 5 206303143.745 5         3.340          35.000
C12  21660692.602 8 112792988.893 8      -545.219          50.000    21660691.992 8  87218698.416 8      -421.625          51.000
C21  25975153.344 7 135259455.824 7      2968.043          44.000
C24  24394333.344 7 127027680.591 7     -3082.504          44.000
E02  25245362.891 8 132665253.893 8     -2668.555          51.000    25245364.688 8 101652600.172 8     -2044.677          51.000
E15  25602995.219 8 134544638.064 8      2255.508          49.000    25602999.266 8 103092711.099 8      1728.285          51.000
E30  22361321.234 8 117509550.054 8      -218.512          51.000    22361322.875 8  90039788.433 8      -167.383          51.000
E36                                                                  25000417.797 5 100666325.230 5     -1638.133          32.000
> 2020 05 13 14 01 30.0000000  0 15        .000000000000
G18  20634250.031 8 108433782.663 8     -1371.121          51.000    20634250.305 8  84493868.393 8     -1068.406          50.000
G20  22193816.656 8 116629315.679 8      2598.008          50.000    22193817.766 7  90879999.031 7      2024.422          43.000
G21  20992962.758 8 110318784.680 8     -1261.965          51.000    20992960.820 8  85962706.576 8      -983.349          49.000
G26  20297523.484 8 106664194.152 8      -400.980          51.000    20297525.773 8  83114962.858 8      -312.452          51.000
G31  24198034.766 6 127161530.322 6     -3342.414          36.000    24198029.391 5  99086938.817 5     -2604.485          34.000
R13  20421091.625 6 109047479.222 6     -3111.812          36.000    20421096.289 7  84814712.902 7     -2420.299          46.000
R24  20076140.695 5 107356140.050 5      1452.051          31.000
C05  39618320.414 5 206302989.218 5         6.844          35.000
C12  21663847.164 8 112809414.468 8      -549.770          51.000    21663846.195 8  87231399.722 8      -425.129          51.000
C21  25958049.086 7 135170389.165 7      2969.844          45.000
C24  24412103.328 7 127120209.057 7     -3085.992          44.000
E02  25260609.633 8 132745375.884 8     -2672.891          51.000    25260611.922 8 101713992.293 8     -2048.017          51.000
E15  25590126.508 8 134477012.644 8      2252.906          50.000    25590130.102 8 103040894.238 8      1726.280          50.000
E30  22362598.617 8 117516261.984 8      -228.875          51.000    22362599.781 8  90044931.334 8      -175.366          51.000
E36                                                                  25012621.539 5 100715461.982 5     -1638.917          31.000
> 2020 05 13 14 02  0.0000000  0 17        .000000000000
G18  20642120.680 8 108475143.076 8     -1387.914          51.000    20642120.891 8  84526097.281 8     -1081.491          50.000
G20  22179019.414 8 116551553.021 8      2584.531          50.000    22179019.891 7  90819404.789 7      2013.923          44.000
G21  21000200.703 8 110356820.208 8     -1275.230          51.000    21000198.805 8  85992344.648 8      -993.686          49.000
G26  20299862.117 8 106676482.478 8      -419.984          51.000    20299864.250 8  83124538.167 8      -327.261          51.000
G31  24217123.227 5 127261838.549 5     -3345.867          35.000    24217112.945 5  99165028.925 5     -2607.175          34.000
R13  20438625.438 6 109141113.624 6     -3132.777          37.000    20438631.516 7  84887539.695 7     -2436.602          46.000
R14  20032910.289 6 106786690.093 6      1168.781          36.000
R24  20068031.281 4 107312771.003 4      1437.227          29.000
C05  39618282.047 5 206302789.880 5         5.242          35.000
C11  23455833.031 4 122140678.200 4      1900.066          28.000    23455826.023 4  94446890.927 4      1469.593          29.000
C12  21667037.445 8 112826026.461 8      -559.238          50.000    21667036.211 8  87244245.161 8      -432.390          51.000
C21  25940943.758 7 135081315.908 7      2966.918          45.000
C24  24429901.273 7 127212885.396 7     -3094.035          42.000
C25  23104185.805 5 120309543.249 5      -528.871          31.000
E02  25275890.164 8 132825676.927 8     -2682.094          50.000    25275893.242 8 101775521.619 8     -2055.066          51.000
E15  25577282.469 8 134409516.702 8      2245.293          51.000    25577285.820 8 102989176.602 8      1720.416          51.000
E30  22363944.914 8 117523336.419 8      -244.180          51.000    22363945.805 8  90050351.995 8      -187.153          51.000
> 2020 05 13 14 02 30.0000000  0 17        .000000000000
G18  20650082.188 8 108516981.167 8     -1402.504          51.000    20650082.438 8  84558698.390 8     -1092.860          50.000
G20  22164294.398 8 116474169.986 8      2573.211          50.000    22164294.242 7  90759106.352 7      2005.102          46.000
G21  21007509.828 8 110395229.768 8     -1286.375          51.000    21007508.164 8  86022274.183 8     -1002.370          49.000
G26  20302305.648 8 106689323.359 8      -437.340          51.000    20302307.766 8  83134544.037 8      -340.784          51.000
G31  24236226.508 5 127362227.070 5     -3347.211          35.000
R13  20456274.094 6 109235356.103 6     -3151.543          39.000    20456280.305 7  84960839.396 7     -2451.200          45.000
R14  20026400.391 5 106751991.305 5      1143.652          31.000
C05  39618248.172 5 206302613.400 5         5.836          35.000
C11                                                                  23444889.656 5  94402847.197 5      1465.346          32.000
C12  21670276.938 8 112842894.986 8      -566.555          51.000    21670275.562 8  87257288.988 8      -438.030          51.000
C21  25923851.398 7 134992309.308 7      2965.863          45.000
C24  24447740.258 6 127305778.099 6     -3099.980          39.000
C25  23107278.555 5 120325630.169 5      -545.062          34.000
E02  25291217.789 8 132906227.116 8     -2689.070          49.000    25291221.500 8 101837241.885 8     -2060.480          51.000
E15  25564477.000 8 134342221.878 8      2239.910          51.000    25564480.477 8 102937613.076 8      1716.274          51.000
E30  22365373.828 8 117530845.041 8      -257.469          51.000    22365374.531 8  90056105.341 8      -197.263          51.000
E36  25037079.680 6 131570744.589 6     -2146.551          36.000    25037075.984 5 100813929.287 5     -1644.945          30.000
> 2020 05 13 14 03  0.0000000  0 17        .000000000000
G18  20658130.383 8 108559274.888 8     -1417.852          51.000    20658130.758 8  84591654.555 8     -1104.816          51.000
G20  22149638.039 8 116397148.255 8      2560.867          51.000    22149637.305 7  90699089.461 7      1995.481          46.000
G21  21014885.938 8 110433991.312 8     -1298.391          51.000    21014884.195 8  86052477.998 8     -1011.733          49.000
G26  20304850.398 8 106702696.778 8      -455.070          51.000    20304852.555 8  83144964.877 8      -354.600          51.000
G31  24255340.680 5 127462674.761 5     -3349.828          31.000
R13  20474032.641 6 109330182.530 6     -3171.355          41.000    20474038.109 7  85034593.237 7     -2466.610          43.000
R14  20020028.859 5 106717963.710 5      1116.613          30.000    20020032.875 4  83002919.643 4       868.477          26.000
C05  39618215.039 5 206302440.864 5         5.215          35.000
C11                                                                  23433986.156 4  94358946.716 4      1460.580          28.000
C12  21673561.906 8 112859999.424 8      -574.457          51.000    21673560.305 8  87270515.233 8      -444.279          51.000
C21  25906768.664 7 134903351.829 7      2963.914          45.000
C24  24465615.922 6 127398864.795 6     -3106.809          36.000
C25  23110463.344 4 120342225.510 4      -562.777          29.000
E02  25306588.461 8 132987005.017 8     -2696.863          49.000    25306592.953 8 101899136.630 8     -2066.392          51.000
E15  25551705.984 8 134275108.283 8      2233.613          51.000    25551710.188 8 102886188.430 8      1711.404          51.000
E30  22366881.539 8 117538767.928 8      -271.516          51.000    22366882.289 8  90062176.121 8      -208.023          51.000
E36  25049343.859 6 131635191.213 6     -2150.613          36.000
> 2020 05 13 14 03 30.0000000  0 16        .000000000000
G18  20666271.273 8 108602055.308 8     -1425.383          51.000    20666271.727 8  84624989.945 8     -1110.688          50.000
G20  22135057.328 8 116320524.298 8      2556.086          51.000    22135055.906 7  90639382.513 7      1991.755          46.000
G21  21022334.977 8 110473136.333 8     -1302.586          51.000    21022333.086 8  86082980.606 8     -1015.002          48.000
G26  20307502.727 8 106716635.821 8      -465.492          51.000    20307504.961 8  83155826.467 8      -362.721          51.000
G29  23673078.758 5 124402816.247 5     -2834.492          33.000
R13  20491905.844 6 109425623.025 6     -3182.555          39.000    20491910.336 6  85108824.647 6     -2475.323          41.000
R24  20044190.328 5 107185260.153 5      1403.094          32.000    20044188.227 4  83366329.857 4      1091.292          27.000
C05  39618188.875 5 206302304.857 5        12.598          35.000
C11                                                                  23423126.086 5  94315216.007 5      1461.882          30.000
C12  21676898.227 8 112877371.694 8      -575.000          50.000    21676896.578 8  87283948.560 8      -444.611          51.000
C21  25889701.891 7 134814478.553 7      2969.723          46.000
C25  23113751.766 5 120359361.202 5      -571.477          33.000
E02  25322009.086 8 133068042.252 8     -2696.852          50.000    25322013.344 8 101961230.070 8     -2066.455          49.000
E15  25538975.727 8 134208209.120 8      2235.109          51.000    25538980.664 8 102834928.085 8      1712.556          51.000
E30  22368474.289 8 117547138.263 8      -277.773          51.000    22368475.266 8  90068589.756 8      -212.902          51.000
E36  25061635.430 6 131699780.805 6     -2146.582          36.000
> 2020 05 13 14 04  0.0000000  0 16        .000000000000
G18  20674470.219 8 108645141.572 8     -1446.945          50.000    20674470.695 8  84658563.643 8     -1127.490          49.000
G20  22120518.422 8 116244121.445 8      2537.445          51.000    22120516.836 7  90579847.867 7      1977.233          46.000
G21  21029822.508 8 110512483.709 8     -1320.672          51.000    21029820.797 8  86113640.902 8     -1029.095          49.000
G26  20310228.602 8 106730961.630 8      -489.578          51.000    20310231.352 8  83166989.429 8      -381.489          51.000
G29  23689284.664 5 124487973.198 5     -2842.738          33.000
R13  20509859.031 6 109521492.044 6     -3208.344          37.000    20509862.344 6  85183389.337 6     -2495.385          39.000
R14  20007733.016 5 106652483.981 5      1065.305          35.000    20007733.867 4  82951932.165 4       828.570          24.000
R24  20036378.750 5 107143465.859 5      1383.516          32.000    20036378.148 4  83333823.004 4      1076.065          27.000
C12  21680251.500 8 112894833.895 8      -589.195          50.000    21680250.078 8  87297451.439 8      -455.507          51.000
C21  25872617.195 7 134725514.682 7      2961.309          45.000
C24  24501464.438 5 127585549.234 5     -3118.242          35.000
C25  23117111.258 5 120376859.221 5      -594.824          33.000
E02  25337445.414 8 133149158.559 8     -2710.777          50.000    25337447.742 8 102023384.053 8     -2077.053          48.000
E15  25526251.977 8 134141345.650 8      2222.664          50.000    25526257.422 8 102783695.075 8      1703.122          51.000
E30  22370118.055 8 117555777.323 8      -297.992          51.000    22370119.328 8  90075209.290 8      -228.323          51.000
E36  25073919.578 6 131764333.271 6     -2156.965          37.000    25073953.648 5 100962417.136 5     -1652.778          32.000
> 2020 05 13 14 04 30.0000000  0 19        .000000000000
G18  20682779.156 8 108688805.590 8     -1463.641          50.000    20682779.492 8  84692587.545 8     -1140.499          49.000
G20  22106074.156 8 116168216.248 8      2523.266          51.000    22106073.211 7  90520701.036 7      1966.181          46.000
G21  21037400.312 8 110552305.570 8     -1333.836          50.000    21037398.680 8  86144670.928 8     -1039.353          49.000
G26  20313080.102 8 106745948.199 8      -509.203          51.000    20313083.375 8  83178667.256 8      -396.782          51.000
G29  23705535.203 5 124573419.541 5     -2848.145          32.000
R07  22908908.297 6 122633160.670 6       321.078          36.000
R13  20527943.133 6 109618064.223 6     -3229.160          37.000    20527947.141 6  85258500.961 6     -2511.569          40.000
R14  20001818.367 5 106620951.763 5      1037.480          30.000    20001822.078 4  82927419.043 4       806.932          26.000
R23  19599710.227 4 104845216.242 4     -1259.789          28.000
R24  20028657.328 4 107102236.985 4      1367.785          28.000    20028666.375 4  83301762.503 4      1063.839          27.000
C05  39618107.555 5 206301881.521 5         4.219          35.000
C11  23401477.156 5 121857627.642 5      1870.426          31.000
C12  21683673.922 8 112912656.655 8      -598.719          50.000    21683672.672 8  87311233.130 8      -462.874          51.000
C21  25855567.391 7 134636733.911 7      2957.723          43.000
C24  24519456.844 7 127679218.685 7     -3125.844          42.000
E02  25352948.742 8 133230626.465 8     -2719.949          50.000    25352949.328 8 102085807.439 8     -2084.093          49.000
E15  25513587.141 8 134074791.999 8      2214.836          51.000    25513592.625 8 102732699.471 8      1697.067          51.000
E30  22371865.250 8 117564959.186 8      -313.613          51.000    22371866.812 8  90082244.738 8      -240.304          51.000
E36  25086248.383 6 131829121.317 6     -2161.996          36.000
> 2020 05 13 14 05  0.0000000  0 19        .000000000000
G18  20691158.125 8 108732837.761 8     -1476.824          49.000    20691158.438 8  84726898.305 8     -1150.772          49.000
G20  22091685.391 8 116092603.652 8      2512.633          49.000    22091685.000 7  90461782.171 7      1957.896          45.000
G21  21045028.617 8 110592392.969 8     -1343.555          50.000    21045026.867 8  86175907.866 8     -1046.926          49.000
G26  20316017.930 8 106761387.808 8      -525.301          51.000    20316021.195 8  83190698.115 8      -409.325          51.000
G29  23721780.773 5 124658804.228 5     -2849.172          33.000
R07  22907158.914 5 122623792.653 5       298.344          34.000    22907160.625 4  95374077.478 4       232.045          29.000
R13  20546119.109 6 109715125.036 6     -3246.250          39.000    20546124.344 7  85333992.686 7     -2524.861          42.000
R14  19996036.328 5 106590131.043 5      1012.145          31.000    19996036.883 4  82903427.359 4       787.217          25.000
R24  20021008.984 5 107061315.999 5      1355.586          35.000    20021014.875 4  83269935.248 4      1054.345          26.000
C05  39618064.969 5 206301659.670 5         5.637          35.000
C11  23390704.969 5 121801528.438 5      1865.090          33.000    23390724.039 4  94184753.583 4      1442.266          29.000
C12  21687126.102 8 112930633.498 8      -604.719          51.000    21687124.820 8  87325133.970 8      -467.613          51.000
C21  25838513.906 7 134547933.018 7      2957.438          45.000
C24  24537466.867 6 127772993.716 6     -3130.465          41.000
C25  23124157.172 5 120413549.307 5      -628.375          31.000
E02  25368478.914 8 133312236.840 8     -2725.691          50.000    25368479.297 8 102148339.993 8     -2088.412          50.000
E15  25500941.867 8 134008340.620 8      2210.414          50.000    25500946.961 8 102681782.213 8      1693.706          50.000
E30  22373676.453 8 117574476.269 8      -325.742          51.000    22373678.289 8  90089537.046 8      -249.604          51.000
E36  25098581.898 5 131893936.083 5     -2163.609          33.000
> 2020 05 13 14 05 30.0000000  0 17        .000000000000
G18  20699641.969 8 108777421.589 8     -1491.719          49.000    20699642.414 8  84761638.967 8     -1162.378          49.000
G20  22077387.688 8 116017471.619 8      2499.984          49.000    22077388.172 7  90403237.751 7      1948.040          44.000
G21  21052742.414 8 110632929.209 8     -1355.035          51.000    21052740.656 8  86207494.537 8     -1055.872          49.000
G26  20319077.375 8 106777466.095 8      -543.004          51.000    20319080.383 8  83203226.650 8      -423.120          51.000
R07  22905567.164 5 122615283.129 5       272.754          35.000    22905569.203 4  95367459.084 4       212.142          27.000
R13  20564422.086 6 109812859.383 6     -3265.328          41.000    20564427.570 7  85410008.269 7     -2539.700          42.000
R14  19990424.188 5 106560207.050 5       985.793          30.000
C05  39618043.109 5 206301545.192 5         5.184          35.000
C11  23379988.531 4 121745718.487 4      1859.129          29.000
C12  21690643.172 8 112948947.710 8      -612.551          51.000    21690641.891 8  87339295.666 8      -473.615          51.000
C21  25821492.938 7 134459298.257 7      2955.211          46.000
C24  24555529.578 7 127867055.856 7     -3136.547          42.000
C25  23127840.930 5 120432716.938 5      -645.398          31.000
E02  25384071.117 8 133394173.900 8     -2733.039          50.000    25384072.258 8 102211122.891 8     -2094.132          51.000
E15  25488351.266 8 133942177.289 8      2204.223          50.000    25488355.891 8 102631085.671 8      1688.959          50.000
E30  22375586.812 8 117584514.323 8      -339.680          51.000    22375589.086 8  90097228.534 8      -260.268          51.000
E36  25110955.258 5 131958963.093 5     -2167.719          33.000    25110957.891 5 101111421.307 5     -1660.608          32.000
> 2020 05 13 14 06  0.0000000  0 16        .000000000000
G18  20708198.445 8 108822386.388 8     -1507.805          49.000    20708198.781 8  84796676.454 8     -1174.913          48.000
G20  22063149.797 8 115942653.845 8      2486.109          50.000    22063150.750 7  90344938.192 7      1937.228          44.000
G21  21060509.133 8 110673743.381 8     -1367.664          50.000    21060507.391 8  86239297.784 8     -1065.712          49.000
G26  20322226.273 8 106794014.245 8      -562.094          51.000    20322228.992 8  83216121.301 8      -437.998          51.000
R07  22904105.742 6 122607461.137 6       246.324          36.000    22904107.570 5  95361375.241 5       191.579          31.000
R13  20582818.477 6 109911091.307 6     -3285.344          41.000    20582822.984 6  85486410.858 6     -2555.270          41.000
R23  19621153.523 6 104959927.402 6     -1295.406          37.000
C05  39618009.977 5 206301372.617 5         4.754          35.000
C12  21694192.734 8 112967431.221 8      -621.543          51.000    21694191.695 8  87353588.295 8      -480.622          51.000
C21  25804472.336 7 134370664.693 7      2951.766          46.000
C24  24573615.367 6 127961235.373 6     -3143.852          41.000
C25  23131604.797 5 120452326.489 5      -663.852          34.000
E02  25399693.023 8 133476267.443 8     -2741.730          51.000    25399695.367 8 102274025.691 8     -2100.777          51.000
E15  25475783.180 8 133876133.363 8      2196.875          49.000    25475787.773 8 102580480.603 8      1683.248          50.000
E30  22377564.055 8 117594904.670 8      -354.871          51.000    22377566.992 8  90105189.945 8      -271.902          51.000
E36                                                                  25123338.156 5 101161277.920 5     -1664.631          33.000
> 2020 05 13 14 06 30.0000000  0 16        .000000000000
G18  20716842.438 8 108867810.855 8     -1520.934          48.000    20716842.656 8  84832072.145 8     -1185.143          48.000
G20  22048988.141 8 115868233.662 8      2474.918          51.000    22048988.867 7  90286948.459 7      1928.511          44.000
G21  21068343.789 8 110714914.850 8     -1377.484          51.000    21068341.945 8  86271379.455 8     -1073.364          48.000
G26  20325480.016 8 106811112.976 8      -578.234          51.000    20325482.633 8  83229444.961 8      -450.572          51.000
R07  22902788.758 5 122600409.371 5       223.348          35.000    22902792.445 5  95355890.569 5       173.718          35.000
R13  20601322.398 6 110009899.831 6     -3302.301          39.000    20601325.734 6  85563261.883 6     -2568.456          39.000
R23  19628447.250 6 104998938.817 6     -1305.875          37.000
C05  39617980.906 5 206301222.105 5         5.492          35.000
C12  21697790.031 8 112986163.465 8      -627.621          51.000    21697789.281 8  87368073.258 8      -485.365          51.000
C21  25787467.266 7 134282114.959 7      2951.129          46.000
C24  24591739.203 6 128055609.916 6     -3148.090          40.000
C25  23135469.977 6 120472457.036 6      -678.562          36.000
E02  25415360.055 8 133558596.788 8     -2747.371          51.000    25415363.242 8 102337109.185 8     -2105.137          51.000
E15  25463253.148 8 133810289.775 8      2192.344          50.000    25463258.180 8 102530029.023 8      1679.863          50.000
E30  22379623.469 8 117605728.193 8      -367.105          51.000    22379626.703 8  90113483.274 8      -281.289          51.000
E36                                                                  25135744.094 5 101211226.981 5     -1665.717          35.000
> 2020 05 13 14 07  0.0000000  0 19        .000000000000
G18  20725556.320 8 108913602.441 8     -1532.578          49.000    20725556.680 8  84867753.899 8     -1194.217          48.000
G20  22034885.641 8 115794123.213 8      2465.195          51.000    22034885.727 7  90229200.117 7      1920.934          43.000
G21  21076228.750 8 110756350.858 8     -1385.508          50.000    21076226.742 8  86303667.250 8     -1079.616          48.000
G26  20328821.422 8 106828671.676 8      -592.801          51.000    20328823.820 8  83243127.045 8      -461.923          51.000
G29  23786979.445 5 125001397.667 5     -2856.867          30.000
R07  22901598.680 5 122594036.594 5       201.211          35.000    22901603.219 6  95350934.066 6       156.503          36.000
R13  20619915.641 6 110109188.993 6     -3317.387          37.000    20619918.031 6  85640486.737 6     -2580.193          38.000
R14  19974452.148 5 106475076.388 5       909.574          33.000
R23  19635790.812 5 105038229.993 5     -1314.254          34.000
R24  19991206.414 6 106901960.433 6      1304.234          38.000    19991213.828 4  83146008.037 4      1014.405          26.000
C05  39617938.469 5 206301000.649 5         8.277          35.000
C12  21701417.727 8 113005053.979 8      -632.250          50.000    21701417.141 8  87382680.606 8      -488.905          51.000
C21  25770461.086 7 134193561.653 7      2951.961          44.000
C24  24609884.352 6 128150087.353 6     -3151.008          40.000
C25  23139418.492 5 120493018.194 5      -692.711          35.000
E02  25431054.719 8 133641070.030 8     -2751.477          51.000    25431058.227 8 102400302.931 8     -2108.256          51.000
E15  25450744.297 8 133744556.130 8      2189.355          50.000    25450749.500 8 102479661.692 8      1677.561          50.000
E30  22381748.188 8 117616894.451 8      -377.934          51.000    22381750.891 8  90122039.240 8      -289.526          51.000
E36                                                                  25148155.555 5 101261198.359 5     -1666.103          35.000
> 2020 05 13 14 07 30.0000000  0 20        .000000000000
G18  20734363.453 8 108959883.308 8     -1548.941          50.000    20734363.633 7  84903816.892 7     -1206.967          47.000
G20  22020866.289 8 115720448.986 8      2450.273          51.000    22020865.453 7  90171791.673 7      1909.307          44.000
G21  21084187.289 8 110798173.866 8     -1398.660          50.000    21084185.289 8  86336256.621 8     -1089.862          49.000
G26  20332274.102 8 106846814.417 8      -612.715          51.000    20332275.906 8  83257264.265 8      -477.437          51.000
G27  22585046.328 5 118685238.258 5      2597.570          34.000
G31  24427727.094 5 128368575.912 5     -3359.336          32.000    24427716.852 5 100027436.967 5     -2617.667          33.000
R07  22900559.789 6 122588469.756 6       174.152          37.000    22900563.117 5  95346604.332 5       135.452          31.000
R13  20638621.141 6 110209080.714 6     -3338.004          36.000    20638623.430 6  85718180.271 6     -2596.225          38.000
R14  19969420.344 5 106448282.945 5       881.102          33.000
R23  19643208.695 6 105077925.069 6     -1328.293          37.000
R24  19983945.102 6 106863133.723 6      1288.402          36.000    19983957.164 4  83115809.614 4      1002.097          26.000
C05  39617906.320 5 206300833.211 5         5.938          35.000
C12  21705099.219 8 113024224.999 8      -641.828          50.000    21705098.750 8  87397504.857 8      -496.341          51.000
C21  25753477.359 7 134105130.252 7      2947.488          43.000
C24  24628072.750 6 128244788.300 6     -3158.594          38.000
C25  23143472.828 5 120514132.104 5      -711.484          34.000
E02  25446800.008 8 133723809.804 8     -2760.602          51.000    25446803.695 8 102463700.899 8     -2115.233          51.000
E15  25438280.367 8 133679056.706 8      2181.207          51.000    25438285.477 8 102429473.834 8      1671.329          49.000
E30  22383961.859 8 117628527.585 8      -393.723          51.000    22383964.336 8  90130952.946 8      -301.711          51.000
E36                                                                  25160595.445 5 101311286.222 5     -1670.021          34.000
> 2020 05 13 14 08  0.0000000  0 18        .000000000000
G18  20743263.375 8 109006652.100 8     -1562.816          49.000    20743263.047 8  84940260.086 8     -1217.779          48.000
G20  22006930.469 8 115647214.144 8      2438.180          51.000    22006929.461 7  90114725.636 7      1899.883          44.000
G21  21092219.320 8 110840382.670 8     -1409.094          50.000    21092217.438 8  86369146.601 8     -1097.995          48.000
G26  20335838.031 8 106865541.837 8      -629.613          51.000    20335839.938 8  83271857.040 8      -490.608          51.000
G31  24446927.055 4 128469467.602 4     -3360.426          29.000    24446916.289 4 100106050.615 4     -2618.508          28.000
R07  22899671.828 5 122583710.344 5       148.883          33.000    22899672.828 4  95342902.502 4       115.795          29.000
R13  20657439.688 6 110309572.142 6     -3355.031          38.000    20657442.539 6  85796340.219 6     -2609.472          40.000
R23  19650703.438 6 105118022.846 6     -1338.676          36.000
R24  19976768.969 5 106824769.632 5      1275.668          35.000
C05  39617884.680 5 206300720.365 5         6.949          35.000
C12  21708834.688 8 113043676.575 8      -648.781          50.000    21708834.102 8  87412546.037 8      -501.712          51.000
C21  25736517.695 7 134016823.813 7      2945.820          44.000
C24  24646303.664 6 128339711.113 6     -3163.754          39.000
C25  23147633.508 5 120535798.684 5      -727.004          30.000
E02  25462595.531 8 133806815.473 8     -2767.016          51.000    25462599.516 8 102527302.606 8     -2120.205          51.000
E15  25425861.211 8 133613792.365 8      2175.777          50.000    25425866.195 8 102379466.117 8      1667.151          49.000
E30  22386264.617 8 117640628.423 8      -406.906          51.000    22386267.086 8  90140224.993 8      -311.752          51.000
E36                                                                  25173064.242 5 101361490.226 5     -1672.176          35.000
> 2020 05 13 14 08 30.0000000  0 18        .000000000000
G18  20752225.359 8 109053747.281 8     -1582.105          49.000    20752225.094 8  84976957.642 8     -1232.809          48.000
G20  21993048.156 8 115574261.566 8      2420.184          51.000    21993047.055 7  90057879.508 7      1885.860          44.000
G21  21100294.031 8 110882816.125 8     -1424.984          48.000    21100292.109 8  86402211.622 8     -1110.377          48.000
G26  20339482.867 8 106884694.334 8      -652.340          51.000    20339484.906 8  83286781.044 8      -508.317          51.000
G31  24466108.453 4 128570267.448 4     -3365.500          29.000    24466096.664 4 100184600.384 4     -2622.483          29.000
R13  20676340.344 6 110410497.945 6     -3378.551          39.000    20676343.844 7  85874838.016 7     -2627.762          42.000
R14  19959820.656 5 106397065.576 5       822.410          33.000    19959816.609 4  82753268.094 4       639.652          29.000
R23  19658244.523 6 105158359.398 6     -1355.496          39.000
R24  19969649.641 5 106786705.279 5      1256.711          32.000
C05  39617843.242 5 206300503.930 5         1.969          35.000
C11  23316352.680 5 121414318.632 5      1819.344          32.000
C12  21712593.695 8 113063249.990 8      -661.215          51.000    21712592.836 8  87427681.450 8      -511.323          51.000
C21  25719553.562 7 133928486.768 7      2938.195          45.000
C24  24664545.992 6 128434695.307 6     -3174.348          38.000
E02  25478410.586 8 133889926.017 8     -2778.918          50.000    25478414.969 8 102590984.695 8     -2129.313          51.000
E15  25413456.320 8 133548603.735 8      2164.867          50.000    25413461.250 8 102329516.431 8      1658.812          49.000
E30  22388626.133 8 117653037.584 8      -425.594          51.000    22388628.180 8  90149733.282 8      -326.122          51.000
E36                                                                  25185530.492 6 101411687.251 6     -1678.381          36.000
> 2020 05 13 14 09  0.0000000  0 18        .000000000000
G18  20761288.445 8 109101373.883 8     -1592.898          49.000    20761288.539 8  85014069.268 8     -1241.220          48.000
G20  21979259.234 8 115501800.949 8      2410.566          51.000    21979258.477 7  90001416.721 7      1878.363          45.000
G21  21108450.516 8 110925679.401 8     -1432.461          48.000    21108448.664 7  86435611.570 7     -1116.203          47.000
G26  20343247.930 8 106904478.791 8      -666.547          51.000    20343249.961 8  83302197.500 8      -519.387          51.000
G31  24485314.234 4 128671194.527 4     -3363.320          29.000    24485302.234 4 100263245.581 4     -2620.778          27.000
R13  20695360.719 6 110512064.192 6     -3392.688          39.000    20695365.172 7  85953833.951 7     -2638.757          42.000
R17  23521409.836 6 125867822.095 6      3225.719          38.000    23521411.539 4  97897189.533 4      2508.892          26.000
R23  19665869.836 6 105199143.545 6     -1363.836          38.000    19665886.484 4  81821615.690 4     -1060.761          25.000
C05  39617821.445 5 206300391.043 5         5.680          35.000
C11  23305871.008 5 121359776.601 5      1816.363          30.000
C12  21716415.414 8 113083149.696 8      -665.418          51.000    21716414.336 8  87443069.159 8      -514.480          51.000
C21  25702624.188 7 133840326.699 7      2939.059          47.000
C24  24682836.820 6 128529943.734 6     -3176.238          38.000
C25  23156215.328 5 120580484.789 5      -761.371          30.000
E02  25494284.438 8 133973347.090 8     -2782.488          49.000    25494289.336 8 102654904.732 8     -2132.051          51.000
E15  25401105.367 8 133483698.050 8      2162.145          50.000    25401110.055 8 102279783.543 8      1656.726          49.000
E30  22391085.727 8 117665962.113 8      -435.945          51.000    22391087.141 8  90159636.469 8      -334.111          51.000
E36  25198028.117 5 132416533.688 5     -2189.926          34.000    25198033.594 6 101462035.072 6     -1678.405          36.000
> 2020 05 13 14 09 30.0000000  0 17        .000000000000
G18  20770435.406 8 109149441.626 8     -1608.422          48.000    20770435.250 8  85051524.638 8     -1253.319          48.000
G20  21965547.562 8 115429746.461 8      2396.438          50.000    21965547.109 7  89945270.379 7      1867.354          46.000
G21  21116671.422 8 110968881.746 8     -1444.516          48.000    21116670.055 8  86469275.738 8     -1125.597          48.000
G26  20347116.461 8 106924807.003 8      -685.434          51.000    20347118.328 8  83318037.665 8      -534.104          51.000
G31  24504523.758 5 128772141.300 5     -3363.977          30.000
R13  20714483.898 6 110614176.983 6     -3411.391          40.000    20714488.016 6  86033254.991 6     -2653.307          41.000
R17  23503353.141 6 125771200.139 6      3219.176          40.000    23503352.477 4  97822039.825 4      2503.819          25.000
R23  19673561.703 5 105240283.070 5     -1375.820          34.000
C05  39617802.445 5 206300292.151 5         4.520          35.000
C12  21720282.891 8 113103287.505 8      -674.031          51.000    21720281.781 8  87458640.974 8      -521.131          51.000
C21  25685712.438 7 133752258.540 7      2935.223          47.000
C24  24701160.305 6 128625366.434 6     -3182.207          40.000
C25  23160666.570 5 120603652.988 5      -780.098          32.000
E02  25510200.352 8 134056988.985 8     -2790.379          49.000    25510205.695 8 102718993.959 8     -2138.112          51.000
E15  25388791.289 8 133418987.133 8      2155.016          50.000    25388795.633 8 102230199.914 8      1651.261          48.000
E30  22393626.797 8 117679313.762 8      -450.930          51.000    22393627.727 8  90169866.925 8      -345.530          51.000
E36  25210552.750 5 132482346.351 5     -2194.531          34.000    25210557.469 5 101512465.200 5     -1681.440          35.000
> 2020 05 13 14 10  0.0000000  0 18        .000000000000
G18  20779650.484 8 109197867.699 8     -1621.492          48.000    20779650.328 8  85089259.230 8     -1263.500          48.000
G20  21951898.133 8 115358019.725 8      2384.117          48.000    21951898.531 7  89889379.424 7      1857.754          47.000
G21  21124941.281 8 111012340.958 8     -1454.246          48.000    21124940.070 8  86503140.052 8     -1133.179          48.000
G26  20351072.875 8 106945597.737 8      -702.023          51.000    20351074.875 8  83334238.229 8      -547.031          51.000
G31  24523710.383 5 128872985.313 5     -3363.840          31.000
R07  22897480.430 5 122572003.886 5        47.547          30.000
R13  20733693.430 6 110716750.491 6     -3427.949          40.000    20733696.461 6  86113034.339 6     -2666.183          40.000
R17  23485312.984 6 125674668.528 6      3214.902          38.000
R23  19681302.461 6 105281694.240 6     -1385.977          37.000
C05  39617770.688 5 206300127.144 5         5.816          35.000
C12  21724180.461 8 113123582.884 8      -680.453          51.000    21724179.648 8  87474334.639 8      -526.115          51.000
C21  25668803.203 7 133664204.806 7      2933.566          47.000
C24  24719501.375 6 128720881.018 6     -3186.641          41.000
C25  23165200.898 5 120627250.028 5      -795.328          33.000
E02  25526143.250 8 134140769.577 8     -2796.254          51.000    25526148.273 8 102783189.436 8     -2142.590          50.000
E15  25376498.781 8 133354390.479 8      2149.977          48.000    25376502.641 7 102180703.834 7      1647.394          47.000
E30  22396233.750 8 117693011.884 8      -463.668          51.000    22396234.656 8  90180362.880 8      -355.266          51.000
E36  25223082.898 5 132548194.519 5     -2196.438          32.000    25223086.656 5 101562914.865 5     -1682.814          34.000
> 2020 05 13 14 10 30.0000000  0 17        .000000000000
G18  20788948.938 8 109246731.513 8     -1636.461          48.000    20788949.258 8  85127334.913 8     -1275.164          48.000
G20  21938326.508 7 115286704.647 7      2369.895          46.000    21938327.898 7  89833809.259 7      1846.671          46.000
G21  21133275.344 8 111056136.704 8     -1465.836          48.000    21133274.117 8  86537266.587 8     -1142.210          48.000
G26  20355132.672 8 106966932.437 8      -720.625          51.000    20355134.992 8  83350862.657 8      -561.526          51.000
R13  20753003.461 6 110819863.942 6     -3446.309          39.000    20753005.422 6  86193233.649 6     -2680.465          39.000
R17  23467303.461 5 125578310.712 5      3208.812          35.000    23467310.875 4  97672018.772 4      2495.749          27.000
R23  19689110.609 5 105323458.510 5     -1398.477          33.000
R24  19941999.602 5 106638836.250 5      1205.078          35.000    19942004.203 4  82941332.836 4       937.283          26.000
C05  39617741.805 5 206299976.705 5         4.266          35.000
C12  21728123.359 8 113144115.653 8      -688.730          51.000    21728123.039 8  87490211.877 8      -532.492          51.000
C21  25651912.219 7 133576248.654 7      2929.770          47.000
C24  24737875.055 7 128816565.772 7     -3192.590          42.000
C25  23169831.469 5 120651355.709 5      -812.961          31.000
E02  25542128.453 8 134224768.835 8     -2803.922          51.000    25542132.086 8 102847552.441 8     -2148.451          49.000
E15  25364243.258 8 133289989.575 8      2143.164          48.000    25364247.070 7 102131357.742 7      1642.177          47.000
E30  22398921.938 8 117707137.930 8      -478.324          51.000    22398923.023 8  90191186.731 8      -366.478          51.000
E36                                                                  25235635.648 5 101613445.660 5     -1685.762          32.000
> 2020 05 13 14 11  0.0000000  0 20        .000000000000
G10  24104801.508 6 126671601.040 6      3466.398          38.000    24104802.984 6  98705127.424 6      2701.099          36.000
G18  20798323.492 8 109295995.199 8     -1653.305          48.000    20798323.914 8  85165722.192 8     -1288.292          48.000
G20  21924826.688 7 115215767.904 7      2353.832          45.000    21924829.141 7  89778533.859 7      1834.155          45.000
G21  21141666.312 8 111100231.296 8     -1479.172          49.000    21141665.219 8  86571626.011 8     -1152.601          49.000
G26  20359289.047 8 106988775.112 8      -741.027          51.000    20359291.555 8  83367882.913 8      -577.424          51.000
R07  22897244.852 5 122570723.306 5        -6.719          33.000    22897244.539 5  95332798.420 5        -5.226          31.000
R13  20772406.266 6 110923476.593 6     -3466.574          38.000    20772408.445 6  86273821.238 6     -2696.224          40.000
R14  19938476.516 5 106283281.268 5       688.117          34.000    19938473.656 5  82664779.531 5       535.202          32.000
R17  23449320.250 5 125482090.887 5      3200.500          32.000    23449331.258 4  97597181.236 4      2489.287          25.000
R23  19696973.867 5 105365538.732 5     -1412.293          32.000    19696982.180 4  81950999.757 4     -1098.450          25.000
R24  19935273.312 5 106602841.278 5      1188.434          31.000    19935278.086 4  82913352.559 4       924.328          26.000
C05  39617708.625 5 206299804.123 5         2.027          35.000
C12  21732105.055 8 113164849.749 8      -698.809          51.000    21732104.867 8  87506244.793 8      -540.535          51.000
C21  25635033.414 7 133488357.039 7      2924.203          47.000
C24  24756274.461 7 128912382.851 7     -3200.434          42.000
C25  23174553.438 5 120675933.790 5      -831.301          34.000
E02  25558148.289 8 134308949.505 8     -2813.504          51.000    25558150.211 8 102912054.414 8     -2155.799          48.000
E15  25352018.594 8 133225748.781 8      2134.250          49.000    25352022.156 7 102082134.322 7      1635.325          47.000
E30  22401684.617 8 117721656.048 8      -494.910          51.000    22401686.000 8  90202311.003 8      -379.235          51.000
E36                                                                  25248198.016 5 101664030.261 5     -1690.617          32.000
> 2020 05 13 14 11 30.0000000  0 19        .000000000000
G10  24084997.758 6 126567537.841 6      3465.633          38.000    24084995.164 5  98624039.367 5      2700.496          31.000
G18  20807779.195 8 109345684.641 8     -1665.039          48.000    20807779.352 8  85204441.205 8     -1297.436          48.000
G20  21911404.844 7 115145239.811 7      2342.473          47.000    21911407.938 7  89723576.903 7      1825.300          46.000
G21  21150119.156 8 111144650.982 8     -1487.699          50.000    21150118.164 8  86606238.749 8     -1159.246          49.000
G26  20363547.359 8 107011153.481 8      -756.387          51.000    20363550.156 8  83385320.585 8      -589.392          51.000
R07  22897328.742 5 122571177.437 5       -29.070          32.000    22897331.594 5  95333154.530 5       -22.610          32.000
R13  20791907.711 6 111027613.233 6     -3481.707          39.000    20791909.828 6  86354816.377 6     -2707.997          41.000
R14  19934664.367 5 106262923.761 5       664.000          31.000    19934656.336 5  82648945.865 5       516.444          32.000
R17  23431369.625 5 125386037.817 5      3197.348          31.000
R23  19704907.242 6 105407986.956 6     -1421.285          38.000
C05  39617676.766 5 206299638.098 5         3.988          35.000
C11  23253983.961 5 121089584.383 5      1785.070          33.000
C12  21736130.844 8 113185812.187 8      -704.098          51.000    21736130.250 8  87522454.264 8      -544.541          51.000
C21  25618172.578 8 133400560.088 8      2923.398          48.000
C24  24774704.680 7 129008357.511 7     -3203.434          43.000
C25  23179371.734 6 120701010.867 6      -845.711          37.000
E02  25574207.781 8 134393338.064 8     -2818.008          51.000    25574208.133 8 102976715.672 8     -2159.286          48.000
E15  25339829.914 8 133161696.060 8      2130.383          50.000    25339833.383 8 102033055.005 8      1632.332          48.000
E30  22404527.305 8 117736594.195 8      -506.555          51.000    22404529.195 8  90213757.106 8      -388.127          51.000
> 2020 05 13 14 12  0.0000000  0 18        .000000000000
G10  24065210.711 6 126463562.204 6      3463.395          38.000    24065206.125 5  98543019.561 5      2698.758          34.000
G18  20817316.258 7 109395802.099 7     -1678.488          47.000    20817316.625 7  85243493.784 7     -1307.910          47.000
G20  21898063.164 8 115075127.479 8      2329.379          50.000    21898065.867 7  89668943.899 7      1815.100          45.000
G21  21158634.406 8 111189398.230 8     -1497.672          50.000    21158633.344 8  86641106.713 8     -1167.017          49.000
G26  20367908.430 8 107034071.704 8      -773.652          51.000    20367911.602 8  83403178.917 8      -602.846          51.000
R13  20811508.062 6 111132274.703 6     -3498.043          40.000    20811509.828 7  86436219.695 7     -2720.703          42.000
R17  23413463.547 5 125290145.735 5      3192.840          30.000
R23  19712902.727 5 105450749.630 5     -1431.535          34.000
R24  19922037.164 5 106532069.075 5      1163.949          32.000
C05  39617646.898 5 206299482.829 5         4.422          35.000
C12  21740201.195 8 113207006.701 8      -711.051          51.000    21740200.141 8  87538843.183 8      -549.881          51.000
C21  25601331.109 7 133312864.566 7      2920.777          46.000
C24  24793165.945 7 129104491.792 7     -3207.910          43.000
C25  23184286.320 6 120726590.316 6      -862.121          36.000
E02  25590307.242 8 134477937.436 8     -2824.277          51.000    25590306.953 8 103041538.474 8     -2164.021          49.000
E15  25327677.984 8 133097836.032 8      2124.648          50.000    25327681.656 8 101984123.341 8      1627.974          48.000
E30  22407450.789 8 117751956.765 8      -519.906          51.000    22407453.125 8  90225528.426 8      -398.397          51.000
E36                                                                  25273378.227 5 101765420.009 5     -1692.940          30.000
> 2020 05 13 14 12 30.0000000  0 19        .000000000000
G10  24045447.500 6 126359710.528 6      3461.438          40.000    24045441.672 5  98462096.348 5      2697.227          31.000
G18  20826940.695 8 109446379.160 8     -1691.852          48.000    20826941.234 8  85282904.481 8     -1318.326          48.000
G20  21884807.836 8 115005466.683 8      2315.965          51.000    21884809.383 7  89614662.771 7      1804.648          43.000
G21  21167217.977 8 111234504.631 8     -1507.867          49.000    21167216.922 8  86676254.560 8     -1174.961          49.000
G26  20372378.594 8 107057563.155 8      -791.020          51.000    20372381.750 8  83421483.923 8      -616.382          51.000
R07  22897922.734 4 122574346.375 4       -80.113          29.000
R13  20831212.117 6 111237490.826 6     -3514.820          40.000    20831214.086 7  86518054.390 7     -2733.752          43.000
R14  19927489.820 5 106224699.576 5       609.645          33.000    19927486.914 5  82619227.179 5       474.174          30.000
R17  23395578.672 5 125194470.902 5      3187.242          31.000
R23  19720963.922 6 105493887.823 6     -1442.609          36.000    19720970.078 4  82050807.036 4     -1122.030          25.000
R24  19915546.000 5 106497347.441 5      1150.727          31.000
C05  39617625.492 5 206299370.606 5         4.668          35.000
C12  21744322.250 8 113228465.873 8      -718.055          51.000    21744321.102 8  87555436.770 8      -555.345          51.000
C21  25584515.734 7 133225306.228 7      2917.844          46.000
C24  24811663.969 7 129200816.511 7     -3212.422          43.000
C25  23189301.672 6 120752704.536 6      -877.855          37.000
E02  25606452.492 8 134562779.735 8     -2830.555          50.000    25606452.555 8 103106547.434 8     -2168.834          51.000
E15  25315569.047 8 133034202.423 8      2118.922          50.000    25315572.625 8 101935365.146 8      1623.604          48.000
E30  22410461.320 8 117767777.321 8      -533.434          51.000    22410463.805 8  90237650.662 8      -408.744          51.000
> 2020 05 13 14 13  0.0000000  0 19        .000000000000
G10  24025688.969 6 126255881.381 6      3460.930          39.000    24025685.023 5  98381190.655 5      2696.837          31.000
G18  20836632.461 8 109497309.547 8     -1703.113          48.000    20836632.742 8  85322590.495 8     -1327.098          48.000
G20  21871619.336 8 114936155.362 8      2305.074          51.000    21871618.797 7  89560653.966 7      1796.162          42.000
G21  21175849.586 8 111279864.173 8     -1515.621          49.000    21175848.641 8  86711599.668 8     -1181.003          49.000
G26  20376937.906 8 107081523.317 8      -805.992          51.000    20376940.797 8  83440154.177 8      -628.046          51.000
R07  22898445.047 5 122577113.039 5      -102.160          34.000    22898447.812 4  95337802.025 4       -79.461          27.000
R13  20850998.828 6 111343151.924 6     -3528.914          38.000    20851002.008 7  86600235.184 7     -2744.714          44.000
R14  19924123.570 5 106206770.049 5       585.566          32.000
R17  23377719.820 4 125098896.645 4      3185.711          28.000
R23  19729077.930 5 105537250.800 5     -1450.953          35.000
R24  19909115.922 5 106462967.371 5      1140.609          34.000    19909113.523 4  82804576.210 4       887.147          25.000
C05  39617592.633 5 206299199.974 5         7.242          35.000
C12  21748473.992 8 113250085.735 8      -722.824          50.000    21748473.070 8  87572154.614 8      -558.991          51.000
C21  25567707.523 7 133137784.267 7      2917.164          47.000
C24  24830178.648 7 129297226.010 7     -3214.586          43.000
C25  23194399.305 6 120779249.265 6      -891.379          38.000
E02  25622623.539 7 134647759.265 7     -2834.426          47.000    25622624.430 8 103171661.584 8     -2171.857          51.000
E15  25303483.383 8 132970691.054 8      2115.516          50.000    25303486.758 8 101886700.636 8      1620.884          48.000
E30  22413539.117 8 117783951.612 8      -544.617          51.000    22413541.555 8  90250043.954 8      -417.322          51.000
> 2020 05 13 14 13 30.0000000  0 21        .000000000000
G10  24005956.438 6 126152188.716 6      3455.660          38.000    24005953.758 4  98300391.298 4      2692.716          29.000
G18  20846412.156 8 109548702.416 8     -1719.727          48.000    20846412.297 8  85362636.884 8     -1340.047          48.000
G20  21858519.039 8 114867307.628 8      2288.504          51.000    21858516.227 6  89507006.429 6      1783.250          41.000
G21  21184550.250 8 111325586.089 8     -1528.762          50.000    21184549.227 8  86747227.129 8     -1191.243          50.000
G26  20381607.594 8 107106063.250 8      -826.367          51.000    20381610.367 8  83459276.183 8      -643.922          51.000
G29  24000641.680 5 126124223.005 5     -2897.340          33.000
R07  22899108.523 6 122580657.169 6      -129.895          37.000    22899109.555 4  95340536.238 4      -101.029          29.000
R13  20870888.367 6 111449366.632 6     -3548.535          37.000    20870893.227 7  86682846.603 7     -2759.972          45.000
R14  19920921.992 5 106189685.421 5       556.082          30.000    19920915.891 4  82591981.054 4       432.508          25.000
R17  23359898.875 5 125003537.316 5      3176.961          33.000
R23  19737264.484 5 105581035.723 5     -1464.090          34.000
R24  19902771.805 4 106429042.214 4      1124.426          29.000
C05  39617569.625 5 206299080.181 5         4.543          35.000
C12  21752677.570 8 113271976.044 8      -732.863          50.000    21752676.898 8  87589081.592 8      -566.699          51.000
C21  25550928.023 7 133050411.444 7      2911.211          47.000
C24  24848730.164 7 129393828.233 7     -3222.098          43.000
C25  23199600.258 6 120806333.735 6      -910.242          39.000
E02  25638840.070 7 134732985.792 7     -2843.652          44.000    25638843.102 8 103236965.056 8     -2178.926          51.000
E15  25291442.320 8 132907413.374 8      2106.684          50.000    25291444.992 7 101838215.166 7      1614.131          47.000
E30  22416705.258 8 117800590.859 8      -561.070          51.000    22416707.875 8  90262793.501 8      -429.929          51.000
E36  25311280.867 5 133011678.928 5     -2218.066          32.000
> 2020 05 13 14 14  0.0000000  0 20        .000000000000
G10  23986226.320 6 126048508.462 6      3445.434          38.000    23986225.859 5  98219601.574 5      2684.753          35.000
G18  20856255.453 8 109600428.775 8     -1739.863          49.000    20856255.516 8  85402943.126 8     -1355.738          48.000
G20  21845483.000 8 114798798.590 8      2267.820          51.000    21845478.523 7  89453622.841 7      1767.136          42.000
G21  21193295.445 8 111371541.926 8     -1545.887          50.000    21193294.422 8  86783036.860 8     -1204.587          50.000
G26  20386363.477 8 107131055.678 8      -850.645          51.000    20386366.031 8  83478750.778 8      -662.843          51.000
R07  22899892.469 4 122584886.840 4      -162.520          28.000    22899894.664 5  95343771.005 5      -126.404          30.000
R13  20890856.828 6 111556002.416 6     -3571.539          38.000    20890863.078 7  86765785.532 7     -2777.864          45.000
R14  19917860.656 5 106173366.278 5       521.426          33.000
R17  23342093.266 5 124908263.818 5      3163.812          32.000
R23  19745492.422 5 105625068.799 5     -1482.410          35.000
R24  19896487.289 4 106395432.633 4      1104.418          29.000    19896485.891 5  82752010.283 5       858.986          30.000
C05  39617532.211 5 206298885.768 5        -1.402          35.000
C11  23202979.414 4 120823983.044 4      1748.070          29.000    23202971.836 6  93428760.941 6      1352.112          36.000
C12  21756908.883 8 113294010.236 8      -746.906          50.000    21756908.172 8  87606119.831 8      -577.519          51.000
C21  25534153.648 7 132963064.475 7      2900.992          47.000
C24  24867294.203 7 129490494.966 7     -3233.336          42.000
C25  23204879.898 6 120833831.185 6      -933.441          38.000
