     3.02           OBSERVATION DATA    M (MIXED)           RINEX VERSION / TYPE
SAVERINEX           SC600               20200517 105931 LCL PGM / RUN BY / DATE
       G = GPS       R = GLONASS       C = COMPASS          COMMENT
       S = SBAS      J = QZSS          E = GALILEO          COMMENT
BEAN                                                        MARKER NAME
1                                                           MARKER NUMBER
GEODETIC                                                    MARKER TYPE
Unige DICCA         GTER                                    OBSERVER / AGENCY
SC60291900056       SC600               2.12(191202)        REC # / TYPE / VERS
                    HEMA45          NONE                    ANT # / TYPE
  4509407.8091   693652.4678  4442337.6214                  APPROX POSITION XYZ
        0.0000        0.0000        0.0000                  ANTENNA: DELTA H/E/N
G    8 C1C L1C D1C S1C C2Y L2Y D2Y S2Y                      SYS / # / OBS TYPES
R    8 C1C L1C D1C S1C C2P L2P D2P S2P                      SYS / # / OBS TYPES
C    8 C1I L1I D1I S1I C7I L7I D7I S7I                      SYS / # / OBS TYPES
E    8 C1C L1C D1C S1C C7Q L7Q D7Q S7Q                      SYS / # / OBS TYPES
DBHZ                                                        COMMENT
     30.000                                                 INTERVAL
  2020    05    17    08    00    0.0000000     GPS         TIME OF FIRST OBS
  2020    05    17    08    59   30.0000000     GPS         TIME OF LAST OBS
     0                                                      RCV CLOCK OFFS APPL
G L1C  0.00000                                              SYS / PHASE SHIFT
G L2Y  0.00000                                              SYS / PHASE SHIFT
R L1C  0.00000                                              SYS / PHASE SHIFT
R L2P  0.25000                                              SYS / PHASE SHIFT
C L1I  0.00000                                              SYS / PHASE SHIFT
C L7I  0.00000                                              SYS / PHASE SHIFT
E L1C  0.50000                                              SYS / PHASE SHIFT
E L7Q -0.25000                                              SYS / PHASE SHIFT
 13 R02 -4 R03  5 R04  6 R05  1 R10 -5 R12 -1 R13 -2 R14 -7 GLONASS SLOT / FRQ #
    R15  0 R17  4 R18 -3 R22 -3 R23  3                      GLONASS SLOT / FRQ #
 C1C   71.950 C2C   71.950 C2P   71.950                     GLONASS COD/PHS/BIS
    18                                                      LEAP SECONDS
*** Above antenna height is from mark to ANTENNA BOTTOM.    COMMENT
    17     4        0.0000        ANT MEASURE TYPE/HEIGT    COMMENT
    0.0000    0.0000    0.0458    0.0405    0.0000          COMMENT
                    BASE STATION                            COMMENT
                                                            END OF HEADER
> 2020 05 17 08 00  0.0000000  0 14        .000000000000
G12  20142131.156 7 105847642.400 7       647.715          47.000    20142129.555 7  82478666.390 7       504.713          47.000
G24  20382465.422 8 107110590.748 8     -1065.773          51.000    20382466.609 8  83462788.504 8      -830.473          51.000
R05  21280312.508 5 113755469.083 5     -1894.230          34.000
R14  20152569.906 7 107424541.732 7     -1376.754          47.000    20152573.336 7  83552430.123 7     -1070.809          45.000
R15  20231312.602 5 108110024.769 5      1635.539          31.000
R17  21893761.609 7 117157953.960 7      4069.133          46.000    21893763.484 7  91122903.994 7      3164.881          44.000
R23  21806359.102 5 116649241.962 5     -2222.875          33.000
R24  20656415.594 7 110459196.345 7       843.734          43.000    20656423.016 5  85912661.492 5       656.238          32.000
C11  22928869.555 8 119396664.271 8      1228.492          50.000    22928869.930 8  92325140.117 8       949.924          51.000
C23  22180821.688 5 115501380.332 5       999.805          30.000
C25  22776151.203 7 118601380.564 7     -1545.273          42.000
E09  23460793.391 8 123287308.306 8     -2255.117          50.000    23460798.000 8  94466889.127 8     -1727.956          51.000
E31  23631874.062 8 124186372.126 8      -485.672          51.000    23631877.398 8  95155803.919 8      -372.222          51.000
E33  26059847.719 6 136945432.081 6      2106.184          39.000
> 2020 05 17 08 00 30.0000000  0 14        .000000000000
G12  20138516.094 8 105828644.726 8       614.266          49.000    20138513.977 8  82463863.012 8       478.649          49.000
G24  20388632.477 8 107142999.609 8     -1099.496          51.000    20388633.789 8  83488042.156 8      -856.750          51.000
G25  21577377.070 5 113389921.423 5      2320.582          32.000    21577392.398 5  88355757.734 5      1808.246          31.000
R05  21291050.914 5 113812916.978 5     -1937.082          33.000
R14  20160387.469 7 107466213.162 7     -1406.199          47.000    20160390.789 7  83584841.253 7     -1093.711          44.000
R17  21871021.523 7 117036269.787 7      4038.406          44.000    21871024.883 7  91028260.722 7      3140.983          44.000
R23  21818940.453 5 116716521.129 5     -2267.086          34.000
R24  20651799.375 6 110434514.252 6       796.789          41.000    20651804.031 6  85893464.279 6       619.728          36.000
C11  22921881.703 8 119360276.595 8      1192.660          51.000    22921881.742 8  92297002.867 8       922.316          51.000
C23  22175128.414 5 115471710.563 5       972.770          33.000
C25  22785117.930 6 118648074.124 6     -1572.449          38.000
E09  23473736.094 8 123355323.707 8     -2283.926          51.000    23473741.141 8  94519004.820 8     -1750.009          51.000
E31  23634704.508 8 124201245.308 8      -510.520          51.000    23634707.844 8  95167200.249 8      -391.126          51.000
E33  26047895.633 6 136882623.389 6      2076.520          41.000
> 2020 05 17 08 01  0.0000000  0 15        .000000000000
G12  20135005.289 8 105810194.807 8       618.805          50.000    20135002.742 8  82449486.454 8       482.185          50.000
G15  24644859.508 5 129509602.151 5     -3711.012          32.000
G24  20394904.711 8 107175960.928 8     -1095.082          51.000    20394905.930 8  83513726.303 8      -853.311          51.000
G25  21564117.242 5 113320220.165 5      2328.930          34.000    21564132.367 5  88301445.057 5      1814.741          34.000
R14  20168284.789 7 107508309.186 7     -1397.160          46.000    20168287.883 7  83617582.635 7     -1086.680          43.000
R17  21848367.383 7 116915046.236 7      4046.230          46.000    21848372.086 7  90933975.719 7      3147.068          43.000
R23  21831676.656 5 116784644.966 5     -2271.809          32.000
R24  20647361.062 6 110410784.478 6       788.129          37.000    20647366.000 6  85875007.820 6       612.989          38.000
C11  22915013.609 8 119324513.099 8      1194.457          50.000    22915013.391 8  92269348.289 8       923.693          51.000
C23  22169504.734 5 115442419.608 5       983.219          32.000
C25  22794151.195 6 118695120.741 6     -1561.297          39.000
E09  23486757.438 8 123423750.283 8     -2274.789          51.000    23486762.289 8  94571435.561 8     -1743.020          51.000
E24  23157194.688 5 121691880.328 5      1581.180          31.000    23157200.688 5  93244450.607 5      1211.077          32.000
E31  23637590.312 8 124216409.362 8      -497.402          51.000    23637593.641 8  95178819.460 8      -381.109          51.000
E33  26036027.234 6 136820254.852 6      2084.535          41.000
> 2020 05 17 08 01 30.0000000  0 15        .000000000000
G12  20131537.023 8 105791968.409 8       599.348          50.000    20131534.680 8  82435284.092 8       467.027          50.000
G19  22431425.828 5 117877920.191 5     -2420.457          32.000
G24  20401220.672 8 107209151.784 8     -1114.746          51.000    20401221.641 8  83539589.297 8      -868.633          51.000
G25  21550893.383 5 113250716.642 5      2313.852          33.000
R05  21312941.859 5 113929914.871 5     -1971.422          34.000
R14  20176200.328 7 107550501.849 7     -1412.570          44.000    20176203.266 7  83650399.174 7     -1098.669          42.000
R17  21825739.539 8 116793958.589 8      4029.355          49.000    21825743.883 7  90839796.414 7      3133.946          44.000
R24  20643039.289 6 110387679.515 6       755.141          36.000    20643045.492 6  85857037.417 6       587.335          38.000
C11  22908204.070 8 119289054.733 8      1172.422          51.000    22908203.750 8  92241929.687 8       906.618          51.000
C23  22163888.781 5 115413166.871 5       969.879          33.000
C25  22803191.359 6 118742200.109 6     -1574.344          41.000
E09  23499795.430 8 123492263.031 8     -2289.629          51.000    23499799.891 8  94623932.338 8     -1754.367          51.000
E24                                                                  23148217.305 5  93208261.364 5      1203.568          33.000
E31  23640469.906 8 124231540.762 8      -508.305          51.000    23640473.148 8  95190413.651 8      -389.483          51.000
E33  26024181.711 6 136758005.075 6      2068.441          39.000
> 2020 05 17 08 02  0.0000000  0 13        .000000000000
G02  24377422.969 6 128104224.432 6      2405.219          37.000    24377424.109 5  99821471.932 5      1874.199          33.000
G12  20128175.812 8 105774305.363 8       582.035          50.000    20128173.820 8  82421520.699 8       453.534          50.000
G19  22445315.672 4 117950931.339 4     -2441.363          29.000
G24  20407645.141 8 107242911.715 8     -1132.105          51.000    20407645.750 8  83565895.733 8      -882.160          51.000
R14  20184198.383 7 107593135.518 7     -1425.820          45.000    20184201.070 6  83683558.733 6     -1108.968          40.000
R17  21803202.820 8 116673357.424 8      4014.676          51.000    21803206.617 7  90745995.546 7      3122.526          45.000
R23  21857497.211 5 116922841.207 5     -2327.559          31.000
R24  20638899.656 5 110365546.568 5       724.387          31.000    20638906.500 6  85839823.061 6       563.430          38.000
C11  22901517.945 8 119254239.259 8      1152.508          50.000    22901517.672 8  92215008.195 8       891.129          51.000
C25  22812303.094 7 118789648.738 7     -1585.148          43.000
E09  23512914.125 8 123561199.972 8     -2302.273          51.000    23512918.367 8  94676754.142 8     -1764.086          51.000
E31  23643407.781 8 124246978.978 8      -517.059          51.000    23643410.844 8  95202242.930 8      -396.152          51.000
E33  26012424.031 6 136696215.634 6      2054.570          37.000    26012428.172 6 104741255.589 6      1574.126          38.000
> 2020 05 17 08 02 30.0000000  0 14        .000000000000
G02  24363751.789 5 128032385.367 5      2390.629          32.000    24363751.102 5  99765493.466 5      1862.822          32.000
G12  20124933.961 8 105757269.831 8       559.941          50.000    20124932.047 8  82408246.257 8       436.321          50.000
G24  20414190.266 8 107277305.444 8     -1154.434          51.000    20414190.570 8  83592696.034 8      -899.559          51.000
R04  23282310.773 5 124675714.542 5     -4260.918          34.000
R14  20192291.383 7 107636275.710 7     -1443.766          44.000    20192294.906 6  83717112.229 6     -1122.932          40.000
R17  21780769.945 8 116553313.063 8      3994.777          51.000    21780773.555 7  90652627.759 7      3107.049          46.000
R24  20634955.516 5 110344452.314 5       688.082          34.000    20634960.859 6  85823416.415 6       535.178          37.000
C11  22894967.523 8 119220131.772 8      1127.777          49.000    22894967.555 8  92188634.141 8       872.072          51.000
C23  22152883.633 5 115355879.989 5       943.004          33.000
C25  22821498.539 7 118837530.591 7     -1600.652          45.000
E09  23526125.453 8 123630623.984 8     -2319.609          51.000    23526129.352 8  94729949.172 8     -1777.339          51.000
E24  23130393.594 5 121551038.676 5      1550.902          34.000
E31  23646416.141 8 124262788.398 8      -530.535          51.000    23646419.062 8  95214356.639 8      -406.493          51.000
E33  26000766.789 5 136634950.912 5      2036.109          33.000    26000768.188 6 104694314.011 6      1559.854          37.000
> 2020 05 17 08 03  0.0000000  0 14        .000000000000
G02  24350073.125 5 127960505.755 5      2394.637          35.000    24350072.836 4  99709483.488 4      1865.960          28.000
G12  20121727.539 8 105740421.189 8       556.168          48.000    20121725.984 8  82395117.447 8       433.378          48.000
G19  22473383.398 4 118098431.528 4     -2471.320          28.000
G24  20420772.172 8 107311892.269 8     -1158.473          51.000    20420772.398 8  83619646.788 8      -902.706          51.000
R04  23306143.938 5 124803328.005 5     -4253.875          33.000
R14  20200395.375 6 107679475.639 6     -1443.445          41.000    20200399.594 6  83750712.184 6     -1122.677          37.000
R17  21758357.977 8 116433381.845 8      3993.402          51.000    21758361.602 7  90559347.984 7      3105.980          46.000
R24  20631123.344 5 110323950.519 5       671.715          33.000    20631127.562 5  85807470.666 5       522.451          35.000
C11  22888469.578 8 119186297.210 8      1120.867          49.000    22888470.016 8  92162471.108 8       866.783          51.000
C23  22147424.016 5 115327447.828 5       944.984          34.000
C25  22830694.000 7 118885409.386 7     -1598.270          47.000
E09  23539345.195 8 123700093.151 8     -2318.652          51.000    23539348.719 8  94783178.790 8     -1776.657          51.000
E31  23649411.195 8 124278528.518 8      -525.781          51.000    23649414.016 8  95226417.252 8      -402.892          51.000
E33                                                                  25989127.180 6 104647440.119 6      1559.591          37.000
> 2020 05 17 08 03 30.0000000  0 14        .000000000000
G02  24336426.547 5 127888791.915 5      2387.629          35.000    24336426.070 5  99653602.570 5      1860.499          33.000
G12  20118595.320 8 105723962.254 8       541.957          49.000    20118594.258 8  82382292.298 8       422.304          49.000
G19  22487548.367 5 118172878.666 5     -2489.250          30.000
G24  20427429.477 8 107346875.361 8     -1172.758          51.000    20427429.852 8  83646906.312 8      -913.837          51.000
R04  23329989.672 5 124931005.301 5     -4257.129          33.000
R14  20208548.969 6 107722941.628 6     -1453.371          41.000    20208552.281 5  83784519.055 5     -1130.397          32.000
R17  21736006.656 8 116313775.274 8      3981.391          50.000    21736009.883 7  90466320.691 7      3096.640          45.000
R24  20627439.930 6 110304248.925 6       643.184          38.000    20627442.219 5  85792147.202 5       500.254          34.000
C11  22882063.125 8 119152937.974 8      1103.941          50.000    22882064.070 8  92136675.647 8       853.692          51.000
C23  22142004.359 5 115299222.432 5       937.828          34.000
C25  22839927.172 7 118933486.473 7     -1606.020          46.000
E09  23552611.820 8 123769808.987 8     -2327.941          51.000    23552615.039 8  94836597.408 8     -1783.786          50.000
E31  23652431.664 8 124294402.389 8      -531.328          51.000    23652434.328 8  95238580.347 8      -407.169          51.000
E33                                                                  25977542.805 5 104600791.077 5      1551.058          34.000
> 2020 05 17 08 04  0.0000000  0 15        .000000000000
G02  24322814.555 5 127817260.622 5      2380.152          35.000    24322814.227 5  99597863.922 5      1854.652          32.000
G12  20115540.109 8 105707907.284 8       527.273          50.000    20115539.133 8  82369781.922 8       410.862          50.000
G24  20434164.680 8 107382268.720 8     -1187.766          51.000    20434165.305 8  83674485.513 8      -925.535          51.000
R04  23353849.656 5 125058757.119 5     -4260.777          32.000
R05  21370003.758 5 114234889.427 5     -2089.039          32.000
R14  20216755.391 7 107766687.888 7     -1464.281          42.000    20216756.227 5  83818543.935 5     -1138.885          31.000
R17  21713719.375 8 116194512.612 8      3968.555          48.000    21713722.211 7  90373560.906 7      3086.657          43.000
R23  21910761.734 4 117207800.100 4     -2422.066          29.000
R24  20623907.742 6 110285363.371 6       614.727          40.000    20623911.953 5  85777458.539 5       478.115          30.000
C11  22875751.242 8 119120069.424 8      1086.254          51.000    22875752.234 8  92111259.626 8       840.033          51.000
C23  22136627.602 5 115271218.962 5       928.469          31.000
C25  22849200.844 7 118981776.072 7     -1614.379          47.000
E09  23565928.039 8 123839784.182 8     -2337.934          51.000    23565930.461 8  94890214.741 8     -1791.383          50.000
E31  23655480.367 8 124310424.204 8      -537.656          51.000    23655482.797 8  95250856.795 8      -411.979          51.000
E33  25966016.727 5 136452338.516 5      2012.820          34.000    25966016.344 5 104554379.220 5      1542.608          33.000
> 2020 05 17 08 04 30.0000000  0 14        .000000000000
G02  24309225.180 6 127745847.648 6      2397.367          37.000    24309225.258 5  99542217.537 5      1868.084          32.000
G12  20112548.992 8 105692188.624 8       537.324          50.000    20112547.898 8  82357533.625 8       418.694          50.000
G19  22516152.586 5 118323192.230 5     -2497.070          31.000
G24  20440965.195 8 107418005.417 8     -1178.004          51.000    20440965.789 8  83702332.288 8      -917.925          51.000
R04  23377709.008 5 125186510.658 5     -4239.250          32.000
R14  20225002.367 7 107810646.259 7     -1449.543          43.000    20225002.383 5  83852733.834 5     -1127.416          31.000
R17  21691483.867 7 116075529.762 7      3980.832          45.000    21691485.969 6  90281018.760 6      3096.206          40.000
R24  20620515.547 5 110267226.314 5       611.062          32.000    20620519.500 5  85763351.913 5       475.283          34.000
C11  22869521.242 8 119087625.972 8      1093.188          51.000    22869521.883 8  92086172.313 8       845.349          51.000
C23  22131280.688 5 115243371.354 5       944.621          34.000
C25  22858502.805 7 119030211.480 7     -1598.188          46.000
E09  23579280.375 8 123909949.765 8     -2322.957          50.000    23579281.562 8  94943977.960 8     -1779.955          50.000
E31  23658544.492 8 124326526.487 8      -519.086          51.000    23658546.750 8  95263194.910 8      -397.759          51.000
E33                                                                  25954536.461 4 104508162.573 4      1552.515          29.000
> 2020 05 17 08 05  0.0000000  0 14        .000000000000
G02  24295700.836 5 127674777.432 5      2356.629          33.000    24295701.477 5  99486838.240 5      1836.337          31.000
G12  20109664.023 8 105677027.536 8       489.141          50.000    20109662.812 8  82345719.803 8       381.149          51.000
G19  22530595.352 5 118399098.410 5     -2546.863          35.000
G24  20447873.086 8 107454306.924 8     -1226.367          51.000    20447873.898 8  83730619.167 8      -955.608          51.000
R04  23401609.141 5 125314487.319 5     -4276.102          32.000
R14  20233331.242 7 107855041.590 7     -1494.148          43.000    20233333.039 5  83887263.536 5     -1162.118          32.000
R15  20142470.133 5 107635261.097 5      1528.996          32.000
R17  21669342.539 6 115957057.000 6      3933.527          41.000    21669345.570 6  90188873.446 6      3059.416          40.000
R24  20617306.219 6 110250065.127 6       548.855          36.000    20617310.203 4  85750004.191 4       426.878          28.000
C11  22863415.156 8 119055828.399 8      1042.219          51.000    22863415.727 8  92061584.438 8       805.988          51.000
C23  22126005.367 5 115215900.057 5       902.793          34.000
C25  22867875.023 7 119079012.433 7     -1639.711          45.000
E09  23592710.508 8 123980525.751 8     -2366.273          50.000    23592711.023 8  94998055.634 8     -1813.002          49.000
E31  23661666.109 8 124342930.779 8      -558.707          51.000    23661668.328 8  95275764.429 8      -428.085          51.000
> 2020 05 17 08 05 30.0000000  0 14        .000000000000
G02  24282169.086 5 127603670.200 5      2365.207          34.000    24282171.688 5  99431430.027 5      1843.031          33.000
G12  20106812.117 8 105662040.993 8       491.199          50.000    20106811.102 8  82334041.989 8       382.756          50.000
G19  22545082.961 5 118475238.768 5     -2547.895          34.000    22545076.906 3  92318319.463 3     -1985.372          23.000
G24  20454815.602 8 107490790.580 8     -1224.527          51.000    20454816.727 8  83759047.984 8      -954.177          51.000
R04  23425476.438 4 125442362.076 4     -4262.859          27.000
R14  20241668.438 7 107899485.599 7     -1487.809          43.000    20241671.773 5  83921831.065 5     -1157.181          33.000
R17  21647224.453 6 115838709.660 6      3937.184          40.000    21647230.016 7  90096825.555 7      3062.254          43.000
R24  20614206.688 5 110233491.010 5       536.762          32.000    20614211.625 5  85737113.189 5       417.478          33.000
C11  22857360.438 8 119024298.638 8      1041.250          51.000    22857361.047 8  92037203.670 8       805.121          51.000
C23  22120729.516 6 115188426.741 6       910.117          36.000
C25  22877244.422 7 119127799.709 7     -1631.387          44.000
E09  23606145.586 8 124051127.825 8     -2359.117          49.000    23606146.539 8  95052153.304 8     -1807.692          50.000
E24  23077369.562 6 121272380.685 6      1539.176          36.000
E31  23664772.453 8 124359254.253 8      -548.098          51.000    23664774.625 8  95288272.037 8      -419.998          51.000
> 2020 05 17 08 06  0.0000000  0 15        .000000000000
G02  24268717.344 5 127532984.025 5      2355.145          31.000    24268721.594 5  99376349.783 5      1835.184          30.000
G12  20104080.078 8 105647684.000 8       473.930          50.000    20104079.141 8  82322854.726 8       369.296          50.000
G15  24857124.234 5 130625079.123 5     -3714.488          35.000    24857135.156 5 101785807.603 5     -2894.406          30.000
G19  22559702.438 5 118552065.842 5     -2566.641          32.000
G24  20461879.305 8 107527910.711 8     -1242.121          51.000    20461880.617 8  83787972.755 8      -967.884          51.000
R05  21417877.625 5 114490821.407 5     -2177.609          34.000    21417876.938 5  89048417.691 5     -1693.696          31.000
R14  20250101.922 7 107944439.934 7     -1500.957          44.000    20250105.867 5  83956795.523 5     -1167.411          32.000
R17  21625216.898 7 115720955.443 7      3921.141          43.000    21625225.672 7  90005238.912 7      3049.776          44.000
R24  20611301.438 4 110217953.560 4       505.609          29.000    20611308.781 5  85725062.771 5       393.252          32.000
C11  22851443.906 8 118993488.680 8      1020.648          51.000    22851444.289 8  92013379.476 8       789.272          51.000
C23  22115538.891 6 115161403.078 6       899.293          36.000
C25  22886697.391 7 119177024.304 7     -1642.207          43.000
E09  23619671.914 8 124122209.395 8     -2371.551          49.000    23619673.805 8  95106618.367 8     -1817.177          50.000
E24  23068624.984 6 121226447.998 6      1530.855          36.000
E31  23667950.031 8 124375951.897 8      -557.039          51.000    23667952.148 8  95301066.349 8      -426.837          51.000
> 2020 05 17 08 06 30.0000000  0 15        .000000000000
G02  24255312.609 5 127462557.941 5      2344.746          34.000    24255305.859 5  99321421.701 5      1827.075          32.000
G12  20101422.312 8 105633716.942 8       456.426          49.000    20101421.289 8  82311971.306 8       355.659          49.000
G19  22574407.289 5 118629338.352 5     -2584.949          34.000
G24  20469018.883 8 107565429.104 8     -1259.848          51.000    20469020.367 8  83817207.854 8      -981.703          51.000
R05  21430164.531 6 114556536.810 6     -2203.883          36.000    21430169.648 6  89099529.631 6     -1714.128          36.000
R14  20258585.859 7 107989662.247 7     -1514.309          45.000    20258588.195 5  83991968.514 5     -1177.793          34.000
R17  21603278.781 7 115603555.974 7      3904.914          46.000    21603287.375 7  89913928.205 7      3037.158          45.000
R24  20608556.867 5 110203216.783 5       473.945          33.000    20608556.836 5  85713611.825 5       368.615          34.000
C11  22845620.281 8 118963162.970 8      1000.180          51.000    22845620.531 8  91989929.715 8       773.436          51.000
C23  22110389.797 6 115134593.277 6       887.926          37.000
C25  22896188.859 6 119226449.587 6     -1653.211          40.000
E09  23633243.859 8 124193529.971 8     -2383.969          50.000    23633246.352 8  95161266.596 8     -1826.647          51.000
E24  23059903.031 5 121180607.643 5      1523.828          32.000
E31  23671153.312 8 124392784.792 8      -565.941          51.000    23671155.461 8  95313964.282 8      -433.658          51.000
E33  25909289.180 5 136154226.536 5      1955.934          31.000
> 2020 05 17 08 07  0.0000000  0 14        .000000000000
G02  24241940.328 5 127392298.910 5      2338.633          33.000    24241936.250 5  99266679.617 5      1822.323          30.000
G12  20098848.938 8 105620194.135 8       444.191          49.000    20098848.016 8  82301434.078 8       346.123          49.000
G19  22589206.828 5 118707107.750 5     -2599.863          34.000    22589214.156 5  92499054.329 5     -2025.867          34.000
G24  20476244.445 8 107603399.673 8     -1272.254          51.000    20476245.953 8  83846795.305 8      -991.367          51.000
G25  21409278.977 5 112506518.259 5      2198.285          35.000    21409282.172 5  87667432.457 5      1712.943          34.000
R14  20267130.172 7 108035207.861 7     -1522.707          43.000    20267134.227 5  84027392.812 5     -1184.328          32.000
R17  21581418.977 8 115486571.051 8      3893.488          48.000    21581426.117 7  89822939.950 7      3028.269          46.000
R24  20605964.273 5 110189350.672 5       447.715          34.000    20605970.539 6  85702833.146 6       348.217          36.000
C11  22839900.000 8 118933376.267 8       984.781          51.000    22839900.367 8  91966896.778 8       761.459          51.000
C23  22105293.102 6 115108051.855 6       881.125          38.000
C25  22905728.773 7 119276129.408 7     -1659.387          42.000
E09  23646871.234 8 124265142.185 8     -2391.055          50.000    23646874.430 8  95216138.282 8     -1832.128          51.000
E31  23674392.578 8 124409807.043 8      -569.672          51.000    23674394.898 8  95327007.314 8      -436.502          51.000
E33  25898145.789 5 136095668.344 5      1946.469          35.000    25898140.641 6 104281094.903 6      1491.767          36.000
> 2020 05 17 08 07 30.0000000  0 17        .000000000000
G02  24228596.000 5 127322197.827 5      2332.480          33.000    24228595.211 5  99212055.524 5      1817.536          30.000
G12  20096343.609 8 105607028.208 8       431.324          49.000    20096342.805 8  82291174.920 8       336.097          50.000
G19  22604083.633 5 118785284.744 5     -2614.684          32.000
G24  20483539.438 8 107641735.462 8     -1285.578          51.000    20483540.859 8  83876667.334 8     -1001.749          51.000
G25  21396750.664 6 112440688.237 6      2188.512          36.000    21396757.109 5  87616136.364 5      1705.337          35.000
R05  21455121.438 5 114689967.611 5     -2245.379          33.000    21455123.109 4  89203298.416 4     -1746.403          28.000
R14  20275718.172 7 108080988.363 7     -1531.504          43.000    20275720.219 5  84062999.984 5     -1191.167          33.000
R17  21559620.898 8 115369916.624 8      3881.301          49.000    21559626.461 7  89732208.770 7      3018.789          47.000
R23  22008864.211 5 117732525.890 5     -2578.316          32.000
C11  22834266.812 8 118904043.475 8       968.527          51.000    22834267.227 8  91944214.803 8       749.048          51.000
C23  22100231.750 6 115081693.448 6       873.996          39.000
C25  22915301.836 7 119325977.568 7     -1665.883          43.000
E01  26906501.008 5 141394616.716 5     -2162.965          32.000
E09  23660536.945 8 124336957.361 8     -2398.746          50.000    23660540.812 8  95271165.465 8     -1837.964          51.000
E24  23042539.039 5 121089378.804 5      1516.953          35.000
E31  23677651.273 8 124426931.563 8      -574.137          51.000    23677653.828 8  95340128.714 8      -439.872          51.000
E33  25887055.922 5 136037388.261 5      1936.445          35.000    25887048.344 5 104236438.836 5      1483.485          35.000
> 2020 05 17 08 08  0.0000000  0 15        .000000000000
G12  20093918.523 8 105594283.951 8       425.871          49.000    20093917.531 8  82281244.324 8       331.848          49.000
G19  22619051.227 5 118863929.529 5     -2621.031          32.000
G24  20490916.297 8 107680501.328 8     -1291.238          51.000    20490917.570 8  83906874.494 8     -1006.160          51.000
G25  21384284.875 5 112375178.010 5      2186.898          35.000    21384298.742 5  87565089.138 5      1704.074          34.000
R14  20284363.086 7 108127069.766 7     -1533.000          45.000    20284366.727 5  84098841.045 5     -1192.333          35.000
R15  20091445.281 4 107362607.134 4      1495.656          29.000
R17  21537897.547 8 115253663.788 8      3876.648          49.000    21537901.820 7  89641789.928 7      3015.171          47.000
R23  22023381.078 5 117810188.555 5     -2591.895          31.000
C11  22828733.297 8 118875230.098 8       959.887          50.000    22828734.000 8  91921934.493 8       742.279          51.000
C23  22095218.070 6 115055583.372 6       874.293          39.000
C25  22924919.312 7 119376058.722 7     -1665.242          45.000
E09  23674253.203 8 124409038.940 8     -2398.914          51.000    23674257.094 8  95326396.793 8     -1838.156          51.000
E24  23033886.922 5 121043926.685 5      1520.656          34.000
E31  23680941.789 8 124444223.383 8      -571.004          51.000    23680944.547 8  95353378.308 8      -437.454          51.000
E33                                                                  25876024.109 5 104192047.052 5      1481.839          35.000
> 2020 05 17 08 08 30.0000000  0 16        .000000000000
G12  20091556.266 8 105581870.190 8       404.539          49.000    20091555.195 8  82271571.268 8       315.225          49.000
G19  22634087.883 5 118942952.584 5     -2643.938          31.000
G24  20498357.570 8 107719605.904 8     -1312.871          51.000    20498358.992 8  83937345.581 8     -1023.016          51.000
G25  21371862.492 5 112309897.366 5      2168.793          30.000    21371879.016 5  87514221.019 5      1689.966          30.000
R14  20293047.227 7 108173359.875 7     -1550.141          42.000    20293051.773 5  84134844.475 5     -1205.662          34.000
R15  20083107.000 5 107318020.403 5      1478.836          31.000
R17  21516232.258 8 115137724.363 8      3855.570          48.000    21516235.633 7  89551614.840 7      2998.777          47.000
R23  22038012.938 4 117888431.941 4     -2620.766          28.000
C11  22823282.312 8 118846847.017 8       935.238          49.000    22823283.383 8  91899986.930 8       723.261          51.000
C23  22090234.625 6 115029632.443 6       858.805          37.000
C25  22934564.242 7 119426282.643 7     -1680.160          46.000
E01  26931208.094 5 141524467.015 5     -2165.297          33.000    26931203.484 5 108440815.991 5     -1658.731          35.000
E09  23688002.359 8 124481294.310 8     -2415.066          51.000    23688006.008 8  95381761.278 8     -1850.473          51.000
E24  23025241.383 5 120998460.978 5      1509.184          31.000
E31  23684246.758 8 124461591.471 8      -583.891          51.000    23684249.680 8  95366686.331 8      -447.388          51.000
E33                                                                  25865050.328 5 104147851.390 5      1467.113          35.000
> 2020 05 17 08 09  0.0000000  0 12        .000000000000
G12  20089295.844 8 105569990.864 8       388.434          50.000    20089294.805 8  82262314.658 8       302.676          50.000
G24  20505902.281 8 107759254.010 8     -1329.211          51.000    20505903.961 8  83968240.183 8     -1035.749          51.000
R14  20301808.836 7 108220065.917 7     -1562.383          43.000    20301814.727 5  84171171.397 5     -1215.187          34.000
R17  21494664.953 8 115022311.408 8      3839.652          49.000    21494668.070 7  89461849.251 7      2986.399          46.000
R24  20597124.445 5 110142069.260 5       335.855          34.000    20597123.914 6  85666051.038 6       261.215          38.000
C11  22817953.117 8 118819097.848 8       915.797          48.000    22817953.914 8  91878529.519 8       708.110          51.000
C23  22085319.148 6 115004043.999 6       848.312          36.000
C25  22944275.547 7 119476852.036 7     -1690.031          47.000
E01                                                                  26943578.977 5 108490651.458 5     -1662.482          33.000
E09  23701823.297 8 124553926.195 8     -2425.988          51.000    23701826.812 8  95437414.275 8     -1858.871          51.000
E31  23687605.047 8 124479240.120 8      -591.590          51.000    23687608.156 8  95380209.324 8      -453.347          51.000
E33  25854172.898 5 135864595.471 5      1900.965          34.000    25854163.688 5 104104009.977 5      1456.437          33.000
> 2020 05 17 08 09 30.0000000  0 13        .000000000000
G12  20087078.719 8 105558339.914 8       379.988          49.000    20087077.625 8  82253236.006 8       296.095          48.000
G24  20513492.133 8 107799139.283 8     -1338.090          51.000    20513493.938 8  83999319.602 8     -1042.667          51.000
R14  20310590.711 6 108266877.966 6     -1566.898          37.000    20310594.984 5  84207580.851 5     -1218.699          32.000
R17  21473138.594 8 114907118.076 8      3831.418          50.000    21473141.406 7  89372254.478 7      2979.995          44.000
R23  22067646.711 4 118046947.303 4     -2662.734          29.000    22067646.453 4  91814342.759 4     -2071.013          25.000
R24  20595272.797 5 110132192.769 5       313.277          30.000    20595281.148 6  85658379.619 6       243.660          38.000
C11  22812687.219 7 118791680.544 7       903.781          47.000    22812688.164 8  91857328.727 8       698.924          51.000
C23  22080414.734 6 114978515.896 6       845.461          36.000
C25  22953995.336 7 119527463.934 7     -1692.289          47.000
E01                                                                  26955931.625 5 108540363.586 5     -1659.677          31.000
E09  23715657.648 8 124626627.225 8     -2429.059          51.000    23715661.164 8  95493120.245 8     -1861.185          51.000
E31  23690958.562 8 124496863.548 8      -591.590          51.000    23690961.852 8  95393712.996 8      -453.260          51.000
E33  25843304.266 6 135807536.717 6      1894.773          38.000    25843306.656 5 104060282.834 5      1451.992          31.000
> 2020 05 17 08 10  0.0000000  0 14        .000000000000
G12  20084960.406 8 105547208.492 8       357.484          50.000    20084959.203 8  82244562.170 8       278.559          50.000
G24  20521182.633 8 107839553.410 8     -1360.648          51.000    20521184.352 8  84030811.130 8     -1060.249          51.000
R05  21519621.492 6 115034691.358 6     -2359.672          38.000
R14  20319447.305 6 108314091.932 6     -1585.219          41.000    20319451.117 5  84244302.768 5     -1232.948          32.000
R17  21451709.438 8 114792445.830 8      3808.859          49.000    21451712.102 6  89283065.004 6      2962.449          41.000
R23  22082651.023 5 118127212.028 5     -2692.523          32.000    22082654.797 4  91876770.881 4     -2094.188          26.000
R24  20593614.945 5 110123284.947 5       275.844          33.000    20593614.844 5  85651450.720 5       214.542          34.000
C11  22807541.250 8 118764885.057 8       878.160          48.000    22807542.438 8  91836608.783 8       678.965          51.000
C23  22075578.789 6 114953337.923 6       828.812          39.000
C25  22963778.680 7 119578407.333 7     -1708.336          46.000
E01                                                                  26968308.039 5 108590201.793 5     -1667.025          30.000
E09  23729560.672 8 124699687.375 8     -2446.090          51.000    23729563.906 8  95549101.385 8     -1874.268          51.000
E31  23694362.805 8 124514753.316 8      -605.453          51.000    23694366.188 8  95407420.746 8      -463.970          51.000
E33  25832532.617 6 135750929.793 6      1874.758          40.000
> 2020 05 17 08 10 30.0000000  0 13        .000000000000
G12  20082922.031 8 105536495.825 8       351.352          49.000    20082920.797 8  82236214.647 8       273.780          49.000
G24  20528954.461 8 107880395.490 8     -1367.336          51.000    20528956.328 8  84062636.107 8     -1065.457          51.000
R05  21532883.625 6 115105606.349 6     -2373.262          39.000
R14  20328361.211 7 108361605.621 7     -1587.539          42.000    20328363.141 5  84281257.906 5     -1234.750          30.000
R17  21430359.102 8 114678197.007 8      3802.383          50.000    21430360.445 6  89194204.956 6      2957.415          37.000
R23  22097778.336 4 118208135.580 4     -2706.980          29.000    22097784.625 4  91939740.385 4     -2105.429          25.000
R24  20592108.477 5 110115263.792 5       256.023          35.000    20592111.680 5  85645206.676 5       199.126          34.000
C11  22802496.234 8 118738612.692 8       868.258          49.000    22802497.227 8  91816293.308 8       671.371          51.000
C23  22070792.141 6 114928411.345 6       828.141          38.000
C25  22973606.430 7 119629582.698 7     -1708.566          43.000
E09  23743513.016 8 124773004.395 8     -2447.020          51.000    23743515.453 8  95605279.354 8     -1874.983          51.000
E31  23697798.625 8 124532808.804 8      -603.410          51.000    23697802.039 8  95421255.467 8      -462.434          51.000
E33  25821827.242 6 135694675.929 6      1870.199          39.000    25821822.711 5 103973778.010 5      1433.082          32.000
> 2020 05 17 08 11  0.0000000  0 14        .000000000000
G02  24136371.055 5 126837529.986 5      2268.262          33.000
G12  20080970.570 7 105526240.816 7       323.965          47.000    20080969.180 7  82228223.751 7       252.440          47.000
G24  20536815.141 8 107921704.559 8     -1394.848          51.000    20536817.453 8  84094824.990 8     -1086.894          51.000
R05  21546275.273 6 115177208.717 6     -2408.203          38.000
R14  20337338.734 6 108409458.921 6     -1610.918          41.000    20337340.141 5  84318477.226 5     -1252.933          31.000
R17  21409096.062 8 114564416.173 8      3774.520          48.000    21409096.305 6  89105708.923 6      2935.743          39.000
R23  22113037.172 5 118289754.304 5     -2742.445          32.000
R24  20590777.180 5 110108092.295 5       214.301          32.000    20590776.367 3  85639628.718 3       166.672          22.000
C11  22797559.414 8 118712903.296 8       837.473          50.000    22797560.102 8  91796413.170 8       647.672          51.000
C23  22066061.469 6 114903775.952 6       806.078          37.000
C25  22983485.023 7 119681029.030 7     -1729.367          42.000
E09  23757521.430 8 124846615.913 8     -2468.695          51.000    23757523.406 8  95661682.977 8     -1891.601          51.000
E31  23701273.414 8 124551069.262 8      -622.160          51.000    23701276.930 8  95435247.238 8      -476.732          51.000
E33  25811196.602 6 135638816.211 6      1845.445          39.000    25811195.547 5 103930976.386 5      1414.285          34.000
> 2020 05 17 08 11 30.0000000  0 15        .000000000000
G02  24123395.156 6 126769328.211 6      2271.875          38.000
G12  20079107.391 8 105516450.302 8       321.953          48.000    20079105.648 8  82220594.758 8       250.870          49.000
G24  20544765.945 8 107963487.749 8     -1397.320          50.000    20544768.516 8  84127383.342 8     -1088.821          50.000
G25  21298660.789 6 111925249.489 6      2105.852          36.000    21298667.938 5  87214461.591 5      1640.926          31.000
R05  21559796.297 5 115249502.039 5     -2417.465          32.000
R14  20346381.055 6 108457659.272 6     -1609.023          39.000    20346384.156 5  84355966.370 5     -1251.463          30.000
R17  21387922.102 7 114451115.168 7      3772.047          47.000    21387924.984 7  89017585.982 7      2933.817          44.000
R23  22128416.859 5 118372066.037 5     -2752.586          33.000
R24  20589628.680 5 110101918.561 5       197.328          35.000    20589592.969 4  85634835.405 4       153.477          29.000
C11  22792732.258 8 118687764.753 8       831.773          51.000    22792732.750 8  91776974.474 8       643.277          51.000
C23  22061388.297 6 114879439.516 6       810.035          36.000
C25  22993418.766 6 119732753.159 6     -1725.645          40.000
E09  23771586.492 8 124920527.259 8     -2465.277          51.000    23771588.602 8  95718316.314 8     -1888.985          51.000
E31  23704788.430 8 124569541.631 8      -615.801          51.000    23704792.172 8  95449401.371 8      -471.808          51.000
E33  25800643.633 6 135583359.529 6      1845.375          40.000    25800644.555 5 103888483.583 5      1414.025          33.000
> 2020 05 17 08 12  0.0000000  0 16        .000000000000
G02  24110410.172 6 126701094.945 6      2266.770          38.000
G12  20077270.680 8 105506797.700 8       311.270          48.000    20077268.844 8  82213073.254 8       242.548          48.000
G19  22741810.773 5 119508975.942 5     -2745.891          32.000
G24  20552744.898 8 108005418.462 8     -1408.379          50.000    20552747.547 8  84160056.639 8     -1097.438          50.000
G25  21286641.211 6 111862052.020 6      2097.457          37.000    21286644.570 5  87165216.779 5      1634.379          32.000
R05  21573382.664 5 115322150.804 5     -2436.293          32.000    21573419.453 5  89695037.928 5     -1894.891          31.000
R14  20355425.484 6 108505919.623 6     -1615.488          36.000    20355438.484 5  84393475.918 5     -1256.494          35.000
R17  21366777.578 7 114337966.489 7      3760.723          46.000    21366782.289 7  88929581.484 7      2925.007          47.000
R23  22143878.227 5 118454747.380 5     -2770.887          32.000
R24  20588531.547 5 110096207.156 5       172.516          31.000    20588520.633 5  85630366.782 5       134.173          31.000
C11  22787952.984 8 118662874.817 8       817.473          51.000    22787953.219 8  91757728.024 8       632.101          51.000
C23  22056710.062 6 114855079.777 6       804.281          37.000
C25  23003343.398 6 119784432.050 6     -1729.801          39.000
E09  23785646.016 8 124994410.568 8     -2470.461          51.000    23785647.938 8  95774928.187 8     -1892.918          51.000
E24  22965518.422 5 120684598.653 5      1481.219          31.000
E31  23708281.719 8 124587899.712 8      -618.230          51.000    23708285.602 8  95463467.943 8      -473.694          51.000
> 2020 05 17 08 12 30.0000000  0 17        .000000000000
G02  24097497.500 6 126633242.124 6      2263.809          37.000
G12  20075538.062 7 105497692.540 7       302.863          47.000    20075536.172 7  82205978.342 7       236.000          47.000
G19  22757530.328 5 119591593.582 5     -2754.906          32.000    22757538.672 4  93188328.267 4     -2146.680          29.000
G24  20560830.305 8 108047907.127 8     -1417.250          51.000    20560832.852 8  84193164.682 8     -1104.351          51.000
G25  21274707.367 5 111799309.113 5      2092.242          35.000    21274694.281 5  87116316.558 5      1630.319          35.000
R05  21587113.914 4 115395568.646 4     -2451.738          29.000    21587149.805 4  89752140.796 4     -1906.908          28.000
R14  20364554.781 6 108554567.762 6     -1620.383          36.000    20364556.305 5  84431313.483 5     -1260.292          32.000
R17  21345740.062 7 114225392.006 7      3751.488          47.000    21345745.945 8  88842023.604 8      2917.827          48.000
R23  22159477.273 4 118538257.973 4     -2785.629          29.000
R24  20587642.344 5 110091422.930 5       149.613          34.000    20587640.414 6  85626648.311 6       116.363          36.000
C11  22783299.289 8 118638640.444 8       805.133          51.000    22783299.188 8  91738988.516 8       622.634          51.000
C23  22052105.859 6 114831103.697 6       801.160          40.000
C25  23013336.352 6 119836472.050 6     -1732.320          40.000
E01  27030303.367 6 142045201.799 6     -2168.672          36.000
E09  23799777.695 8 125068674.088 8     -2473.391          50.000    23799779.477 8  95831831.407 8     -1895.154          51.000
E31  23711831.359 8 124606553.371 8      -618.281          51.000    23711835.258 8  95477761.005 8      -473.781          51.000
E33  25779660.148 6 135473026.649 6      1829.750          38.000    25779656.469 5 103803994.145 5      1402.085          33.000
> 2020 05 17 08 13  0.0000000  0 15        .000000000000
G02  24084640.922 5 126565685.118 5      2249.285          34.000
G12  20073892.695 8 105489046.768 8       283.062          48.000    20073890.648 8  82199241.388 8       220.568          48.000
G19  22773344.336 5 119674695.828 5     -2775.633          34.000
G24  20569005.266 8 108090865.038 8     -1437.250          51.000    20569007.492 8  84226638.375 8     -1119.935          51.000
R05  21600972.719 5 115469579.698 5     -2477.590          31.000
R17  21324793.898 7 114113307.080 7      3730.492          47.000    21324800.352 8  88754846.458 8      2901.497          48.000
R23  22175210.711 6 118622401.033 6     -2813.520          36.000
R24  20586920.094 6 110087588.462 6       115.531          36.000    20586923.898 6  85623666.060 6        89.855          37.000
C11  22778754.906 8 118614975.643 8       781.832          50.000    22778754.328 8  91720689.393 8       604.668          51.000
C23  22047559.375 6 114807425.172 6       786.727          40.000
C25  23023382.844 7 119888786.224 7     -1745.941          42.000
E01  27042732.531 5 142110518.142 5     -2176.219          31.000
E09  23813964.250 8 125143228.357 8     -2487.410          48.000    23813967.055 8  95888957.413 8     -1905.878          51.000
E31  23715420.633 8 124625414.789 8      -629.645          51.000    23715424.453 8  95492213.250 8      -482.425          51.000
E33  25769293.008 5 135418543.460 5      1812.105          34.000    25769290.406 5 103762247.308 5      1388.784          33.000
> 2020 05 17 08 13 30.0000000  0 14        .000000000000
G02  24071826.602 5 126498347.966 5      2237.723          34.000    24071837.734 5  98570146.243 5      1743.680          33.000
G12  20072319.789 8 105480781.174 8       265.984          49.000    20072317.711 8  82192800.650 8       207.264          49.000
G24  20577254.656 8 108134213.695 8     -1454.629          51.000    20577256.523 8  84260416.531 8     -1133.480          51.000
R05  21614948.484 6 115544294.233 6     -2502.621          39.000    21614950.992 4  89867781.084 4     -1946.483          25.000
R14  20382984.766 5 108652797.521 5     -1649.234          34.000    20382986.711 5  84507722.251 5     -1282.735          32.000
R17  21303925.656 8 114001636.240 8      3712.105          51.000    21303932.000 7  88667991.394 7      2887.193          47.000
R23  22191054.633 5 118707145.124 5     -2838.551          35.000
R24  20586365.797 6 110084590.143 6        83.801          38.000    20586359.016 6  85621322.772 6        65.172          38.000
C11  22774304.836 8 118591803.229 8       760.984          49.000    22774304.164 8  91702771.052 8       588.611          50.000
C23  22043054.602 6 114783967.149 6       774.945          38.000
C25  23033467.930 7 119941296.564 7     -1756.641          44.000
E09  23828190.492 8 125217993.057 8     -2498.871          48.000    23828194.992 8  95946244.661 8     -1914.704          51.000
E24  22940309.477 5 120552145.258 5      1463.223          34.000
E31  23719034.500 8 124644405.289 8      -638.301          51.000    23719038.227 8  95506764.415 8      -489.133          51.000
> 2020 05 17 08 14  0.0000000  0 14        .000000000000
G02  24059019.914 5 126431046.970 5      2245.027          35.000
G12  20070783.828 8 105472708.844 8       267.633          49.000    20070781.844 8  82186510.541 8       208.548          49.000
G24  20585542.758 8 108177765.815 8     -1453.406          51.000    20585544.164 8  84294353.216 8     -1132.524          51.000
R05  21628997.047 6 115619413.492 6     -2507.613          41.000    21628996.969 4  89926190.728 4     -1950.363          27.000
R14  20392239.742 5 108702126.046 5     -1643.910          33.000    20392240.766 5  84546088.503 5     -1278.597          34.000
R17  21283100.914 8 113890194.129 8      3712.672          51.000    21283105.812 7  88581314.230 7      2887.637          46.000
R23  22206975.133 6 118792296.424 6     -2843.254          36.000
R24  20585910.594 5 110082194.358 5        71.527          32.000    20585909.891 6  85619459.475 6        55.635          37.000
C11  22769914.172 8 118568939.228 8       758.734          50.000    22769913.141 8  91685091.193 8       586.705          50.000
C23  22038556.586 6 114760545.548 6       782.047          40.000
C25  23043554.734 7 119993818.350 7     -1749.188          44.000
E09  23842421.633 8 125292779.920 8     -2491.320          49.000    23842426.555 8  96003548.890 8     -1909.024          51.000
E24  22931909.117 5 120507995.568 5      1474.289          31.000
E31  23722637.461 8 124663338.307 8      -628.430          51.000    23722641.109 8  95521271.526 8      -481.410          51.000
> 2020 05 17 08 14 30.0000000  0 13        .000000000000
G02  24046339.203 6 126364406.128 6      2218.348          38.000
G12  20069402.766 8 105465450.396 8       236.273          49.000    20069400.578 8  82180854.627 8       184.109          49.000
G24  20593987.703 8 108222142.462 8     -1484.953          51.000    20593988.562 8  84328932.389 8     -1157.106          51.000
G25  21227556.523 5 111551587.339 5      2037.574          31.000    21227565.375 4  86923288.199 4      1587.720          29.000
R05  21643237.891 7 115695525.821 7     -2546.039          42.000    21643235.125 4  89985382.589 4     -1980.256          29.000
R14  20401622.547 5 108752158.661 5     -1671.102          31.000    20401629.164 5  84585002.595 5     -1299.755          34.000
R17  21262437.672 8 113779617.631 8      3679.645          50.000    21262441.141 7  88495310.388 7      2861.949          43.000
R24  20585699.578 5 110081055.758 5        24.957          33.000    20585698.148 6  85618573.719 6        19.405          38.000
C11  22765700.844 8 118546999.834 8       723.852          49.000    22765699.727 8  91668126.290 8       559.749          49.000
C23  22034184.094 6 114737776.822 6       755.895          40.000
C25  23053761.703 7 120046966.953 7     -1774.234          45.000
E09  23856775.477 8 125368208.326 8     -2516.887          51.000    23856779.320 8  96061344.668 8     -1928.548          50.000
E31  23726347.734 8 124682834.830 8      -651.203          51.000    23726351.281 8  95536210.412 8      -498.959          51.000
> 2020 05 17 08 15  0.0000000  0 14        .000000000000
G02  24033660.961 5 126297775.583 5      2218.938          33.000
G12  20068052.141 8 105458353.263 8       232.148          49.000    20068049.914 8  82175324.399 8       180.895          50.000
G24  20602465.203 8 108266691.120 8     -1489.527          51.000    20602465.602 8  84363645.585 8     -1160.671          51.000
R05  21657544.055 7 115771997.624 7     -2556.695          43.000    21657546.320 5  90044860.650 5     -1988.538          33.000
R14  20411040.188 5 108802244.535 5     -1671.711          33.000    20411015.289 4  84623968.587 4     -1300.223          29.000
R15  19979423.055 5 106763977.663 5      1364.148          33.000    19979424.078 4  83038662.610 4      1061.004          25.000
R17  21241811.453 7 113669246.842 7      3673.816          43.000    21241814.719 7  88409466.531 7      2857.416          44.000
R23  22239265.234 5 118964967.638 5     -2893.449          32.000
C11  22761540.789 8 118525339.272 8       715.551          50.000    22761539.758 8  91651376.985 8       553.400          50.000
C23  22029812.820 7 114715015.242 7       756.738          42.000
C25  23063964.969 7 120100095.873 7     -1772.430          42.000
E09  23871127.273 8 125443624.097 8     -2515.355          51.000    23871129.438 8  96119130.745 8     -1927.347          49.000
E31  23730041.117 8 124702242.394 8      -647.105          51.000    23730044.477 8  95551081.132 8      -495.879          51.000
E33  25728469.828 6 135204009.436 6      1767.195          36.000    25728475.312 5 103597876.680 5      1354.175          35.000
> 2020 05 17 08 15 30.0000000  0 15        .000000000000
G02  24021017.289 5 126231329.850 5      2208.023          34.000
G12  20066764.891 8 105451588.510 8       216.711          50.000    20066762.852 8  82170053.162 8       168.866          50.000
G24  20611007.852 8 108311583.233 8     -1505.281          51.000    20611008.102 8  84398626.416 8     -1172.946          51.000
R05  21671949.430 7 115848999.856 7     -2578.977          44.000    21671950.023 5  90104751.307 5     -2005.871          32.000
R14  20420472.758 6 108852535.646 6     -1683.270          37.000    20420452.422 4  84663041.079 4     -1309.204          29.000
R15  19971795.078 5 106723183.693 5      1352.383          32.000    19971791.469 4  83006929.369 4      1051.853          25.000
R17  21221253.742 6 113559261.197 6      3656.332          41.000    21221261.297 7  88323922.148 7      2843.811          47.000
R23  22255547.891 5 119052063.256 5     -2915.379          34.000
R24  20585636.922 5 110080676.035 5       -23.664          34.000    20585639.523 6  85618302.646 6       -18.405          38.000
C11  22757467.406 8 118504128.473 8       696.254          50.000    22757466.664 8  91634975.475 8       538.376          51.000
C23  22025476.211 7 114692431.731 7       746.738          43.000
C25  23074195.922 6 120153375.428 6     -1781.707          41.000
E09  23885509.203 8 125519197.218 8     -2524.984          51.000    23885510.109 8  96177037.387 8     -1934.707          49.000
E31  23733750.148 8 124721732.682 8      -654.266          51.000    23733753.391 8  95566015.237 8      -501.311          51.000
E33  25718409.516 6 135151165.428 6      1753.410          37.000    25718415.102 5 103557385.976 5      1343.360          34.000
> 2020 05 17 08 16  0.0000000  0 13        .000000000000
G02  24008432.789 5 126165196.848 5      2199.969          34.000
G12  20065564.602 8 105445280.600 8       203.156          49.000    20065562.805 8  82165137.909 8       158.304          49.000
G24  20619639.047 8 108356943.026 8     -1519.387          49.000    20619639.773 8  84433971.682 8     -1183.938          49.000
R05  21686477.203 7 115926655.630 7     -2598.988          43.000    21686472.758 4  90165160.131 4     -2021.441          28.000
R17  21200796.008 8 113449792.376 8      3640.770          48.000    21200804.625 8  88238779.683 8      2831.710          48.000
R23  22271950.297 5 119139822.047 5     -2936.227          35.000
R24  20585842.781 5 110081794.315 5       -51.863          33.000    20585846.227 6  85619172.361 6       -40.338          36.000
C11  22753504.227 8 118483491.718 8       678.758          50.000    22753503.984 8  91619017.859 8       524.759          51.000
C23  22021197.836 7 114670150.839 7       738.074          42.000
C25  23084479.586 6 120206929.025 6     -1789.277          40.000
E09  23899944.328 8 125595050.692 8     -2532.668          51.000    23899945.070 8  96235158.828 8     -1940.646          49.000
E31  23737498.516 8 124741430.356 8      -659.594          51.000    23737501.664 8  95581108.250 8      -505.418          51.000
E33  25708428.414 5 135098736.145 5      1741.344          35.000    25708428.969 5 103517212.926 5      1334.169          33.000
> 2020 05 17 08 16 30.0000000  0 14        .000000000000
G02  23995896.680 5 126099318.268 5      2192.512          35.000    23995899.188 4  98259185.185 4      1708.451          27.000
G12  20064439.469 8 105439368.395 8       191.254          50.000    20064437.906 8  82160531.008 8       149.029          50.000
G24  20628347.469 8 108402709.941 8     -1531.617          49.000    20628348.961 8  84469634.210 8     -1193.468          49.000
R05  21701114.461 7 116004899.486 7     -2617.121          42.000    21701107.250 4  90225997.922 4     -2035.536          27.000
R17  21180426.531 8 113340783.025 8      3626.695          51.000    21180433.750 8  88153994.638 8      2820.763          48.000
R23  22288465.641 5 119228178.260 5     -2954.719          34.000
R24  20586206.180 6 110083746.332 6       -78.516          37.000    20586211.953 6  85620690.651 6       -61.068          36.000
C11  22749639.883 8 118463369.747 8       662.867          50.000    22749639.883 8  91603458.300 8       512.489          51.000
C23  22016965.953 7 114648113.369 7       731.305          43.000
C25  23094804.695 6 120260696.666 6     -1795.129          39.000
E01  27129844.844 5 142568293.834 5     -2182.188          34.000
E09  23914420.438 8 125671122.185 8     -2538.641          51.000    23914421.938 8  96293447.344 8     -1945.186          49.000
E31  23741274.688 8 124761274.828 8      -663.230          51.000    23741277.781 8  95596313.744 8      -508.187          51.000
E33  25698516.922 5 135046618.894 5      1730.223          35.000    25698518.422 6 103477312.644 6      1326.078          36.000
> 2020 05 17 08 17  0.0000000  0 13        .000000000000
G12  20063388.984 8 105433847.998 8       181.223          50.000    20063387.555 8  82156229.396 8       141.212          50.000
G24  20637132.867 8 108448879.638 8     -1541.996          50.000    20637134.844 8  84505610.604 8     -1201.555          50.000
R05  21715858.570 6 116083723.989 6     -2633.320          41.000    21715854.977 4  90287324.418 4     -2048.135          27.000
R14  20449142.977 5 109005395.263 5     -1707.082          32.000    20449114.188 4  84781967.231 4     -1327.730          29.000
R17  21160143.688 8 113232234.402 8      3614.148          51.000    21160148.711 7  88069567.960 7      2811.007          47.000
R24  20586726.367 6 110086528.831 6      -102.793          38.000    20586734.750 5  85622854.868 5       -79.947          34.000
C11  22745873.875 8 118443759.779 8       648.762          49.000    22745874.148 8  91588294.641 8       501.709          51.000
C23  22012780.273 7 114626316.704 7       726.129          45.000
C25  23105170.680 6 120314675.133 6     -1798.988          36.000
E01  27142311.984 5 142633812.523 5     -2180.773          32.000
E09  23928936.891 8 125747406.507 8     -2542.645          51.000    23928939.156 8  96351898.955 8     -1948.296          49.000
