     3.02           OBSERVATION DATA    M (MIXED)           RINEX VERSION / TYPE
SAVERINEX           SC600               20200502 025930 LCL PGM / RUN BY / DATE
       G = GPS       R = GLONASS       C = COMPASS          COMMENT
       S = SBAS      J = QZSS          E = GALILEO          COMMENT
BEAN                                                        MARKER NAME
1                                                           MARKER NUMBER
GEODETIC                                                    MARKER TYPE
Unige DICCA         GTER                                    OBSERVER / AGENCY
SC60291900056       SC600               2.12(191226)        REC # / TYPE / VERS
                    HEMA45          NONE                    ANT # / TYPE
  4509407.8091   693652.4678  4442337.6214                  APPROX POSITION XYZ
        0.0000        0.0000        0.0000                  ANTENNA: DELTA H/E/N
G    8 C1C L1C D1C S1C C2Y L2Y D2Y S2Y                      SYS / # / OBS TYPES
R    8 C1C L1C D1C S1C C2P L2P D2P S2P                      SYS / # / OBS TYPES
C    8 C1I L1I D1I S1I C7I L7I D7I S7I                      SYS / # / OBS TYPES
E    8 C1C L1C D1C S1C C7Q L7Q D7Q S7Q                      SYS / # / OBS TYPES
DBHZ                                                        COMMENT
     30.000                                                 INTERVAL
  2020    05    02    00    00    0.0000000     GPS         TIME OF FIRST OBS
  2020    05    02    00    59   30.0000000     GPS         TIME OF LAST OBS
     0                                                      RCV CLOCK OFFS APPL
G L1C  0.00000                                              SYS / PHASE SHIFT
G L2Y  0.00000                                              SYS / PHASE SHIFT
R L1C  0.00000                                              SYS / PHASE SHIFT
R L2P  0.25000                                              SYS / PHASE SHIFT
C L1I  0.00000                                              SYS / PHASE SHIFT
C L7I  0.00000                                              SYS / PHASE SHIFT
E L1C  0.50000                                              SYS / PHASE SHIFT
E L7Q -0.25000                                              SYS / PHASE SHIFT
 13 R01  1 R02 -4 R07  5 R08  6 R09 -2 R10 -7 R11  0 R12 -1 GLONASS SLOT / FRQ #
    R16 -1 R17  4 R21  4 R22 -3 R23  3                      GLONASS SLOT / FRQ #
 C1C   71.950 C2C   71.950 C2P   71.950                     GLONASS COD/PHS/BIS
    18                                                      LEAP SECONDS
*** Above antenna height is from mark to ANTENNA BOTTOM.    COMMENT
    17     4        0.0000        ANT MEASURE TYPE/HEIGT    COMMENT
    0.0000    0.0000    0.0458    0.0405    0.0000          COMMENT
                    BASE STATION                            COMMENT
                                                            END OF HEADER
> 2020 05 02 00 00  0.0000000  0 15        .000000000000
G04  20692504.891 8 108739921.851 8     -1459.105          51.000    20692505.125 8  84732394.445 8     -1136.965          51.000
G07  23786632.609 5 124999608.853 5      3365.738          35.000    23786631.312 5  97402271.595 5      2622.653          34.000
G09  20400245.320 8 107204095.870 8       835.469          51.000    20400245.375 8  83535656.318 8       651.015          51.000
G19  23631973.594 7 124186855.594 7     -2818.562          46.000    23631969.562 7  96768970.863 7     -2196.282          44.000
R01  19685212.148 6 105228722.306 6      -691.309          38.000
R08  21912910.266 5 117342605.483 5     -2718.941          34.000    21912913.945 4  91266481.000 4     -2114.732          28.000
R11  22324510.289 7 119295416.459 7      3567.707          45.000    22324514.438 7  92785345.643 7      2774.883          43.000
R23  22733118.602 5 121606859.805 5     -4500.246          33.000    22733118.828 4  94583108.954 4     -3500.191          25.000
R24  20595760.250 8 110134785.742 8     -2642.984          50.000    20595761.844 7  85660400.058 7     -2055.658          46.000
C11  25233094.914 4 131395332.741 4     -3255.562          29.000    25233074.781 5 101603137.856 5     -2517.320          30.000
C26  23505477.992 7 122399152.722 7      1979.637          44.000
E03  25683676.070 5 134968630.917 5      1985.469          33.000    25683671.195 6 103417496.364 6      1521.202          36.000
E05  23420555.344 8 123075838.879 8       -65.086          51.000    23420557.297 8  94304965.049 8       -49.886          51.000
E09  23640322.367 5 124230727.494 5     -2042.660          34.000    23640324.531 5  95189792.358 5     -1565.044          31.000
E36  26364715.734 6 138547513.711 6     -3153.508          38.000
> 2020 05 02 00 00 30.0000000  0 16        .000000000000
G03  22388471.016 5 117652219.928 5     -2496.574          31.000
G04  20700911.211 8 108784097.401 8     -1480.387          51.000    20700911.461 8  84766816.965 8     -1153.548          51.000
G07  23767475.312 6 124898931.611 6      3352.164          37.000    23767472.695 6  97323821.758 6      2612.073          37.000
G09  20395558.766 8 107179468.408 8       812.098          51.000    20395558.812 8  83516466.092 8       632.803          51.000
G19  23648134.516 7 124271783.603 7     -2837.500          44.000    23648131.570 7  96835146.093 7     -2211.039          44.000
R01  19689163.750 6 105249842.555 6      -711.191          37.000
R09  23377309.758 5 124833519.679 5     -2410.918          30.000
R11  22304555.656 7 119188782.034 7      3546.793          45.000    22304558.188 6  92702407.776 6      2758.617          40.000
R24  20610690.109 8 110214626.971 8     -2673.992          49.000    20610693.547 7  85722498.820 7     -2079.772          46.000
C11  25251903.000 4 131493294.230 4     -3266.645          29.000
C21  24546727.727 4 127821242.842 4     -2341.461          28.000
C26  23494154.062 7 122340177.452 7      1957.578          47.000
E03                                                                  25672392.461 6 103372079.555 6      1510.944          38.000
E05  23420989.203 8 123078117.948 8       -81.180          51.000    23420990.914 8  94306711.341 8       -62.209          51.000
E09                                                                  23652040.227 5  95236953.083 5     -1574.380          33.000
E36  26382771.758 6 138642400.210 6     -3166.199          36.000
> 2020 05 02 00 01  0.0000000  0 14        .000000000000
G03  22402782.164 5 117727409.743 5     -2507.785          34.000    22402804.383 5  91735735.977 5     -1954.161          34.000
G04  20709433.320 8 108828881.383 8     -1496.336          51.000    20709433.383 8  84801713.591 8     -1165.976          51.000
G07  23748388.008 6 124798626.735 6      3343.973          36.000    23748384.930 6  97245662.096 6      2605.693          37.000
G09  20391000.055 8 107155513.870 8       793.781          51.000    20391000.594 8  83497800.224 8       618.531          51.000
G19  23664398.641 7 124357252.842 7     -2851.465          44.000    23664395.828 7  96901745.506 7     -2221.921          43.000
R01  19693221.125 5 105271527.786 5      -725.961          31.000    19693221.625 4  81877871.222 4      -564.636          26.000
R11  22284714.250 7 119082753.689 7      3530.852          44.000    22284715.023 6  92619941.307 6      2746.218          38.000
R24  20625788.648 8 110295367.908 8     -2699.641          50.000    20625793.148 7  85785297.312 7     -2099.720          46.000
C11  25270775.672 4 131591559.531 4     -3274.902          29.000    25270757.266 4 101754880.653 4     -2532.072          28.000
C26  23482950.188 7 122281828.279 7      1940.941          46.000
E03  25661185.109 5 134850434.646 5      1962.715          31.000    25661189.219 6 103326960.873 6      1503.985          38.000
E05  23421509.016 8 123080850.148 8       -92.023          51.000    23421510.594 8  94308804.845 8       -70.502          51.000
E09                                                                  23663817.586 5  95284356.131 5     -1579.328          34.000
E36  26400895.547 5 138737641.426 5     -3173.879          35.000    26400895.055 5 106305460.652 5     -2432.406          32.000
> 2020 05 02 00 01 30.0000000  0 16        .000000000000
G03  22417084.391 6 117802560.717 6     -2507.742          36.000    22417090.883 6  91794295.292 6     -1954.088          36.000
G04  20717975.953 8 108873773.396 8     -1500.492          51.000    20717976.062 8  84836694.382 8     -1169.215          51.000
G07  23729277.414 6 124698198.380 6      3347.199          38.000    23729274.312 6  97167406.201 6      2608.210          38.000
G09  20386474.484 8 107131733.239 8       787.453          51.000    20386475.109 8  83479269.866 8       613.600          51.000
G19  23680669.500 7 124442757.051 7     -2853.117          44.000    23680668.445 7  96968376.748 7     -2223.205          43.000
R01  19697286.766 5 105293269.785 5      -727.914          30.000    19697291.430 4  81894781.800 4      -566.149          27.000
R08  21958869.141 5 117588708.290 5     -2735.465          30.000
R11  22264891.375 7 118976828.572 7      3526.586          44.000    22264891.305 6  92537555.168 6      2742.900          37.000
R24  20640960.406 8 110376497.429 8     -2713.137          50.000    20640964.727 7  85848398.010 7     -2110.217          46.000
C11                                                                  25289601.469 4 101830744.047 4     -2528.819          27.000
C21  24573758.867 4 127961982.008 4     -2343.539          29.000
C26  23471770.562 7 122223612.911 7      1935.801          43.000
E03  25649960.961 5 134791454.158 5      1965.871          31.000    25649965.422 6 103281758.074 6      1506.239          38.000
E05  23422019.969 8 123083536.252 8       -91.215          51.000    23422021.578 8  94310863.044 8       -69.961          51.000
E09                                                                  23675557.859 5  95331618.972 5     -1575.089          34.000
E36                                                                  26418994.438 5 106378330.943 5     -2428.838          34.000
> 2020 05 02 00 02  0.0000000  0 15        .000000000000
G03  22431443.219 6 117878009.924 6     -2517.922          37.000    22431445.617 6  91853086.898 6     -1962.017          36.000
G04  20726602.664 8 108919107.230 8     -1516.410          51.000    20726602.852 8  84872019.457 8     -1181.618          51.000
G07  23710207.555 6 124597984.266 6      3339.180          36.000    23710204.797 6  97089317.263 6      2601.958          37.000
G09  20382046.141 8 107108461.825 8       769.293          51.000    20382046.547 8  83461136.305 8       599.449          51.000
G19  23697011.422 7 124528632.473 7     -2866.461          42.000    23697009.805 7  97035292.640 7     -2233.606          42.000
G22  24703670.648 5 129818658.821 5     -2946.562          33.000
R01  19701426.758 5 105315409.512 5      -742.359          32.000    19701432.609 4  81912001.537 4      -577.394          26.000
R11  22245152.555 7 118871352.660 7      3510.273          44.000    22245151.578 6  92455518.327 6      2730.213          37.000
R24  20656267.375 8 110458353.033 8     -2738.465          49.000    20656271.617 7  85912063.484 7     -2129.917          46.000
C21  24587283.203 5 128032435.315 5     -2349.699          32.000
C26  23460680.438 6 122165865.881 6      1919.152          40.000
E03                                                                  25638784.727 6 103236728.286 6      1499.690          38.000
E05  23422586.078 8 123086511.205 8      -101.848          51.000    23422587.695 8  94313142.551 8       -78.060          51.000
E09  23687320.672 5 124477706.489 5     -2061.570          32.000    23687320.992 5  95378998.277 5     -1579.884          33.000
E36                                                                  26437127.453 5 106451340.304 5     -2434.420          34.000
> 2020 05 02 00 02 30.0000000  0 14        .000000000000
G03  22445805.094 6 117953481.217 6     -2516.664          38.000    22445806.711 6  91911895.710 6     -1961.037          38.000
G04  20735260.695 8 108964605.640 8     -1519.926          51.000    20735260.664 8  84907472.768 8     -1184.358          50.000
G07  23691126.398 6 124497711.277 6      3343.055          40.000    23691124.305 6  97011182.468 6      2604.975          40.000
G09  20377662.258 8 107085423.800 8       763.574          51.000    20377662.758 8  83443184.602 8       594.993          51.000
G19  23713369.750 7 124614598.194 7     -2867.617          42.000    23713368.656 6  97102278.909 6     -2234.507          41.000
R01  19705589.328 5 105337666.237 5      -744.254          33.000    19705594.188 4  81929318.729 4      -578.870          26.000
R11  22225446.430 7 118766049.961 7      3506.773          44.000    22225445.867 6  92373616.226 6      2727.490          40.000
R24  20671657.117 8 110540650.968 8     -2751.141          50.000    20671661.188 7  85976072.977 7     -2139.776          46.000
C21  24600807.891 6 128102816.648 6     -2344.480          37.000
C26  23449627.359 7 122108316.122 7      1914.477          42.000
E03                                                                  25627592.242 6 103191660.459 6      1502.384          39.000
E05  23423154.641 8 123089498.957 8      -100.344          51.000    23423156.289 8  94315431.868 8       -76.890          51.000
E09                                                                  23699059.078 5  95426282.378 5     -1575.047          34.000
E36                                                                  26455242.094 5 106524281.216 5     -2430.646          35.000
> 2020 05 02 00 03  0.0000000  0 12        .000000000000
G03  22460228.383 6 118029272.415 6     -2530.391          38.000    22460229.750 6  91970953.814 6     -1971.730          39.000
G04  20744006.445 8 109010565.269 8     -1539.078          51.000    20744006.320 8  84943285.446 8     -1199.282          50.000
G07  23672091.219 6 124397680.199 6      3331.027          41.000    23672089.688 6  96933236.164 6      2595.603          41.000
G09  20373379.414 8 107062917.217 8       741.891          51.000    20373380.094 8  83425647.021 8       578.097          51.000
G19  23729801.477 7 124700949.007 7     -2884.391          44.000    23729800.844 7  97169565.282 7     -2247.577          42.000
R01  19709831.344 4 105360342.072 4      -762.547          29.000    19709835.695 4  81946951.026 4      -593.092          24.000
R11  22205830.570 7 118661228.448 7      3486.457          45.000    22205831.531 6  92292088.423 6      2711.692          41.000
R24  20687186.031 8 110623690.771 8     -2779.867          50.000    20687189.648 7  86040659.482 7     -2162.119          47.000
C26  23438670.469 7 122051261.223 7      1894.031          44.000
E03                                                                  25616446.500 6 103146783.108 6      1493.306          38.000
E05  23423782.234 8 123092797.253 8      -114.613          51.000    23423783.898 8  94317959.132 8       -87.791          51.000
E36                                                                  26473397.164 6 106597380.787 6     -2438.686          37.000
> 2020 05 02 00 03 30.0000000  0 16        .000000000000
G03  22474741.086 5 118105561.330 5     -2527.117          30.000    22474741.703 4  92030381.823 4     -1969.188          28.000
G04  20752869.195 8 109057139.709 8     -1539.809          51.000    20752869.195 8  84979577.209 8     -1199.851          50.000
G07  23653131.773 6 124298048.814 6      3337.504          41.000    23653130.688 6  96855601.294 6      2600.655          40.000
G09  20369227.414 8 107041097.081 8       738.922          51.000    20369228.062 8  83408644.315 8       575.783          51.000
G19  23746335.633 7 124787836.856 7     -2882.180          44.000    23746335.578 6  97237270.114 6     -2245.854          41.000
R02  21622979.969 6 115384425.047 6      2516.020          36.000    21622991.289 5  89743429.605 5      1956.898          31.000
R08  22020424.414 5 117918302.484 5     -2742.059          31.000
R11  22186335.719 7 118557050.566 7      3485.402          45.000    22186337.359 7  92211061.214 7      2710.868          42.000
R24  20702882.789 8 110707626.901 8     -2789.367          50.000    20702885.953 7  86105943.141 7     -2169.508          47.000
C11  25365195.680 5 132083224.535 5     -3272.652          30.000
C21  24627981.250 5 128244351.617 5     -2347.832          32.000
C26  23427838.875 7 121994856.942 7      1892.234          45.000
E03  25605365.297 6 134557107.701 6      1955.344          36.000    25605376.031 5 103102215.244 5      1498.424          35.000
E05  23424498.328 8 123096560.849 8      -110.133          51.000    23424500.117 8  94320842.928 8       -84.393          51.000
E09  23722703.172 6 124663625.718 6     -2056.105          37.000    23722676.258 6  95521445.908 6     -1575.448          36.000
E36                                                                  26491620.328 6 106670756.783 6     -2433.077          36.000
> 2020 05 02 00 04  0.0000000  0 14        .000000000000
G04  20761741.492 8 109103764.439 8     -1558.742          51.000    20761741.562 8  85015908.154 8     -1214.604          50.000
G07  23634141.508 7 124198256.483 7      3325.227          43.000    23634141.039 7  96777841.031 7      2591.086          43.000
G09  20365098.805 8 107019400.261 8       717.516          51.000    20365099.391 8  83391737.698 8       559.103          51.000
G19  23762864.523 7 124874695.572 7     -2898.434          44.000    23762863.953 6  97304952.270 6     -2258.520          40.000
R01  19718530.234 5 105406835.964 5      -778.742          33.000    19718538.844 4  81983133.663 4      -605.694          28.000
R11  22166854.797 7 118452948.354 7      3464.887          46.000    22166856.594 6  92130092.894 6      2694.912          40.000
R24  20718639.648 8 110791882.792 8     -2817.637          50.000    20718642.375 7  86171475.482 7     -2191.495          47.000
C11  25384109.750 5 132181715.273 5     -3282.977          33.000    25384102.234 4 102211254.833 4     -2538.234          29.000
C21  24641562.633 5 128315074.469 5     -2357.938          31.000
C26  23417025.781 7 121938547.559 7      1871.691          45.000
E03  25594266.352 5 134498784.151 5      1942.840          35.000    25594273.945 5 103057525.686 5      1488.972          34.000
E05  23425195.797 8 123100226.388 8      -124.273          51.000    23425197.734 8  94323651.586 8       -95.220          51.000
E09  23734489.883 5 124725600.609 5     -2065.637          32.000
E36  26509800.922 5 139309951.658 5     -3186.043          33.000    26509803.391 5 106743976.462 5     -2440.625          34.000
> 2020 05 02 00 04 30.0000000  0 14        .000000000000
G04  20770739.992 8 109151052.520 8     -1569.879          51.000    20770740.188 8  85052756.011 8     -1223.282          50.000
G07  23615238.305 7 124098920.830 7      3321.027          44.000    23615237.961 7  96700436.628 7      2587.814          44.000
G09  20361110.539 8 106998441.219 8       703.770          51.000    20361111.008 8  83375406.009 8       548.395          51.000
G19  23779504.312 7 124962136.396 7     -2906.910          45.000    23779502.586 7  97373087.981 7     -2265.125          42.000
G22  24788043.773 5 130262048.523 5     -2959.820          34.000
R01  19723003.031 6 105430720.538 6      -788.980          39.000    19723010.703 4  82001710.538 4      -613.651          29.000
R11  22147506.102 7 118349551.357 7      3452.492          47.000    22147506.289 5  92049673.015 5      2685.272          35.000
R24  20734573.094 8 110877080.176 8     -2837.871          50.000    20734574.938 7  86237740.089 7     -2207.233          47.000
C11  25403097.227 5 132280591.034 5     -3284.371          33.000    25403091.844 5 102287711.884 5     -2539.965          32.000
C21  24655233.383 5 128386286.668 5     -2360.508          32.000
C26  23406347.664 7 121882944.185 7      1858.855          43.000
E03  25583254.672 5 134440916.504 5      1938.512          35.000    25583258.867 5 103013185.468 5      1485.428          35.000
E05  23425991.586 8 123104408.134 8      -130.523          51.000    23425993.547 8  94326855.781 8      -100.032          51.000
E36                                                                  26528063.719 5 106817509.642 5     -2443.244          32.000
> 2020 05 02 00 05  0.0000000  0 15        .000000000000
G04  20779749.453 8 109198397.721 8     -1587.984          51.000    20779749.695 8  85089648.379 8     -1237.387          50.000
G07  23596307.117 7 123999439.414 7      3309.621          44.000    23596307.047 7  96622918.665 7      2578.929          44.000
G09  20357147.680 8 106977615.172 8       683.219          51.000    20357148.078 8  83359177.938 8       532.378          51.000
G19  23796139.367 7 125049551.566 7     -2922.383          46.000    23796135.914 6  97441203.696 6     -2277.181          41.000
R01  19727477.031 6 105454617.721 6      -805.582          39.000    19727480.734 4  82020297.261 4      -626.564          28.000
R02  21580925.797 5 115159945.263 5      2483.988          33.000
R11  22128175.492 7 118246249.632 7      3432.688          46.000    22128172.945 5  91969327.250 5      2669.868          33.000
R24  20750566.266 8 110962600.200 8     -2864.984          48.000    20750567.945 7  86304255.644 7     -2228.321          47.000
C11  25422042.148 5 132379250.314 5     -3293.754          32.000    25422039.125 4 102364001.504 4     -2547.266          29.000
C21  24668844.148 5 128457214.294 5     -2370.168          34.000
C26  23395691.125 7 121827449.753 7      1839.258          43.000
E03  25572214.711 5 134382895.118 5      1927.887          32.000    25572217.617 5 102968731.438 5      1477.140          35.000
E05  23426770.492 8 123108501.001 8      -143.742          51.000    23426772.359 8  94329991.879 8      -110.140          51.000
E09                                                                  23758155.086 6  95664264.885 6     -1590.570          37.000
E36                                                                  26546287.477 4 106890898.614 4     -2450.006          29.000
> 2020 05 02 00 05 30.0000000  0 14        .000000000000
G03  22533061.914 5 118412032.872 5     -2567.359          33.000    22533065.516 5  92269123.897 5     -2000.537          32.000
G04  20788849.297 8 109246217.366 8     -1598.562          51.000    20788849.508 8  85126910.430 8     -1245.633          51.000
G07  23577428.383 7 123900233.730 7      3305.574          45.000    23577427.688 7  96545615.559 7      2575.772          44.000
G09  20353289.570 8 106957340.758 8       669.953          51.000    20353290.242 8  83343379.700 8       522.041          51.000
G19  23812848.453 7 125137356.529 7     -2930.082          46.000    23812843.203 6  97509623.134 6     -2283.178          40.000
R01  19732030.531 6 105478953.182 6      -815.168          37.000    19732031.977 4  82039224.829 4      -634.020          27.000
R02  21566970.883 5 115085533.941 5      2478.766          31.000    21566970.500 4  89510914.151 4      1927.935          26.000
R11  22108942.789 7 118143473.675 7      3420.496          43.000    22108936.750 5  91889390.463 5      2660.392          30.000
R24  20766698.125 8 111048865.343 8     -2884.539          49.000    20766699.945 7  86371350.771 7     -2243.530          47.000
C11  25441024.531 5 132478105.663 5     -3295.098          31.000    25441023.500 5 102440456.708 5     -2548.057          32.000
C26  23385135.109 6 121772481.431 6      1826.691          40.000
E03                                                                  25561228.328 5 102924484.618 5      1473.710          32.000
E05  23427612.031 8 123112923.464 8      -149.602          51.000    23427613.797 8  94333380.530 8      -114.594          51.000
E09                                                                  23770009.578 5  95712017.464 5     -1591.626          34.000
> 2020 05 02 00 06  0.0000000  0 13        .000000000000
G04  20798012.578 8 109294370.405 8     -1609.480          51.000    20798012.883 8  85164432.275 8     -1254.141          51.000
G07  23558576.133 7 123801166.972 7      3300.949          44.000    23558575.078 7  96468420.674 7      2572.168          44.000
G09  20349509.859 8 106937478.333 8       656.312          51.000    20349510.578 8  83327902.489 8       511.412          51.000
G19  23829604.320 7 125225408.580 7     -2937.922          44.000    23829598.445 6  97578235.109 6     -2289.290          39.000
R01  19736637.602 5 105503584.379 5      -824.531          34.000    19736637.172 4  82058382.333 4      -641.305          27.000
R02  21553060.180 6 115011299.332 6      2472.719          36.000    21553060.836 4  89453176.153 4      1923.223          26.000
R11  22089781.188 6 118041086.033 6      3407.488          39.000    22089777.156 5  91809755.692 5      2650.272          35.000
R24  20782942.086 8 111135729.799 8     -2904.270          50.000    20782943.977 7  86438912.023 7     -2258.876          46.000
C11  25460016.875 4 132576989.364 4     -3296.277          29.000    25460019.727 5 102516940.799 5     -2549.682          32.000
C21  24696188.625 5 128599583.439 5     -2374.688          34.000
C26  23374653.250 6 121717902.911 6      1814.055          39.000
E05  23428489.719 8 123117535.692 8      -155.766          51.000    23428491.383 8  94336914.585 8      -119.338          51.000
E09                                                                  23781874.133 5  95759754.242 5     -1593.084          32.000
> 2020 05 02 00 06 30.0000000  0 13        .000000000000
G04  20807224.594 8 109342779.805 8     -1625.391          51.000    20807225.023 8  85202153.897 8     -1266.538          50.000
G07  23539736.273 7 123702166.101 7      3291.340          43.000    23539736.164 7  96391277.167 7      2564.680          43.000
G09  20345794.266 8 106917952.222 8       637.863          51.000    20345794.602 8  83312687.358 8       497.039          51.000
G19  23846391.922 7 125313629.327 7     -2950.922          44.000    23846386.648 6  97646978.535 6     -2299.423          39.000
R01  19741283.820 5 105528434.041 5      -839.820          32.000    19741285.359 4  82077708.894 4      -653.197          27.000
R02  21539177.375 4 114937149.844 4      2461.551          28.000
R08  22113338.898 5 118415892.082 5     -2779.824          32.000
R11  22070679.445 7 117939014.486 7      3389.277          42.000    22070679.992 6  91730366.731 6      2636.105          39.000
R24  20799283.219 8 111223113.266 8     -2929.090          50.000    20799284.695 7  86506876.958 7     -2278.181          46.000
C11                                                                  25479012.367 5 102593408.167 5     -2554.539          31.000
C26  23364232.836 6 121663641.632 6      1795.887          39.000
E05  23429389.188 8 123122261.783 8      -166.945          51.000    23429390.797 8  94340535.883 8      -127.919          51.000
E09  23793767.828 5 125037088.192 5     -2085.621          35.000    23793739.234 5  95807528.926 5     -1597.903          33.000
> 2020 05 02 00 07  0.0000000  0 15        .000000000000
G03  22577216.930 5 118644075.496 5     -2588.012          32.000
G04  20816517.320 8 109391613.364 8     -1630.871          51.000    20816517.703 8  85240206.023 8     -1270.809          51.000
G07  23520941.734 7 123603403.188 7      3292.230          43.000    23520942.789 7  96314319.072 7      2565.377          42.000
G09  20342174.664 8 106898931.567 8       629.480          51.000    20342174.867 8  83297866.098 8       490.504          51.000
G19  23863243.078 7 125402184.521 7     -2953.426          44.000    23863238.750 6  97715982.580 6     -2301.371          40.000
R01  19746003.086 5 105553674.192 5      -843.766          33.000    19746006.797 4  82097341.138 4      -656.262          27.000
R08  22128910.984 4 118499213.931 4     -2776.355          29.000
R11  22051671.438 7 117837435.976 7      3381.738          43.000    22051673.961 6  91651361.248 6      2630.241          40.000
R24  20815753.125 8 111311184.094 8     -2943.066          51.000    20815754.547 7  86575376.440 7     -2289.052          46.000
C11                                                                  25498032.562 5 102669986.733 5     -2551.075          33.000
C21  24723579.859 5 128742157.682 5     -2379.395          30.000
C26  23353905.039 6 121609867.215 6      1788.191          39.000
E03  25528394.555 5 134152618.792 5      1911.289          33.000    25528399.242 5 102792285.031 5      1463.899          33.000
E05  23430342.445 8 123127270.735 8      -167.793          51.000    23430344.211 8  94344373.913 8      -128.563          51.000
E09                                                                  23805633.977 5  95855415.025 5     -1595.035          34.000
> 2020 05 02 00 07 30.0000000  0 12        .000000000000
G04  20825873.672 8 109440781.097 8     -1642.734          51.000    20825874.023 8  85278518.547 8     -1280.053          50.000
G07  23502176.336 7 123504792.778 7      3286.258          43.000    23502177.852 6  96237479.818 6      2560.723          41.000
G09  20338634.266 8 106880327.774 8       615.078          51.000    20338634.562 8  83283369.650 8       479.282          51.000
G19  23880140.648 7 125490982.707 7     -2962.062          44.000    23880136.484 6  97785175.984 6     -2308.101          40.000
R01  19750781.133 5 105579214.184 5      -855.105          33.000    19750783.867 4  82117202.551 4      -665.079          27.000
R11  22032739.000 6 117736265.072 6      3367.152          38.000    22032742.734 6  91572672.764 6      2618.893          40.000
R24  20832334.094 8 111399848.826 8     -2963.488          50.000    20832335.062 7  86644337.858 7     -2304.935          45.000
C11                                                                  25517062.188 5 102746606.767 5     -2553.358          32.000
C26  23343655.664 7 121556494.260 7      1774.023          42.000
E03                                                                  25517518.344 6 102748458.855 6      1460.507          36.000
E05  23431332.422 8 123132473.754 8      -174.809          51.000    23431334.578 8  94348360.642 8      -133.989          51.000
E09  23817555.469 6 125162090.975 6     -2084.078          36.000    23817537.422 5  95903353.465 5     -1596.789          33.000
> 2020 05 02 00 08  0.0000000  0 13        .000000000000
G03  22606831.477 6 118799692.774 6     -2587.500          36.000    22606836.938 6  92571206.833 6     -2016.234          36.000
G04  20835272.453 8 109490171.783 8     -1640.230          51.000    20835272.859 8  85317004.805 8     -1278.102          50.000
G07  23483419.672 7 123406227.308 7      3294.617          45.000    23483418.141 6  96160675.672 6      2567.240          38.000
G09  20335152.391 8 106862030.929 8       614.605          51.000    20335152.789 8  83269112.368 8       478.913          51.000
G19  23897063.039 7 125579910.668 7     -2956.812          45.000    23897058.102 6  97854470.457 6     -2304.013          39.000
R01  19755594.133 5 105604941.739 5      -850.930          34.000    19755597.023 4  82137212.916 4      -661.834          27.000
R08  22160051.898 5 118666008.535 5     -2770.090          33.000
R24  20849004.094 8 111488991.813 8     -2969.457          50.000    20849004.641 7  86713671.294 7     -2309.578          44.000
C11                                                                  25536080.352 5 102823182.454 5     -2544.197          33.000
C26  23333462.086 6 121503415.937 6      1773.984          38.000
E03  25506631.047 5 134038238.760 5      1915.398          35.000    25506643.188 5 102704653.811 5      1467.556          33.000
E05  23432338.336 8 123137760.746 8      -167.922          51.000    23432340.797 8  94352411.723 8      -128.685          51.000
E09  23829452.703 5 125224618.220 5     -2072.516          32.000    23829429.078 5  95951241.897 5     -1588.031          32.000
> 2020 05 02 00 08 30.0000000  0 15        .000000000000
G03  22621688.039 5 118877759.084 5     -2614.898          34.000    22621688.820 5  92632037.658 5     -2037.592          31.000
G04  20844732.539 8 109539884.449 8     -1671.816          51.000    20844732.867 8  85355741.947 8     -1302.714          50.000
G07  23464691.375 7 123307809.842 7      3268.652          45.000    23464685.367 7  96083986.859 7      2547.005          42.000
G09  20331747.953 8 106844141.397 8       580.145          51.000    20331748.781 8  83255172.488 8       452.061          51.000
G19  23914028.867 7 125669065.901 7     -2984.938          45.000    23914022.727 6  97923942.007 6     -2325.928          38.000
R01  19760461.180 5 105630959.264 5      -881.824          32.000    19760464.898 4  82157448.763 4      -685.866          28.000
R08  22175656.492 4 118749497.213 4     -2794.172          28.000    22175653.758 4  92360804.900 4     -2173.248          28.000
R11  21995070.438 6 117534993.310 6      3332.160          36.000    21995066.258 6  91416100.051 6      2591.677          38.000
R24  20865781.281 8 111578711.779 8     -3009.680          49.000    20865782.945 7  86783453.487 7     -2340.865          44.000
C11                                                                  25555106.836 5 102899789.030 5     -2561.323          33.000
C26  23323343.844 6 121450733.934 6      1740.312          40.000
E03  25495775.875 5 133981211.761 5      1889.539          35.000    25495792.406 5 102660989.920 5      1447.769          31.000
E05  23433379.570 8 123143231.982 8      -194.938          51.000    23433381.836 8  94356603.965 8      -149.419          51.000
E09                                                                  23841330.469 5  95999158.154 5     -1605.742          32.000
E36  26674413.898 5 140174996.536 5     -3222.027          33.000
> 2020 05 02 00 09  0.0000000  0 12        .000000000000
G04  20854322.898 8 109590281.799 8     -1676.207          51.000    20854323.070 8  85395012.610 8     -1306.135          50.000
G07  23446061.242 7 123209907.320 7      3269.926          45.000    23446055.555 7  96007699.228 7      2547.997          45.000
G09  20328490.227 8 106827023.186 8       572.934          51.000    20328491.461 8  83241833.630 8       446.442          51.000
G19  23931106.469 7 125758809.398 7     -2985.992          44.000    23931100.875 6  97993871.946 6     -2326.750          38.000
R01  19765452.367 5 105657636.276 5      -884.520          35.000    19765455.539 4  82178197.566 4      -687.954          27.000
R02  21470320.023 5 114569713.298 5      2435.281          33.000
R11  21976414.039 6 117435313.511 6      3324.863          37.000    21976411.273 6  91338571.412 6      2586.008          36.000
R24  20882735.266 8 111669375.436 8     -3022.395          51.000    20882737.273 7  86853969.627 7     -2350.754          43.000
C11                                                                  25574208.984 5 102976703.767 5     -2557.563          31.000
C26  23313373.469 7 121398811.362 7      1733.254          42.000
E05  23434525.164 8 123149251.291 8      -194.621          51.000    23434527.086 8  94361216.157 8      -149.113          51.000
E09                                                                  23853313.039 5  96047396.843 5     -1601.387          33.000
> 2020 05 02 00 09 30.0000000  0 13        .000000000000
G03  22651591.539 6 119034918.854 6     -2621.664          37.000
G04  20863916.758 8 109640697.863 8     -1687.473          51.000    20863916.883 8  85434297.850 8     -1314.914          50.000
G07  23427403.188 7 123111858.001 7      3264.098          45.000    23427398.992 7  95931297.173 7      2543.453          45.000
G09  20325253.031 8 106810011.661 8       558.742          51.000    20325254.031 8  83228577.890 8       435.384          51.000
G19  23948168.797 7 125848473.353 7     -2994.035          45.000    23948165.398 6  98063739.942 6     -2333.017          38.000
R01  19770440.016 6 105684296.685 6      -895.184          37.000    19770443.477 4  82198933.473 4      -696.251          26.000
R11  21957779.727 6 117335745.397 6      3310.406          37.000    21957776.320 5  91261129.627 5      2574.760          32.000
R24  20899739.156 8 111760302.782 8     -3042.012          51.000    20899741.211 7  86924690.820 7     -2366.009          45.000
C11                                                                  25593260.367 5 103053415.785 5     -2558.641          33.000
C26  23303422.867 7 121346991.595 7      1719.074          43.000
E05  23435648.383 8 123155153.905 8      -201.387          51.000    23435650.289 8  94365738.959 8      -154.285          51.000
E09                                                                  23865248.695 5  96095440.780 5     -1603.359          34.000
E36  26711205.141 5 140368326.383 5     -3220.531          33.000
> 2020 05 02 00 10  0.0000000  0 13        .000000000000
G04  20873565.469 8 109691402.160 8     -1714.590          51.000    20873565.633 8  85473807.671 8     -1336.047          50.000
G07  23408769.297 7 123013935.739 7      3242.168          45.000    23408766.180 7  95854994.098 7      2526.365          45.000
G09  20322087.672 8 106793377.621 8       528.473          51.000    20322088.422 8  83215616.316 8       411.800          51.000
G19  23965267.109 7 125938325.813 7     -3017.879          45.000    23965265.844 6  98133754.863 6     -2351.594          39.000
R01  19775475.820 6 105711215.864 6      -921.578          38.000    19775480.719 4  82219879.637 4      -716.780          26.000
R11  21939219.234 6 117236569.085 6      3279.156          41.000
R24  20916843.352 8 111851765.663 8     -3077.715          51.000    20916846.117 7  86995828.603 7     -2393.778          46.000
C11                                                                  25612312.023 5 103130130.800 5     -2572.074          32.000
C26  23293544.258 7 121295545.299 7      1688.992          45.000
E03  25463462.828 5 133811393.574 5      1866.203          34.000
E05  23436800.969 8 123161210.541 8      -224.156          51.000    23436802.938 8  94370379.772 8      -171.744          51.000
E09                                                                  23877186.922 5  96143497.258 5     -1617.232          34.000
E36  26729580.273 5 140464902.088 5     -3238.633          30.000
> 2020 05 02 00 10 30.0000000  0 14        .000000000000
G03  22681593.117 6 119192569.569 6     -2633.754          36.000    22681593.211 5  92877330.184 5     -2052.276          33.000
G04  20883291.727 8 109742513.846 8     -1707.617          51.000    20883291.984 8  85513634.937 8     -1330.611          50.000
G07  23390182.680 7 122916263.084 7      3254.277          42.000    23390180.766 7  95778885.517 7      2535.801          42.000
G09  20319017.180 8 106777241.504 8       532.457          51.000    20319017.797 8  83203042.738 8       414.902          51.000
G19  23982423.844 7 126028484.003 7     -3007.352          46.000    23982423.453 6  98204007.998 6     -2343.391          39.000
R01  19780583.578 6 105738516.165 6      -913.273          38.000    19780590.367 4  82241113.241 4      -710.324          27.000
R02  21429361.586 5 114351182.382 5      2418.246          32.000
R11  21920756.250 7 117137911.839 7      3282.887          42.000    21920773.094 4  91107309.581 4      2553.359          29.000
R24  20934069.344 8 111943883.354 8     -3078.520          49.000    20934073.219 7  87067475.704 7     -2394.404          46.000
C11                                                                  25631386.453 5 103206939.615 5     -2559.695          30.000
C26  23283759.578 7 121244593.980 7      1692.859          42.000
E03  25452732.570 5 133755012.624 5      1879.008          32.000
E05  23438005.828 8 123167541.524 8      -212.699          51.000    23438007.664 8  94375230.781 8      -162.992          51.000
E09                                                                  23889147.375 5  96191658.541 5     -1605.032          32.000
> 2020 05 02 00 11  0.0000000  0 13        .000000000000
G04  20893121.312 8 109794168.451 8     -1718.410          51.000    20893121.555 8  85553885.262 8     -1339.021          51.000
G07  23371670.195 6 122818980.379 6      3248.402          41.000    23371669.438 6  95703080.798 6      2531.223          41.000
G09  20316067.570 8 106761740.181 8       518.500          51.000    20316068.047 8  83190963.781 8       404.023          51.000
G19  23999664.406 7 126119082.097 7     -3014.828          46.000    23999663.445 6  98274603.896 6     -2349.217          40.000
R01  19785788.312 6 105766336.459 6      -923.098          37.000
R11  21902417.367 6 117039917.653 6      3267.887          41.000    21902414.922 5  91031010.668 5      2541.687          31.000
R24  20951443.703 8 112036791.337 8     -3097.516          50.000    20951447.234 7  87139737.487 7     -2409.179          45.000
C11                                                                  25650509.109 5 103283945.434 5     -2560.302          30.000
C21  24833846.719 4 129316355.529 4     -2401.270          29.000
C26  23274095.594 7 121194275.459 7      1678.863          42.000
E03  25442047.734 5 133698866.627 5      1874.445          33.000
E05  23439288.750 8 123174283.578 8      -219.230          51.000    23439290.461 8  94380396.770 8      -167.997          51.000
E09  23901174.336 5 125601517.372 5     -2096.434          34.000    23901155.836 5  96240050.367 5     -1605.972          31.000
> 2020 05 02 00 11 30.0000000  0 14        .000000000000
G03  22711805.180 5 119351351.230 5     -2650.168          34.000    22711818.445 5  93001073.661 5     -2065.072          32.000
G04  20902981.086 8 109845982.100 8     -1731.156          51.000    20902981.195 8  85594259.532 8     -1348.953          51.000
G07  23353159.438 6 122721707.764 6      3240.715          39.000    23353159.672 6  95627283.895 6      2525.229          39.000
G09  20313165.766 8 106746491.063 8       502.594          51.000    20313166.227 8  83179081.328 8       391.628          51.000
G19  24016915.297 7 126209734.356 7     -3023.965          46.000    24016912.938 6  98345241.982 6     -2356.339          41.000
R01  19791016.781 5 105794287.485 5      -934.828          32.000
R11  21884131.117 5 116942202.190 5      3251.180          35.000    21884134.133 6  90955009.864 6      2528.704          36.000
R24  20968892.766 8 112130096.595 8     -3118.148          50.000    20968895.312 7  87212308.229 7     -2425.227          45.000
C11  25669605.516 5 133668360.654 5     -3314.379          30.000    25669608.039 5 103360853.546 5     -2563.389          32.000
C21  24847725.406 5 129388625.382 5     -2406.289          30.000
C26  23264481.367 7 121144212.863 7      1663.207          43.000
E03  25431383.305 6 133642798.885 6      1868.113          37.000    25431386.344 5 102401655.054 5      1431.253          34.000
E05  23440576.938 8 123181054.055 8      -227.523          51.000    23440578.766 8  94385584.536 8      -174.336          51.000
E09  23913164.961 5 125664536.163 5     -2100.395          35.000    23913145.195 5  96288333.546 5     -1608.789          31.000
> 2020 05 02 00 12  0.0000000  0 15        .000000000000
G03  22726947.125 5 119430927.596 5     -2656.793          32.000    22726955.070 5  93063081.008 5     -2070.237          33.000
G04  20912893.586 8 109898072.747 8     -1741.477          51.000    20912893.656 8  85634849.638 8     -1356.992          50.000
G07  23334672.992 6 122624567.450 6      3235.004          37.000    23334673.867 6  95551590.076 6      2520.779          37.000
G09  20310334.695 8 106731613.314 8       489.301          51.000    20310335.375 8  83167488.283 8       381.273          51.000
G19  24034198.438 7 126300557.009 7     -3030.598          46.000    24034195.594 6  98416012.854 6     -2361.505          41.000
R01  19796291.688 5 105822490.240 5      -944.652          32.000
R02  21388829.328 6 114134880.506 6      2397.875          36.000    21388815.484 5  88771520.028 5      1865.020          30.000
R11  21865922.023 5 116844891.715 5      3236.711          35.000    21865922.641 5  90879323.980 5      2517.442          34.000
R17  20765532.000 5 111120561.268 5       698.992          34.000
R24  20986438.156 8 112223916.871 8     -3136.352          49.000    20986439.844 7  87285279.537 7     -2439.385          46.000
C11  25688707.055 4 133767809.249 4     -3315.047          29.000    25688704.852 5 103437753.555 5     -2563.788          34.000
C26  23254939.258 6 121094526.482 6      1649.270          41.000
E03  25420736.094 5 133586865.291 5      1863.332          35.000    25420737.383 5 102358767.895 5      1427.957          35.000
E05  23441893.406 8 123187972.076 8      -233.621          51.000    23441895.422 8  94390885.350 8      -178.949          51.000
E09  23925160.672 6 125727564.807 6     -2101.469          38.000    23925143.766 5  96336628.381 5     -1610.495          34.000
> 2020 05 02 00 12 30.0000000  0 15        .000000000000
G04  20922875.641 8 109950529.111 8     -1754.297          51.000    20922875.828 8  85675724.721 8     -1366.985          51.000
G07  23316227.750 5 122527604.718 5      3227.461          33.000    23316227.133 5  95476071.342 5      2514.892          32.000
G09  20307591.648 8 106717196.919 8       473.148          51.000    20307592.312 8  83156254.747 8       368.687          51.000
G19  24051530.141 7 126391636.847 7     -3039.898          45.000    24051528.242 7  98486984.159 7     -2368.752          43.000
R01  19801630.945 5 105851036.029 5      -956.723          33.000    19801638.984 4  82328631.547 4      -744.121          26.000
R02  21375373.180 4 114063091.757 4      2388.656          28.000    21375362.680 3  88715684.394 3      1857.850          23.000
R11  21847807.164 5 116748082.366 5      3218.445          35.000    21847805.773 5  90804027.770 5      2503.232          33.000
R24  21004095.438 7 112318340.083 7     -3157.191          46.000    21004097.758 7  87358719.794 7     -2455.596          47.000
C11  25707814.344 4 133867315.625 4     -3318.801          28.000    25707816.148 5 103514712.833 5     -2565.715          33.000
C21  24875491.938 4 129533204.744 4     -2413.637          29.000
C24  25577578.086 6 133189153.982 6      3280.246          39.000
C26  23245486.656 6 121045307.573 6      1633.129          40.000
E03                                                                  25410124.750 5 102316022.892 5      1422.672          34.000
E05  23443255.195 8 123195127.515 8      -242.137          51.000    23443257.352 8  94396368.087 8      -185.524          51.000
E09  23937177.633 6 125790693.232 6     -2105.555          37.000    23937161.859 5  96384999.573 5     -1613.281          33.000
> 2020 05 02 00 13  0.0000000  0 14        .000000000000
G04  20932905.414 8 110003236.288 8     -1759.457          51.000    20932905.789 8  85716795.257 8     -1371.005          51.000
G07  23297805.117 5 122430792.128 5      3225.910          30.000    23297800.844 4  95400602.609 4      2513.696          28.000
G09  20304914.555 8 106703128.276 8       464.719          51.000    20304915.023 8  83145292.169 8       362.119          51.000
G19  24068888.523 7 126482857.312 7     -3041.465          45.000    24068888.164 7  98558065.100 7     -2369.973          43.000
R01  19807013.719 5 105879809.179 5      -961.277          35.000    19807022.352 4  82351010.668 4      -747.663          28.000
R11  21829762.891 5 116651663.618 5      3209.176          34.000    21829759.625 4  90729035.295 4      2496.023          27.000
R24  21021843.117 7 112413246.876 7     -3169.922          46.000    21021846.133 7  87432536.205 7     -2465.495          47.000
C11                                                                  25726920.055 5 103591642.871 5     -2562.957          34.000
C21  24889385.219 4 129605559.042 4     -2412.195          27.000
C24  25558670.555 6 133090691.235 6      3283.867          39.000
C26  23236103.047 6 120996445.874 6      1624.430          39.000
E03                                                                  25399525.180 5 102273333.391 5      1423.246          33.000
E05  23444640.375 8 123202406.701 8      -243.016          51.000    23444642.641 8  94401945.653 8      -186.234          51.000
E09  23949190.898 6 125853843.799 6     -2101.891          37.000
> 2020 05 02 00 13 30.0000000  0 14        .000000000000
G04  20943004.492 8 110056307.872 8     -1777.281          51.000    20943005.156 8  85758149.744 8     -1384.894          51.000
G07  23279426.867 5 122334230.230 5      3212.934          34.000    23279424.891 5  95325354.335 5      2503.579          34.000
G09  20302325.250 8 106689522.201 8       443.840          51.000    20302325.844 8  83134690.023 8       345.846          51.000
G19  24086295.211 7 126574330.608 7     -3055.332          46.000    24086296.062 6  98629343.061 6     -2380.778          41.000
R01  19812461.492 6 105908926.737 6      -978.289          37.000    19812469.750 4  82373657.636 4      -760.888          29.000
R11  21811811.203 5 116555756.891 5      3185.766          30.000    21811808.406 4  90654434.155 4      2477.818          26.000
R17  20754504.578 5 111061517.482 5       611.359          35.000
R24  21039702.883 7 112508750.263 7     -3195.305          47.000    21039705.945 7  87506816.600 7     -2485.240          47.000
C11                                                                  25746039.031 5 103668629.871 5     -2568.672          33.000
C24  25539781.352 6 132992329.011 6      3274.930          39.000
C26  23226808.461 5 120948057.215 5      1602.590          35.000
E03  25388957.383 5 133419857.152 5      1845.945          34.000    25388952.430 5 102230788.698 5      1414.105          33.000
E05  23446070.883 8 123209924.419 8      -256.539          51.000    23446072.906 8  94407705.986 8      -196.455          51.000
E36  26858775.781 5 141143822.339 5     -3241.926          35.000
> 2020 05 02 00 14  0.0000000  0 14        .000000000000
G04  20953190.547 8 110109836.551 8     -1786.434          51.000    20953191.359 8  85799860.411 8     -1392.026          50.000
G07  23261114.359 6 122237989.141 6      3207.852          37.000    23261115.289 6  95250361.263 6      2499.622          39.000
G09  20299841.891 8 106676472.594 8       431.156          51.000    20299842.773 8  83124521.494 8       335.966          51.000
G19  24103767.664 7 126666148.366 7     -3060.684          47.000    24103769.031 6  98700889.436 6     -2384.945          40.000
R01  19817990.984 6 105938483.588 6      -987.152          36.000    19817998.508 4  82396646.314 4      -767.782          27.000
R11  21793977.938 6 116460462.550 6      3171.930          36.000    21793975.305 5  90580316.312 5      2467.059          33.000
R17  20751160.750 4 111043647.747 4       584.492          29.000
R24  21057692.055 8 112604942.274 8     -3212.266          50.000    21057694.227 7  87581632.607 7     -2498.432          47.000
C11                                                                  25765191.516 5 103745744.359 5     -2568.639          30.000
C24  25520929.219 6 132894163.164 6      3274.191          37.000
C26  23217625.102 6 120900236.822 6      1589.910          39.000
E03  25378441.320 5 133364619.262 5      1842.469          33.000    25378438.633 5 102188459.115 5      1411.483          33.000
E05  23447564.797 8 123217774.537 8      -261.695          51.000    23447566.250 8  94413721.005 8      -200.559          51.000
E36  26877302.203 5 141241183.349 5     -3243.227          34.000
> 2020 05 02 00 14 30.0000000  0 13        .000000000000
G04  20963415.180 8 110163567.413 8     -1795.898          51.000    20963415.820 8  85841728.615 8     -1399.401          49.000
G07  23242815.734 6 122141826.003 6      3203.031          40.000    23242818.141 6  95175428.907 6      2495.869          39.000
G09  20297416.211 8 106663725.710 8       418.375          51.000    20297417.047 8  83114588.867 8       326.006          51.000
G19  24121256.641 7 126758052.824 7     -3066.430          46.000    24121257.781 6  98772503.320 6     -2389.426          40.000
R01  19823553.555 6 105968221.797 6      -996.113          37.000    19823561.273 4  82419775.965 4      -774.755          25.000
R11  21776213.617 6 116365527.017 6      3157.039          41.000    21776211.055 6  90506477.609 6      2455.475          36.000
R23  23475341.422 5 125577235.487 5     -4597.977          31.000
R24  21075760.531 8 112701561.222 8     -3229.348          49.000    21075762.703 7  87656780.664 7     -2511.715          47.000
C24  25502066.398 5 132795945.168 5      3273.574          35.000
C26  23208504.727 7 120852735.536 7      1576.719          42.000
E03  25367926.414 5 133309351.189 5      1838.730          35.000    25367928.773 5 102146151.489 5      1408.796          31.000
E05  23449073.758 8 123225703.305 8      -267.109          51.000    23449074.734 8  94419796.299 8      -204.644          51.000
E36  26895817.672 5 141338490.674 5     -3244.156          35.000
> 2020 05 02 00 15  0.0000000  0 13        .000000000000
G04  20973692.820 8 110217576.551 8     -1807.121          51.000    20973693.383 8  85883813.653 8     -1408.146          49.000
G07  23224547.047 6 122045821.021 6      3195.043          38.000    23224546.930 6  95100619.834 6      2489.644          38.000
G09  20295062.938 8 106651358.954 8       403.723          51.000    20295063.688 8  83104952.435 8       314.589          51.000
G19  24138776.180 7 126850118.541 7     -3073.621          44.000    24138776.562 7  98844242.822 7     -2395.029          43.000
R01  19829164.734 6 105998220.020 6     -1006.473          39.000
R11  21758530.945 7 116271034.137 7      3139.980          44.000    21758529.203 6  90432983.169 6      2442.207          37.000
R24  21093921.961 8 112798681.909 8     -3247.914          49.000    21093924.492 7  87732318.976 7     -2526.155          46.000
C21  24945196.203 5 129896181.265 5     -2428.129          30.000
C24  25483209.078 6 132697754.567 6      3270.297          37.000
C26  23199460.320 7 120805632.054 7      1561.168          43.000
E03  25357435.680 6 133254242.795 6      1833.125          36.000
E05  23450612.305 8 123233788.056 8      -274.266          51.000    23450613.289 8  94425991.113 8      -210.125          51.000
E36  26914338.602 6 141435804.283 6     -3246.926          36.000
> 2020 05 02 00 15 30.0000000  0 14        .000000000000
G04  20984039.516 8 110271948.501 8     -1815.074          51.000    20984039.977 8  85926181.411 8     -1414.344          48.000
G07  23206325.250 6 121950062.448 6      3191.043          40.000    23206320.781 6  95026002.829 6      2486.533          41.000
G09  20292798.180 8 106639458.051 8       392.266          51.000    20292799.156 8  83095679.015 8       305.662          51.000
G19  24156341.992 7 126942428.587 7     -3077.695          42.000    24156341.383 6  98916172.711 6     -2398.204          41.000
R01  19834841.367 6 106028565.443 6     -1014.094          40.000    19834845.570 4  82466701.470 4      -788.724          26.000
R02  21295410.039 5 113636363.074 5      2352.574          33.000
R11  21740947.656 7 116177075.872 7      3126.539          44.000    21740947.578 6  90359904.573 6      2431.753          36.000
R23  23526926.055 4 125853179.343 4     -4598.047          29.000
R24  21112192.828 8 112896387.919 8     -3263.109          49.000    21112195.438 7  87808312.521 7     -2537.974          45.000
C24  25464374.477 6 132599679.115 6      3270.309          37.000
C26  23190508.625 7 120759013.571 7      1548.953          43.000
E03  25346985.531 6 133199327.304 6      1830.336          36.000
E05  23452196.727 8 123242114.557 8      -278.191          51.000    23452198.086 8  94432371.165 8      -213.175          51.000
E36  26932880.547 6 141533240.630 6     -3246.156          38.000
> 2020 05 02 00 16  0.0000000  0 13        .000000000000
G04  20994444.992 8 110326629.547 8     -1827.445          51.000    20994445.227 7  85968790.014 7     -1423.983          47.000
G07  23188141.133 7 121854500.824 7      3182.273          44.000    23188135.305 7  94951539.261 7      2479.694          43.000
G09  20290612.047 8 106627970.433 8       376.309          51.000    20290613.172 8  83086727.640 8       293.227          51.000
G19  24173943.734 7 127034927.606 7     -3085.953          42.000    24173942.312 7  98988249.883 7     -2404.639          42.000
R01  19840572.914 6 106059204.299 6     -1025.934          39.000    19840575.438 4  82490531.164 4      -797.951          26.000
R02  21282211.070 5 113565937.111 5      2344.426          33.000
R11  21723454.969 7 116083603.687 7      3108.145          45.000    21723456.539 6  90287204.015 6      2417.449          37.000
R24  21130562.891 8 112994622.108 8     -3282.914          50.000    21130565.266 7  87884716.876 7     -2553.378          45.000
C24  25445552.477 5 132501669.543 5      3265.988          34.000
C26  23181639.914 6 120712830.153 6      1532.324          41.000
E03  25336562.844 5 133144535.536 5      1823.828          34.000
E05  23453817.078 8 123250630.214 8      -286.648          51.000    23453818.789 8  94438896.147 8      -219.631          51.000
E36  26951432.258 6 141630729.919 6     -3250.254          37.000
> 2020 05 02 00 16 30.0000000  0 14        .000000000000
G03  22865038.359 5 120156582.257 5     -2718.328          32.000    22865034.125 5  93628501.904 5     -2118.184          31.000
G04  21004901.469 8 110381578.679 8     -1837.574          51.000    21004901.648 7  86011607.503 7     -1431.876          45.000
G07  23169987.836 7 121759099.568 7      3175.961          46.000    23169982.516 7  94877200.626 7      2474.775          46.000
G09  20288497.117 8 106616856.295 8       362.719          51.000    20288498.172 8  83078067.271 8       282.638          51.000
G19  24191573.617 7 127127572.675 7     -3092.203          44.000    24191571.391 7  99060440.814 7     -2409.512          43.000
R01  19846351.648 6 106090096.445 6     -1035.695          40.000    19846355.273 5  82514558.374 5      -805.541          30.000
R02  21269036.578 4 113495632.805 4      2338.605          29.000    21269028.797 4  88274362.487 4      1818.912          26.000
R11  21706046.664 7 115990581.701 7      3091.742          44.000    21706049.242 6  90214853.630 6      2404.691          36.000
R24  21149023.742 8 113093340.074 8     -3300.137          48.000    21149025.984 7  87961497.508 7     -2566.773          44.000
C24  25426737.312 5 132403689.370 5      3263.773          34.000
C26  23172847.211 6 120667044.484 6      1518.160          40.000
E03  25326160.570 6 133089862.309 6      1819.508          36.000    25326171.203 5 101977996.083 5      1394.195          35.000
E05  23455465.844 8 123259295.216 8      -292.801          51.000    23455467.664 8  94445535.560 8      -224.369          51.000
E36  26969985.984 6 141728231.049 6     -3251.766          36.000
> 2020 05 02 00 17  0.0000000  0 16        .000000000000
G03  22880571.086 5 120238243.091 5     -2725.082          34.000    22880573.805 5  93692133.697 5     -2123.441          34.000
G04  21015428.297 8 110436897.619 8     -1848.785          50.000    21015428.453 7  86054713.163 7     -1440.612          45.000
G07  23151885.023 8 121663964.092 8      3167.977          48.000    23151880.828 8  94803069.102 8      2468.553          48.000
