     3.02           OBSERVATION DATA    M (MIXED)           RINEX VERSION / TYPE
SAVERINEX           SC600               20200518 045930 LCL PGM / RUN BY / DATE
       G = GPS       R = GLONASS       C = COMPASS          COMMENT
       S = SBAS      J = QZSS          E = GALILEO          COMMENT
BEAN                                                        MARKER NAME
1                                                           MARKER NUMBER
GEODETIC                                                    MARKER TYPE
Unige DICCA         GTER                                    OBSERVER / AGENCY
SC60291900056       SC600               2.12(191202)        REC # / TYPE / VERS
                    HEMA45          NONE                    ANT # / TYPE
  4509407.8091   693652.4678  4442337.6214                  APPROX POSITION XYZ
        0.0000        0.0000        0.0000                  ANTENNA: DELTA H/E/N
G    8 C1C L1C D1C S1C C2Y L2Y D2Y S2Y                      SYS / # / OBS TYPES
R    8 C1C L1C D1C S1C C2P L2P D2P S2P                      SYS / # / OBS TYPES
C    8 C1I L1I D1I S1I C7I L7I D7I S7I                      SYS / # / OBS TYPES
E    8 C1C L1C D1C S1C C7Q L7Q D7Q S7Q                      SYS / # / OBS TYPES
DBHZ                                                        COMMENT
     30.000                                                 INTERVAL
  2020    05    18    02    00    0.0000000     GPS         TIME OF FIRST OBS
  2020    05    18    02    59   30.0000000     GPS         TIME OF LAST OBS
     0                                                      RCV CLOCK OFFS APPL
G L1C  0.00000                                              SYS / PHASE SHIFT
G L2Y  0.00000                                              SYS / PHASE SHIFT
R L1C  0.00000                                              SYS / PHASE SHIFT
R L2P  0.25000                                              SYS / PHASE SHIFT
C L1I  0.00000                                              SYS / PHASE SHIFT
C L7I  0.00000                                              SYS / PHASE SHIFT
E L1C  0.50000                                              SYS / PHASE SHIFT
E L7Q -0.25000                                              SYS / PHASE SHIFT
 13 R01  1 R02 -4 R03  5 R07  5 R08  6 R10 -5 R11  0 R12 -1 GLONASS SLOT / FRQ #
    R13 -2 R14 -7 R17  4 R22 -3 R23  3                      GLONASS SLOT / FRQ #
 C1C   71.950 C2C   71.950 C2P   71.950                     GLONASS COD/PHS/BIS
    18                                                      LEAP SECONDS
*** Above antenna height is from mark to ANTENNA BOTTOM.    COMMENT
    17     4        0.0000        ANT MEASURE TYPE/HEIGT    COMMENT
    0.0000    0.0000    0.0458    0.0405    0.0000          COMMENT
                    BASE STATION                            COMMENT
                                                            END OF HEADER
> 2020 05 18 02 00  0.0000000  0 16        .000000000000
G02  23762473.141 7 124872639.968 7     -2468.766          47.000    23762472.109 7  97303350.149 7     -1923.713          47.000
G05  20774835.039 5 109172495.002 5      1178.605          31.000    20774833.055 5  85069467.981 5       918.388          32.000
G07  21231811.773 8 111573927.490 8     -1462.012          48.000    21231810.664 8  86940716.382 8     -1139.230          48.000
G09  23034382.172 5 121046466.009 5     -2699.184          34.000    23034377.164 5  94321881.837 5     -2103.266          32.000
G28  23554098.688 5 123777638.895 5      3273.520          35.000
G30  20420297.617 8 107309393.720 8       578.285          51.000    20420298.508 8  83617744.986 8       450.612          51.000
R02  19708554.648 8 105168663.521 8     -1298.141          51.000    19708556.016 8  81797817.890 8     -1009.665          50.000
R12  19761854.906 8 105564411.345 8     -1440.359          49.000    19761857.828 8  82105642.177 8     -1120.280          49.000
R13  20194363.656 6 107836777.433 6      2916.262          37.000    20194365.703 7  83873034.257 7      2268.204          42.000
C05  39811644.031 6 207309677.515 6        -8.070          37.000    39811640.781 6 160304982.141 6        -5.793          40.000
C21  21693911.141 8 112965906.459 8      -172.562          51.000
C22  24288110.523 8 126474556.265 8     -2646.328          50.000
C26  23531853.891 8 122536489.702 8      2913.520          51.000
E02  24579405.586 6 129165652.618 6      -484.258          41.000    24579408.938 7  98971094.821 7      -370.809          42.000
E08  22312714.164 8 117254107.085 8     -1270.328          51.000    22312716.203 8  89844201.114 8      -973.320          50.000
E30  23530400.609 8 123653079.941 8      2264.863          51.000    23530403.094 8  94747173.156 8      1735.424          51.000
> 2020 05 18 02 00 30.0000000  0 15        .000000000000
G02  23776576.750 8 124946754.096 8     -2475.621          48.000    23776576.148 7  97361101.430 7     -1929.055          46.000
G05  20768139.195 5 109137309.258 5      1162.070          33.000    20768136.711 5  85042050.472 5       905.512          32.000
G07  21240180.500 8 111617905.289 8     -1473.094          48.000    21240179.344 8  86974984.778 8     -1147.865          48.000
G28  23535410.047 5 123679431.873 5      3269.672          34.000
G30  20417029.656 8 107292220.113 8       563.215          51.000    20417030.375 8  83604362.958 8       438.869          51.000
R02  19715885.281 8 105207781.008 8     -1313.125          51.000    19715887.094 8  81828242.598 8     -1021.319          50.000
R12  19770000.156 8 105607922.176 8     -1463.754          50.000    19770003.273 8  82139483.935 8     -1138.475          50.000
R13  20178024.906 6 107749531.925 6      2896.910          37.000    20178026.805 7  83805176.624 7      2253.149          42.000
C05  39811675.773 6 207309842.342 6        -6.902          36.000    39811672.594 6 160305110.006 6        -5.168          40.000
C21  21694929.789 8 112971210.511 8      -184.312          51.000
C22  24303365.383 8 126553990.902 8     -2652.633          49.000
C26  23515079.719 8 122449143.692 8      2906.133          51.000
E02  24582197.227 6 129180322.462 6      -497.375          39.000    24582199.391 7  98982335.398 7      -381.189          42.000
E08  22319971.688 8 117292244.900 8     -1275.613          51.000    22319973.203 8  89873423.566 8      -977.373          50.000
E30  23517488.703 8 123585225.497 8      2255.445          51.000    23517490.805 8  94695180.756 8      1728.240          51.000
> 2020 05 18 02 01  0.0000000  0 16        .000000000000
G02  23790723.586 8 125021095.415 8     -2481.352          49.000    23790723.086 7  97419029.726 7     -1933.521          44.000
G05  20761541.555 6 109102638.302 6      1147.277          36.000    20761539.125 6  85015034.109 6       893.982          36.000
G07  21248616.055 7 111662233.974 7     -1483.137          47.000    21248614.812 7  87009526.612 7     -1155.688          47.000
G28  23516743.758 5 123581341.320 5      3268.305          34.000
G30  20413851.930 8 107275520.051 8       549.215          51.000    20413852.438 8  83591349.922 8       427.960          51.000
R02  19723304.297 8 105247371.521 8     -1327.172          51.000    19723306.648 8  81859035.208 8     -1032.248          51.000
R11  23304597.586 5 124532710.103 5     -4070.215          31.000
R12  19778281.398 8 105652158.851 8     -1486.148          50.000    19778284.430 8  82173890.231 8     -1155.893          49.000
R13  20161798.539 6 107662887.356 6      2878.348          37.000    20161800.648 6  83737786.392 6      2238.715          41.000
C05  39811706.008 6 207309999.640 6        -5.008          36.000    39811702.781 6 160305231.640 6        -3.700          40.000
C21  21696020.070 8 112976887.833 8      -195.082          51.000
C22  24318661.039 8 126633638.511 8     -2658.043          49.000
C26  23498352.469 8 122362042.747 8      2899.727          51.000
E02  24585071.133 7 129195423.985 7      -510.227          43.000    24585073.578 7  98993906.703 7      -390.974          42.000
E08  22327263.680 8 117330563.028 8     -1279.910          51.000    22327264.141 8  89902784.190 8      -980.812          48.000
E30  23504634.992 8 123517677.225 8      2246.898          51.000    23504636.805 8  94643422.969 8      1721.578          51.000
> 2020 05 18 02 01 30.0000000  0 16        .000000000000
G02  23804913.188 8 125095661.502 8     -2489.023          48.000    23804912.164 7  97477133.157 7     -1939.499          42.000
G05  20755042.195 5 109068483.730 5      1129.926          35.000    20755040.453 5  84988420.195 5       880.465          35.000
G07  21257118.000 7 111706912.370 7     -1494.723          47.000    21257116.969 7  87044340.985 7     -1164.719          47.000
G13  22787566.312 5 119749461.481 5      2688.023          30.000
G28  23498100.461 5 123483370.657 5      3264.098          33.000
G30  20410764.188 8 107259293.454 8       533.418          51.000    20410764.594 8  83578705.822 8       415.650          51.000
R02  19730811.969 8 105287435.583 8     -1342.949          51.000    19730814.906 8  81890196.150 8     -1044.516          51.000
R12  19786698.008 8 105697118.591 8     -1510.309          51.000    19786700.984 8  82208858.926 8     -1174.684          50.000
R13  20145685.844 6 107576847.722 6      2858.059          38.000    20145687.977 6  83670866.670 6      2222.934          40.000
C05  39811734.664 6 207310148.996 6        -4.566          36.000    39811731.469 6 160305347.158 6        -3.428          40.000
C21  21697182.117 8 112982939.244 8      -207.664          51.000
C22  24333996.680 7 126713498.465 7     -2665.160          47.000
C26  23481672.859 8 122275188.486 8      2891.395          51.000
E02  24588027.500 6 129210956.630 6      -524.496          41.000    24588030.414 6  99005808.368 6      -402.033          40.000
E08  22334589.789 8 117369061.759 8     -1285.992          51.000    22334588.867 7  89932283.192 7      -985.413          47.000
E30  23491840.148 8 123450436.752 8      2236.488          51.000    23491841.359 8  94591901.048 8      1713.661          51.000
> 2020 05 18 02 02  0.0000000  0 16        .000000000000
G02  23819146.914 7 125170459.488 7     -2496.504          47.000    23819144.453 6  97535417.250 6     -1945.328          40.000
G05  20748643.367 6 109034856.791 6      1112.453          37.000    20748640.820 6  84962217.427 6       866.853          37.000
G07  21265688.133 8 111751949.009 8     -1506.637          49.000    21265687.109 8  87079434.476 8     -1174.003          49.000
G28  23479482.344 5 123385532.812 5      3259.469          35.000
G30  20407768.375 8 107243550.027 8       517.109          51.000    20407768.656 8  83566438.198 8       402.942          51.000
R02  19738410.453 8 105327983.794 8     -1359.125          51.000    19738413.836 8  81921733.675 8     -1057.097          51.000
R11  23350394.977 5 124777431.114 5     -4085.379          32.000
R12  19795251.273 8 105742809.094 8     -1534.555          51.000    19795254.219 8  82244395.994 8     -1193.543          49.000
R13  20129689.000 6 107491425.012 6      2837.359          38.000    20129690.539 6  83604426.819 6      2206.838          39.000
C05  39811763.789 6 207310300.398 6        -4.289          37.000    39811760.469 6 160305464.250 6        -3.528          40.000
C21  21698417.891 8 112989375.164 8      -220.488          51.000
C22  24349373.883 7 126793579.812 7     -2672.582          47.000
C26  23465043.102 8 122188592.332 8      2882.691          51.000
E02  24591067.125 7 129226929.626 7      -539.090          43.000    24591069.523 6  99018047.454 6      -413.009          37.000
E08  22341952.047 8 117407751.236 8     -1292.301          50.000    22341950.008 7  89961928.333 7      -990.210          47.000
E30  23479106.031 8 123383515.515 8      2225.926          51.000    23479106.508 8  94540623.739 8      1705.612          51.000
> 2020 05 18 02 02 30.0000000  0 17        .000000000000
G02  23833413.367 7 125245429.754 7     -2501.367          46.000    23833408.719 6  97593835.610 6     -1949.117          39.000
G05  20742334.312 6 109001702.113 6      1097.566          36.000    20742330.766 6  84936382.565 6       855.240          36.000
G07  21274315.352 8 111797285.219 8     -1515.594          48.000    21274314.164 8  87114761.383 8     -1180.982          48.000
G13  22756948.492 6 119588551.753 6      2680.391          36.000
G28  23460879.414 5 123287773.585 5      3257.949          34.000    23460879.977 5  96068380.373 5      2538.662          32.000
G30  20404853.609 8 107228232.679 8       504.113          51.000    20404853.852 8  83554502.604 8       392.819          51.000
R02  19746088.766 8 105368958.197 8     -1372.297          51.000    19746092.547 8  81953602.702 8     -1067.342          51.000
R11  23373343.547 5 124900059.871 5     -4090.836          32.000
R12  19803930.039 8 105789170.031 8     -1555.898          51.000    19803932.984 8  82280454.513 8     -1210.143          49.000
R13  20113797.258 6 107406564.554 6      2819.711          38.000    20113798.242 6  83538424.311 6      2193.112          39.000
C05  39811782.383 6 207310397.442 6        -1.578          36.000    39811779.047 6 160305539.300 6        -1.308          40.000
C21  21699716.992 8 112996139.931 8      -230.355          51.000
C22  24364783.891 8 126873825.547 8     -2677.016          48.000
C26  23448452.555 8 122102199.518 8      2876.957          51.000
E02  24594180.172 7 129243285.672 7      -550.945          43.000    24594182.859 5  99030579.973 5      -421.650          35.000
E08  22349339.828 8 117446574.807 8     -1295.805          50.000    22349338.164 8  89991676.244 8      -992.907          48.000
E30  23466421.820 8 123316858.182 8      2217.977          51.000    23466421.969 8  94489548.659 8      1699.477          51.000
> 2020 05 18 02 03  0.0000000  0 17        .000000000000
G02  23847744.930 7 125320742.770 7     -2512.258          45.000    23847739.008 6  97652521.063 6     -1957.603          41.000
G05  20736148.055 6 108969194.238 6      1076.949          37.000    20736145.164 6  84911051.751 6       839.187          37.000
G07  21283032.133 8 111843092.334 8     -1530.867          48.000    21283030.867 8  87150455.255 8     -1192.884          48.000
G28  23442325.586 5 123190269.068 5      3250.273          35.000    23442320.266 5  95992382.647 5      2532.681          30.000
G30  20402052.859 8 107213514.205 8       484.621          51.000    20402053.109 8  83543033.671 8       377.630          51.000
R02  19753880.531 8 105410535.387 8     -1392.004          51.000    19753884.305 8  81985940.552 8     -1082.667          50.000
R11  23396383.344 5 125023031.832 5     -4099.484          34.000
R12  19812766.852 8 105836374.575 8     -1583.562          51.000    19812769.883 8  82317169.167 8     -1231.660          49.000
R13  20098044.258 6 107322445.114 6      2795.051          38.000    20098046.242 7  83472998.101 7      2173.928          42.000
C05  39811823.469 6 207310610.738 6        -5.262          36.000    39811820.227 6 160305705.031 6        -4.096          40.000
C21  21701112.250 8 113003405.756 8      -246.691          51.000
C22  24380259.484 8 126954406.348 8     -2687.758          51.000
C26  23431934.164 8 122016183.029 8      2864.832          51.000
E02  24597398.836 7 129260197.090 7      -568.910          42.000    24597402.234 4  99043546.124 4      -436.217          28.000
E08  22356786.094 8 117485705.631 8     -1305.586          49.000    22356785.633 8  90021659.583 8     -1000.318          49.000
E26  26173763.484 6 137544069.261 6     -2282.402          37.000
E30  23453820.773 8 123250639.272 8      2203.922          51.000    23453820.828 8  94438809.522 8      1688.749          51.000
> 2020 05 18 02 03 30.0000000  0 17        .000000000000
G02  23862100.016 7 125396180.020 7     -2518.926          46.000    23862094.383 7  97711303.342 7     -1962.799          42.000
G05  20730044.461 6 108937119.464 6      1060.008          39.000    20730042.508 6  84886058.429 6       825.983          39.000
G07  21291797.398 8 111889153.913 8     -1541.898          49.000    21291796.062 8  87186347.392 8     -1201.479          49.000
G28  23423780.133 5 123092807.273 5      3245.602          34.000    23423771.867 5  95916437.432 5      2529.040          31.000
G30  20399325.055 8 107199179.043 8       469.195          51.000    20399324.867 8  83531863.431 8       365.610          51.000
R02  19761744.477 8 105452496.587 8     -1407.398          51.000    19761747.672 8  82018577.043 8     -1094.643          49.000
R11  23419410.664 5 125146082.255 5     -4105.766          33.000
R12  19821719.953 8 105884201.104 8     -1606.891          51.000    19821723.305 8  82354367.596 8     -1249.804          50.000
R13  20082389.711 6 107238850.848 6      2775.148          38.000    20082392.805 7  83407980.344 7      2158.449          43.000
C05  39811846.203 6 207310729.944 6        -5.180          36.000    39811842.953 6 160305796.398 6        -3.528          40.000
C21  21702562.703 8 113010959.831 8      -258.852          51.000
C22  24395758.555 8 127035108.049 8     -2694.375          51.000
C26  23415447.141 8 121930331.061 8      2856.668          50.000
E02  24600681.969 6 129277448.006 6      -583.066          41.000
E08  22364249.820 8 117524928.618 8     -1311.293          49.000    22364250.508 8  90051713.569 8     -1004.697          50.000
E26  26186805.086 5 137612593.902 5     -2289.098          34.000
E30  23441262.617 8 123184645.007 8      2193.828          51.000    23441262.141 8  94388242.506 8      1681.006          51.000
> 2020 05 18 02 04  0.0000000  0 18        .000000000000
G02  23876492.516 7 125471813.731 7     -2526.324          45.000    23876487.953 7  97770238.699 7     -1968.564          44.000
G05  20724038.211 6 108905554.201 6      1041.957          37.000    20724037.055 5  84861462.120 5       811.915          35.000
G07  21300624.891 8 111935542.623 8     -1553.598          49.000    21300623.320 8  87222494.413 8     -1210.596          49.000
G13  22711210.211 6 119348185.471 6      2663.113          36.000
G28  23405257.680 5 122995465.650 5      3241.113          30.000
G30  20396684.344 8 107185301.548 8       453.223          51.000    20396683.938 8  83521049.819 8       353.161          51.000
R02  19769694.633 8 105494918.039 8     -1423.527          51.000    19769696.992 8  82051571.477 8     -1107.188          48.000
R11  23442471.555 5 125269310.515 5     -4111.918          33.000
R12  19830803.430 8 105932722.759 8     -1630.805          51.000    19830806.867 8  82392106.667 8     -1268.404          49.000
R13  20066848.242 6 107155859.855 6      2754.656          39.000    20066851.883 7  83343431.822 7      2142.513          43.000
C05  39811864.680 6 207310826.466 6        -4.781          37.000    39811861.352 6 160305870.663 6        -3.462          40.000
C21  21704082.945 8 113018876.777 8      -271.707          51.000
C22  24411294.289 8 127116003.880 8     -2701.551          51.000
C26  23399006.266 8 121844719.118 8      2847.879          50.000
E02  24604043.820 6 129295112.341 6      -597.484          40.000    24604058.359 5  99070288.167 5      -457.867          32.000
E08  22371745.289 8 117564318.647 8     -1317.574          48.000    22371746.875 8  90081895.569 8     -1009.546          51.000
E26  26199886.508 5 137681332.032 5     -2296.688          31.000
E30  23428761.672 8 123118951.519 8      2182.984          51.000    23428760.766 8  94337905.945 8      1672.679          51.000
> 2020 05 18 02 04 30.0000000  0 16        .000000000000
G02  23890934.023 7 125547704.721 7     -2532.938          45.000    23890930.578 7  97829374.514 7     -1973.721          44.000
G05  20718141.203 6 108874564.071 6      1024.871          37.000    20718140.016 6  84837313.893 6       798.601          38.000
G07  21309526.422 8 111982320.899 8     -1564.742          48.000    21309524.688 8  87258945.020 8     -1219.280          48.000
G13  22696021.078 6 119268366.892 6      2658.906          36.000
G30  20394142.719 8 107171945.358 8       437.695          51.000    20394142.828 8  83510642.426 8       341.064          51.000
R02  19777743.016 8 105537864.546 8     -1439.148          51.000    19777744.797 7  82084974.271 7     -1119.341          47.000
R11  23465576.828 5 125392778.104 5     -4118.055          32.000
R12  19840028.594 8 105982001.992 8     -1654.117          51.000    19840031.820 8  82430434.972 8     -1286.536          49.000
R13  20051432.906 6 107073539.929 6      2734.062          40.000    20051435.672 6  83279405.234 6      2126.493          41.000
C05  39811891.016 6 207310963.297 6        -4.254          36.000    39811887.758 6 160305976.890 6        -3.344          40.000
C21  21705685.203 8 113027220.573 8      -284.051          51.000
C22  24426879.258 8 127197156.382 8     -2708.270          51.000
C26  23382623.914 8 121759412.014 8      2839.598          50.000
E02  24607496.078 6 129313264.393 6      -611.184          37.000    24607530.531 4  99084327.768 4      -468.420          28.000
E08  22379284.781 8 117603939.828 8     -1323.352          50.000    22379286.773 8  90112254.692 8     -1013.976          51.000
E30  23416329.883 8 123053624.210 8      2172.684          51.000    23416329.602 8  94287849.955 8      1664.760          51.000
> 2020 05 18 02 05  0.0000000  0 16        .000000000000
G02  23905419.672 7 125623827.130 7     -2541.785          43.000    23905417.031 7  97888690.659 7     -1980.615          43.000
G05  20712349.352 6 108844127.103 6      1004.746          40.000    20712346.984 6  84813596.779 6       782.922          40.000
G07  21318497.414 8 112029463.997 8     -1578.074          49.000    21318495.961 8  87295679.905 8     -1229.668          49.000
G13  22680867.117 5 119188715.867 5      2651.770          35.000
G30  20391695.750 8 107159086.925 8       419.727          51.000    20391696.094 8  83500622.876 8       327.060          51.000
R02  19785885.195 8 105581313.175 8     -1457.219          51.000    19785886.773 7  82118767.583 7     -1133.395          47.000
R11  23488721.961 5 125516607.282 5     -4127.168          31.000
R12  19849390.648 8 106032012.136 8     -1679.734          51.000    19849393.742 8  82469331.749 8     -1306.463          49.000
R13  20036139.633 6 106991871.052 6      2710.809          41.000    20036140.625 7  83215884.970 7      2108.407          42.000
C05  39811920.914 6 207311118.876 6        -6.129          36.000    39811917.602 6 160306097.190 6        -4.564          40.000
C21  21707365.258 8 113035968.769 8      -298.973          51.000
C22  24442508.852 8 127278541.658 8     -2717.336          51.000
C26  23366296.047 8 121674388.252 8      2828.859          49.000
E02  24611032.969 6 129331856.247 6      -627.922          37.000    24611031.961 5  99098433.664 5      -481.300          35.000
E08  22386864.148 8 117643769.043 8     -1331.613          51.000    22386866.211 8  90142773.189 8     -1020.378          51.000
E30  23403962.836 7 122988641.332 7      2159.699          47.000    23403964.383 8  94238057.838 8      1654.876          51.000
> 2020 05 18 02 05 30.0000000  0 16        .000000000000
G02  23919939.711 6 125700130.166 6     -2546.551          41.000    23919937.500 6  97948147.549 6     -1984.325          41.000
G05  20706653.875 6 108814196.456 6       988.961          39.000    20706650.305 6  84790274.205 6       770.619          39.000
G07  21327528.281 8 112076921.968 8     -1587.664          48.000    21327526.828 8  87332660.146 8     -1237.141          48.000
G13  22665735.461 5 119109184.626 5      2649.273          34.000
G30  20389334.203 8 107146677.756 8       405.754          51.000    20389334.664 8  83490953.380 8       316.172          51.000
R02  19794112.297 8 105625214.852 8     -1471.332          51.000    19794114.156 8  82152913.307 8     -1144.372          48.000
R12  19858879.766 8 106082701.480 8     -1701.305          51.000    19858882.758 8  82508756.812 8     -1323.237          49.000
R13  20020959.125 6 106910806.136 6      2691.883          41.000    20020959.727 7  83152834.481 7      2093.687          43.000
C05  39811945.102 6 207311245.023 6        -4.168          36.000    39811941.820 6 160306194.747 6        -3.298          40.000
C21  21709113.781 8 113045074.270 8      -309.855          51.000
C22  24458173.766 8 127360111.194 8     -2722.477          51.000
C26  23350013.852 8 121589601.615 8      2821.930          49.000
E02  24614646.344 5 129350854.070 5      -640.383          34.000    24614646.523 6  99112990.410 6      -490.659          37.000
E07                                                                  23752857.812 5  95642931.746 5       736.075          33.000
E08  22394474.234 8 117683758.311 8     -1336.082          51.000    22394476.156 8  90173414.324 8     -1023.688          51.000
E30  23391651.891 7 122923956.061 7      2150.855          47.000    23391655.094 8  94188493.768 8      1648.034          51.000
> 2020 05 18 02 06  0.0000000  0 16        .000000000000
G02  23934507.117 6 125776682.615 6     -2555.199          41.000    23934505.117 6  98007798.821 6     -1991.064          41.000
G05  20701068.633 6 108784845.600 6       969.953          39.000    20701063.867 6  84767403.426 6       755.808          39.000
G07  21336632.438 7 112124765.245 7     -1600.285          47.000    21336630.758 7  87369940.632 7     -1246.972          47.000
G13  22650640.070 5 119029915.205 5      2643.223          31.000
G30  20387071.719 8 107134789.275 8       388.594          51.000    20387072.703 8  83481689.640 8       302.800          51.000
R02  19802437.359 8 105669643.137 8     -1488.816          49.000    19802440.086 8  82187468.644 8     -1157.968          49.000
R12  19868509.148 8 106134140.196 8     -1726.090          51.000    19868512.266 8  82548764.716 8     -1342.514          49.000
R13  20005905.625 6 106830420.921 6      2668.891          40.000    20005906.852 7  83090312.688 7      2075.804          44.000
C05  39811977.266 6 207311412.858 6        -5.355          37.000    39811974.086 6 160306324.549 6        -4.199          40.000
C21  21710944.734 8 113054608.714 8      -324.066          51.000
C22  24473887.117 8 127441935.270 8     -2730.840          49.000
C26  23333790.734 7 121505124.720 7      2811.684          47.000
E02  24618350.844 5 129370307.742 5      -655.500          33.000    24618354.266 6  99127911.177 6      -502.970          38.000
E07  23747405.031 6 124793437.472 6       953.594          38.000    23747399.703 5  95620933.722 5       730.688          34.000
E08  22402128.188 8 117723979.557 8     -1343.711          51.000    22402129.820 8  90204233.212 8     -1029.591          51.000
E30  23379412.336 7 122859641.616 7      2138.547          47.000    23379416.445 8  94139213.845 8      1638.597          51.000
> 2020 05 18 02 06 30.0000000  0 16        .000000000000
G02  23949108.789 6 125853417.459 6     -2561.180          41.000    23949107.188 6  98067592.250 6     -1995.724          41.000
G05  20695581.523 6 108756011.880 6       952.051          38.000    20695576.297 6  84744935.580 6       741.858          37.000
G07  21345797.461 8 112172928.007 8     -1610.969          48.000    21345795.984 7  87407470.047 7     -1255.300          47.000
G28  23313115.617 5 122511212.992 5      3214.605          34.000
G30  20384896.141 8 107123356.856 8       373.164          51.000    20384897.461 8  83472781.260 8       290.777          51.000
R02  19810849.289 8 105714532.470 8     -1504.262          51.000    19810852.781 8  82222382.596 8     -1169.981          50.000
R12  19878266.141 8 106186259.963 8     -1748.996          51.000    19878269.164 8  82589302.307 8     -1360.330          49.000
R13  19990967.742 6 106750652.456 6      2648.387          40.000    19990969.469 7  83028270.571 7      2059.853          45.000
C05  39812005.320 6 207311558.836 6        -5.395          37.000    39812002.133 6 160306437.392 6        -3.845          40.000
C21  21712846.109 8 113064509.062 8      -336.469          51.000
C22  24489636.414 8 127523949.478 8     -2737.332          48.000
C26  23317613.516 7 121420895.402 7      2803.465          44.000
E02  24622133.977 5 129390187.603 5      -670.211          33.000    24622139.234 6  99143146.100 6      -513.392          39.000
E07  23741974.641 6 124764897.169 6       948.367          37.000    23741971.875 5  95599065.192 5       726.809          34.000
E08  22409814.094 8 117764368.741 8     -1349.438          51.000    22409815.273 8  90235180.757 8     -1033.985          51.000
E30  23367232.219 8 122795635.195 8      2128.121          50.000    23367236.094 8  94090169.958 8      1630.572          51.000
> 2020 05 18 02 07  0.0000000  0 17        .000000000000
G02  23963741.961 6 125930319.532 6     -2560.566          41.000    23963741.133 6  98127515.967 6     -1995.247          41.000
G05  20690190.797 6 108727684.154 6       941.973          37.000    20690186.234 6  84722862.022 6       734.005          37.000
G07  21355020.664 7 112221396.118 7     -1614.980          46.000    21355019.359 7  87445237.418 7     -1258.426          46.000
G13  22620511.430 5 118871558.784 5      2640.004          33.000
G28  23294770.766 6 122414804.440 6      3217.074          36.000    23294764.969 5  95388159.080 5      2506.811          33.000
G30  20382805.039 8 107112367.866 8       364.641          51.000    20382806.336 8  83464218.414 8       284.139          51.000
R02  19819345.969 8 105759870.591 8     -1512.965          51.000    19819349.219 8  82257645.597 8     -1176.747          51.000
R12  19888147.562 8 106239045.585 8     -1764.730          51.000    19888150.656 8  82630357.813 8     -1372.571          48.000
R13  19976143.180 6 106671491.360 6      2634.477          38.000    19976145.766 7  82966700.828 7      2049.037          45.000
C05  39812026.773 6 207311669.674 6         2.312          36.000    39812023.609 6 160306523.892 6         1.936          40.000
C21  21714815.398 8 113074763.634 8      -342.105          51.000
C22  24505419.672 8 127606140.783 8     -2736.883          48.000
C26  23301481.266 7 121336902.956 7      2801.453          44.000
E02  24625992.727 5 129410464.480 5      -677.160          33.000    24625998.672 6  99158685.238 6      -518.627          40.000
E07  23736570.438 6 124736498.552 6       949.945          38.000    23736569.547 5  95577305.311 5       727.880          34.000
E08  22417529.766 8 117804913.726 8     -1348.320          51.000    22417530.391 8  90266247.711 8     -1033.158          51.000
E30  23355109.102 8 122731925.916 8      2124.418          51.000    23355112.016 8  94041353.783 8      1627.816          50.000
> 2020 05 18 02 07 30.0000000  0 18        .000000000000
G02  23978418.641 6 126007447.465 6     -2571.648          40.000    23978418.273 6  98187615.653 6     -2003.885          40.000
G05  20684908.156 6 108699925.132 6       919.062          37.000    20684904.102 6  84701231.599 6       716.153          37.000
G07  21364313.258 7 112270229.302 7     -1630.754          46.000    21364311.805 7  87483289.288 7     -1270.717          47.000
G09  23268386.812 5 122276184.979 5     -2766.254          31.000
G13  22605492.828 5 118792644.481 5      2630.871          35.000    22605497.016 5  92565729.954 5      2050.029          30.000
G28  23276459.227 6 122318625.816 6      3207.418          38.000    23276459.289 5  95313214.605 5      2499.287          33.000
G30  20380810.000 8 107101883.151 8       344.215          51.000    20380811.047 8  83456048.509 8       268.219          51.000
R02  19827938.477 8 105805719.949 8     -1533.688          51.000    19827941.469 8  82293306.201 8     -1192.868          51.000
R12  19898164.891 8 106292556.335 8     -1792.551          51.000    19898168.125 8  82671977.288 8     -1394.206          48.000
R13  19961444.203 6 106593002.068 6      2608.324          36.000    19961447.688 7  82905653.578 7      2028.697          45.000
C05  39812053.414 6 207311808.121 6        -1.641          36.000    39812050.211 6 160306630.974 6        -1.646          40.000
C21  21716864.555 8 113085433.653 8      -359.523          51.000
C22  24521248.508 7 127688568.976 7     -2748.586          47.000
C26  23285408.188 7 121253209.457 7      2787.914          47.000
E02                                                                  24629944.695 6  99174574.924 6      -533.179          40.000
E07  23731204.086 5 124708303.616 5       939.555          34.000    23731203.633 5  95555701.446 5       720.062          34.000
E08  22425286.555 8 117845675.886 8     -1359.258          51.000    22425286.852 8  90297481.085 8     -1041.599          50.000
E30  23343054.625 8 122668576.425 8      2108.688          51.000    23343056.453 8  93992813.279 8      1615.727          50.000
> 2020 05 18 02 08  0.0000000  0 17        .000000000000
G02  23993129.570 6 126084751.708 6     -2584.156          40.000    23993129.391 6  98247852.743 6     -2013.628          41.000
G05  20679725.039 6 108672689.507 6       894.527          37.000    20679722.422 6  84680009.012 6       697.037          37.000
G07  21373666.164 7 112319379.572 7     -1648.004          46.000    21373664.688 7  87521588.213 7     -1284.156          46.000
G13  22590508.289 6 118713907.034 6      2619.145          36.000
G28  23258176.789 6 122222553.391 6      3195.391          39.000    23258171.125 4  95238328.922 4      2489.924          26.000
G30  20378901.969 8 107091855.738 8       322.117          51.000    20378903.000 8  83448234.958 8       251.000          51.000
R02  19836617.984 8 105852033.470 8     -1556.125          51.000    19836620.828 8  82329327.819 8     -1210.319          51.000
R12  19908308.547 8 106346741.981 8     -1821.969          51.000    19908311.836 8  82714121.687 8     -1417.087          48.000
R13  19946862.492 6 106515139.640 6      2580.465          37.000    19946866.711 7  82845093.892 7      2007.025          46.000
C05  39812076.273 6 207311927.118 6        -8.281          36.000    39812073.000 6 160306722.976 6        -6.307          40.000
C21  21718984.812 8 113096473.619 8      -378.609          51.000
C22  24537113.984 7 127771187.185 7     -2761.547          45.000
C26  23269385.578 8 121169770.275 8      2772.543          49.000
E02  24633963.211 6 129452351.272 6      -716.355          36.000    24633968.242 6  99190778.913 6      -548.803          41.000
E07                                                                  23725867.258 5  95534218.556 5       710.706          34.000
E08  22433075.680 8 117886608.838 8     -1371.746          50.000    22433076.078 8  90328845.275 8     -1051.012          49.000
E30  23331060.086 8 122605541.587 8      2091.441          51.000    23331061.445 8  93944513.875 8      1602.581          51.000
> 2020 05 18 02 08 30.0000000  0 18        .000000000000
G02  24007868.016 7 126162199.099 7     -2576.793          43.000    24007867.867 7  98308201.350 7     -2007.891          43.000
G05  20674636.336 6 108645948.346 6       890.496          37.000    20674634.750 6  84659171.728 6       693.890          37.000
G07  21383073.375 7 112368814.701 7     -1645.457          45.000    21383071.883 7  87560109.107 7     -1282.171          45.000
G13  22575533.633 5 118635230.137 5      2627.797          35.000
G28  23239917.742 6 122126600.341 6      3203.977          40.000    23239912.570 4  95163560.316 4      2496.608          29.000
G30  20377075.023 8 107082254.798 8       320.133          51.000    20377076.133 8  83440753.719 8       249.454          51.000
R02  19845378.406 8 105898780.184 8     -1558.078          51.000    19845380.922 8  82365686.386 8     -1211.836          50.000
R12  19918572.188 8 106401568.557 8     -1830.781          51.000    19918575.156 8  82756764.579 8     -1423.944          48.000
R13  19932393.633 6 106437876.796 6      2572.664          40.000    19932397.727 7  82785000.552 7      2000.961          45.000
C05  39812089.664 6 207311997.457 6         6.090          36.000    39812086.289 6 160306776.586 6         4.537          40.000
C21  21721170.414 8 113107853.857 8      -377.855          51.000
C22  24553009.891 7 127853964.321 7     -2754.695          43.000
C26  23253406.977 8 121086556.676 8      2777.117          51.000
E02  24638061.586 5 129473877.858 5      -716.602          35.000    24638064.250 6  99207273.300 6      -549.150          40.000
E07                                                                  23720555.609 5  95512833.851 5       716.662          34.000
E08  22440891.680 8 117927682.277 8     -1364.176          51.000    22440891.844 8  90360317.107 8     -1045.322          48.000
E26  26319540.297 6 138310143.705 6     -2349.449          36.000
E30  23319119.672 8 122542792.360 8      2094.117          51.000    23319120.672 8  93896433.321 8      1604.553          51.000
> 2020 05 18 02 09  0.0000000  0 19        .000000000000
G02  24022657.812 7 126239917.666 7     -2596.043          44.000    24022657.758 7  98368761.272 7     -2022.891          42.000
G05  20669667.117 6 108619834.014 6       859.199          38.000    20669665.773 6  84638822.846 6       669.500          37.000
G07  21392559.281 7 112418663.857 7     -1669.547          44.000    21392557.703 7  87598952.640 7     -1300.946          44.000
G09  23315930.820 5 122526042.797 5     -2786.613          32.000
G13  22560602.375 5 118556742.174 5      2609.875          31.000    22560627.117 4  92381996.157 4      2033.669          26.000
G28  23221706.469 5 122030900.102 5      3185.141          35.000
G30  20375354.000 8 107073210.662 8       291.359          51.000    20375354.844 8  83433706.337 8       227.033          51.000
R02  19854244.953 8 105946093.142 8     -1587.359          51.000    19854247.445 8  82402485.381 8     -1234.613          50.000
R12  19928980.203 8 106457166.065 8     -1866.914          51.000    19928983.258 8  82800007.096 8     -1452.044          49.000
R13  19918062.336 6 106361347.612 6      2537.582          41.000    19918066.070 7  82725477.868 7      1973.675          44.000
C05  39812118.305 6 207312146.845 6        -7.207          37.000    39812115.031 6 160306892.095 6        -5.579          40.000
C21  21723446.539 8 113119704.493 8      -403.727          51.000
C22  24568960.094 7 127937029.027 7     -2774.371          43.000
C26  23237496.695 8 121003699.723 8      2755.117          51.000
E02  24642257.484 6 129495927.363 6      -743.898          37.000    24642257.086 6  99224157.670 6      -570.051          40.000
E07                                                                  23715293.430 5  95491648.038 5       702.238          33.000
E08  22448759.359 8 117969027.113 8     -1383.598          49.000    22448758.789 7  90391996.907 7     -1060.105          47.000
E26  26333028.797 6 138381021.966 6     -2369.422          36.000
E30  23307258.664 8 122480460.886 8      2069.832          51.000    23307259.633 8  93848672.851 8      1585.903          51.000
> 2020 05 18 02 09 30.0000000  0 18        .000000000000
G02  24037475.734 7 126317784.313 7     -2598.871          45.000    24037475.469 6  98429436.604 6     -2025.094          41.000
G05  20664794.711 6 108594227.404 6       844.535          40.000    20664793.805 6  84618869.659 6       658.079          40.000
G07  21402101.000 7 112468805.227 7     -1677.039          45.000    21402099.305 7  87638023.841 7     -1306.784          45.000
G13  22545697.297 5 118478415.678 5      2608.531          32.000
G28  23203520.406 5 121935335.555 5      3182.621          32.000
G30  20373715.883 8 107064602.726 8       278.879          51.000    20373716.625 8  83426998.855 8       217.311          51.000
R02  19863194.266 8 105993850.478 8     -1600.172          51.000    19863196.977 8  82439629.955 8     -1244.575          48.000
R12  19939509.141 8 106513409.301 8     -1886.277          51.000    19939512.297 8  82843751.839 8     -1467.105          49.000
R13  19903846.172 6 106285433.427 6      2519.277          41.000    19903849.031 7  82666433.500 7      1959.438          43.000
C05  39812139.445 6 207312257.187 6        -3.758          36.000    39812136.156 6 160306977.432 6        -2.966          40.000
C21  21725790.078 8 113131907.006 8      -413.449          51.000
C22  24584944.445 7 128020261.518 7     -2778.004          47.000
C26  23221631.961 8 120921081.786 8      2749.141          50.000
E02  24646523.742 5 129518357.910 5      -754.988          35.000    24646523.516 6  99241339.331 6      -578.444          39.000
E07                                                                  23710057.844 5  95470578.583 5       700.194          33.000
E08  22456655.430 8 118010523.398 8     -1386.535          48.000    22456655.039 8  90423792.754 8     -1062.392          48.000
E26  26346550.406 6 138452098.951 6     -2372.805          37.000
E30  23295454.438 8 122418428.397 8      2061.906          51.000    23295456.008 8  93801141.457 8      1579.899          51.000
> 2020 05 18 02 10  0.0000000  0 17        .000000000000
G02  24052337.836 7 126395884.037 7     -2604.641          45.000    24052337.172 6  98490293.555 6     -2029.590          40.000
G05  20660035.727 6 108569217.456 6       826.246          40.000    20660034.133 6  84599381.418 6       643.828          39.000
G07  21411714.797 7 112519325.155 7     -1687.801          45.000    21411713.133 7  87677390.002 7     -1315.169          45.000
G28  23185376.906 5 121839997.339 5      3175.891          31.000
G30  20372177.430 8 107056518.303 8       263.270          51.000    20372178.312 8  83420699.305 8       205.145          51.000
R02  19872243.664 8 106042141.112 8     -1615.906          50.000    19872246.117 8  82477189.324 8     -1256.819          48.000
R12  19950175.148 8 106570384.417 8     -1908.738          51.000    19950178.062 8  82888065.820 8     -1484.571          50.000
R13  19889762.109 6 106210225.501 6      2497.879          39.000    19889764.398 7  82607938.459 7      1942.795          43.000
C05  39812169.844 6 207312415.457 6        -3.156          36.000    39812166.578 6 160307099.834 6        -2.740          41.000
C21  21728217.742 8 113144548.868 8      -426.223          51.000
C22  24600978.680 8 128103747.945 8     -2784.562          49.000
C26  23205829.062 8 120838791.298 8      2739.988          48.000
E02  24650881.062 6 129541256.401 6      -768.508          38.000    24650880.859 6  99258884.962 6      -588.851          39.000
E07                                                                  23704866.516 5  95449675.291 5       695.773          33.000
E08  22464597.234 8 118052259.031 8     -1392.668          48.000    22464597.859 8  90455772.003 8     -1067.127          50.000
E26  26360121.078 6 138523422.291 6     -2378.949          36.000
E30  23283723.836 8 122356784.011 8      2050.859          51.000    23283726.312 8  93753907.443 8      1571.432          51.000
> 2020 05 18 02 10 30.0000000  0 17        .000000000000
G02  24067223.602 7 126474108.435 7     -2610.570          44.000    24067222.633 6  98551247.629 6     -2034.211          40.000
G05  20655370.266 6 108544700.011 6       808.141          38.000    20655368.172 6  84580276.894 6       629.717          39.000
G07  21421380.062 7 112570116.104 7     -1698.652          46.000    21421378.188 7  87716967.374 7     -1323.625          46.000
G28  23167256.383 6 121744782.693 6      3170.613          36.000    23167263.367 5  94866074.825 5      2470.608          32.000
G30  20370718.430 8 107048851.176 8       247.684          51.000    20370719.352 8  83414724.926 8       193.000          51.000
R02  19881372.727 8 106090858.095 8     -1631.918          51.000    19881375.555 8  82515080.272 8     -1269.270          48.000
R12  19960957.156 8 106627980.789 8     -1931.125          51.000    19960960.250 8  82932863.021 8     -1501.986          50.000
R13  19875790.125 6 106135618.565 6      2475.992          37.000    19875792.641 7  82549910.880 7      1925.775          43.000
C05  39812189.336 6 207312515.946 6        -3.531          37.000    39812186.047 6 160307178.305 6        -2.806          40.000
C21  21730709.898 8 113157525.714 8      -439.070          51.000
C22  24617041.203 8 128187382.569 8     -2791.238          51.000
C26  23190067.000 7 120756724.888 7      2730.879          46.000
E02  24655308.703 6 129564523.353 6      -782.777          39.000    24655308.008 6  99276712.870 6      -599.569          38.000
E07  23699697.344 5 124542750.726 5       902.004          32.000    23699699.062 5  95428866.657 5       691.215          33.000
E08  22472564.523 8 118094128.400 8     -1398.805          49.000    22472566.266 8  90487853.731 8     -1071.772          51.000
E26  26373719.281 5 138594831.257 5     -2385.262          35.000
E30  23272046.867 8 122295423.294 8      2039.707          51.000    23272050.312 8  93706890.786 8      1562.892          51.000
> 2020 05 18 02 11  0.0000000  0 17        .000000000000
G02  24082145.305 7 126552522.262 7     -2616.613          42.000    24082143.953 6  98612349.291 6     -2038.922          40.000
G05  20650811.234 6 108520744.121 6       789.156          39.000    20650808.922 6  84561610.012 6       614.930          38.000
G07  21431109.523 7 112621244.377 7     -1709.723          46.000    21431107.344 7  87756807.570 7     -1332.251          46.000
G28  23149173.812 5 121649762.274 5      3164.867          35.000    23149178.195 5  94792015.065 5      2466.149          32.000
G30  20369351.609 8 107041668.646 8       231.719          51.000    20369352.398 8  83409128.145 8       180.560          51.000
R02  19890595.000 8 106140069.673 8     -1648.262          51.000    19890597.992 8  82553355.960 8     -1281.981          50.000
R12  19971867.984 8 106686264.326 8     -1953.754          51.000    19971870.953 8  82978194.661 8     -1519.586          50.000
R13  19861944.117 6 106061684.117 6      2453.586          36.000    19861947.133 7  82492406.313 7      1908.345          43.000
C05  39812210.797 6 207312627.777 6        -3.520          36.000    39812207.586 6 160307264.763 6        -2.661          40.000
C21  21733279.234 8 113170905.282 8      -452.305          51.000
C22  24633144.508 8 128271231.712 8     -2798.105          50.000
C26  23174361.906 8 120674951.140 8      2721.293          48.000
E02  24659818.852 6 129588225.600 6      -796.949          38.000    24659817.633 6  99294874.391 6      -610.679          37.000
E07                                                                  23694567.672 5  95408205.189 5       686.501          32.000
E08  22480570.422 8 118136199.470 8     -1405.328          50.000    22480572.445 8  90520090.017 8     -1076.792          51.000
E26  26387356.703 5 138666494.588 5     -2391.766          34.000
E30  23260436.977 8 122234415.414 8      2028.074          49.000    23260441.094 8  93660144.490 8      1553.991          51.000
> 2020 05 18 02 11 30.0000000  0 17        .000000000000
G02  24097098.719 7 126631102.973 7     -2622.461          43.000    24097097.141 6  98673580.960 6     -2043.479          39.000
G05  20646355.695 6 108497331.676 6       771.051          39.000    20646353.656 6  84543366.500 6       600.816          39.000
G07  21440899.156 7 112672688.762 7     -1720.512          45.000    21440897.141 7  87796894.124 7     -1340.655          45.000
G28  23131123.211 5 121554919.247 5      3158.512          35.000
G30  20368073.211 8 107034950.583 8       215.852          51.000    20368073.828 8  83403893.289 8       168.196          51.000
R02  19899905.953 8 106189756.637 8     -1664.367          51.000    19899909.555 8  82592001.352 8     -1294.508          50.000
R12  19982902.969 8 106745212.179 8     -1976.301          51.000    19982906.203 8  83024043.011 8     -1537.120          50.000
R13  19848220.828 6 105988404.751 6      2431.031          37.000    19848224.703 7  82435411.218 7      1890.799          44.000
C05  39812230.602 6 207312730.669 6        -3.812          36.000    39812227.398 6 160307344.333 6        -2.842          40.000
C21  21735922.039 8 113184668.674 8      -465.496          51.000
C22  24649284.266 8 128355275.114 8     -2804.918          48.000
C26  23158711.469 8 120593452.070 8      2711.656          50.000
E02  24664408.938 6 129612342.962 6      -811.012          39.000    24664407.234 6  99313353.934 6      -621.466          37.000
E07                                                                  23689468.648 5  95387673.576 5       681.804          32.000
E08  22488611.242 8 118178452.880 8     -1411.820          51.000    22488613.109 8  90552466.005 8     -1081.716          51.000
E26  26401030.117 5 138738346.552 5     -2398.438          35.000
E30  23248891.133 8 122173742.178 8      2016.570          51.000    23248895.242 8  93613654.616 8      1545.197          51.000
> 2020 05 18 02 12  0.0000000  0 17        .000000000000
G02  24112084.734 7 126709854.840 7     -2627.578          43.000    24112082.234 6  98734945.989 6     -2047.467          38.000
G05  20642005.469 6 108474470.755 6       753.277          41.000    20642003.531 6  84525552.818 6       586.969          40.000
G07  21450749.891 7 112724454.428 7     -1730.371          47.000    21450748.141 7  87837231.012 7     -1348.341          47.000
G28  23113109.383 6 121460264.212 6      3152.574          38.000    23113119.914 5  94644363.217 5      2456.554          34.000
G30  20366884.305 8 107028703.575 8       200.773          51.000    20366885.070 8  83399025.503 8       156.447          51.000
R02  19909307.898 8 106239925.765 8     -1679.832          51.000    19909311.508 8  82631021.815 8     -1306.533          51.000
R12  19994063.242 8 106804828.054 8     -1997.828          51.000    19994066.336 8  83070410.891 8     -1553.866          50.000
R13  19834622.781 6 105915789.702 6      2409.867          39.000    19834626.297 7  82378932.845 7      1874.341          43.000
C05  39812249.922 6 207312831.450 6        -2.828          36.000    39812246.781 6 160307422.279 6        -2.250          40.000
C21  21738639.984 8 113198823.168 8      -477.945          51.000
C22  24665461.633 8 128439518.681 8     -2810.875          48.000
C26  23143115.906 8 120512235.865 8      2702.938          51.000
E02  24669078.766 5 129636881.283 5      -824.305          35.000    24669077.086 6  99332156.044 6      -631.697          36.000
E07                                                                  23684404.062 5  95367281.497 5       677.815          31.000
E08  22496687.977 8 118220895.641 8     -1417.438          51.000    22496689.539 8  90584987.099 8     -1086.148          51.000
E26  26414740.484 5 138810383.012 5     -2404.070          34.000
E30  23237411.016 8 122113411.782 8      2005.742          51.000    23237414.406 8  93567427.435 8      1536.903          51.000
> 2020 05 18 02 12 30.0000000  0 18        .000000000000
G02  24127100.633 7 126788764.283 7     -2631.758          44.000    24127096.531 6  98796433.777 6     -2050.723          36.000
G05  20637758.406 6 108452151.757 6       735.582          41.000    20637756.672 6  84508161.395 6       573.181          41.000
G07  21460659.398 7 112776528.786 7     -1740.094          46.000    21460657.414 7  87877808.444 7     -1355.914          46.000
G09  23427753.109 5 123113672.389 5     -2812.820          32.000
G28  23095130.391 6 121365788.781 6      3147.137          39.000    23095139.336 5  94570745.892 5      2452.314          33.000
G30  20365782.797 8 107022916.095 8       186.117          51.000    20365783.773 8  83394515.766 8       145.026          51.000
R02  19918798.109 8 106290565.543 8     -1695.027          51.000    19918801.578 8  82670408.307 8     -1318.355          50.000
R12  20005345.766 8 106865097.759 8     -2019.020          51.000    20005348.867 8  83117287.349 8     -1570.345          50.000
R13  19821147.930 6 105843830.319 6      2388.297          41.000    19821150.297 7  82322964.454 7      1857.567          43.000
C05  39812266.812 6 207312919.389 6        -1.898          36.000    39812263.562 6 160307490.287 6        -1.595          40.000
C21  21741431.203 8 113213358.455 8      -490.043          51.000
C22  24681675.227 8 128523950.790 8     -2816.707          49.000
C26  23127572.891 8 120431293.184 8      2694.336          51.000
E02  24673825.172 6 129661828.874 6      -837.422          36.000    24673823.000 5  99351271.786 5      -641.700          35.000
E07                                                                  23679371.969 5  95347022.327 5       673.301          33.000
E08  22504798.875 8 118263516.981 8     -1422.898          51.000    22504799.922 8  90617645.027 8     -1090.288          51.000
E26  26428485.016 5 138882618.017 5     -2409.586          35.000    26428501.719 6 106416560.065 6     -1845.905          39.000
E30  23225994.664 8 122053414.665 8      1995.180          51.000    23225997.328 8  93521455.632 8      1528.780          51.000
> 2020 05 18 02 13  0.0000000  0 17        .000000000000
G02  24142148.375 7 126867841.166 7     -2641.637          43.000    24142142.258 6  98858052.048 6     -2058.421          39.000
G05  20633617.203 7 108430388.456 7       713.137          43.000    20633616.227 7  84491202.969 7       555.691          43.000
G07  21470629.664 7 112828923.258 7     -1754.707          47.000    21470627.703 7  87918635.293 7     -1367.304          47.000
G28  23077189.266 6 121271508.670 6      3136.594          40.000    23077197.242 6  94497280.896 6      2444.099          37.000
G30  20364771.031 8 107017600.424 8       166.309          51.000    20364772.289 8  83390373.677 8       129.591          51.000
R02  19928379.008 8 106341689.805 8     -1715.238          51.000    19928382.000 8  82710171.618 8     -1334.074          49.000
R12  20016752.656 8 106926031.186 8     -2045.098          51.000    20016755.930 8  83164680.012 8     -1590.632          51.000
R13  19807798.430 6 105772541.782 6      2361.898          41.000    19807799.867 7  82267517.841 7      1837.035          43.000
C05  39812283.656 6 207313007.144 6        -5.691          37.000    39812280.461 6 160307558.129 6        -4.449          40.000
C21  21744298.211 8 113228287.590 8      -507.125          51.000
C22  24697927.961 8 128608583.147 8     -2827.449          51.000
C26  23112084.242 8 120350638.107 8      2680.664          49.000
E02  24678652.586 6 129687197.622 6      -855.516          37.000    24678648.125 5  99370710.240 5      -655.803          34.000
E07                                                                  23674375.766 5  95326899.273 5       665.890          34.000
E08  22512946.109 8 118306329.853 8     -1433.305          51.000    22512946.953 8  90650449.697 8     -1098.151          51.000
E26  26442265.609 5 138955014.249 5     -2419.207          35.000    26442278.547 6 106472032.485 6     -1853.648          39.000
E30  23214644.297 8 121993764.924 8      1979.562          51.000    23214646.539 8  93475749.992 8      1516.856          51.000
> 2020 05 18 02 13 30.0000000  0 17        .000000000000
G02  24157231.727 7 126947105.686 7     -2644.199          42.000    24157225.242 6  98919816.579 6     -2060.418          38.000
G05  20629586.305 7 108409205.434 7       697.414          42.000    20629585.414 7  84474696.713 7       543.436          42.000
G07  21480664.914 7 112881659.350 7     -1762.352          47.000    21480663.469 7  87959728.358 7     -1373.258          47.000
G28  23059290.758 7 121177450.406 7      3132.820          43.000    23059296.820 5  94423988.689 5      2441.156          35.000
G30  20363853.484 8 107012779.216 8       153.754          51.000    20363854.945 8  83386616.883 8       119.808          51.000
R02  19938055.234 8 106393321.659 8     -1728.340          51.000    19938057.570 8  82750329.723 8     -1344.264          48.000
R12  20028287.523 8 106987648.684 8     -2064.027          51.000    20028290.797 8  83212604.739 8     -1605.355          50.000
R13  19794579.195 6 105701950.296 6      2342.668          41.000    19794580.242 7  82212613.360 7      1822.075          44.000
C05  39812304.898 6 207313117.796 6        -3.254          36.000    39812301.688 6 160307643.700 6        -2.422          40.000
C21  21747245.367 8 113243634.086 8      -517.363          51.000
C22  24714223.594 8 128693437.934 8     -2831.059          50.000
C26  23096654.438 8 120270295.057 8      2673.984          48.000
E02  24683564.797 6 129713009.989 6      -866.762          36.000    24683559.125 5  99390488.474 5      -663.615          34.000
E07  23669424.859 6 124383663.318 6       865.934          37.000    23669420.062 6  95306940.740 6       663.448          36.000
E08  22521133.992 8 118349357.678 8     -1436.723          51.000    22521134.906 8  90683419.077 8     -1100.940          50.000
E26  26456085.328 6 139027616.895 6     -2422.195          37.000    26456094.594 6 106527663.047 6     -1856.276          39.000
E30  23203364.219 8 121934487.080 8      1970.848          51.000    23203366.516 8  93430329.322 8      1510.058          51.000
> 2020 05 18 02 14  0.0000000  0 18        .000000000000
G02  24172342.633 7 127026514.828 7     -2650.703          42.000    24172336.891 6  98981693.851 6     -2065.480          38.000
G05  20625658.195 7 108388563.403 7       677.602          42.000    20625656.992 7  84458611.980 7       528.001          42.000
G07  21490757.062 8 112934694.957 8     -1774.273          48.000    21490756.047 8  88001054.815 8     -1382.551          48.000
G13  22412893.078 4 117780533.397 4      2560.430          29.000
G28  23041427.031 6 121083576.280 6      3124.680          39.000    23041432.734 5  94350840.033 5      2434.812          35.000
G30  20363022.289 8 107008411.466 8       136.727          51.000    20363023.898 8  83383213.444 8       106.540          51.000
R02  19947818.484 8 106445419.471 8     -1745.754          51.000    19947820.445 7  82790850.206 7     -1357.812          47.000
R12  20039942.266 8 107049905.888 8     -2087.188          51.000    20039945.516 8  83261027.009 8     -1623.368          50.000
R13  19781482.922 6 105632016.243 6      2318.711          40.000    19781483.891 7  82158220.212 7      1803.442          43.000
C05  39812322.812 6 207313211.257 6        -4.180          37.000    39812319.703 6 160307715.978 6        -3.247          40.000
C21  21750265.062 8 113259358.303 8      -531.730          51.000
C22  24730553.680 8 128778474.144 8     -2838.820          49.000
C26  23081276.133 8 120190225.335 8      2663.062          48.000
E02  24688553.398 5 129739223.520 5      -882.379          32.000    24688548.797 5  99410574.961 5      -675.728          35.000
E07  23664500.641 6 124357784.221 6       858.473          38.000    23664496.711 6  95287111.328 6       658.147          37.000
E08  22529355.227 8 118392560.058 8     -1444.309          50.000    22529355.664 8  90716522.211 8     -1106.687          49.000
E26  26469935.602 6 139100383.389 6     -2429.586          38.000    26469941.266 6 106583419.182 6     -1861.625          40.000
E30  23192147.016 8 121875541.950 8      1957.898          51.000    23192149.438 8  93385163.583 8      1500.259          51.000
> 2020 05 18 02 14 30.0000000  0 18        .000000000000
G02  24187479.422 7 127106059.217 7     -2652.699          42.000    24187474.562 6  99043676.470 6     -2067.038          39.000
