     3.02           OBSERVATION DATA    M (MIXED)           RINEX VERSION / TYPE
SAVERINEX           SC600               20200503 005931 LCL PGM / RUN BY / DATE
       G = GPS       R = GLONASS       C = COMPASS          COMMENT
       S = SBAS      J = QZSS          E = GALILEO          COMMENT
BEAN                                                        MARKER NAME
1                                                           MARKER NUMBER
GEODETIC                                                    MARKER TYPE
Unige DICCA         GTER                                    OBSERVER / AGENCY
SC60291900056       SC600               2.12(191226)        REC # / TYPE / VERS
                    HEMA45          NONE                    ANT # / TYPE
  4509407.8091   693652.4678  4442337.6214                  APPROX POSITION XYZ
        0.0000        0.0000        0.0000                  ANTENNA: DELTA H/E/N
G    8 C1C L1C D1C S1C C2Y L2Y D2Y S2Y                      SYS / # / OBS TYPES
R    8 C1C L1C D1C S1C C2P L2P D2P S2P                      SYS / # / OBS TYPES
C    8 C1I L1I D1I S1I C7I L7I D7I S7I                      SYS / # / OBS TYPES
E    8 C1C L1C D1C S1C C7Q L7Q D7Q S7Q                      SYS / # / OBS TYPES
DBHZ                                                        COMMENT
     30.000                                                 INTERVAL
  2020    05    02    22    00    0.0000000     GPS         TIME OF FIRST OBS
  2020    05    02    22    59   30.0000000     GPS         TIME OF LAST OBS
     0                                                      RCV CLOCK OFFS APPL
G L1C  0.00000                                              SYS / PHASE SHIFT
G L2Y  0.00000                                              SYS / PHASE SHIFT
R L1C  0.00000                                              SYS / PHASE SHIFT
R L2P  0.25000                                              SYS / PHASE SHIFT
C L1I  0.00000                                              SYS / PHASE SHIFT
C L7I  0.00000                                              SYS / PHASE SHIFT
E L1C  0.50000                                              SYS / PHASE SHIFT
E L7Q -0.25000                                              SYS / PHASE SHIFT
 12 R01  1 R02 -4 R07  5 R08  6 R09 -2 R10 -7 R11  0 R12 -1 GLONASS SLOT / FRQ #
    R17  4 R21  4 R22 -3 R23  3                             GLONASS SLOT / FRQ #
 C1C   71.950 C2C   71.950 C2P   71.950                     GLONASS COD/PHS/BIS
    18                                                      LEAP SECONDS
*** Above antenna height is from mark to ANTENNA BOTTOM.    COMMENT
    17     4        0.0000        ANT MEASURE TYPE/HEIGT    COMMENT
    0.0000    0.0000    0.0458    0.0405    0.0000          COMMENT
                    BASE STATION                            COMMENT
                                                            END OF HEADER
> 2020 05 02 22 00  0.0000000  0 20        .000000000000
G01  21460648.148 8 112776469.126 8     -2370.824          51.000    21460650.008 8  87877791.765 8     -1847.395          51.000
G03  20361928.992 8 107002697.236 8      -419.199          51.000    20361930.133 8  83378775.113 8      -326.649          51.000
G04  21083647.438 7 110795370.646 7      2204.246          47.000    21083647.164 7  86334033.447 7      1717.594          46.000
G09  23505409.367 6 123521827.296 6      3556.434          38.000    23505417.109 6  96250727.416 6      2771.244          38.000
G11  23899434.023 6 125592366.310 6     -3973.660          41.000    23899426.289 4  97864155.350 4     -3096.359          24.000
G17  22040412.812 5 115823129.818 5       181.562          34.000
G22  21519834.508 5 113087486.373 5     -1651.344          34.000    21519830.812 5  88120108.209 5     -1286.755          32.000
G31  23271321.742 5 122291603.620 5        31.047          31.000    23271318.344 5  95292164.277 5        24.195          31.000
R01  19469269.273 6 104074407.767 6     -1216.895          39.000    19469271.609 5  80946800.922 5      -946.470          30.000
R02  21235401.555 7 113316182.257 7      2750.641          45.000    21235407.789 7  88134811.983 7      2139.387          43.000
R23  21142504.680 8 113098180.146 8     -3804.648          48.000    21142510.414 6  87965269.238 6     -2959.171          40.000
R24  19345248.516 8 103447761.270 8     -1037.688          49.000    19345251.023 7  80459366.091 7      -807.090          46.000
C05                                                                  39705211.414 5 159876432.767 5       -17.978          35.000
C12  22199479.555 5 115598522.262 5      -121.934          30.000    22199481.500 7  89388102.607 7       -94.187          43.000
C21  23102123.586 6 120298747.664 6      1882.535          40.000
C22  21977459.078 8 114442400.081 8      -755.039          51.000
E04  26106744.719 7 137191978.808 7      2502.805          44.000    26106749.688 7 105121073.257 7      1917.724          47.000
E12  21629949.594 8 113666160.345 8        86.543          49.000    21629949.172 8  87094849.755 8        66.354          51.000
E19  23697852.766 7 124533096.915 7       105.211          46.000    23697854.148 8  95421470.417 8        80.643          50.000
E33  25208500.094 8 132471571.776 8     -2431.230          48.000    25208502.062 8 101504195.484 8     -1862.939          51.000
> 2020 05 02 22 00 30.0000000  0 18        .000000000000
G01  21474271.734 8 112848058.743 8     -2392.375          51.000    21474273.258 8  87933575.845 8     -1864.188          51.000
G03  20364404.906 8 107015708.170 8      -438.789          51.000    20364406.102 8  83388913.503 8      -341.914          51.000
G04  21071159.461 7 110729749.348 7      2180.016          47.000    21071159.727 7  86282899.974 7      1698.717          46.000
G09  23485177.234 6 123415512.931 6      3540.898          39.000    23485185.398 6  96167885.047 6      2759.142          40.000
G11  23922181.023 6 125711901.986 6     -3986.227          38.000    23922175.680 5  97957298.853 5     -3106.157          30.000
G22  21529335.742 5 113137417.195 5     -1667.617          35.000    21529332.555 5  88159015.309 5     -1299.445          35.000
R01  19476192.742 6 104111417.654 6     -1241.020          40.000    19476193.633 4  80975551.360 4      -965.240          27.000
R02  21220024.367 7 113234124.778 7      2729.582          47.000    21220030.117 7  88070989.517 7      2123.011          42.000
R23  21163935.523 8 113212814.631 8     -3828.113          51.000    21163941.227 7  88054429.426 7     -2977.421          42.000
R24  19351195.242 8 103479562.663 8     -1072.852          50.000    19351198.328 7  80484100.521 7      -834.440          47.000
C05                                                                  39705400.500 5 159877194.570 5       -25.164          35.000
C12  22200283.398 5 115602713.834 5      -148.387          33.000    22200286.625 7  89391343.770 7      -114.730          42.000
C21  23091352.688 6 120242663.835 6      1865.738          36.000
C22  21981887.633 8 114465460.493 8      -772.961          51.000
E04  26092525.945 7 137117259.938 7      2487.773          47.000    26092530.617 7 105063821.151 7      1906.291          46.000
E12  21629544.344 8 113664030.491 8        64.875          49.000    21629543.680 8  87093217.795 8        49.668          51.000
E19  23697335.594 7 124530378.884 7        85.590          46.000    23697336.906 8  95419387.768 8        65.603          50.000
E33  25222456.133 8 132544911.705 8     -2448.621          48.000    25222458.148 8 101560391.037 8     -1876.195          51.000
> 2020 05 02 22 01  0.0000000  0 18        .000000000000
G01  21487969.258 8 112920038.149 8     -2405.031          51.000    21487970.711 8  87989663.668 8     -1874.050          51.000
G03  20366944.867 8 107029055.891 8      -449.754          51.000    20366946.141 8  83399314.334 8      -350.455          51.000
G04  21058762.711 8 110664603.881 8      2164.355          50.000    21058762.758 7  86232137.305 7      1686.511          46.000
G09  23464985.586 6 123309408.291 6      3533.965          41.000    23464994.680 6  96085206.111 6      2753.739          40.000
G11  23944952.234 6 125831564.184 6     -3990.285          36.000    23944949.109 5  98050542.035 5     -3109.322          33.000
G22  21538882.172 6 113187583.875 6     -1675.500          39.000    21538879.555 5  88198106.326 5     -1305.581          34.000
R01  19483201.992 6 104148888.415 6     -1255.941          36.000    19483203.938 5  81004695.303 5      -976.840          30.000
R02  21204718.820 7 113152446.606 7      2717.012          47.000    21204722.555 6  88007462.123 6      2113.234          41.000
R23  21185450.305 8 113327897.593 8     -3842.777          51.000    21185455.578 7  88143938.420 7     -2988.824          43.000
R24  19357291.227 8 103512159.736 8     -1099.070          51.000    19357294.383 7  80509453.777 7      -854.832          47.000
C05                                                                  39705592.898 5 159877969.521 5       -25.400          35.000
C12  22201193.148 5 115607451.405 5      -166.609          32.000    22201196.234 6  89395007.157 6      -128.522          41.000
C21  23080623.961 5 120186832.976 5      1857.234          31.000
C22  21986371.273 8 114488807.389 8      -782.254          51.000
E04  26078345.453 8 137042738.939 8      2481.562          48.000    26078348.977 7 105006720.681 7      1901.523          46.000
E12  21629214.961 8 113662298.982 8        51.832          49.000    21629214.039 8  87091891.043 8        39.808          51.000
E19  23696882.992 7 124527999.829 7        74.504          46.000    23696884.211 8  95417564.849 8        57.123          50.000
E33  25236463.102 8 132618517.724 8     -2457.113          50.000    25236464.930 8 101616790.455 8     -1882.738          51.000
> 2020 05 02 22 01 30.0000000  0 17        .000000000000
G01  21501737.938 8 112992392.293 8     -2420.711          51.000    21501739.438 8  88046043.514 8     -1886.268          51.000
G03  20369546.102 8 107042725.924 8      -463.578          51.000    20369547.492 8  83409966.294 8      -361.230          51.000
G04  21046454.570 8 110599921.672 8      2145.793          51.000    21046454.266 7  86181735.613 7      1672.050          47.000
G09  23444832.039 7 123203501.357 7      3524.695          42.000    23444841.836 7  96002681.252 7      2746.516          42.000
G22  21548470.859 6 113237971.906 6     -1686.043          39.000    21548468.242 5  88237369.727 5     -1313.794          34.000
R01  19490293.547 5 104186803.633 5     -1273.824          34.000    19490298.742 4  81034185.005 4      -990.752          29.000
R02  21189481.172 7 113071133.859 7      2701.758          46.000    21189484.156 7  87944218.920 7      2101.367          43.000
R23  21207044.969 8 113443411.185 8     -3860.172          51.000    21207050.047 7  88233782.326 7     -3002.353          42.000
R24  19363533.602 8 103545537.458 8     -1128.215          51.000    19363535.945 7  80535414.247 7      -877.500          46.000
C05                                                                  39705786.289 5 159878746.994 5       -28.001          35.000
C12  22202205.734 6 115612721.030 6      -186.805          36.000    22202208.117 6  89399082.001 6      -144.733          40.000
C21  23069943.758 5 120131241.267 5      1847.621          30.000
C22  21990907.117 8 114512425.978 8      -794.293          51.000
E04  26064200.094 8 136968402.490 8      2472.305          48.000    26064202.656 7 104949761.614 7      1894.247          46.000
E12  21628958.945 8 113660952.485 8        35.895          50.000    21628957.789 8  87090859.303 8        27.551          50.000
E19  23696492.156 7 124525945.361 7        60.379          47.000    23696493.359 8  95415990.655 8        46.285          50.000
E33  25250518.164 8 132692374.954 8     -2468.652          51.000    25250519.789 8 101673382.334 8     -1891.562          51.000
> 2020 05 02 22 02  0.0000000  0 16        .000000000000
G01  21515573.750 8 113065101.648 8     -2428.699          50.000    21515575.523 8  88102700.150 8     -1892.493          50.000
G03  20372205.133 8 107056699.320 8      -469.965          51.000    20372206.609 8  83420854.649 8      -366.206          51.000
G04  21034231.422 8 110535685.678 8      2134.465          51.000    21034231.016 8  86131681.602 8      1663.219          48.000
G09  23424713.461 7 123097775.655 7      3521.801          42.000    23424723.352 6  95920297.616 6      2744.260          41.000
G22  21558098.141 7 113288562.402 7     -1689.156          42.000    21558095.406 5  88276790.885 5     -1316.226          34.000
R01  19497465.078 5 104225142.268 5     -1284.242          34.000    19497469.734 4  81064003.907 4      -998.855          28.000
R02  21174307.844 7 112990168.837 7      2693.906          46.000    21174312.094 7  87881246.101 7      2095.260          45.000
R23  21228715.477 8 113559333.390 8     -3870.070          50.000    21228720.312 6  88323944.053 6     -3010.055          41.000
R24  19369918.297 8 103579676.366 8     -1149.875          51.000    19369920.289 7  80561966.693 7      -894.347          47.000
C12  22203317.484 6 115618504.768 6      -200.418          37.000    22203317.773 6  89403554.367 6      -154.979          37.000
C21  23059308.070 5 120075870.460 5      1842.547          33.000
C22  21995491.406 8 114536297.078 8      -799.105          51.000
E04  26050086.047 7 136894232.802 7      2470.305          47.000    26050088.703 7 104892930.321 7      1892.894          46.000
E12  21628772.891 8 113659973.183 8        27.227          50.000    21628771.320 8  87090108.928 8        20.916          50.000
E19  23696159.492 7 124524196.584 7        53.801          47.000    23696160.508 8  95414650.685 8        41.341          50.000
E33  25264617.352 8 132766463.954 8     -2472.680          51.000    25264618.758 8 101730151.810 8     -1894.648          51.000
> 2020 05 02 22 02 30.0000000  0 18        .000000000000
G01  21529468.367 8 113138120.872 8     -2440.199          50.000    21529470.531 8  88159598.257 8     -1901.451          50.000
G03  20374913.383 8 107070931.388 8      -479.871          51.000    20374915.062 8  83431944.576 8      -373.926          51.000
G04  21022084.781 8 110471853.032 8      2119.961          51.000    21022084.344 8  86081941.880 8      1651.918          48.000
G09  23404621.688 7 122992188.804 7      3516.254          42.000    23404631.266 6  95838022.163 6      2739.938          41.000
G11  24013368.977 5 126191104.765 5     -3998.332          33.000
G22  21567755.508 7 113339310.585 7     -1695.281          43.000    21567753.414 6  88316334.917 6     -1321.001          38.000
R01  19504707.367 5 104263857.086 5     -1297.707          34.000    19504712.305 5  81094115.450 5     -1009.328          30.000
R02  21159191.484 7 112909507.316 7      2682.820          45.000    21159197.055 7  87818509.369 7      2086.638          45.000
R23  21250452.922 8 113675615.572 8     -3883.062          48.000    21250457.805 6  88414385.737 6     -3020.163          39.000
R24  19376436.586 8 103614530.882 8     -1174.812          51.000    19376438.250 7  80589075.751 7      -913.743          46.000
C05                                                                  39706156.555 5 159880237.993 5       -23.817          35.000
C12  22204519.328 6 115624758.713 6      -217.121          36.000    22204517.570 6  89408390.332 6      -167.988          38.000
C21  23048710.234 5 120020677.165 5      1835.586          35.000
C22  22000115.438 8 114560375.943 8      -807.164          51.000
E04  26035995.102 7 136820186.260 7      2465.117          46.000    26035998.711 7 104836193.386 7      1888.850          46.000
E12  21628648.352 8 113659317.465 8        15.473          49.000    21628646.055 8  87089606.498 8        11.871          50.000
E19  23695876.406 8 124522708.326 8        44.258          48.000    23695877.156 8  95413510.339 8        33.927          50.000
E33  25278751.969 8 132840739.547 8     -2479.930          51.000    25278753.297 8 101787064.275 8     -1900.224          51.000
> 2020 05 02 22 03  0.0000000  0 18        .000000000000
G01  21543446.898 8 113211579.186 8     -2452.816          51.000    21543448.766 8  88216838.505 8     -1911.286          51.000
G03  20377695.492 8 107085551.902 8      -490.738          51.000    20377697.344 8  83443337.194 8      -382.393          51.000
G04  21010039.594 8 110408555.378 8      2104.195          50.000    21010039.234 8  86032619.018 8      1639.633          48.000
G09  23384582.039 6 122886873.079 6      3509.266          41.000    23384590.797 6  95755958.000 6      2734.496          41.000
G11  24036218.312 5 126311165.794 5     -4001.969          33.000
G22  21577467.562 7 113390345.978 7     -1702.898          44.000    21577464.930 6  88356102.748 6     -1326.934          36.000
R01  19512044.141 5 104303078.727 5     -1312.508          35.000    19512049.586 4  81124621.199 4     -1020.839          29.000
R02  21144156.930 6 112829282.748 6      2670.117          41.000    21144162.328 7  87756112.519 7      2076.761          42.000
R23  21272281.430 7 113792386.810 7     -3897.359          45.000    21272286.438 6  88505207.785 6     -3031.280          37.000
R24  19383112.984 8 103650232.571 8     -1201.035          51.000    19383114.648 7  80616843.729 7      -934.141          47.000
C05                                                                  39706349.906 6 159881016.472 6       -24.509          36.000
C12  22205836.523 6 115631611.994 6      -235.406          36.000    22205834.203 6  89413689.563 6      -182.007          39.000
C21  23038170.078 5 119965790.522 5      1827.555          34.000
C22  22004803.977 8 114584790.693 8      -816.293          51.000
E04  26021952.453 7 136746393.779 7      2458.539          47.000    26021956.461 7 104779651.090 7      1883.846          46.000
E12  21628610.039 8 113659116.232 8         2.141          49.000    21628607.602 8  87089452.300 8         1.673          51.000
E19  23695667.656 8 124521610.124 8        33.355          48.000    23695668.094 8  95412668.873 8        25.603          50.000
E33  25292946.203 8 132915331.044 8     -2488.520          51.000    25292948.180 8 101844218.796 8     -1906.782          51.000
> 2020 05 02 22 03 30.0000000  0 19        .000000000000
G01  21557465.133 8 113285244.288 8     -2462.457          51.000    21557466.391 8  88274239.872 8     -1918.798          51.000
G03  20380507.445 8 107100329.180 8      -498.602          51.000    20380509.219 8  83454851.966 8      -388.521          51.000
G04  20998052.297 8 110345562.832 8      2091.176          50.000    20998052.031 8  85983533.903 8      1629.491          48.000
G09  23364550.812 6 122781599.226 6      3505.234          39.000    23364558.359 6  95673926.460 6      2731.355          39.000
G11  24059056.891 6 126431176.660 6     -4003.246          37.000
G22  21587189.938 7 113441436.721 7     -1707.551          45.000    21587186.039 5  88395913.717 5     -1330.559          34.000
R01  19519431.695 5 104342569.613 5     -1324.832          34.000    19519436.812 4  81155336.296 4     -1030.425          28.000
R02  21129160.352 6 112749260.609 6      2660.523          41.000    21129164.844 6  87693873.096 6      2069.296          40.000
R23  21294155.820 7 113909408.442 7     -3908.402          45.000    21294161.609 6  88596224.716 6     -3039.862          37.000
R24  19389903.383 8 103686545.484 8     -1224.242          51.000    19389905.344 7  80645087.088 7      -952.185          46.000
C05                                                                  39706512.906 6 159881673.008 6       -22.473          36.000
C12  22207223.914 5 115638835.485 5      -250.906          34.000    22207223.188 6  89419275.274 6      -193.784          37.000
C19  24873575.992 4 129523221.115 4     -2681.848          29.000
C21  23027644.555 6 119910981.374 6      1822.062          39.000
C22  22009512.984 8 114609311.306 8      -822.617          51.000
E04  26007914.477 7 136672624.692 7      2455.031          47.000    26007917.711 7 104723126.732 7      1881.176          46.000
E12  21628614.281 8 113659138.848 8        -8.074          49.000    21628612.352 8  87089469.621 8        -6.205          51.000
E19  23695489.008 8 124520670.216 8        25.156          48.000    23695489.234 8  95411948.700 8        19.276          50.000
E33  25307156.266 8 132990006.248 8     -2494.207          51.000    25307158.883 8 101901437.452 8     -1911.074          51.000
> 2020 05 02 22 04  0.0000000  0 18        .000000000000
G01  21571592.344 8 113359482.770 8     -2477.852          50.000    21571593.320 8  88332088.021 8     -1930.793          50.000
G03  20383419.219 8 107115630.401 8      -512.582          51.000    20383420.586 8  83466774.984 8      -399.415          51.000
G04  20986193.258 8 110283244.387 8      2072.367          50.000    20986193.164 8  85934974.073 8      1614.832          49.000
G09  23344598.734 6 122676736.864 6      3494.574          36.000    23344604.289 5  95592215.541 5      2723.042          35.000
G11  24081953.016 6 126551489.902 6     -4009.078          37.000
G22  21596992.547 7 113492950.066 7     -1717.848          44.000    21596987.219 5  88436053.989 5     -1338.586          34.000
R01  19526939.320 5 104382701.271 5     -1341.629          33.000    19526944.000 4  81186549.838 4     -1043.486          26.000
R02  21114272.773 7 112669814.943 7      2644.859          44.000    21114275.328 6  87632081.992 6      2057.116          39.000
R23  21316148.031 8 114027051.163 8     -3925.398          50.000    21316153.430 6  88687724.610 6     -3053.088          37.000
R24  19396877.766 8 103723842.677 8     -1253.246          51.000    19396879.781 7  80674095.999 7      -974.744          46.000
C05                                                                  39706715.633 6 159882489.351 6       -25.352          36.000
C12  22208749.672 5 115646793.595 5      -271.496          31.000    22208752.008 6  89425429.081 6      -209.751          36.000
C21  23017205.188 6 119856614.234 6      1810.762          39.000
C22  22014311.906 8 114634301.200 8      -834.559          51.000
E04  25993951.344 8 136599247.287 8      2445.789          48.000    25993953.320 7 104666902.519 7      1873.998          47.000
E12  21628731.141 8 113659753.564 8       -24.020          49.000    21628729.727 8  87089940.630 8       -18.408          51.000
E19  23695410.156 8 124520255.774 8        11.434          48.000    23695410.453 8  95411631.141 8         8.746          50.000
E33  25321452.297 8 133065131.842 8     -2505.367          51.000    25321454.984 8 101959001.204 8     -1919.691          51.000
> 2020 05 02 22 04 30.0000000  0 18        .000000000000
G01  21585768.922 8 113433981.827 8     -2490.895          49.000    21585770.047 8  88390139.251 8     -1940.957          49.000
G03  20386371.328 8 107131143.481 8      -523.969          51.000    20386372.344 8  83478863.096 8      -408.287          51.000
G04  20974403.445 8 110221289.777 8      2055.770          50.000    20974403.750 8  85886697.769 8      1601.901          49.000
G09  23324666.992 5 122571935.389 5      3486.715          34.000    23324671.430 5  95510620.956 5      2716.921          31.000
G11  24104845.477 6 126671791.312 6     -4013.562          37.000
G22  21606816.125 7 113544573.833 7     -1725.906          44.000    21606810.812 6  88476280.295 6     -1344.862          36.000
R01  19534505.570 5 104423155.120 5     -1357.398          33.000    19534510.977 4  81218009.992 4     -1055.754          26.000
R02  21099434.227 7 112590630.107 7      2631.887          42.000    21099435.312 6  87570493.793 6      2047.026          38.000
R23  21338197.711 8 114144994.462 8     -3939.754          51.000    21338201.523 6  88779458.238 6     -3064.253          37.000
R24  19403977.297 8 103761806.309 8     -1280.031          51.000    19403978.961 7  80703623.295 7      -995.580          47.000
C05                                                                  39706898.703 6 159883226.684 6       -25.841          36.000
C12  22210359.938 6 115655177.565 6      -289.547          37.000    22210362.023 6  89431912.200 6      -224.301          40.000
C21  23006790.398 6 119802380.497 6      1802.168          37.000
C22  22019141.242 8 114659450.665 8      -844.367          51.000
E04  25980003.836 8 136525950.625 8      2438.555          48.000    25980004.734 8 104610740.153 8      1868.479          48.000
E12  21628901.383 8 113660649.401 8       -37.953          48.000    21628900.180 8  87090627.062 8       -29.111          51.000
E19  23695371.844 8 124520054.223 8         -.391          48.000    23695372.195 8  95411476.699 8         -.254          49.000
E33  25335774.727 8 133140395.263 8     -2514.508          51.000    25335777.000 8 102016670.576 8     -1926.680          51.000
> 2020 05 02 22 05  0.0000000  0 18        .000000000000
G01  21600018.750 8 113508866.891 8     -2501.379          49.000    21600020.391 8  88448491.292 8     -1949.126          49.000
G03  20389387.672 8 107146994.503 8      -532.855          51.000    20389388.617 8  83491214.554 8      -415.212          51.000
G04  20962707.312 8 110159826.813 8      2041.754          50.000    20962707.820 8  85838804.566 8      1590.977          48.000
G09  23304775.516 5 122467418.139 5      3481.820          35.000    23304781.164 5  95429180.691 5      2713.104          35.000
G11  24127759.125 6 126792204.799 6     -4014.453          37.000    24127757.945 5  98799127.031 5     -3128.145          31.000
G22  21616684.781 7 113596434.261 7     -1731.555          46.000    21616679.750 5  88516691.015 5     -1349.263          35.000
R01  19542158.016 6 104464057.459 6     -1368.891          36.000    19542161.867 4  81249819.788 4     -1064.696          29.000
R02  21084668.312 7 112511835.341 7      2621.215          44.000    21084668.719 6  87509209.012 6      2038.723          37.000
R23  21360327.133 8 114263363.758 8     -3951.480          51.000    21360329.391 6  88871523.202 6     -3073.377          38.000
R24  19411225.453 8 103800564.163 8     -1303.945          51.000    19411227.047 7  80733768.293 7     -1014.180          47.000
C05                                                                  39707086.398 6 159883982.039 6       -24.732          36.000
C12  22212077.352 6 115664112.741 6      -306.023          37.000    22212078.188 6  89438821.481 6      -236.570          41.000
C21  22996423.383 6 119748405.694 6      1795.777          38.000
C22  22024025.352 8 114684884.160 8      -851.332          51.000
E04  25966095.820 7 136452861.831 7      2433.867          47.000    25966096.086 8 104554737.047 8      1864.983          49.000
E12  21629149.148 7 113661953.487 7       -49.160          47.000    21629148.234 8  87091626.295 8       -37.638          51.000
E19  23695398.094 8 124520191.657 8        -9.094          48.000    23695398.242 8  95411582.000 8        -6.977          49.000
E33  25350147.234 8 133215922.026 8     -2520.812          51.000    25350149.047 8 102074541.746 8     -1931.511          51.000
> 2020 05 02 22 05 30.0000000  0 19        .000000000000
G01  21614334.047 8 113584095.040 8     -2514.074          49.000    21614335.953 8  88507110.652 8     -1959.019          49.000
G03  20392460.305 8 107163141.143 8      -543.875          51.000    20392461.258 8  83503796.357 8      -423.799          51.000
G04  20951097.172 8 110098814.927 8      2025.387          51.000    20951097.609 8  85791262.845 8      1578.223          48.000
G09  23284923.875 6 122363087.203 6      3473.250          38.000    23284918.812 6  95347876.751 6      2706.426          36.000
G11  24150685.531 6 126912686.143 6     -4017.984          39.000    24150679.945 5  98892986.356 5     -3130.915          32.000
G17  22036174.078 5 115800875.905 5       -38.094          30.000
G22  21626590.367 7 113648488.657 7     -1739.203          45.000    21626586.125 6  88557252.905 6     -1355.223          36.000
R01  19549886.758 6 104505363.235 6     -1384.422          36.000    19549891.312 5  81281946.486 5     -1076.770          30.000
R02  21069968.109 7 112433388.905 7      2608.234          44.000    21069968.508 6  87448195.177 6      2028.627          39.000
R23  21382527.000 8 114382112.805 8     -3965.363          51.000    21382528.430 6  88963883.530 6     -3084.171          39.000
R24  19418614.172 8 103840072.621 8     -1330.340          51.000    19418615.383 7  80764497.113 7     -1034.709          47.000
C05                                                                  39707270.555 6 159884723.228 6       -25.312          36.000
C12  22213892.008 6 115673557.627 6      -324.230          36.000    22213891.633 7  89446124.858 7      -250.565          42.000
C21  22986100.156 6 119694648.281 6      1787.363          40.000
C22  22028956.086 8 114710559.338 8      -860.590          51.000
E04  25952219.352 8 136379939.600 8      2427.277          48.000    25952219.250 8 104498861.595 8      1859.787          49.000
E12  21629466.930 7 113663624.519 7       -62.527          47.000    21629466.398 8  87092906.696 8       -47.890          51.000
E19  23695480.625 8 124520625.613 8       -20.043          48.000    23695480.734 8  95411914.512 8       -15.313          49.000
E33  25364561.617 8 133291669.296 8     -2529.254          51.000    25364562.961 8 102132581.883 8     -1938.006          51.000
> 2020 05 02 22 06  0.0000000  0 18        .000000000000
G01  21628719.805 8 113659692.626 8     -2525.480          51.000    21628721.766 8  88566017.823 8     -1967.907          51.000
G03  20395594.328 8 107179610.378 8      -553.781          51.000    20395595.398 8  83516629.531 8      -431.518          51.000
G04  20939578.445 8 110038282.867 8      2010.379          51.000    20939578.781 8  85744095.012 8      1566.529          48.000
G09  23265112.156 6 122258966.763 6      3468.219          39.000    23265100.031 6  95266743.891 6      2702.505          40.000
G11  24173629.562 6 127033260.538 6     -4020.176          41.000    24173625.695 5  98986940.524 5     -3132.611          30.000
G22  21636537.961 7 113700764.061 7     -1745.758          44.000    21636534.250 6  88597986.971 6     -1360.328          37.000
R01  19557695.258 6 104547098.309 6     -1397.926          36.000    19557699.320 4  81314407.126 4     -1087.279          28.000
R02  21055338.695 7 112355319.184 7      2596.613          42.000    21055339.922 6  87387474.278 6      2019.585          41.000
R23  21404801.383 8 114501266.146 8     -3977.898          48.000    21404803.414 6  89056558.321 6     -3093.921          40.000
R24  19426148.297 8 103880358.605 8     -1355.219          51.000    19426149.109 7  80795830.675 7     -1054.059          46.000
C05                                                                  39707456.383 6 159885472.383 6       -24.563          36.000
C12  22215809.758 6 115683539.314 6      -341.074          36.000    22215808.562 6  89453843.325 6      -263.671          41.000
C21  22975824.766 7 119641135.651 7      1780.230          42.000
C22  22033938.164 8 114736502.443 8      -868.637          51.000
E04  25938379.828 8 136307212.006 8      2421.496          48.000    25938379.508 8 104443135.262 8      1855.486          50.000
E12  21629860.094 8 113665690.499 8       -74.922          48.000    21629859.875 8  87094489.726 8       -57.366          51.000
E19  23695624.727 8 124521382.651 8       -29.844          49.000    23695624.984 8  95412494.594 8       -22.942          50.000
E33  25379022.805 8 133367663.544 8     -2536.691          51.000    25379023.484 8 102190811.260 8     -1943.690          51.000
> 2020 05 02 22 06 30.0000000  0 18        .000000000000
G01  21643175.484 8 113735656.260 8     -2537.785          51.000    21643177.438 8  88625210.223 8     -1977.495          51.000
G03  20398789.219 8 107196399.532 8      -564.508          51.000    20398790.352 8  83529711.992 8      -439.876          51.000
G04  20928150.781 8 109978229.715 8      1994.250          50.000    20928151.055 7  85697300.374 7      1553.964          47.000
G09  23245341.430 5 122155065.841 5      3459.918          35.000    23245324.219 6  95185782.110 6      2696.037          36.000
G11  24196590.008 6 127153923.306 6     -4023.254          40.000    24196584.906 5  99080963.450 5     -3134.997          31.000
G22  21646527.047 7 113753257.306 7     -1753.027          45.000    21646523.820 5  88638890.842 5     -1365.992          35.000
R01  19565582.562 6 104589258.423 6     -1412.223          38.000    19565585.594 4  81347198.349 4     -1098.392          28.000
R02  21040778.172 6 112277624.425 6      2583.926          40.000    21040780.453 6  87327045.108 6      2009.723          40.000
R23  21427147.906 7 114620817.852 7     -3991.230          43.000    21427152.727 6  89149543.040 6     -3104.287          39.000
R24  19433827.109 8 103921418.875 8     -1381.145          51.000    19433827.383 7  80827766.440 7     -1074.224          46.000
C05                                                                  39707643.547 6 159886225.832 6       -24.962          36.000
C12  22217829.258 6 115694055.634 6      -359.020          36.000    22217827.250 6  89461975.264 6      -277.638          37.000
C21  22965596.344 6 119587865.811 6      1771.820          40.000
C22  22038970.961 8 114762710.432 8      -877.586          51.000
E04  25924576.719 8 136234677.477 8      2414.969          48.000    25924576.820 8 104387556.887 8      1850.434          50.000
E12  21630327.992 7 113668149.820 7       -88.180          47.000    21630328.094 8  87096374.142 8       -67.554          51.000
E19  23695829.922 8 124522460.097 8       -41.012          49.000    23695830.227 8  95413320.183 8       -31.365          49.000
E33  25393530.047 8 133443901.636 8     -2545.031          51.000    25393530.039 8 102249227.444 8     -1950.038          51.000
> 2020 05 02 22 07  0.0000000  0 18        .000000000000
G01  21657701.344 8 113811989.640 8     -2549.297          51.000    21657703.680 8  88684690.739 8     -1986.465          51.000
G03  20402045.797 8 107213513.045 8      -574.445          51.000    20402046.953 8  83543047.189 8      -447.620          51.000
G04  20916815.203 8 109918661.542 8      1978.941          50.000    20916815.367 7  85650883.644 7      1542.035          46.000
G09  23225613.016 5 122051419.953 5      3453.848          35.000    23225593.664 6  95104924.557 6      2691.310          36.000
G11  24219567.656 6 127274676.973 6     -4025.391          39.000    24219561.461 5  99175057.106 5     -3136.686          30.000
G22  21656558.328 7 113805973.289 7     -1759.594          43.000    21656555.211 6  88679968.237 6     -1371.115          37.000
R01  19573549.672 6 104631846.328 6     -1425.027          38.000    19573552.406 4  81380322.288 4     -1108.355          26.000
R02  21026288.961 6 112200310.465 6      2572.113          40.000    21026290.914 6  87266912.104 6      2000.536          39.000
R23  21449569.547 7 114740769.575 7     -4003.625          45.000    21449576.102 6  89242838.867 6     -3113.931          38.000
R24  19441651.227 8 103963257.418 8     -1406.164          51.000    19441651.172 7  80860307.487 7     -1093.686          45.000
C05                                                                  39707832.891 6 159886988.208 6       -24.418          36.000
C12  22219952.648 6 115705111.181 6      -376.219          37.000    22219948.898 6  89470524.168 6      -290.934          40.000
C21  22955414.680 5 119534843.609 5      1764.492          34.000
C22  22044055.578 8 114789187.195 8      -885.691          51.000
E04  25910811.258 8 136162341.457 8      2409.207          48.000    25910812.250 8 104332130.610 8      1846.052          51.000
E12  21630871.648 7 113671007.900 7      -100.590          47.000    21630871.945 8  87098564.090 8       -77.066          51.000
E19  23696096.648 8 124523861.983 8       -50.859          49.000    23696097.016 8  95414394.371 8       -38.973          49.000
E33  25408084.578 8 133520387.404 8     -2552.289          51.000    25408083.844 8 102307833.385 8     -1955.629          50.000
> 2020 05 02 22 07 30.0000000  0 18        .000000000000
G01  21672289.852 8 113888653.836 8     -2561.812          51.000    21672293.023 8  88744429.040 8     -1996.218          51.000
G03  20405356.789 8 107230912.624 8      -585.539          51.000    20405358.133 8  83556605.301 8      -456.264          51.000
G04  20905564.984 8 109859541.824 8      1962.391          48.000    20905565.023 7  85604816.367 7      1529.136          47.000
G09  23205919.672 5 121947935.506 5      3445.305          35.000    23205901.141 5  95024287.445 5      2684.656          35.000
G11  24242555.344 6 127395481.660 6     -4028.973          37.000
G22  21666625.039 7 113858873.481 7     -1767.238          44.000    21666621.547 5  88721189.172 5     -1377.069          35.000
R01  19581588.836 6 104674821.188 6     -1439.805          39.000
R02  21011864.383 7 112123339.374 7      2559.129          42.000    21011866.594 6  87207045.702 6      1990.434          40.000
R23  21472060.266 7 114861079.502 7     -4017.109          47.000    21472066.594 6  89336413.214 6     -3124.418          39.000
R24  19449613.258 8 104005834.434 8     -1432.438          51.000    19449613.375 7  80893422.926 7     -1114.118          45.000
C05                                                                  39708017.305 6 159887730.672 6       -25.207          36.000
C12  22222171.961 5 115716668.586 5      -394.355          35.000    22222168.641 7  89479461.033 7      -304.965          42.000
C21  22945273.023 5 119482031.841 5      1756.012          35.000
C22  22049184.469 8 114815894.403 8      -894.887          51.000
E04  25897076.812 8 136090166.755 8      2402.188          49.000    25897078.367 8 104276827.933 8      1840.658          51.000
E12  21631484.312 8 113674227.453 8      -114.254          48.000    21631484.500 8  87101031.032 8       -87.596          51.000
E19  23696417.859 8 124525550.015 8       -62.027          49.000    23696418.141 8  95415687.804 8       -47.492          49.000
E33  25422678.906 8 133597082.060 8     -2560.871          51.000    25422677.914 8 102366599.377 8     -1962.199          51.000
> 2020 05 02 22 08  0.0000000  0 19        .000000000000
G01  21686949.695 8 113965692.877 8     -2573.629          50.000    21686953.305 8  88804459.463 8     -2005.425          50.000
G03  20408730.820 8 107248643.080 8      -596.113          51.000    20408732.344 8  83570421.237 8      -464.504          51.000
G04  20894408.891 7 109800917.061 7      1946.312          47.000    20894408.883 7  85559134.754 7      1516.607          46.000
G09  23186270.836 6 121844688.449 6      3438.312          39.000    23186254.156 6  94943835.293 6      2679.211          39.000
G11  24265560.633 6 127516379.963 6     -4031.031          36.000
G19  22325678.531 6 117322227.951 6      1134.914          37.000
G22  21676735.273 7 113912002.382 7     -1774.293          46.000    21676730.375 5  88762588.338 5     -1382.563          33.000
R01  19589708.828 6 104718227.036 6     -1453.445          38.000    19589712.555 5  81447499.263 5     -1130.457          30.000
R02  20997513.352 6 112046758.026 6      2546.750          41.000    20997516.398 6  87147482.396 6      1980.809          41.000
R23  21494626.156 8 114981789.954 8     -4029.773          49.000    21494632.406 6  89430299.089 6     -3134.271          40.000
R24  19457721.281 8 104049195.108 8     -1457.852          50.000    19457722.484 7  80927147.869 7     -1133.885          47.000
C05                                                                  39708205.297 6 159888487.822 6       -25.164          36.000
C12  22224496.195 6 115728772.433 6      -412.020          37.000    22224493.297 6  89488820.444 6      -318.708          40.000
C21  22935179.812 6 119429475.529 6      1747.867          39.000
C22  22054365.859 8 114842875.942 8      -903.398          51.000
E04  25883381.938 8 136018199.198 8      2395.957          49.000    25883383.812 8 104221683.973 8      1835.839          51.000
E12  21632174.688 8 113677854.300 8      -127.207          49.000    21632174.750 8  87103810.043 8       -97.425          51.000
E19  23696801.930 8 124527568.487 8       -72.086          49.000    23696802.336 8  95417234.437 8       -55.265          50.000
E33  25437321.461 8 133674029.838 8     -2568.652          51.000    25437320.617 8 102425559.334 8     -1968.167          51.000
> 2020 05 02 22 08 30.0000000  0 21        .000000000000
G01  21701667.344 8 114043035.308 8     -2586.027          50.000    21701670.930 8  88864726.311 8     -2015.086          50.000
G03  20412154.398 8 107266633.630 8      -606.922          51.000    20412155.898 8  83584439.841 8      -472.926          51.000
G04  20883333.656 7 109742718.041 7      1929.883          45.000    20883333.477 7  85513784.916 7      1503.808          45.000
G09  23166654.195 6 121741610.528 6      3430.098          40.000    23166639.992 6  94863514.935 6      2672.806          39.000
G11  24288570.656 5 127637299.302 5     -4033.809          35.000
G17  22039442.695 6 115818032.264 6      -153.348          38.000    22039442.844 6  90247844.067 6      -119.464          36.000
G19  22319246.461 5 117288439.669 5      1114.012          35.000
G22  21686875.562 7 113965289.152 7     -1781.816          46.000    21686870.141 5  88804110.527 5     -1388.425          35.000
R01  19597895.484 6 104761990.039 6     -1467.543          37.000    19597900.023 4  81481537.223 4     -1141.419          29.000
R02  20983219.492 5 111970495.948 5      2533.590          33.000    20983226.047 6  87088167.376 6      1970.567          39.000
R23  21517252.906 8 115102825.957 8     -4042.824          49.000    21517259.320 7  89524438.188 7     -3144.419          42.000
R24  19465962.125 8 104093266.245 8     -1483.828          50.000    19465964.547 7  80961425.427 7     -1154.089          47.000
C05                                                                  39708383.578 6 159889205.840 6       -25.678          36.000
C12  22226912.188 6 115741352.874 6      -430.516          38.000    22226908.477 6  89498548.443 6      -332.591          40.000
C19  25028605.711 5 130330504.719 5     -2697.309          33.000
C21  22925122.570 6 119377104.845 6      1739.516          39.000
C22  22059586.508 8 114870061.262 8      -912.434          51.000
E04  25869713.227 8 135946369.058 8      2389.047          50.000    25869715.602 8 104166645.298 8      1830.616          51.000
E12  21632929.297 8 113681818.601 8      -140.793          49.000    21632929.250 8  87106847.626 8      -107.883          51.000
E19  23697235.219 8 124529846.463 8       -83.020          49.000    23697236.102 8  95418979.927 8       -63.681          50.000
E33  25451998.680 8 133751159.377 8     -2576.977          51.000    25451998.312 8 102484658.589 8     -1974.611          51.000
> 2020 05 02 22 09  0.0000000  0 20        .000000000000
G01  21716462.570 8 114120785.044 8     -2597.320          49.000    21716466.328 8  88925310.500 8     -2023.889          49.000
G03  20415647.414 8 107284988.819 8      -616.812          51.000    20415648.711 8  83598742.578 8      -480.633          51.000
G04  20872359.633 7 109685051.101 7      1914.320          45.000    20872359.141 7  85468849.662 7      1491.678          44.000
G09  23147089.727 6 121638808.622 6      3422.969          40.000    23147079.281 6  94783409.654 6      2667.251          41.000
G11  24311604.812 5 127758342.316 5     -4036.125          35.000
G17  22040373.164 5 115822910.908 5      -171.645          32.000    22040370.438 4  90251629.460 4      -133.761          27.000
G22  21697065.656 7 114018838.539 7     -1788.152          45.000    21697060.398 5  88845837.295 5     -1393.369          34.000
R01  19606168.156 5 104806214.832 5     -1480.578          35.000    19606169.094 4  81515934.254 4     -1151.561          29.000
R02  20969007.711 6 111894659.707 6      2521.547          40.000    20969013.570 6  87029183.611 6      1961.209          37.000
R23  21539959.891 8 115224290.917 8     -4054.867          49.000    21539966.391 7  89618910.939 7     -3153.786          43.000
R24  19474355.961 8 104138153.900 8     -1508.801          51.000    19474358.828 7  80996338.049 7     -1173.512          47.000
C05                                                                  39708572.125 6 159889965.174 6       -25.358          36.000
C12  22229440.109 6 115754513.802 6      -447.332          38.000    22229435.820 6  89508725.337 6      -345.899          41.000
C19  25044144.062 5 130411427.194 5     -2697.555          34.000
C21  22915117.750 5 119325024.112 5      1732.262          32.000
C22  22064866.203 8 114897553.566 8      -920.477          51.000
E04  25856090.484 8 135874781.967 8      2383.266          49.000    25856093.461 8 104111792.844 8      1826.142          51.000
E12  21633768.375 8 113686225.941 8      -153.273          49.000    21633767.836 8  87110224.679 8      -117.407          51.000
E19  23697737.891 8 124532488.519 8       -93.047          49.000    23697739.008 8  95421004.360 8       -71.353          50.000
E33  25466730.250 8 133828574.676 8     -2584.148          51.000    25466730.688 8 102543976.811 8     -1980.074          51.000
> 2020 05 02 22 09 30.0000000  0 19        .000000000000
G01  21731319.094 8 114198855.290 8     -2602.156          50.000    21731322.836 8  88986144.431 8     -2027.657          50.000
G03  20419193.445 8 107303622.654 8      -620.078          51.000    20419194.586 8  83613262.444 8      -483.178          51.000
G04  20861470.859 7 109627831.868 7      1905.609          46.000    20861470.164 7  85424263.183 7      1484.887          44.000
G09  23127561.406 6 121536199.130 6      3422.508          40.000    23127555.484 6  94703454.290 6      2666.892          41.000
G11  24334645.766 6 127879420.807 6     -4031.305          37.000
G17  22041400.617 5 115828344.904 5      -184.184          34.000
G22  21707289.234 7 114072564.497 7     -1788.289          44.000    21707284.484 6  88887701.646 6     -1393.475          37.000
R01  19614510.383 6 104850812.612 6     -1486.938          36.000    19614513.336 5  81550621.428 5     -1156.501          31.000
R02  20954861.203 7 111819163.208 7      2516.680          42.000    20954864.180 6  86970464.209 6      1957.421          37.000
R23  21562729.609 8 115346094.110 8     -4059.965          48.000    21562736.703 7  89713646.794 7     -3157.750          43.000
R24  19482886.242 8 104183769.591 8     -1526.973          51.000    19482888.711 7  81031816.912 7     -1187.645          46.000
C05                                                                  39708754.633 6 159890700.297 6       -20.032          36.000
C12  22232061.906 6 115768170.435 6      -457.977          38.000    22232058.539 7  89519285.429 7      -354.034          42.000
C19  25059681.773 5 130492350.083 5     -2691.871          32.000
C22  22070188.289 8 114925267.150 8      -921.914          51.000
E04  25842497.414 8 135803352.918 8      2383.863          49.000    25842500.719 8 104057061.485 8      1826.614          51.000
E12  21634675.602 8 113690991.265 8      -159.332          50.000    21634674.391 8  87113876.047 8      -122.059          51.000
E19  23698293.312 8 124535408.182 8       -96.551          48.000    23698294.438 8  95423241.507 8       -73.951          50.000
E33  25481499.445 8 133906189.192 8     -2584.965          51.000    25481500.609 8 102603447.701 8     -1980.690          51.000
> 2020 05 02 22 10  0.0000000  0 19        .000000000000
G01  21746246.531 8 114277297.854 8     -2622.391          50.000    21746249.805 8  89047268.492 8     -2043.421          50.000
G03  20422802.406 8 107322587.754 8      -639.203          51.000    20422803.586 8  83628040.447 8      -498.080          51.000
G04  20850677.812 7 109571114.458 7      1880.703          47.000    20850677.461 7  85380067.774 7      1465.483          46.000
G09  23108080.000 5 121433836.979 5      3406.156          35.000    23108078.406 6  94623691.637 6      2654.151          36.000
G11  24357702.516 6 128000585.662 6     -4041.922          37.000    24357704.219 5  99740725.797 5     -3149.550          32.000
G19  22300704.367 5 117190991.875 5      1049.434          31.000
G22  21717556.602 7 114126519.517 7     -1803.871          44.000    21717551.805 6  88929744.471 6     -1405.614          38.000
R01  19622932.203 6 104895834.495 6     -1509.633          40.000    19622936.734 5  81585638.479 5     -1174.159          30.000
R02  20940788.086 7 111744060.960 7      2495.371          43.000    20940789.961 6  86912051.361 6      1940.844          38.000
R23  21585572.109 8 115468286.056 8     -4081.031          48.000    21585579.492 6  89808684.991 6     -3174.135          41.000
R24  19491562.461 8 104230165.877 8     -1561.117          51.000    19491564.703 7  81067902.906 7     -1214.202          47.000
C05                                                                  39708941.422 6 159891451.908 6       -26.403          36.000
C12  22234789.727 6 115782374.939 6      -483.980          38.000    22234785.273 6  89530269.296 6      -374.202          40.000
C19  25075228.758 5 130573325.259 5     -2701.680          34.000
C22  22075562.672 8 114953253.714 8      -938.875          51.000
E04  25828944.867 8 135732135.554 8      2368.777          49.000    25828947.922 8 104002492.343 8      1815.055          51.000
E12  21635660.836 8 113696168.135 8      -181.020          50.000    21635659.469 8  87117842.739 8      -138.691          51.000
E19  23698911.492 8 124538657.767 8      -115.383          48.000    23698912.516 8  95425731.467 8       -88.338          50.000
E33  25496316.422 8 133984054.938 8     -2601.270          50.000    25496318.141 8 102663111.095 8     -1993.163          51.000
> 2020 05 02 22 10 30.0000000  0 18        .000000000000
G01  21761243.414 8 114356107.472 8     -2631.023          48.000    21761246.539 8  89108678.568 8     -2050.148          48.000
G03  20426473.492 8 107341879.544 8      -646.535          51.000    20426474.758 8  83643073.003 8      -503.794          51.000
G04  20839979.914 8 109514895.873 8      1867.660          48.000    20839980.164 8  85336261.102 8      1455.323          48.000
G11  24380774.109 5 128121830.438 5     -4040.316          33.000
G22  21727866.633 7 114180698.814 7     -1807.738          45.000    21727861.789 6  88971962.119 6     -1408.624          36.000
R01  19631432.922 6 104941274.412 6     -1519.711          38.000    19631435.992 5  81620980.563 5     -1182.000          30.000
R02  20926788.477 7 111669349.671 7      2485.863          42.000    20926788.844 6  86853942.593 6      1933.452          37.000
R23  21608486.023 8 115590858.881 8     -4090.004          48.000    21608492.875 6  89904019.414 6     -3181.114          38.000
R24  19500383.945 8 104277337.425 8     -1583.141          51.000    19500386.430 7  81104591.880 7     -1231.332          47.000
C05                                                                  39709131.406 6 159892216.843 6       -24.001          36.000
C12  22237620.844 6 115797123.221 6      -498.707          39.000    22237617.250 7  89541673.574 7      -385.671          43.000
C19  25090787.305 6 130654348.015 6     -2699.562          37.000
C21  22885380.344 6 119170143.230 6      1710.047          36.000
C22  22080988.688 8 114981508.269 8      -944.289          51.000
E04  25815432.242 8 135661126.307 8      2365.512          50.000    25815434.797 8 103948082.685 8      1812.490          51.000
E12  21636723.547 8 113701752.916 8      -190.934          50.000    21636722.375 8  87122121.975 8      -146.294          51.000
E19  23699591.688 8 124542232.497 8      -122.449          48.000    23699592.570 8  95428470.550 8       -93.801          50.000
E33  25511180.586 8 134062166.758 8     -2605.848          51.000    25511182.656 8 102722963.014 8     -1996.673          51.000
> 2020 05 02 22 11  0.0000000  0 20        .000000000000
G01  21776302.781 8 114435247.059 8     -2647.930          49.000    21776306.055 8  89170345.793 8     -2063.322          49.000
G03  20430199.812 8 107361461.728 8      -662.145          51.000    20430201.141 8  83658331.847 8      -515.957          51.000
G04  20829370.562 8 109459141.465 8      1846.160          49.000    20829371.047 8  85292816.151 8      1438.569          48.000
G09  23069267.633 5 121229817.438 5      3387.930          33.000    23069262.430 5  94464774.766 5      2639.945          33.000
G11  24403854.766 5 128243121.686 5     -4047.789          32.000
G17  22045158.000 6 115848093.697 6      -252.305          37.000    22045145.195 4  90271200.674 4      -196.619          28.000
G22  21738212.328 7 114235066.087 7     -1819.898          45.000    21738207.734 6  89014326.210 6     -1418.103          36.000
R01  19640004.680 6 104987093.827 6     -1538.230          36.000    19640009.883 5  81656617.880 5     -1196.401          30.000
R02  20912855.641 6 111594993.061 6      2468.363          36.000    20912854.617 6  86796109.753 6      1919.841          39.000
R23  21631463.891 7 115713772.625 7     -4107.434          47.000    21631470.156 6  89999618.983 6     -3194.671          36.000
R24  19509343.367 8 104325246.376 8     -1613.781          51.000    19509345.797 7  81141854.371 7     -1255.166          47.000
C05                                                                  39709317.812 6 159892967.662 6       -28.218          36.000
C12  22240550.828 6 115812379.366 6      -521.348          41.000    22240547.773 7  89553470.587 7      -403.209          44.000
C19  25106348.984 6 130735382.044 6     -2705.520          36.000
C21  22875563.047 6 119118998.075 6      1696.691          37.000
C22  22086459.305 8 115009994.413 8      -957.773          51.000
E04  25801952.656 8 135590289.930 8      2353.898          50.000    25801954.656 8 103893805.478 8      1803.562          51.000
E12  21637857.258 8 113707710.230 8      -209.168          51.000    21637855.938 8  87126686.666 8      -160.310          51.000
E19  23700326.711 8 124546095.764 8      -137.973          48.000    23700327.703 8  95431430.721 8      -105.680          50.000
E33  25526084.836 8 134140487.807 8     -2618.672          50.000    25526086.922 8 102782975.246 8     -2006.506          51.000
> 2020 05 02 22 11 30.0000000  0 19        .000000000000
G01  21791419.594 8 114514686.481 8     -2655.426          50.000    21791423.125 8  89232246.647 8     -2069.163          50.000
G03  20433975.812 8 107381304.880 8      -668.160          51.000    20433977.102 8  83673794.048 8      -520.644          51.000
G04  20818844.164 8 109403823.403 8      1834.453          50.000    20818844.938 8  85249711.194 8      1429.444          48.000
G09  23049908.133 6 121128095.495 6      3385.504          38.000    23049904.961 6  94385511.005 6      2638.058          37.000
G17  22046622.852 5 115855774.409 5      -267.324          33.000
G22  21748588.109 7 114289591.663 7     -1822.559          43.000    21748583.719 6  89056813.652 6     -1420.179          38.000
R01  19648640.461 6 105033260.859 6     -1547.008          36.000    19648647.000 4  81692525.580 4     -1203.228          29.000
R02  20898983.648 6 111520962.683 6      2459.934          40.000    20898983.078 6  86738530.710 6      1913.282          40.000
R23  21654498.586 7 115836994.390 7     -4114.879          46.000    21654505.141 5  90095458.111 5     -3200.461          34.000
R24  19518435.406 8 104373861.655 8     -1634.703          51.000    19518437.375 7  81179666.272 7     -1271.436          47.000
C05                                                                  39709495.312 6 159893682.113 6       -24.871          36.000
C12  22243572.516 6 115828114.564 6      -534.930          40.000    22243570.125 7  89565637.969 7      -413.539          45.000
C19  25121907.328 6 130816397.922 6     -2702.648          36.000
C21  22865779.094 5 119068042.788 5      1693.215          34.000
C22  22091968.492 8 115038682.594 8      -961.973          51.000
E04  25788500.547 8 135519598.036 8      2351.672          50.000    25788502.133 8 103839638.960 8      1801.936          51.000
E12  21639056.352 8 113714011.615 8      -218.176          50.000    21639054.789 8  87131515.002 8      -167.153          51.000
E19  23701111.125 8 124550218.098 8      -144.035          48.000    23701112.219 8  95434589.397 8      -110.484          50.000
E33  25541022.891 8 134218988.078 8     -2622.070          49.000    25541024.961 8 102843124.805 8     -2009.065          51.000
> 2020 05 02 22 12  0.0000000  0 19        .000000000000
G01  21806611.133 8 114594516.938 8     -2667.203          50.000    21806614.648 8  89294452.180 8     -2078.340          50.000
G03  20437819.062 8 107401500.995 8      -678.676          51.000    20437820.219 8  83689531.288 8      -528.835          51.000
G04  20808418.625 8 109349035.217 8      1817.840          50.000    20808419.641 8  85207019.107 8      1416.499          48.000
G09  23030601.977 6 121026652.003 6      3377.422          40.000    23030599.703 6  94306464.184 6      2631.760          40.000
G11  24450038.359 5 128485818.068 5     -4047.672          30.000
G22  21759011.617 7 114344368.028 7     -1829.738          43.000    21759007.688 6  89099496.545 6     -1425.770          37.000
R01  19657358.219 5 105079867.470 5     -1560.770          34.000    19657365.859 4  81728775.200 4     -1213.932          28.000
R02  20885190.750 6 111447352.841 6      2447.082          40.000    20885189.516 6  86681278.552 6      1903.283          38.000
R23  21677607.750 7 115960614.716 7     -4126.828          45.000    21677614.086 5  90191607.247 5     -3209.755          33.000
R24  19527676.234 8 104423276.069 8     -1660.062          51.000    19527678.305 8  81218099.700 8     -1291.160          48.000
C05                                                                  39709681.320 6 159894431.107 6       -25.282          36.000
C12  22246704.172 7 115844419.941 7      -552.742          42.000    22246701.883 7  89578246.326 7      -427.376          46.000
C19  25137479.891 5 130897486.633 5     -2703.684          33.000
C21  22856048.578 6 119017369.054 6      1684.961          36.000
C22  22097533.789 8 115067663.471 8      -970.539          51.000
E04  25775093.719 8 135449143.585 8      2344.941          50.000    25775095.000 8 103785654.389 8      1796.716          51.000
E12  21640338.242 8 113720749.954 8      -231.512          50.000    21640337.000 8  87136678.131 8      -177.446          51.000
E19  23701962.328 7 124554691.054 7      -154.758          47.000    23701963.375 8  95438016.721 8      -118.542          50.000
E33  25556012.328 8 134297758.912 8     -2629.836          48.000    25556014.758 8 102903481.684 8     -2015.120          51.000
> 2020 05 02 22 12 30.0000000  0 19        .000000000000
G01  21821871.656 8 114674711.215 8     -2679.879          49.000    21821875.125 8  89356941.201 8     -2088.217          49.000
G03  20441724.477 8 107422023.630 8      -690.121          51.000    20441725.484 8  83705522.960 8      -537.757          51.000
G04  20798088.922 8 109294752.001 8      1800.340          49.000    20798090.250 8  85164720.521 8      1402.862          48.000
