     3.02           OBSERVATION DATA    M (MIXED)           RINEX VERSION / TYPE
SAVERINEX           SC600               20200508 235932 LCL PGM / RUN BY / DATE
       G = GPS       R = GLONASS       C = COMPASS          COMMENT
       S = SBAS      J = QZSS          E = GALILEO          COMMENT
BEAN                                                        MARKER NAME
1                                                           MARKER NUMBER
GEODETIC                                                    MARKER TYPE
Unige DICCA         GTER                                    OBSERVER / AGENCY
SC60291900056       SC600               2.12(191226)        REC # / TYPE / VERS
                    HEMA45          NONE                    ANT # / TYPE
  4509407.8091   693652.4678  4442337.6214                  APPROX POSITION XYZ
        0.0000        0.0000        0.0000                  ANTENNA: DELTA H/E/N
G    8 C1C L1C D1C S1C C2Y L2Y D2Y S2Y                      SYS / # / OBS TYPES
R    8 C1C L1C D1C S1C C2P L2P D2P S2P                      SYS / # / OBS TYPES
C    8 C1I L1I D1I S1I C7I L7I D7I S7I                      SYS / # / OBS TYPES
E    8 C1C L1C D1C S1C C7Q L7Q D7Q S7Q                      SYS / # / OBS TYPES
DBHZ                                                        COMMENT
     30.000                                                 INTERVAL
  2020    05    08    21    00    0.0000000     GPS         TIME OF FIRST OBS
  2020    05    08    21    59   30.0000000     GPS         TIME OF LAST OBS
     0                                                      RCV CLOCK OFFS APPL
G L1C  0.00000                                              SYS / PHASE SHIFT
G L2Y  0.00000                                              SYS / PHASE SHIFT
R L1C  0.00000                                              SYS / PHASE SHIFT
R L2P  0.25000                                              SYS / PHASE SHIFT
C L1I  0.00000                                              SYS / PHASE SHIFT
C L7I  0.00000                                              SYS / PHASE SHIFT
E L1C  0.50000                                              SYS / PHASE SHIFT
E L7Q -0.25000                                              SYS / PHASE SHIFT
 12 R05  1 R06 -4 R07  5 R08  6 R09 -2 R10 -5 R15  0 R16 -1 GLONASS SLOT / FRQ #
    R19  3 R20  2 R21  4 R22 -3                             GLONASS SLOT / FRQ #
 C1C   71.950 C2C   71.950 C2P   71.950                     GLONASS COD/PHS/BIS
    18                                                      LEAP SECONDS
*** Above antenna height is from mark to ANTENNA BOTTOM.    COMMENT
    17     4        0.0000        ANT MEASURE TYPE/HEIGT    COMMENT
    0.0000    0.0000    0.0458    0.0405    0.0000          COMMENT
                    BASE STATION                            COMMENT
                                                            END OF HEADER
> 2020 05 08 21 00  0.0000000  0 18        .000000000000
G01  20690612.539 8 108729902.326 8     -1440.965          51.000    20690614.320 8  84724613.359 8     -1122.830          51.000
G03  20343110.953 7 106903801.535 7       341.422          45.000    20343112.836 7  83301726.230 7       266.046          45.000
G04  22176005.969 8 116535691.897 8      3127.930          48.000    22176008.719 7  90807072.262 7      2437.348          45.000
G11  22355799.922 7 117480529.100 7     -3515.938          46.000    22355799.148 7  91543237.902 7     -2739.689          43.000
G22  20975207.461 8 110225559.185 8     -1118.484          51.000    20975204.922 8  85889970.140 8      -871.546          51.000
R06  20318948.758 5 108425815.524 5     -2659.324          34.000
R07  19454850.305 8 104143348.733 8       859.270          51.000    19454852.094 8  81000390.372 8       668.321          49.000
R08  22489744.398 7 120431526.362 7      3474.957          45.000    22489748.289 7  93669001.772 7      2702.747          44.000
R21  20614880.328 7 110314387.449 7     -3203.234          46.000    20614884.281 7  85800096.765 7     -2491.401          42.000
R22  19402076.992 6 103569591.016 6      1032.070          39.000    19402075.961 5  80554123.734 5       802.724          33.000
C05                                                                  39698683.109 5 159850146.164 5       -25.663          35.000
C12  22782277.422 7 118633297.460 7     -2514.750          46.000    22782277.594 8  91734781.077 8     -1944.607          51.000
C14  25298683.656 6 131736987.725 6      2808.453          40.000    25298683.539 7 101867349.804 7      2171.526          44.000
C21  21731527.719 8 113161900.575 8      -490.184          51.000
E04  23630104.922 8 124177087.142 8      -540.672          51.000    23630105.391 8  95148706.808 8      -414.269          51.000
E09  22813498.867 8 119885817.399 8      2115.344          51.000    22813504.695 8  91860572.679 8      1620.884          51.000
E11  22559313.211 8 118549994.932 8      -739.484          50.000    22559311.961 8  90837007.216 8      -566.654          50.000
E12  24814985.195 7 130403616.612 7     -2736.902          42.000    24814989.070 8  99919648.428 8     -2097.122          50.000
> 2020 05 08 21 00 30.0000000  0 18        .000000000000
G01  20698880.117 8 108773347.923 8     -1455.473          51.000    20698881.984 8  84758467.051 8     -1134.135          51.000
G03  20341196.875 7 106893740.893 7       329.254          47.000    20341199.148 7  83293886.777 7       256.561          47.000
G04  22158180.945 7 116442020.482 7      3116.781          47.000    22158183.336 7  90734081.593 7      2428.661          44.000
G11  22375898.359 7 117586152.827 7     -3525.719          46.000    22375898.227 7  91625542.152 7     -2747.310          43.000
G22  20981619.062 8 110259251.550 8     -1127.762          51.000    20981616.250 8  85916223.933 8      -878.775          51.000
R06  20333931.305 5 108505761.706 5     -2670.590          33.000
R07  19450089.398 8 104117864.205 8       839.625          51.000    19450091.477 8  80980569.086 8       653.042          49.000
R08  22470303.695 7 120327429.114 7      3464.855          44.000    22470308.570 7  93588037.305 7      2694.888          42.000
R21  20632888.047 8 110410755.571 8     -3221.344          48.000    20632891.078 6  85875049.779 6     -2505.490          40.000
R22  19396343.508 7 103538987.573 7      1007.922          42.000    19396344.367 5  80530321.016 5       783.939          35.000
C05                                                                  39698877.844 5 159850930.473 5       -26.330          35.000
C12  22796800.180 7 118708923.521 7     -2527.078          47.000    22796800.406 8  91793259.962 8     -1954.055          51.000
C14  25282518.344 6 131652811.209 6      2803.328          40.000    25282517.867 7 101802259.288 7      2167.663          44.000
C21  21734383.203 8 113176769.994 8      -501.137          50.000
E04  23633224.305 8 124193480.472 8      -552.375          51.000    23633225.102 8  95161267.937 8      -423.209          51.000
E09  22801449.328 8 119822491.745 8      2106.215          51.000    22801453.469 8  91812050.470 8      1613.820          51.000
E11  22563568.984 8 118572358.672 8      -751.770          49.000    22563567.484 8  90854143.071 8      -575.941          50.000
E12  24830625.469 7 130485807.402 7     -2742.734          42.000    24830629.859 8  99982625.816 8     -2101.450          50.000
> 2020 05 08 21 01  0.0000000  0 18        .000000000000
G01  20707224.484 8 108817197.646 8     -1472.359          51.000    20707226.547 8  84792635.658 8     -1147.293          51.000
G03  20339346.289 7 106884014.559 7       314.828          46.000    20339348.547 7  83286307.837 7       245.321          46.000
G04  22140414.406 7 116348658.529 7      3103.023          46.000    22140415.547 7  90661332.053 7      2417.940          43.000
G11  22396047.977 8 117692040.998 8     -3537.836          48.000    22396048.297 7  91708052.444 7     -2756.755          44.000
G22  20988077.898 8 110293192.472 8     -1139.305          51.000    20988074.984 8  85942671.411 8      -887.770          51.000
R06  20348973.516 5 108586029.104 5     -2685.348          31.000
R07  19445432.633 8 104092938.095 8       817.551          51.000    19445435.430 8  80961182.140 8       635.873          49.000
R08  22450914.445 7 120223607.919 7      3452.090          45.000    22450919.492 7  93507287.525 7      2684.962          42.000
R21  20650993.539 8 110507637.774 8     -3241.922          51.000    20650994.859 7  85950402.535 7     -2521.498          42.000
R22  19390741.023 6 103509081.699 6       981.047          41.000    19390743.336 6  80507060.882 6       763.036          37.000
C12  22811388.555 8 118784888.412 8     -2541.660          49.000    22811388.391 8  91852000.853 8     -1965.358          51.000
C14  25266376.164 6 131568757.562 6      2796.094          37.000    25266375.672 7 101737263.797 7      2162.002          43.000
C21  21737296.445 8 113191939.899 8      -514.531          50.000
C22  24679731.188 5 128513830.732 5     -2688.867          31.000
E04  23636404.945 8 124210195.018 8      -566.379          51.000    23636405.641 8  95174075.190 8      -433.943          51.000
E09  22789447.492 8 119759415.455 8      2094.555          51.000    22789449.586 8  91763719.343 8      1604.871          51.000
E11  22567887.781 8 118595054.377 8      -766.055          49.000    22567886.008 8  90871533.287 8      -586.935          50.000
E12  24846292.875 7 130568140.075 7     -2750.750          43.000    24846297.148 8 100045711.914 8     -2107.592          48.000
> 2020 05 08 21 01 30.0000000  0 21        .000000000000
G01  20715641.086 8 108861427.403 8     -1484.160          51.000    20715643.328 8  84827100.394 8     -1156.488          51.000
G03  20337554.383 7 106874598.387 7       305.203          46.000    20337556.297 7  83278970.544 7       237.818          46.000
G04  22122701.914 7 116255584.412 7      3094.023          45.000    22122702.352 7  90588806.795 7      2410.927          44.000
G11  22416243.305 8 117798167.556 8     -3544.988          48.000    22416243.969 7  91790748.475 7     -2762.329          45.000
G17  22357753.180 5 117490800.860 5      1426.863          35.000
G22  20994579.367 8 110327357.398 8     -1146.109          51.000    20994576.328 8  85969293.434 8      -893.072          51.000
R06  20364071.617 5 108666590.735 5     -2694.160          32.000
R07  19440876.266 8 104068545.933 8       800.691          51.000    19440878.883 8  80942210.478 8       622.763          49.000
R08  22431574.164 7 120120039.795 7      3444.391          47.000    22431577.086 7  93426734.649 7      2678.974          42.000
R21  20669190.734 8 110605007.214 8     -3257.297          51.000    20669191.812 7  86026134.240 7     -2533.456          45.000
R22  19385264.586 7 103479852.211 7       959.352          42.000    19385267.977 6  80484326.812 6       746.162          38.000
C05                                                                  39699254.789 5 159852448.207 5       -26.977          35.000
C11  22344841.391 6 116355447.413 6       647.125          39.000    22344838.008 5  89973398.994 5       500.452          33.000
C12  22826037.375 8 118861166.932 8     -2551.301          49.000    22826036.898 8  91910984.239 8     -1972.879          51.000
C14  25250252.961 6 131484803.875 6      2792.852          38.000    25250253.125 7 101672345.636 7      2159.924          44.000
C21  21740262.672 8 113207385.758 8      -523.082          50.000
C22  24695198.102 5 128594394.712 5     -2690.281          34.000
E04  23639642.055 8 124227206.066 8      -575.520          51.000    23639642.703 8  95187109.631 8      -440.977          51.000
E09  22777488.648 8 119696565.400 8      2087.648          51.000    22777489.258 8  91715561.566 8      1599.663          51.000
E11  22572265.148 8 118618058.444 8      -775.578          49.000    22572263.344 8  90889159.773 8      -594.265          50.000
E12  24861982.477 7 130650589.993 7     -2753.812          42.000    24861985.930 7 100108887.855 7     -2109.956          46.000
> 2020 05 08 21 02  0.0000000  0 20        .000000000000
G01  20724145.289 8 108906118.298 8     -1494.859          51.000    20724147.867 8  84861924.448 8     -1164.825          51.000
G03  20335837.094 7 106865573.392 7       297.090          47.000    20335838.570 7  83271938.069 7       231.499          47.000
G04  22105060.406 7 116162881.768 7      3086.555          46.000    22105061.086 7  90516570.977 7      2405.108          44.000
G11  22436499.141 8 117904611.484 8     -3550.715          49.000    22436500.227 7  91873691.787 7     -2766.791          46.000
G17  22349647.258 5 117448206.634 5      1413.129          34.000
G22  21001138.766 8 110361826.974 8     -1151.410          51.000    21001135.672 8  85996152.862 8      -897.203          51.000
R07  19436434.492 8 104044769.638 8       784.930          51.000    19436437.125 8  80923717.822 8       610.501          49.000
R08  22412297.281 7 120016809.265 7      3438.121          47.000    22412297.852 7  93346444.363 7      2674.097          42.000
R21  20687494.148 8 110702944.071 8     -3271.336          51.000    20687495.109 7  86102307.331 7     -2544.372          47.000
R22  19379931.570 7 103451383.477 7       939.008          44.000    19379934.352 6  80462184.483 6       730.339          38.000
C05                                                                  39699447.797 5 159853224.776 5       -24.433          35.000
C11  22341151.148 6 116336232.780 6       634.051          37.000    22341145.828 5  89958541.019 5       490.907          32.000
C12  22840761.500 8 118937838.006 8     -2559.590          49.000    22840760.922 8  91970271.167 8     -1979.216          51.000
C14  25234165.367 7 131401031.403 7      2792.039          42.000    25234166.055 7 101607567.560 7      2159.000          45.000
C21  21743296.906 8 113223187.265 8      -530.059          49.000
C22  24710693.164 5 128675081.724 5     -2688.590          34.000
E04  23642950.930 8 124244594.111 8      -583.172          51.000    23642951.703 8  95200432.942 8      -446.792          51.000
E09  22765588.086 8 119634023.601 8      2082.301          51.000    22765587.922 8  91667639.983 8      1595.517          51.000
E11  22576716.867 8 118641452.515 8      -783.531          49.000    22576715.094 8  90907085.092 8      -600.377          50.000
E12  24877709.016 6 130733237.719 6     -2755.645          39.000    24877711.688 7 100172215.361 7     -2111.312          44.000
> 2020 05 08 21 02 30.0000000  0 20        .000000000000
G01  20732731.930 8 108951243.370 8     -1511.332          50.000    20732734.969 8  84897086.834 8     -1177.664          50.000
G03  20334189.336 7 106856912.609 7       282.602          47.000    20334190.367 7  83265189.434 7       220.212          47.000
G04  22087485.781 8 116070526.206 8      3072.832          48.000    22087486.859 7  90444605.629 7      2394.415          45.000
G11  22456810.062 8 118011344.151 8     -3562.508          50.000    22456811.367 7  91956860.079 7     -2775.980          46.000
G17  22341642.250 5 117406144.286 5      1393.074          35.000
G22  21007750.992 8 110396574.036 8     -1162.805          51.000    21007747.938 8  86023228.489 8      -906.082          51.000
R07  19432102.758 8 104021582.024 8       763.301          51.000    19432105.562 8  80905683.037 8       593.678          49.000
R08  22393078.000 7 119913890.832 7      3425.504          47.000    22393078.109 7  93266396.750 7      2664.281          42.000
R21  20705897.523 8 110801418.774 8     -3291.422          51.000    20705898.789 8  86178898.789 8     -2559.995          49.000
R22  19374736.203 7 103423650.705 7       912.348          42.000    19374738.867 6  80440614.553 6       709.601          39.000
C05                                                                  39699643.930 5 159854014.579 5       -26.596          35.000
C11  22337558.680 6 116317528.842 6       615.227          38.000    22337552.570 5  89944078.075 5       475.554          35.000
C12  22855555.594 8 119014873.666 8     -2573.770          49.000    22855554.742 8  92029839.981 8     -1990.229          50.000
C14  25218108.312 7 131317414.421 7      2784.637          43.000    25218109.203 7 101542909.689 7      2153.327          46.000
C21  21746394.461 8 113239317.149 8      -543.105          50.000
C22  24726206.516 5 128755864.371 5     -2694.352          31.000
E04  23646326.344 8 124262331.623 8      -596.992          51.000    23646327.141 8  95214024.045 8      -457.454          51.000
E09  22753740.523 8 119571764.135 8      2070.695          51.000    22753740.789 8  91619934.715 8      1586.649          51.000
E11  22581237.883 8 118665210.176 8      -797.770          49.000    22581235.969 8  90925289.026 8      -611.302          50.000
E12  24893467.633 6 130816055.795 6     -2763.297          39.000    24893469.742 7 100235673.371 7     -2117.292          43.000
> 2020 05 08 21 03  0.0000000  0 19        .000000000000
G01  20741399.266 8 108996793.266 8     -1526.168          48.000    20741402.656 8  84932580.261 8     -1189.222          48.000
G03  20332608.773 7 106848606.535 7       270.223          46.000    20332609.680 7  83258717.205 7       210.563          46.000
G04  22069976.352 8 115978510.881 8      3060.707          49.000    22069977.742 7  90372905.412 7      2384.970          46.000
G11  22477173.859 8 118118353.932 8     -3572.363          51.000    22477174.430 7  92040244.308 7     -2783.663          45.000
G17  22333738.719 5 117364588.892 5      1375.348          32.000
G22  21014414.055 8 110431588.545 8     -1172.352          51.000    21014411.062 8  86050512.526 8      -913.521          50.000
R07  19427879.430 8 103998973.099 8       743.234          51.000    19427881.875 8  80888098.336 8       578.071          48.000
R08  22373915.664 8 119811276.684 8      3414.668          48.000    22373916.133 7  93186585.757 7      2655.853          43.000
R21  20724398.398 8 110900419.186 8     -3309.523          51.000    20724400.148 8  86255899.168 8     -2574.074          49.000
R22  19369677.062 7 103396646.991 7       887.191          43.000    19369679.891 6  80419611.662 6       690.038          39.000
C11  22334062.805 6 116299327.696 6       597.379          36.000    22334058.242 6  89930003.735 6       461.847          36.000
C12  22870417.375 8 119092263.232 8     -2586.227          49.000    22870416.328 8  92089682.449 8     -1999.973          51.000
C14  25202079.438 7 131233944.474 7      2779.051          42.000    25202080.648 7 101478365.513 7      2148.941          47.000
C21  21749553.203 8 113255765.411 8      -554.262          50.000
C22  24741735.547 5 128836732.549 5     -2697.195          30.000
E04  23649766.461 8 124280408.609 8      -609.047          51.000    23649766.992 8  95227875.254 8      -466.696          51.000
E09  22741944.367 8 119509778.551 8      2060.770          51.000    22741946.219 8  91572439.278 8      1579.022          51.000
E11  22585826.258 8 118689322.657 8      -810.258          49.000    22585824.438 8  90943764.826 8      -620.946          50.000
E12  24909257.250 6 130899034.268 6     -2769.367          40.000    24909258.961 7 100299254.276 7     -2122.048          44.000
> 2020 05 08 21 03 30.0000000  0 20        .000000000000
G01  20750156.000 8 109042812.735 8     -1538.727          49.000    20750159.414 8  84968439.608 8     -1199.005          49.000
G03  20331104.328 7 106840700.034 7       259.980          47.000    20331105.367 7  83252556.299 7       202.582          47.000
G04  22052540.742 8 115886883.141 8      3050.859          50.000    22052542.367 7  90301507.217 7      2377.296          47.000
G11  22497598.508 8 118225683.589 8     -3579.918          51.000    22497598.352 7  92123877.771 7     -2789.546          45.000
G17  22325939.930 5 117323597.822 5      1359.492          34.000
G22  21021136.383 8 110466914.964 8     -1179.754          51.000    21021133.461 8  86078039.604 8      -919.289          50.000
R06  20425129.547 5 108992451.587 5     -2736.141          32.000
R07  19423772.227 8 103976988.126 8       725.504          51.000    19423774.531 8  80870998.952 8       564.281          48.000
R08  22354819.219 8 119709014.338 8      3405.914          48.000    22354820.539 7  93107048.453 7      2649.047          45.000
R21  20743004.953 8 110999988.649 8     -3325.422          51.000    20743007.633 8  86333342.116 8     -2586.436          48.000
R22  19364763.438 7 103370420.261 7       864.391          44.000    19364766.969 6  80399213.086 6       672.307          40.000
C05                                                                  39700049.133 5 159855646.675 5       -25.989          35.000
C11  22330672.953 6 116281674.982 6       581.957          38.000    22330668.578 5  89916353.459 5       450.562          34.000
C12  22885355.266 7 119170049.649 7     -2596.582          47.000    22885354.500 8  92149831.800 8     -2007.712          51.000
C14  25186086.953 6 131150666.948 6      2775.758          41.000    25186088.992 8 101413970.093 8      2146.380          48.000
C21  21752781.375 8 113272575.822 8      -563.258          50.000
E04  23653279.547 8 124298869.246 8      -618.672          51.000    23653279.789 8  95242020.419 8      -474.053          51.000
E09  22730208.500 8 119448112.580 8      2053.238          50.000    22730212.375 8  91525188.719 8      1573.299          51.000
E11  22590490.742 8 118713835.268 8      -820.699          50.000    22590489.039 8  90962547.206 8      -628.877          50.000
E12  24925086.258 6 130982217.405 6     -2773.086          41.000    24925088.109 7 100362992.001 7     -2124.859          44.000
> 2020 05 08 21 04  0.0000000  0 19        .000000000000
G01  20758982.688 8 109089197.925 8     -1555.164          50.000    20758986.000 8  85004583.906 8     -1211.816          50.000
G03  20329656.023 7 106833089.134 7       245.875          46.000    20329657.500 7  83246625.724 7       191.594          46.000
G04  22035159.594 8 115795541.623 8      3037.094          50.000    22035161.109 7  90230332.045 7      2366.567          47.000
G11  22518063.766 8 118333227.115 8     -3591.293          51.000    22518062.664 7  92207677.883 7     -2798.410          44.000
G17  22318228.695 5 117283086.507 5      1339.324          33.000
G22  21027898.211 8 110502448.998 8     -1190.910          51.000    21027895.445 8  86105728.468 8      -927.982          50.000
R06  20440544.906 6 109074706.083 6     -2749.254          36.000
R07  19419762.062 8 103955521.057 8       704.031          51.000    19419763.977 7  80854302.356 7       547.580          47.000
R08  22335768.484 8 119606999.783 8      3393.301          48.000    22335771.070 7  93027703.905 7      2639.237          45.000
R21  20761698.070 8 111100018.895 8     -3344.910          51.000    20761700.648 7  86411143.410 7     -2601.597          46.000
R22  19359976.477 7 103344867.631 7       837.484          45.000    19359979.672 6  80379338.819 6       651.377          40.000
C11  22327369.375 6 116264468.946 6       563.254          37.000
C12  22900348.945 7 119248128.621 7     -2610.379          46.000    22900349.297 8  92210207.429 8     -2018.508          51.000
C14  25170111.438 6 131067479.838 6      2768.555          39.000    25170114.367 8 101349644.573 8      2140.810          48.000
C21  21756059.125 8 113289644.768 8      -576.141          49.000
E04  23656845.633 8 124317609.052 8      -632.164          51.000    23656845.883 8  95256379.505 8      -484.397          51.000
E09  22718514.391 8 119386663.275 8      2041.848          51.000    22718519.297 8  91478104.170 8      1564.521          51.000
E11  22595211.953 8 118738644.608 8      -834.820          51.000    22595210.328 8  90981556.955 8      -639.736          50.000
E12  24940934.781 7 131065500.777 7     -2780.699          42.000    24940937.102 7 100426806.525 7     -2130.642          45.000
> 2020 05 08 21 04 30.0000000  0 20        .000000000000
G01  20767877.453 8 109135938.625 8     -1572.941          51.000    20767880.375 8  85041005.178 8     -1225.672          51.000
G03  20328261.734 7 106825763.594 7       230.312          45.000    20328263.570 7  83240917.545 7       179.467          45.000
G04  22017831.227 8 115704478.674 8      3021.750          50.000    22017832.633 7  90159373.942 7      2354.610          47.000
G11  22538567.219 8 118440972.483 8     -3603.883          50.000    22538565.648 7  92291635.303 7     -2808.220          44.000
G22  21034697.578 8 110538180.137 8     -1203.359          49.000    21034694.898 8  86133570.926 8      -937.683          49.000
R06  20456007.195 5 109157214.531 5     -2763.648          33.000
R07  19415846.328 8 103934560.867 8       680.988          51.000    19415848.281 7  80838000.037 7       529.661          47.000
R08  22316762.039 8 119505224.457 8      3379.309          48.000    22316765.883 7  92948545.392 7      2628.351          45.000
R21  20780474.953 8 111200497.320 8     -3365.934          51.000    20780476.117 7  86489293.250 7     -2617.948          43.000
R22  19355313.633 7 103319980.992 7       809.281          44.000    19355316.680 6  80359982.550 6       629.441          40.000
C05                                                                  39700433.578 5 159857193.763 5       -31.124          35.000
C11  22324149.648 6 116247701.020 6       541.875          37.000    22324147.266 5  89890078.782 5       419.915          35.000
C12  22915396.602 7 119326488.767 7     -2625.598          46.000    22915398.266 8  92270800.510 8     -2030.279          51.000
C14  25154151.594 6 130984373.951 6      2759.801          40.000    25154154.859 8 101285381.895 8      2134.192          48.000
C21  21759384.297 8 113306961.568 8      -590.367          50.000
C22  24788416.562 5 129079758.659 5     -2710.625          33.000
E04  23660462.836 8 124336617.244 8      -647.109          51.000    23660463.109 8  95270944.231 8      -495.813          51.000
E09  22706860.555 8 119325421.366 8      2028.918          51.000    22706865.172 8  91431178.558 8      1554.631          51.000
E11  22599987.828 8 118763741.052 8      -850.617          51.000    22599986.312 8  91000786.677 8      -651.706          50.000
E12  24956800.734 7 131148873.685 7     -2789.551          44.000    24956803.242 7 100490689.674 7     -2137.556          44.000
> 2020 05 08 21 05  0.0000000  0 19        .000000000000
G01  20776852.656 8 109183100.736 8     -1577.617          51.000    20776854.969 8  85077754.841 8     -1229.312          51.000
G03  20326934.312 7 106818789.351 7       228.188          45.000    20326936.125 7  83235483.052 7       177.805          45.000
G04  22000568.555 8 115613762.754 8      3019.582          48.000    22000569.984 7  90088686.229 7      2352.921          47.000
G11  22559120.672 8 118548983.710 8     -3603.285          48.000    22559119.492 7  92375799.891 7     -2807.755          42.000
G22  21041546.883 8 110574173.861 8     -1202.750          49.000    21041544.258 8  86161617.993 8      -937.208          49.000
R07  19412038.133 8 103914174.837 8       671.383          51.000    19412039.984 7  80822144.232 7       522.187          47.000
R08  22297814.219 8 119403757.611 8      3378.586          48.000    22297817.781 7  92869626.789 7      2627.792          44.000
R21  20799347.648 8 111301488.515 8     -3373.449          51.000    20799347.883 7  86567841.882 7     -2623.794          44.000
R22  19350789.367 7 103295829.921 7       794.180          46.000    19350792.680 7  80341198.379 7       617.692          43.000
C05                                                                  39700621.055 5 159857948.572 5       -24.155          35.000
C11  22321026.172 5 116231437.570 5       535.145          34.000    22321025.242 6  89877502.880 6       413.922          38.000
C12  22930511.203 7 119405193.952 7     -2627.746          47.000    22930513.500 8  92331660.358 8     -2031.967          51.000
C14  25138220.633 7 130901415.492 7      2764.594          42.000    25138223.070 8 101221233.268 8      2137.469          48.000
C21  21762769.562 8 113324590.877 8      -591.348          51.000
C22  24803993.719 5 129160874.530 5     -2703.695          34.000
E04  23664143.492 8 124355959.128 8      -648.789          51.000    23664143.719 8  95285764.638 8      -497.142          51.000
E09  22695259.328 8 119264453.704 8      2029.207          51.000    22695262.906 8  91384463.120 8      1554.778          51.000
E11  22604831.016 8 118789190.970 8      -852.844          51.000    22604829.312 8  91020287.262 8      -653.511          50.000
E12  24972696.781 7 131232401.476 7     -2785.309          45.000    24972698.547 7 100554691.527 7     -2134.281          44.000
> 2020 05 08 21 05 30.0000000  0 19        .000000000000
G01  20785915.719 8 109230725.329 8     -1594.496          51.000    20785917.711 8  85114864.886 8     -1242.464          51.000
G03  20325681.555 7 106812207.419 7       213.645          46.000    20325683.383 7  83230354.290 7       166.479          45.000
G04  21983379.836 8 115523437.537 8      3004.973          48.000    21983381.680 7  90018302.944 7      2341.537          47.000
G11  22579731.844 8 118657299.700 8     -3615.137          48.000    22579730.641 6  92460201.997 6     -2816.990          40.000
G22  21048454.016 8 110610471.184 8     -1214.281          49.000    21048451.359 8  86189901.623 8      -946.193          49.000
R07  19408344.664 8 103894404.133 8       649.449          50.000    19408346.906 7  80806767.022 7       505.127          47.000
R08  22278932.469 8 119302642.511 8      3365.215          49.000    22278934.805 7  92790981.811 7      2617.392          42.000
R21  20818323.273 8 111403031.980 8     -3393.273          51.000    20818325.023 7  86646820.121 7     -2639.210          47.000
R22  19346410.883 7 103272458.480 7       766.656          45.000    19346414.711 7  80323020.589 7       596.288          43.000
C05                                                                  39700817.391 5 159858739.964 5       -26.282          35.000
C11  22318005.914 5 116215720.783 5       515.742          32.000    22318006.609 6  89865349.636 6       398.605          38.000
C12  22945699.938 8 119484283.639 8     -2642.102          48.000    22945702.164 8  92392817.487 8     -2042.899          51.000
C14  25122326.266 7 130818646.303 7      2756.426          43.000    25122327.273 7 101157230.938 7      2131.546          47.000
C21  21766222.562 8 113342572.812 8      -604.555          51.000
C22  24819595.117 5 129242109.448 5     -2709.254          34.000
E04  23667895.219 8 124375675.230 8      -662.734          51.000    23667895.523 8  95300871.789 8      -507.774          51.000
E09  22683718.336 8 119203802.402 8      2017.160          51.000    22683720.664 8  91337990.101 8      1545.610          51.000
E11  22609749.359 8 118815036.094 8      -867.293          51.000    22609747.523 8  91040090.657 8      -664.606          51.000
E12  24988629.969 7 131316124.780 7     -2793.320          46.000    24988630.664 7 100618843.170 7     -2140.354          42.000
> 2020 05 08 21 06  0.0000000  0 19        .000000000000
G01  20795056.117 8 109278757.385 8     -1608.129          51.000    20795057.758 8  85152292.446 8     -1253.087          51.000
G03  20324493.250 7 106805962.826 7       202.375          47.000    20324495.188 7  83225488.365 7       157.695          47.000
G04  21966255.406 7 115433450.512 7      2993.754          47.000    21966257.484 7  89948183.191 7      2332.795          47.000
G11  22600390.266 8 118765863.465 8     -3623.051          48.000    22600389.414 7  92544797.131 7     -2823.153          42.000
G22  21055408.398 8 110647016.491 8     -1222.574          50.000    21055405.617 8  86218378.487 8      -952.655          50.000
R07  19404755.719 8 103875192.578 8       630.777          51.000    19404758.242 7  80791824.710 7       490.605          47.000
R08  22260105.914 8 119201825.309 8      3355.355          48.000    22260107.078 7  92712568.517 7      2609.724          42.000
R21  20837391.242 8 111505069.116 8     -3409.688          51.000    20837394.422 8  86726182.359 8     -2651.976          49.000
R22  19342168.500 7 103249812.994 7       742.359          46.000    19342172.445 7  80305407.420 7       577.391          43.000
C05                                                                  39701012.266 5 159859525.063 5       -26.300          35.000
C11  22315081.000 5 116200497.371 5       499.051          34.000    22315082.719 6  89853577.933 6       385.949          38.000
C12  22960951.820 8 119563701.823 8     -2652.863          48.000    22960953.016 8  92454228.665 8     -2051.462          50.000
C14  25106457.953 7 130736012.718 7      2751.926          43.000    25106457.648 7 101093333.467 7      2128.057          47.000
C21  21769732.992 8 113360852.251 8      -614.469          51.000
C22  24835209.414 5 129323407.955 5     -2711.012          34.000
E04  23671707.719 8 124395709.930 8      -673.438          51.000    23671708.125 8  95316223.056 8      -515.942          51.000
E09  22672227.008 8 119143413.377 8      2008.410          51.000    22672228.188 8  91291718.066 8      1538.894          51.000
E11  22614732.609 8 118841221.908 8      -878.602          51.000    22614730.859 8  91060155.100 8      -673.310          51.000
E12  25004589.453 7 131399988.059 7     -2798.121          47.000    25004588.320 6 100683102.050 6     -2143.982          40.000
> 2020 05 08 21 06 30.0000000  0 18        .000000000000
G01  20804276.906 8 109327212.209 8     -1619.129          51.000    20804278.344 8  85190049.464 8     -1261.659          51.000
G03  20323372.133 7 106800070.889 7       193.719          47.000    20323374.078 7  83220897.257 7       150.950          47.000
G04  21949198.875 7 115343819.626 7      2984.812          47.000    21949200.547 7  89878340.958 7      2325.828          46.000
G11  22621098.867 8 118874688.447 8     -3628.758          48.000    22621098.211 7  92629595.808 7     -2827.603          42.000
G22  21062412.852 8 110683824.569 8     -1228.219          50.000    21062409.953 8  86247060.087 8      -957.057          50.000
R07  19401274.203 8 103856555.397 8       614.930          50.000    19401276.586 7  80777329.130 7       478.279          47.000
R08  22241337.773 8 119101322.941 8      3347.867          48.000    22241339.297 7  92634400.120 7      2603.900          43.000
R21  20856554.484 8 111607613.214 8     -3423.363          51.000    20856558.008 8  86805938.897 8     -2662.616          49.000
R22  19338065.922 7 103227911.574 7       720.758          47.000    19338069.672 7  80288373.007 7       560.589          44.000
C11  22312253.625 5 116185762.840 5       485.242          31.000    22312257.812 6  89842200.467 6       375.084          39.000
C12  22976269.305 7 119643462.481 7     -2661.367          47.000    22976269.031 8  92515904.657 8     -2057.805          50.000
C14  25090618.734 7 130653530.848 7      2749.988          42.000    25090617.430 7 101029553.358 7      2126.505          47.000
C21  21773303.711 8 113379443.831 8      -621.816          51.000
C22  24850836.625 5 129404784.659 5     -2710.785          32.000
E04  23675583.609 8 124416078.001 8      -681.281          51.000    23675584.234 8  95331829.764 8      -522.009          51.000
E09  22660788.391 8 119083302.976 8      2002.188          51.000    22660789.047 8  91245659.502 8      1534.207          51.000
E11  22619783.727 8 118867764.230 8      -887.316          50.000    22619781.867 8  91080492.729 8      -679.958          51.000
E12  25020577.789 7 131484006.134 7     -2800.012          45.000    25020572.320 5 100747479.476 5     -2145.571          35.000
> 2020 05 08 21 07  0.0000000  0 19        .000000000000
G01  20813582.953 8 109376116.444 8     -1645.125          51.000    20813584.445 8  85228156.688 8     -1281.913          51.000
G03  20322323.180 8 106794558.301 8       169.746          48.000    20322324.812 8  83216601.754 8       132.270          48.000
G04  21932215.656 8 115254574.044 8      2960.859          48.000    21932216.281 7  89808798.998 7      2307.163          44.000
G11  22641862.172 8 118983799.765 8     -3649.316          48.000    22641861.703 7  92714617.592 7     -2843.623          42.000
G22  21069472.414 8 110720922.058 8     -1249.062          50.000    21069469.445 8  86275967.212 8      -973.298          50.000
R07  19397904.703 8 103838519.436 8       583.445          50.000    19397907.641 7  80763301.171 7       453.791          47.000
R08  22222633.617 8 119001164.895 8      3325.316          48.000    22222636.859 7  92556499.511 7      2586.360          43.000
R21  20875816.914 8 111710689.214 8     -3452.398          51.000    20875820.148 7  86886109.131 7     -2685.199          47.000
R22  19334108.438 8 103206783.671 8       683.609          48.000    19334111.977 7  80271940.195 7       531.696          44.000
C05                                                                  39701411.867 6 159861133.293 6       -33.371          36.000
C11  22309530.195 4 116171586.752 4       456.203          29.000    22309535.656 6  89831238.674 6       352.823          38.000
C12  22991657.266 8 119723590.579 8     -2684.578          48.000    22991656.195 8  92577864.795 8     -2075.795          51.000
C14  25074813.812 7 130571228.164 7      2733.121          42.000    25074811.688 8 100965911.803 8      2113.302          48.000
C21  21776939.016 8 113398373.363 8      -644.039          51.000
C22  24866459.875 4 129486186.225 4     -2725.867          29.000
E04  23679527.719 8 124436805.572 8      -704.418          51.000    23679528.648 8  95347711.941 8      -539.725          51.000
E09  22649407.523 8 119023498.846 8      1980.836          51.000    22649408.672 8  91199835.591 8      1517.801          51.000
E11  22624907.547 8 118894690.405 8      -911.484          49.000    22624905.672 8  91101124.482 8      -698.314          51.000
E12  25036600.172 7 131568205.199 7     -2817.152          44.000    25036590.008 5 100811995.578 5     -2158.361          35.000
> 2020 05 08 21 07 30.0000000  0 19        .000000000000
G01  20822970.156 8 109425447.571 8     -1649.594          50.000    20822971.680 8  85266596.543 8     -1285.398          50.000
G03  20321342.141 8 106789402.467 8       168.004          48.000    20321343.445 8  83212584.241 8       130.915          48.000
G04  21915302.172 8 115165693.756 8      2958.758          49.000    21915301.773 7  89739541.733 7      2305.529          44.000
G11  22662675.312 8 119093172.243 8     -3647.535          48.000    22662674.883 7  92799842.930 7     -2842.232          42.000
G22  21076582.648 8 110758286.048 8     -1247.797          50.000    21076579.609 8  86305082.003 8      -972.309          50.000
R07  19394643.609 8 103821061.150 8       574.613          50.000    19394646.312 7  80749722.510 7       446.921          46.000
R08  22203989.219 8 118901329.839 8      3324.598          48.000    22203994.555 7  92478850.067 7      2585.801          43.000
R21  20895173.523 8 111814271.611 8     -3459.023          50.000    20895176.789 7  86966673.219 7     -2690.352          46.000
R22  19330291.805 8 103186408.643 8       668.789          48.000    19330294.883 7  80256092.966 7       520.169          45.000
C05                                                                  39701617.719 5 159861961.718 5       -25.971          35.000
C11                                                                  22306911.758 6  89820676.226 6       346.972          38.000
C12  23007111.242 8 119804062.435 8     -2685.941          48.000    23007110.242 8  92640090.749 8     -2076.980          51.000
C14  25059038.438 6 130489083.297 6      2737.781          40.000    25059036.219 7 100902392.262 7      2116.860          47.000
C21  21780634.727 8 113417617.926 8      -644.602          51.000
C22  24882122.172 4 129567740.053 4     -2717.223          27.000
E04  23683536.109 8 124457869.471 8      -705.613          51.000    23683537.117 8  95363851.811 8      -540.728          51.000
E09  22638080.969 8 118963979.380 8      1981.352          51.000    22638082.516 8  91154229.765 8      1518.193          51.000
E11  22630100.039 8 118921978.355 8      -913.586          49.000    22630098.352 8  91122033.438 8      -700.020          51.000
E12  25052652.148 7 131652562.151 7     -2812.445          42.000    25052643.062 6 100876632.731 6     -2154.904          37.000
> 2020 05 08 21 08  0.0000000  0 18        .000000000000
G01  20832429.867 8 109475158.028 8     -1663.320          51.000    20832431.055 8  85305331.972 8     -1296.094          51.000
G03  20320419.898 8 106784556.005 8       156.230          48.000    20320421.188 8  83208807.783 8       121.738          48.000
G04  21898449.930 8 115077133.838 8      2946.598          50.000    21898449.797 7  89670534.054 7      2296.053          46.000
G11  22683528.734 7 119202756.845 7     -3656.316          46.000    22683528.812 7  92885233.537 7     -2849.075          43.000
G22  21083734.445 8 110795868.645 8     -1256.477          51.000    21083731.203 8  86334367.144 8      -979.073          49.000
R07  19391481.211 8 103804131.802 8       555.363          50.000    19391483.477 7  80736555.274 7       431.949          45.000
R08  22185395.711 7 118801771.354 7      3313.949          46.000    22185402.609 7  92401415.770 7      2577.519          43.000
R21  20914614.617 8 111918309.505 8     -3475.594          50.000    20914618.141 7  87047591.567 7     -2703.240          45.000
R22  19326607.516 8 103166740.441 8       643.664          49.000    19326610.336 7  80240795.475 7       500.631          45.000
C05                                                                  39701817.000 5 159862764.196 5       -26.732          35.000
C11                                                                  22304380.008 6  89810477.677 6       333.742          40.000
C12  23022621.992 8 119884829.615 8     -2697.293          49.000    23022621.492 8  92702545.052 8     -2085.649          51.000
C14  25043283.258 6 130407050.152 6      2732.352          38.000    25043282.125 7 100838959.070 7      2112.903          47.000
C21  21784381.969 8 113437129.896 8      -654.867          51.000
E04  23687599.398 8 124479221.640 8      -716.602          51.000    23687600.477 8  95380212.564 8      -549.042          51.000
E09  22626800.406 8 118904698.028 8      1972.031          51.000    22626801.562 8  91108806.378 8      1511.049          51.000
E11  22635352.492 8 118949581.091 8      -925.465          50.000    22635351.203 8  91143183.590 8      -709.134          51.000
E12  25068724.844 7 131737029.040 7     -2817.355          42.000    25068720.719 6 100941354.128 6     -2158.795          41.000
> 2020 05 08 21 08 30.0000000  0 19        .000000000000
G01  20841961.156 8 109525244.567 8     -1675.766          51.000    20841962.008 8  85344360.436 8     -1305.791          51.000
G03  20319555.781 7 106780015.577 7       146.273          47.000    20319557.312 7  83205269.796 7       113.982          47.000
G04  21881658.648 8 114988893.558 8      2935.988          51.000    21881659.422 8  89601775.419 8      2287.783          48.000
G11  22704421.320 7 119312548.228 7     -3663.129          47.000    22704421.867 7  92970785.288 7     -2854.383          42.000
G22  21090927.117 8 110833666.365 8     -1263.484          50.000    21090923.602 8  86363819.927 8      -984.533          49.000
R07  19388416.859 8 103787727.900 8       538.051          49.000    19388419.039 7  80723796.706 7       418.484          46.000
R08  22166854.922 7 118702487.717 7      3304.852          46.000    22166860.070 6  92324195.287 6      2570.446          41.000
R21  20934139.953 8 112022797.135 8     -3490.355          51.000    20934143.375 7  87128859.690 7     -2714.721          46.000
R22  19323055.281 8 103147778.086 8       620.223          49.000    19323058.047 7  80226046.985 7       482.392          46.000
C05                                                                  39702009.359 5 159863538.391 5       -25.784          35.000
C11  22301931.273 4 116132001.804 4       416.102          28.000    22301938.578 6  89800641.480 6       321.732          40.000
C12  23038188.664 8 119965887.459 8     -2706.629          49.000    23038188.461 8  92765224.117 8     -2093.133          51.000
C14  25027548.969 6 130325126.524 6      2728.934          38.000    25027549.086 7 100775610.589 7      2110.142          47.000
C21  21788179.742 8 113456905.416 8      -663.551          51.000
C22  24913469.445 5 129730967.870 5     -2720.574          31.000
E04  23691716.703 8 124500858.214 8      -726.008          51.000    23691717.859 8  95396791.256 8      -556.340          51.000
E09  22615565.008 8 118845652.485 8      1964.172          51.000    22615565.789 8  91063563.711 8      1504.988          51.000
E11  22640664.461 8 118977495.872 8      -935.906          50.000    22640663.461 8  91164572.852 8      -717.171          51.000
E12  25084818.078 7 131821602.136 7     -2820.895          42.000    25084818.719 7 101006156.903 7     -2161.474          43.000
> 2020 05 08 21 09  0.0000000  0 19        .000000000000
G01  20851567.773 8 109575727.855 8     -1689.863          51.000    20851568.297 8  85383698.031 8     -1316.777          51.000
G03  20318753.930 8 106775801.968 8       134.527          48.000    20318755.828 8  83201986.461 8       104.827          48.000
G04  21864932.578 8 114900996.160 8      2923.703          51.000    21864934.094 8  89533283.949 8      2278.210          48.000
G11  22725356.844 7 119422565.369 7     -3671.445          47.000    22725357.211 6  93056512.966 6     -2860.863          40.000
G22  21098164.578 8 110871699.649 8     -1272.281          50.000    21098161.016 8  86393456.249 8      -991.388          48.000
R07  19385453.750 8 103771869.837 8       518.969          48.000    19385456.828 7  80711462.681 7       403.642          46.000
R08  22148371.055 8 118603502.158 8      3294.109          48.000    22148372.562 6  92247206.639 6      2562.088          39.000
R21  20953752.852 8 112127753.351 8     -3506.754          50.000    20953756.320 7  87210492.269 7     -2727.475          46.000
R22  19319639.602 8 103129544.862 8       595.105          50.000    19319642.414 7  80211865.588 7       462.860          46.000
C05                                                                  39702198.555 5 159864301.099 5       -25.587          35.000
C11  22299585.719 5 116119771.821 5       399.418          31.000    22299590.117 6  89791184.487 6       308.484          39.000
C12  23053814.891 8 120047255.325 8     -2717.879          50.000    23053814.359 8  92828142.865 8     -2101.667          51.000
C14  25011841.109 6 130243333.821 6      2723.789          40.000    25011841.469 7 100712363.342 7      2106.055          47.000
C21  21792031.922 8 113476964.452 8      -673.871          51.000
C22  24929163.656 4 129812679.553 4     -2723.016          29.000
E04  23695892.156 8 124522799.363 8      -736.859          51.000    23695893.180 8  95413603.297 8      -564.657          51.000
E09  22604378.461 8 118786864.421 8      1954.805          51.000    22604379.203 8  91018518.329 8      1497.834          51.000
E11  22646039.922 8 119005743.969 8      -947.801          51.000    22646038.820 8  91186217.488 8      -726.108          51.000
E12  25100935.781 7 131906301.625 7     -2825.996          44.000    25100939.578 7 101071056.543 7     -2165.275          46.000
> 2020 05 08 21 09 30.0000000  0 19        .000000000000
G01  20861256.445 8 109626643.032 8     -1703.152          51.000    20861257.367 8  85423372.147 8     -1327.135          51.000
G03  20318021.211 8 106771950.407 8       123.414          50.000    20318023.258 8  83198985.247 8        96.167          50.000
G04  21848278.781 8 114813479.399 8      2912.062          51.000    21848280.586 8  89465089.081 8      2269.140          48.000
G11  22746341.602 7 119532841.175 7     -3679.043          47.000    22746340.789 6  93142442.166 6     -2866.787          39.000
G22  21105453.523 8 110910003.587 8     -1280.145          50.000    21105450.211 8  86423303.476 8      -997.515          48.000
R07  19382599.711 8 103756593.294 8       500.684          49.000    19382602.859 7  80699580.938 7       389.421          45.000
R08  22129949.789 7 118504852.225 7      3284.020          47.000    22129949.188 6  92170479.029 6      2554.240          39.000
R21  20973459.664 7 112233211.336 7     -3522.418          47.000    20973463.352 7  87292515.135 7     -2739.658          46.000
R22  19316367.445 8 103112078.824 8       570.582          50.000    19316370.328 7  80198280.878 7       443.786          46.000
C05                                                                  39702391.562 5 159865078.157 5       -25.355          35.000
C11  22297341.672 5 116108068.329 5       382.480          35.000    22297342.586 6  89782134.639 6       295.553          40.000
C12  23069506.727 8 120128966.525 8     -2728.305          49.000    23069505.484 8  92891327.101 8     -2109.632          51.000
C14  24996165.750 6 130161707.964 6      2719.289          40.000    24996165.961 7 100649245.104 7      2102.730          47.000
C21  21795945.227 8 113497341.319 8      -683.352          51.000
C22  24944875.320 4 129894506.612 4     -2725.910          28.000
E04  23700132.031 8 124545079.715 8      -747.141          51.000    23700133.086 8  95430675.263 8      -572.451          51.000
E09  22593247.266 8 118728370.029 8      1946.086          51.000    22593248.445 8  90973697.986 8      1491.154          51.000
E11  22651485.617 8 119034361.137 8      -958.742          51.000    22651484.195 8  91208144.932 8      -734.663          51.000
E12  25117084.688 7 131991162.222 7     -2830.168          44.000    25117089.859 7 101136079.643 7     -2168.594          46.000
> 2020 05 08 21 10  0.0000000  0 18        .000000000000
G01  20871040.773 8 109678059.813 8     -1717.676          51.000    20871041.805 8  85463437.141 8     -1338.449          51.000
G03  20317370.594 8 106768530.618 8       111.391          49.000    20317372.570 8  83196320.492 8        86.798          48.000
G04  21831711.023 8 114726415.491 8      2899.090          51.000    21831712.781 8  89397247.082 8      2259.031          48.000
G11  22767388.820 8 119643443.478 8     -3687.887          48.000    22767387.000 6  93228625.732 6     -2873.681          41.000
G22  21112807.062 8 110948647.178 8     -1289.242          50.000    21112804.031 8  86453415.365 8     -1004.604          49.000
R07  19379867.883 8 103741968.665 8       481.258          48.000    19379870.828 7  80688206.227 7       374.312          46.000
R08  22111603.523 7 118406610.800 7      3272.562          44.000    22111603.727 6  92094069.124 6      2545.329          40.000
R21  20993273.344 8 112339239.535 8     -3539.094          48.000    20993276.328 7  87374981.566 7     -2752.625          45.000
R22  19313252.922 8 103095452.882 8       544.797          50.000    19313255.695 7  80185349.614 7       423.731          47.000
C05                                                                  39702601.773 5 159865925.254 5       -25.705          35.000
C11  22295211.227 5 116096961.533 5       364.695          32.000    22295209.836 6  89773546.156 6       282.102          40.000
C12  23085276.883 7 120211088.801 7     -2739.824          47.000    23085275.602 8  92954829.193 8     -2118.449          51.000
C14  24980535.695 6 130080319.032 6      2713.297          38.000    24980535.883 8 100586310.084 8      2098.259          48.000
C21  21799932.672 8 113518104.571 8      -694.059          51.000
E04  23704449.547 8 124567768.418 8      -758.594          51.000    23704450.625 8  95448060.121 8      -581.233          51.000
E09  22582185.023 8 118670239.986 8      1936.145          51.000    22582186.711 8  90929156.833 8      1483.530          51.000
E11  22657014.938 8 119063417.601 8      -971.160          51.000    22657013.484 8  91230408.960 8      -744.166          51.000
E12  25133277.344 7 132076253.170 7     -2835.582          43.000    25133282.633 7 101201279.228 7     -2172.782          46.000
> 2020 05 08 21 10 30.0000000  0 19        .000000000000
G01  20880882.445 8 109729777.945 8     -1722.793          51.000    20880883.594 8  85503736.972 8     -1342.436          51.000
G03  20316763.766 7 106765342.495 7       108.406          47.000    20316765.664 7  83193836.261 7        84.472          47.000
G04  21815191.922 8 114639606.846 8      2895.520          50.000    21815193.578 8  89329603.997 8      2256.249          48.000
G11  22788459.758 7 119754170.434 7     -3686.730          47.000    22788457.969 7  93314906.440 7     -2872.777          42.000
G22  21120187.164 8 110987430.379 8     -1288.887          50.000    21120184.258 8  86483636.045 8     -1004.324          49.000
R07  19377219.570 8 103727791.701 8       471.332          49.000    19377222.484 7  80677179.738 7       366.592          46.000
R08  22093294.523 7 118308575.706 7      3270.598          43.000    22093297.648 7  92017819.619 7      2543.798          42.000
R21  21013155.875 8 112445631.668 8     -3546.117          50.000    21013157.680 7  87457731.062 7     -2758.091          44.000
R22  19310257.828 8 103079465.963 8       528.449          51.000    19310260.727 8  80172915.321 8       411.016          48.000
C05                                                                  39702791.188 5 159866687.457 5       -19.307          35.000
C11  22293154.438 4 116086305.605 4       355.414          27.000    22293152.609 6  89765266.763 6       275.484          37.000
C12  23101087.391 7 120293422.513 7     -2741.859          46.000    23101086.688 8  93018494.830 8     -2120.216          51.000
C14  24964912.750 6 129998969.612 6      2717.012          38.000    24964913.656 8 100523405.653 8      2101.014          48.000
C21  21803955.844 8 113539055.262 8      -695.355          51.000
C22  24976325.180 5 130058282.782 5     -2721.582          31.000
E04  23708806.594 8 124590664.767 8      -760.582          51.000    23708807.609 8  95465604.078 8      -582.796          51.000
E09  22571154.062 8 118612275.113 8      1935.516          51.000    22571155.812 8  90884742.241 8      1483.042          51.000
E11  22662589.945 8 119092713.685 8      -974.266          51.000    22662588.422 8  91252856.599 8      -746.569          51.000
E12  25149475.227 7 132161373.803 7     -2831.836          42.000    25149480.055 7 101266501.549 7     -2169.759          46.000
> 2020 05 08 21 11  0.0000000  0 20        .000000000000
G01  20890795.992 8 109781873.788 8     -1747.184          51.000    20890797.398 8  85544331.111 8     -1361.442          51.000
G03  20316215.500 8 106762462.438 8        86.695          48.000    20316217.250 8  83191592.056 8        67.555          48.000
G04  21798736.422 8 114553132.325 8      2872.477          50.000    21798737.734 8  89262221.285 8      2238.296          48.000
G11  22809568.328 7 119865096.401 7     -3705.059          46.000    22809566.992 7  93401342.254 7     -2887.059          43.000
G14  23632264.398 4 124188386.895 4     -2844.859          28.000
G22  21127608.344 8 111026429.129 8     -1307.914          50.000    21127605.406 8  86514024.685 8     -1019.154          49.000
R07  19374669.609 8 103714139.598 8       441.973          49.000    19374672.055 7  80666561.433 7       343.757          46.000
R08  22075041.000 7 118210826.499 7      3249.070          46.000    22075044.844 7  91941792.496 7      2527.058          42.000
R21  21033120.758 8 112552463.133 8     -3572.734          51.000    21033121.820 7  87540822.173 7     -2778.793          43.000
R22  19307397.680 8 103064197.410 8       492.555          51.000    19307400.594 8  80161039.778 8       383.098          48.000
C05                                                                  39702974.383 5 159867425.073 5       -27.448          35.000
C11  22291189.414 5 116076074.870 5       328.129          32.000    22291187.070 6  89757355.757 6       254.071          40.000
C12  23116952.898 7 120376041.785 7     -2762.871          45.000    23116953.133 8  93082381.296 8     -2136.536          51.000
C14  24949312.328 6 129917736.410 6      2701.516          39.000    24949314.000 8 100460591.090 8      2089.026          48.000
C21  21808029.586 8 113560268.533 8      -715.766          51.000
C22  24992050.820 6 130140171.233 6     -2734.352          38.000
E04  23713217.336 8 124613844.484 8      -781.656          51.000    23713218.430 8  95483365.178 8      -598.985          51.000
E09  22560169.258 8 118554552.710 8      1915.695          51.000    22560171.203 8  90840513.421 8      1467.897          51.000
E11  22668225.203 8 119122326.282 8      -996.598          51.000    22668223.250 8  91275546.775 8      -763.660          51.000
E12  25165692.773 6 132246599.987 6     -2847.113          41.000    25165697.289 7 101331804.760 7     -2181.488          47.000
> 2020 05 08 21 11 30.0000000  0 19        .000000000000
G01  20900819.297 8 109834545.644 8     -1758.477          51.000    20900820.719 8  85585374.098 8     -1370.241          51.000
G03  20315763.758 8 106760088.909 8        77.711          48.000    20315765.617 8  83189742.539 8        60.557          48.000
G04  21782382.648 8 114467192.848 8      2862.574          49.000    21782383.547 7  89195255.497 7      2230.577          47.000
G11  22830751.594 7 119976417.721 7     -3710.430          45.000    22830751.109 7  93488086.151 7     -2891.241          43.000
G22  21135108.352 8 111065841.664 8     -1313.727          51.000    21135105.273 8  86544735.748 8     -1023.683          49.000
R07  19372255.023 7 103701213.987 7       425.691          47.000    19372257.578 7  80656508.194 7       331.093          46.000
R08  22056879.695 7 118113567.193 7      3240.781          46.000    22056883.070 7  91866146.432 7      2520.611          43.000
R21  21053204.867 8 112659933.489 8     -3585.879          51.000    21053205.273 7  87624410.136 7     -2789.020          44.000
R22  19304710.227 8 103049851.287 8       469.898          51.000    19304713.078 8  80149881.675 8       365.477          48.000
C05                                                                  39703189.266 5 159868289.998 5       -25.835          35.000
C11  22289354.492 6 116066518.369 6       314.285          36.000    22289351.992 6  89749966.052 6       243.016          40.000
C12  23132911.117 7 120459141.949 7     -2771.102          46.000    23132912.164 8  93146639.653 8     -2142.870          51.000
C14  24933773.008 6 129836817.057 6      2698.625          40.000    24933774.648 8 100398019.194 8      2086.920          48.000
C21  21812191.500 8 113581940.404 8      -723.160          51.000
C22  25007820.820 6 130222283.585 6     -2733.957          39.000
E04  23717719.703 8 124637505.476 8      -789.789          51.000    23717720.648 8  95501495.028 8      -605.142          51.000
E09  22549268.672 8 118497272.154 8      1908.867          51.000    22549271.367 8  90796623.152 8      1462.630          51.000
E11  22673958.438 8 119152454.347 8     -1006.000          51.000    22673956.023 8  91298631.916 8      -770.852          50.000
