     3.02           OBSERVATION DATA    M (MIXED)           RINEX VERSION / TYPE
SAVERINEX           SC600               20200504 165930 LCL PGM / RUN BY / DATE
       G = GPS       R = GLONASS       C = COMPASS          COMMENT
       S = SBAS      J = QZSS          E = GALILEO          COMMENT
BEAN                                                        MARKER NAME
1                                                           MARKER NUMBER
GEODETIC                                                    MARKER TYPE
Unige DICCA         GTER                                    OBSERVER / AGENCY
SC60291900056       SC600               2.12(191226)        REC # / TYPE / VERS
                    HEMA45          NONE                    ANT # / TYPE
  4509407.8091   693652.4678  4442337.6214                  APPROX POSITION XYZ
        0.0000        0.0000        0.0000                  ANTENNA: DELTA H/E/N
G    8 C1C L1C D1C S1C C2Y L2Y D2Y S2Y                      SYS / # / OBS TYPES
R    8 C1C L1C D1C S1C C2P L2P D2P S2P                      SYS / # / OBS TYPES
C    8 C1I L1I D1I S1I C7I L7I D7I S7I                      SYS / # / OBS TYPES
E    8 C1C L1C D1C S1C C7Q L7Q D7Q S7Q                      SYS / # / OBS TYPES
DBHZ                                                        COMMENT
     30.000                                                 INTERVAL
  2020    05    04    14    00    0.0000000     GPS         TIME OF FIRST OBS
  2020    05    04    14    59   30.0000000     GPS         TIME OF LAST OBS
     0                                                      RCV CLOCK OFFS APPL
G L1C  0.00000                                              SYS / PHASE SHIFT
G L2Y  0.00000                                              SYS / PHASE SHIFT
R L1C  0.00000                                              SYS / PHASE SHIFT
R L2P  0.25000                                              SYS / PHASE SHIFT
C L1I  0.00000                                              SYS / PHASE SHIFT
C L7I  0.00000                                              SYS / PHASE SHIFT
E L1C  0.50000                                              SYS / PHASE SHIFT
E L7Q -0.25000                                              SYS / PHASE SHIFT
 12 R05  1 R06 -4 R07  5 R08  6 R09 -2 R10 -5 R11  0 R12 -1 GLONASS SLOT / FRQ #
    R20  2 R21  4 R22 -3 R23  3                             GLONASS SLOT / FRQ #
 C1C   71.950 C2C   71.950 C2P   71.950                     GLONASS COD/PHS/BIS
    18                                                      LEAP SECONDS
*** Above antenna height is from mark to ANTENNA BOTTOM.    COMMENT
    17     4        0.0000        ANT MEASURE TYPE/HEIGT    COMMENT
    0.0000    0.0000    0.0458    0.0405    0.0000          COMMENT
                    BASE STATION                            COMMENT
                                                            END OF HEADER
> 2020 05 04 14 00  0.0000000  0 19        .000000000000
G18  20352694.758 8 106954192.940 8      -268.637          50.000    20352694.555 8  83340926.603 8      -209.327          50.000
G20  23496882.102 6 123476972.118 6      3231.980          41.000    23496884.930 6  96215853.149 6      2518.426          39.000
G21  20703877.156 8 108799609.373 8      -445.883          48.000    20703876.875 8  84778949.405 8      -347.441          48.000
G25  24836682.492 6 130517617.638 6     -3581.223          40.000    24836685.977 6 101702062.295 6     -2790.566          40.000
G26  20419278.523 6 107304043.193 6       909.371          37.000    20419282.805 6  83613527.362 6       708.601          37.000
G29  22404151.625 6 117734621.399 6     -2522.520          37.000    22404152.352 6  91741258.037 6     -1965.600          36.000
G31  22793001.625 8 119778014.046 8     -2889.516          51.000    22793003.320 8  93333501.385 8     -2251.571          51.000
R11  22192837.992 7 118591781.441 7     -4240.586          43.000    22192845.797 6  92238018.410 6     -3298.237          40.000
R12  19427686.039 8 103779197.123 8     -1333.270          51.000    19427688.680 8  80717154.566 8     -1036.990          50.000
R22  19375744.617 6 103429034.764 6      -764.570          41.000    19375747.609 6  80444837.340 6      -594.666          36.000
R23  21786080.383 8 116540800.497 8      2998.328          48.000    21786082.125 5  90642890.577 5      2332.033          32.000
C05  39617299.133 5 206297672.603 5        13.258          34.000    39617301.008 6 159522454.269 6        10.484          37.000
C23  23918556.406 8 124550170.192 8     -2925.418          48.000
C27  25007386.594 7 130220070.064 7      2646.703          44.000
C28  21705219.383 8 113024759.765 8       693.031          48.000
E11  23693178.477 8 124508508.779 8      1857.473          50.000    23693177.727 7  95402583.444 7      1423.189          47.000
E12  21699575.617 8 114032061.563 8      -813.551          50.000    21699574.391 8  87375222.542 8      -623.403          51.000
E24  21848994.422 8 114817233.647 8     -1002.293          51.000    21849005.734 8  87976880.853 8      -768.018          51.000
E31  26673458.406 8 140169923.715 8     -2900.594          48.000    26673461.234 7 107402924.296 7     -2222.596          47.000
> 2020 05 04 14 00 30.0000000  0 19        .000000000000
G18  20354289.984 8 106962575.787 8      -289.305          49.000    20354289.711 8  83347458.695 8      -225.429          50.000
G20  23478451.352 7 123380120.957 7      3225.438          44.000    23478454.516 6  96140384.790 6      2513.328          37.000
G21  20706474.664 8 108813260.249 8      -463.102          48.000    20706474.289 8  84789586.461 8      -360.858          48.000
G25  24857142.703 6 130625140.454 6     -3585.938          37.000    24857146.250 6 101785846.150 6     -2794.240          38.000
G26  20414141.664 6 107277050.526 6       891.602          40.000    20414146.461 6  83592494.079 6       694.754          41.000
G29  22418600.297 6 117810509.687 6     -2529.086          37.000    22418575.445 6  91800344.573 6     -1970.716          36.000
G31  22809534.047 8 119864889.654 8     -2901.141          51.000    22809534.422 8  93401196.604 8     -2260.629          51.000
R11  22216680.805 6 118719190.885 6     -4252.207          40.000    22216688.297 6  92337114.590 6     -3307.275          39.000
R12  19435254.438 8 103819627.497 8     -1361.047          51.000    19435257.297 8  80748600.378 8     -1058.592          50.000
R22  19380096.023 6 103452260.541 6      -782.645          37.000    19380098.914 6  80462901.732 6      -608.727          37.000
R23  21769304.617 7 116451062.134 7      2985.258          46.000    21769306.375 5  90573094.139 5      2321.870          34.000
C05                                                                  39617230.609 6 159522170.642 6         9.201          37.000
C23  23935443.703 8 124638106.700 8     -2936.078          49.000
C27  24992160.719 7 130140786.803 7      2639.984          46.000
C28  21701264.008 8 113004161.317 8       681.219          49.000
E11  23682607.938 8 124452960.388 8      1846.465          50.000    23682606.344 7  95360020.429 7      1414.934          47.000
E12  21704256.906 8 114056660.858 8      -825.285          50.000    21704255.984 8  87394071.351 8      -632.343          51.000
E24  21854761.227 8 114847537.079 8     -1016.895          51.000    21854772.750 8  88000100.348 8      -779.194          51.000
E31  26690041.516 8 140257066.593 8     -2907.914          48.000    26690044.398 7 107469696.047 7     -2228.085          46.000
> 2020 05 04 14 01  0.0000000  0 19        .000000000000
G18  20355991.328 8 106971516.842 8      -306.957          49.000    20355990.812 8  83354425.757 8      -239.187          49.000
G20  23460048.234 7 123283411.272 7      3221.883          46.000    23460051.195 6  96065026.659 6      2510.561          38.000
G21  20709159.172 8 108827368.423 8      -477.391          48.000    20709159.008 8  84800579.852 8      -371.993          48.000
G25  24877620.031 5 130732758.220 5     -3588.215          35.000    24877625.805 6 101869704.080 6     -2796.015          36.000
G26  20409094.508 6 107250527.842 6       876.719          41.000    20409099.391 6  83571827.032 6       683.157          41.000
G31  22826120.898 8 119952051.545 8     -2909.711          49.000    22826119.102 8  93469114.895 8     -2267.310          50.000
R11  22240575.625 4 118846879.838 4     -4260.484          29.000    22240581.938 6  92436428.203 6     -3313.710          36.000
R12  19442967.102 8 103860828.857 8     -1385.742          51.000    19442970.461 8  80780645.845 8     -1077.799          50.000
R22  19384536.438 6 103475967.612 6      -797.699          39.000    19384540.039 5  80481340.634 5      -620.433          35.000
R23  21752589.586 7 116361651.866 7      2975.336          45.000    21752593.852 5  90503552.916 5      2314.150          35.000
C05  39617159.641 5 206296944.990 5        12.320          34.000    39617161.438 6 159521892.062 6         9.155          37.000
C11  24876409.125 5 129537972.618 5     -2621.184          31.000
C23  23952381.203 8 124726301.959 8     -2943.691          50.000
C27  24976962.031 7 130061642.519 7      2636.098          45.000
C28  21697365.258 8 112983857.500 8       672.352          48.000
E11  23672088.148 8 124397678.890 8      1838.910          50.000    23672086.109 7  95317661.908 7      1409.200          47.000
E12  21708992.977 8 114081549.240 8      -833.895          51.000    21708992.148 8  87413141.673 8      -638.955          51.000
E24  21860599.406 8 114878215.822 8     -1028.363          51.000    21860611.391 8  88023607.410 8      -787.988          51.000
E31  26706653.812 7 140344362.708 7     -2911.812          47.000    26706656.570 7 107536585.227 7     -2231.126          45.000
> 2020 05 04 14 01 30.0000000  0 19        .000000000000
G18  20357780.961 8 106980921.526 8      -320.867          50.000    20357780.273 8  83361754.078 8      -250.026          49.000
G20  23441655.188 7 123186752.179 7      3221.379          47.000    23441657.531 6  95989707.982 6      2510.168          37.000
G21  20711912.797 8 108841838.910 8      -488.078          48.000    20711912.391 8  84811855.550 8      -380.321          49.000
G26  20404119.375 6 107224382.811 6       865.469          41.000    20404123.609 7  83551454.263 7       674.388          42.000
G29  22447498.148 6 117962382.275 6     -2533.688          37.000    22447479.469 5  91918705.594 5     -1974.305          34.000
G31  22842743.227 7 120039403.003 7     -2914.406          47.000    22842739.430 8  93537180.910 8     -2270.966          48.000
R12  19450806.125 8 103902704.562 8     -1406.793          51.000    19450810.156 8  80813215.826 8     -1094.172          51.000
R21  22320008.969 5 119438796.267 5     -3460.977          32.000    22320018.172 4  92896941.237 4     -2691.871          24.000
R22  19389049.156 5 103500059.009 5      -808.777          34.000    19389051.875 5  80500078.334 5      -629.049          34.000
R23  21735918.523 7 116272475.415 7      2968.887          45.000    21735924.539 6  90434193.517 6      2309.134          36.000
C05                                                                  39617075.703 6 159521546.594 6        12.904          37.000
C11  24891498.867 5 129616562.509 5     -2617.273          30.000    24891490.406 5 100227725.719 5     -2024.087          34.000
C23  23969350.500 8 124814661.038 8     -2947.707          51.000
C27  24961772.148 7 129982544.671 7      2636.270          43.000
C28  21693505.039 8 112963755.112 8       667.129          49.000
E11  23661601.367 8 124342570.942 8      1834.492          50.000    23661599.344 7  95275436.361 7      1405.539          47.000
E12  21713766.031 8 114106631.950 8      -839.066          51.000    21713764.789 8  87432360.885 8      -642.897          51.000
E24  21866491.000 8 114909176.097 8     -1036.379          51.000    21866503.266 8  88047330.192 8      -794.126          51.000
E31  26723277.281 7 140431717.304 7     -2912.629          47.000    26723279.648 7 107603519.221 7     -2231.608          43.000
> 2020 05 04 14 02  0.0000000  0 20        .000000000000
G18  20359663.258 8 106990813.471 8      -340.609          50.000    20359662.961 8  83369462.093 8      -265.410          50.000
G20  23423276.859 7 123090170.906 7      3215.273          45.000    23423277.805 6  95914449.959 6      2505.414          36.000
G21  20714739.938 8 108856695.100 8      -504.430          48.000    20714739.062 8  84823431.802 8      -393.059          48.000
G26  20399221.328 7 107198641.376 7       848.367          44.000    20399224.359 7  83531396.012 7       661.065          45.000
G29  22461989.516 5 118038507.771 5     -2539.188          32.000    22461968.758 5  91977968.419 5     -1978.591          31.000
G31  22859404.648 7 120126965.534 7     -2924.977          45.000    22859400.430 7  93605411.392 7     -2279.203          44.000
R11  22288470.852 6 119102805.522 6     -4275.133          36.000    22288481.836 5  92635540.445 5     -3325.103          32.000
R12  19458775.672 8 103945278.804 8     -1433.652          51.000    19458780.430 8  80846329.084 8     -1115.063          51.000
R21  22339416.586 5 119542639.051 5     -3464.258          32.000
R22  19393638.055 6 103524557.647 6      -826.098          40.000    19393642.297 6  80519132.848 6      -642.520          36.000
R23  21719296.656 7 116183558.552 7      2956.523          44.000    21719302.062 5  90365035.943 5      2299.518          35.000
C05  39616975.914 5 206295988.506 5        15.133          34.000    39616978.102 6 159521154.200 6        11.626          37.000
C11  24906583.148 5 129695099.590 5     -2620.891          31.000    24906583.461 5 100288455.481 5     -2025.938          35.000
C23  23986355.258 8 124903206.251 8     -2957.414          51.000
C27  24946595.023 6 129903518.128 6      2630.320          40.000
C28  21689687.906 8 112943878.196 8       655.918          48.000
E11  23651152.305 8 124287661.323 8      1824.176          50.000    23651150.742 7  95233362.755 7      1397.721          47.000
E12  21718580.633 8 114131932.429 8      -849.785          51.000    21718579.000 8  87451746.954 8      -651.068          51.000
E24  21872440.570 8 114940442.352 8     -1050.078          51.000    21872453.141 8  88071287.431 8      -804.614          51.000
E31  26739916.336 7 140519153.720 7     -2918.641          46.000    26739918.195 7 107670515.912 7     -2236.337          42.000
> 2020 05 04 14 02 30.0000000  0 19        .000000000000
G18  20361716.992 8 107001606.503 8      -363.008          51.000    20361717.039 8  83377872.264 8      -282.863          50.000
G20  23404992.625 7 122994085.376 7      3206.438          45.000    23404990.852 5  95839578.226 5      2498.526          32.000
G21  20717719.133 8 108872350.213 8      -523.227          49.000    20717718.133 8  84835630.597 8      -407.709          49.000
G26  20394479.234 7 107173719.692 7       828.887          45.000    20394481.625 7  83511976.534 7       645.886          45.000
G31  22876184.492 7 120215151.334 7     -2938.043          44.000    22876181.367 7  93674127.537 7     -2289.387          44.000
R11  22312556.117 6 119231497.663 6     -4288.180          37.000    22312571.109 5  92735634.320 5     -3335.251          31.000
R12  19466954.664 8 103988971.726 8     -1463.035          51.000    19466959.930 8  80880312.438 8     -1137.916          50.000
R21  22358902.211 5 119646908.202 5     -3470.656          32.000
R22  19398382.688 6 103549882.499 6      -845.941          41.000    19398384.961 5  80538829.911 5      -657.957          34.000
R23  21702803.078 7 116095324.282 7      2941.766          44.000    21702805.727 5  90296409.308 5      2288.040          33.000
C05  39616945.148 5 206295828.642 5        11.523          34.000    39616947.383 6 159521030.615 6         8.726          37.000
C11  24921741.203 4 129774028.861 4     -2625.629          29.000    24921743.469 5 100349488.549 5     -2030.490          32.000
C23  24003473.969 8 124992346.457 8     -2969.523          51.000
C27  24931509.234 6 129824974.242 6      2621.812          39.000
C28  21685992.469 7 112924637.374 7       642.465          47.000
E11  23640820.141 8 124233365.070 8      1811.395          49.000    23640818.852 7  95191759.138 7      1387.943          47.000
E12  21723515.180 8 114157864.348 8      -862.988          51.000    21723513.672 8  87471616.872 8      -661.260          51.000
E24  21878526.984 8 114972429.237 8     -1066.285          51.000    21878540.180 8  88095796.837 8      -817.018          51.000
E31  26756649.484 7 140607085.674 7     -2927.270          46.000    26756650.695 6 107737892.266 6     -2243.075          41.000
> 2020 05 04 14 03  0.0000000  0 19        .000000000000
G18  20363831.148 8 107012716.472 8      -380.254          51.000    20363831.281 8  83386529.384 8      -296.302          50.000
G20  23386692.156 7 122897915.194 7      3202.477          45.000    23386688.586 5  95764640.532 5      2495.442          35.000
G21  20720739.297 8 108888220.020 8      -537.289          50.000    20720738.141 8  84847996.670 8      -418.664          50.000
G26  20389782.297 7 107149035.959 7       814.051          45.000    20389784.531 7  83492742.436 7       634.325          45.000
G31  22892972.133 7 120303374.435 7     -2945.863          43.000    22892970.508 7  93742872.754 7     -2295.481          42.000
R11  22336644.750 5 119360213.819 5     -4295.176          32.000    22336656.914 5  92835746.894 5     -3340.692          30.000
R12  19475231.703 8 104033189.157 8     -1487.270          51.000    19475237.305 8  80914703.745 8     -1156.765          49.000
R21  22378356.094 5 119751007.896 5     -3471.750          34.000    22378377.883 4  93139812.932 4     -2700.241          25.000
R22  19403170.414 7 103575439.403 7      -860.625          42.000    19403173.484 6  80558707.524 6      -669.375          37.000
R23  21686326.328 7 116007179.966 7      2932.039          44.000    21686326.469 5  90227852.673 5      2280.478          33.000
C05  39616870.492 5 206295439.898 5        12.359          34.000    39616872.750 6 159520729.999 6         9.303          37.000
C11                                                                  24936864.469 5 100410377.330 5     -2030.859          34.000
C23  24020595.219 8 125081501.731 8     -2976.684          50.000
C27  24916406.461 6 129746335.406 6      2618.438          41.000
C28  21682308.188 7 112905454.386 7       633.887          47.000
E11  23630493.789 8 124179099.185 8      1803.871          49.000    23630492.906 8  95150178.804 8      1382.091          48.000
E12  21728458.617 8 114183843.406 8      -871.297          51.000    21728457.172 8  87491522.916 8      -667.611          51.000
E24  21884639.391 8 115004553.436 8     -1077.699          51.000    21884653.273 8  88120411.451 8      -825.776          51.000
E31  26773365.359 7 140694928.765 7     -2931.246          46.000    26773366.164 6 107805200.514 6     -2245.813          40.000
> 2020 05 04 14 03 30.0000000  0 18        .000000000000
G18  20366053.742 8 107024396.173 8      -398.191          51.000    20366054.070 8  83395630.462 8      -310.279          51.000
G20  23368424.328 7 122801917.295 7      3197.547          44.000    23368421.203 6  95689837.035 6      2491.598          40.000
G21  20723848.289 8 108904556.868 8      -551.660          51.000    20723846.953 8  84860726.686 8      -429.865          50.000
G26  20385179.070 7 107124845.219 7       798.719          46.000    20385181.469 7  83473892.505 7       622.378          46.000
G31  22909815.031 7 120391885.569 7     -2954.566          43.000    22909815.047 7  93811842.454 7     -2302.260          43.000
R12  19483655.312 8 104078187.865 8     -1512.316          50.000    19483660.477 7  80949702.736 7     -1176.246          47.000
R21  22397827.562 6 119855194.642 6     -3473.523          37.000    22397841.148 4  93220803.059 4     -2701.626          25.000
R22  19408049.789 7 103601484.215 7      -875.469          42.000    19408053.305 5  80578964.611 5      -680.920          35.000
R23  21669914.008 7 115919384.769 7      2921.277          44.000    21669914.398 5  90159567.579 5      2272.105          32.000
C05  39616800.203 5 206295074.240 5        12.160          35.000    39616802.445 6 159520446.833 6         9.805          37.000
C11                                                                  24951997.148 6 100471315.767 6     -2031.759          36.000
C23  24037766.789 8 125170921.457 8     -2984.484          49.000
C27  24901335.133 7 129667853.525 7      2614.008          42.000
C28  21678683.695 8 112886580.386 8       624.562          48.000
E11  23620221.562 8 124125117.793 8      1795.441          49.000    23620221.180 8  95108816.453 8      1375.743          48.000
E12  21733459.359 8 114210122.315 8      -880.320          51.000    21733457.539 8  87511658.722 8      -674.582          51.000
E24  21890826.508 8 115037068.580 8     -1089.781          51.000    21890840.820 8  88145325.611 8      -834.985          51.000
E31  26790112.078 7 140782935.652 7     -2935.711          45.000    26790113.484 6 107872634.319 6     -2249.540          40.000
> 2020 05 04 14 04  0.0000000  0 18        .000000000000
G18  20368379.930 8 107036619.603 8      -416.059          51.000    20368380.125 8  83405155.227 8      -324.202          51.000
G20  23350184.766 7 122706069.579 7      3192.910          44.000    23350183.219 6  95615150.565 6      2487.985          40.000
G21  20727041.227 8 108921334.413 8      -566.180          51.000    20727039.664 8  84873800.097 8      -441.182          51.000
G26  20380665.055 7 107101123.824 7       783.383          46.000    20380667.492 7  83455408.306 7       610.428          46.000
G31  22926708.078 7 120480657.013 7     -2962.898          45.000    22926709.156 7  93881014.975 7     -2308.752          45.000
R12  19492220.391 8 104123940.970 8     -1537.203          50.000    19492224.914 7  80985288.482 7     -1195.602          47.000
R21  22417309.570 5 119959441.039 5     -3475.688          33.000    22417320.633 4  93301916.521 4     -2703.312          25.000
R22  19413015.414 6 103627989.252 6      -890.605          41.000    19413017.117 5  80599579.602 5      -692.693          34.000
R23  21653562.320 7 115831914.129 7      2910.602          44.000    21653563.391 5  90091534.873 5      2263.804          33.000
C05  39616729.469 5 206294705.277 5        13.152          34.000    39616731.656 6 159520161.940 6         9.916          37.000
C11                                                                  24967136.766 6 100532284.097 6     -2032.290          37.000
C23  24054983.680 8 125260578.731 8     -2992.125          48.000
C27  24886289.609 6 129589504.175 6      2609.719          41.000
C28  21675113.641 7 112867990.238 7       615.297          47.000
E11  23609998.828 8 124071396.150 8      1786.828          49.000    23609998.547 8  95067653.132 8      1369.137          48.000
E12  21738512.234 8 114236674.890 8      -889.148          51.000    21738510.195 8  87532004.202 8      -681.400          51.000
E24  21897083.602 8 115069949.473 8     -1101.695          51.000    21897098.008 8  88170520.048 8      -844.210          51.000
E31  26806884.539 7 140871080.122 7     -2940.160          44.000    26806887.625 6 107940173.514 6     -2252.718          39.000
> 2020 05 04 14 04 30.0000000  0 20        .000000000000
G18  20370802.031 8 107049347.756 8      -439.258          51.000    20370802.109 8  83415073.268 8      -342.279          51.000
G20  23331966.945 7 122610336.604 7      3182.441          45.000    23331967.078 7  95540553.472 7      2479.824          42.000
G21  20730310.414 8 108938513.047 8      -585.887          51.000    20730308.961 8  84887186.054 8      -456.535          51.000
G26  20376233.266 7 107077835.108 7       762.629          46.000    20376235.633 7  83437261.246 7       594.256          46.000
G29  22534919.898 5 118421803.068 5     -2570.020          33.000    22534907.109 5  92276676.874 5     -2002.613          31.000
G31  22943643.242 7 120569647.944 7     -2976.496          45.000    22943644.891 7  93950358.492 7     -2319.351          45.000
R11  22409190.891 5 119747900.911 5     -4324.746          34.000    22409199.945 6  93137298.746 6     -3363.697          40.000
R12  19500919.523 8 104170408.551 8     -1567.508          51.000    19500923.070 7  81021429.920 7     -1219.173          45.000
R21  22436795.305 5 120063706.422 5     -3482.840          33.000    22436804.719 4  93383016.684 4     -2708.872          25.000
R22  19418059.430 7 103654913.724 7      -911.180          43.000    19418060.227 5  80620520.896 5      -708.695          34.000
R23  21637264.953 7 115744730.163 7      2894.496          43.000    21637265.477 5  90023725.152 5      2251.278          32.000
C05  39616651.148 5 206294298.035 5         7.516          34.000    39616653.266 6 159519846.233 6         5.978          37.000
C11                                                                  24982277.414 6 100593252.551 6     -2037.395          37.000
C23  24072238.672 8 125350433.812 8     -3005.008          48.000
C27  24871262.648 7 129511250.117 7      2600.324          42.000
C28  21671590.516 7 112849645.902 7       600.906          47.000
E11  23599818.328 8 124017896.438 8      1772.848          49.000    23599818.078 8  95026659.848 8      1358.464          49.000
E12  21743609.586 8 114263461.959 8      -903.309          51.000    21743607.719 8  87552529.370 8      -692.217          51.000
E24  21903402.898 8 115103157.980 8     -1118.965          50.000    21903417.242 8  88195965.509 8      -857.401          51.000
E31  26823676.055 7 140959323.063 7     -2949.484          45.000    26823680.797 6 108007788.209 6     -2260.237          38.000
> 2020 05 04 14 05  0.0000000  0 19        .000000000000
G18  20373334.328 8 107062654.540 8      -453.332          51.000    20373334.633 8  83425442.193 8      -353.246          51.000
G20  23313785.828 7 122514796.485 7      3181.199          45.000    23313787.445 7  95466106.680 7      2478.860          43.000
G21  20733670.008 8 108956166.820 8      -596.637          51.000    20733668.594 8  84900942.245 8      -464.912          51.000
G26  20371898.297 7 107055055.307 7       750.703          46.000    20371900.664 7  83419510.744 7       584.963          47.000
G29  22549577.766 5 118498830.641 5     -2571.062          31.000
G31  22960633.883 7 120658930.409 7     -2981.004          45.000    22960635.883 7  94019929.178 7     -2322.863          45.000
R11  22433467.055 5 119877632.555 5     -4328.984          31.000    22433478.320 6  93238201.009 6     -3366.994          40.000
R12  19509766.898 8 104217665.068 8     -1588.535          51.000    19509769.289 7  81058185.005 7     -1235.527          46.000
R22  19423195.852 7 103682331.967 7      -922.363          42.000    19423196.266 5  80641846.220 5      -717.391          35.000
R23  21621034.234 6 115657909.849 6      2887.836          38.000    21621035.008 5  89956198.361 5      2246.098          31.000
C05  39616579.133 5 206293923.570 5        11.852          34.000    39616581.438 6 159519557.119 6         8.874          37.000
C11                                                                  24997432.867 5 100654277.961 5     -2035.389          35.000
C23  24089546.234 8 125440558.892 8     -3008.898          49.000
C27  24856268.188 6 129433165.928 6      2599.863          41.000
C28  21668128.984 7 112831621.291 7       595.289          47.000
E11  23589694.500 8 123964693.794 8      1768.230          49.000    23589693.680 8  94985894.201 8      1354.905          48.000
E12  21748765.773 8 114290557.399 8      -908.469          51.000    21748763.992 8  87573290.809 8      -696.067          51.000
E24  21909798.469 8 115136768.876 8     -1127.258          50.000    21909812.859 8  88221719.281 8      -863.701          51.000
E31  26840500.828 7 141047738.257 7     -2950.074          45.000    26840506.734 6 108075534.879 6     -2260.605          36.000
> 2020 05 04 14 05 30.0000000  0 19        .000000000000
G18  20375975.633 8 107076534.402 8      -471.320          51.000    20375975.992 8  83436257.680 8      -367.263          51.000
G20  23295641.242 7 122419447.474 7      3176.008          46.000    23295644.055 7  95391808.825 7      2474.814          44.000
G21  20737118.789 8 108974289.941 8      -610.980          51.000    20737117.148 8  84915064.156 8      -476.089          51.000
G26  20367659.641 8 107032781.193 8       734.930          48.000    20367661.914 8  83402154.285 8       572.676          48.000
G31  22977678.359 7 120748497.139 7     -2989.168          43.000    22977680.898 7  94089721.401 7     -2329.222          44.000
R11  22457795.367 5 120007636.111 5     -4337.242          33.000    22457806.562 6  93339314.862 6     -3373.411          39.000
R12  19518760.656 8 104265704.670 8     -1613.430          51.000    19518762.758 7  81095549.075 7     -1254.893          46.000
R21  22475812.523 5 120272613.473 5     -3482.207          31.000
R22  19428423.383 7 103710237.340 7      -937.332          43.000    19428424.359 6  80663550.395 6      -729.039          37.000
R23  21604869.195 6 115571449.322 6      2876.977          39.000    21604872.070 5  89888951.319 5      2237.648          32.000
C05  39616513.039 5 206293578.619 5        11.547          34.000    39616515.398 6 159519291.087 6         9.228          37.000
C11                                                                  25012601.000 5 100715356.163 5     -2036.447          32.000
C23  24106905.023 8 125530947.413 8     -3016.422          49.000
C27  24841305.367 6 129355247.649 6      2595.328          40.000
C28  21664727.969 7 112813911.582 7       586.023          47.000
E11  23579626.375 8 123911784.011 8      1759.793          49.000    23579624.547 7  94945352.963 7      1348.419          47.000
E12  21753979.562 8 114317955.604 8      -917.477          51.000    21753977.875 8  87594284.235 8      -703.005          51.000
E24  21916270.195 8 115170777.413 8     -1139.367          51.000    21916284.602 8  88247777.779 8      -873.001          51.000
E31  26857357.758 7 141136320.029 7     -2954.680          47.000    26857364.898 5 108143409.186 5     -2263.700          34.000
> 2020 05 04 14 06  0.0000000  0 17        .000000000000
G18  20378730.039 8 107091008.689 8      -499.996          51.000    20378730.219 8  83447536.345 8      -389.607          51.000
G20  23277537.977 7 122324315.113 7      3159.809          45.000    23277541.383 7  95317679.765 7      2462.189          45.000
G21  20740660.867 8 108992903.477 8      -636.227          51.000    20740659.242 8  84929568.210 8      -495.761          50.000
G26  20363521.781 8 107011036.477 8       708.293          48.000    20363523.750 8  83385210.338 8       551.917          48.000
G31  22994780.102 7 120838367.552 7     -3008.625          42.000    22994783.227 7  94159750.278 7     -2344.383          42.000
R11  22482183.242 4 120137973.920 4     -4355.984          29.000    22482189.062 6  93440669.286 6     -3387.988          38.000
R12  19527904.891 8 104314548.818 8     -1649.371          51.000    19527907.031 8  81133538.921 8     -1282.844          48.000
R22  19433746.000 7 103738650.410 7      -963.402          42.000    19433747.562 6  80685649.424 6      -749.313          39.000
R23  21588777.422 6 115485372.186 6      2854.945          40.000    21588782.836 5  89822002.484 5      2220.513          34.000
C05  39616457.102 5 206293287.298 5         1.348          34.000    39616459.383 6 159519065.433 6         1.081          37.000
C23  24124318.117 8 125621619.447 8     -3034.797          48.000
C27  24826377.352 6 129277517.780 6      2580.520          38.000
C28  21661391.391 7 112796538.609 7       565.859          46.000
E11  23569618.039 8 123859189.694 8      1740.375          48.000    23569615.070 7  94905053.445 7      1333.462          47.000
E12  21759254.789 8 114345677.817 8      -937.129          51.000    21759253.172 8  87615525.937 8      -718.072          51.000
E24  21922822.039 8 115205205.806 8     -1162.289          51.000    21922836.430 8  88274157.990 8      -890.588          51.000
E31  26874250.578 7 141225089.574 7     -2969.785          46.000    26874259.312 5 108211427.478 5     -2275.651          35.000
> 2020 05 04 14 06 30.0000000  0 18        .000000000000
G18  20381575.008 8 107105959.489 8      -510.168          51.000    20381575.258 8  83459186.311 8      -397.537          51.000
G20  23259454.133 7 122229285.319 7      3161.945          46.000    23259457.898 7  95243630.653 7      2463.853          45.000
G21  20744273.695 8 109011889.135 8      -642.953          50.000    20744272.125 8  84944362.245 8      -501.002          50.000
G26  20359462.648 8 106989705.567 8       700.129          48.000    20359464.305 8  83368588.864 8       545.555          48.000
G29  22593724.492 6 118730789.608 6     -2586.473          36.000    22593704.266 5  92517489.896 5     -2015.442          34.000
G31  23011916.828 7 120928422.227 7     -3008.727          44.000    23011920.203 7  94229922.709 7     -2344.462          44.000
R11  22506600.680 5 120268437.736 5     -4355.891          34.000    22506603.500 6  93542141.047 6     -3387.918          37.000
R12  19537177.000 8 104364076.908 8     -1666.324          51.000    19537179.625 8  81172060.740 8     -1296.030          49.000
R22  19439141.000 7 103767450.363 7      -970.562          42.000    19439143.633 6  80708049.383 6      -754.885          40.000
R23  21572736.344 6 115399560.610 6      2851.918          37.000    21572743.375 6  89755260.200 6      2218.161          37.000
C05  39616388.828 5 206292931.815 5         9.543          34.000    39616391.180 6 159518790.595 6         7.107          37.000
C23  24141762.367 7 125712457.109 7     -3034.570          47.000
C27  24811462.656 6 129199860.978 6      2583.328          38.000
C28  21658097.164 7 112779386.278 7       564.254          47.000
E11  23559647.062 7 123806794.245 7      1739.160          47.000    23559643.617 7  94864906.273 7      1332.567          47.000
E12  21764569.328 8 114373606.119 8      -938.371          51.000    21764567.602 8  87636925.539 8      -718.961          51.000
E24  21929431.523 8 115239937.108 8     -1166.719          51.000    21929445.562 8  88300770.288 8      -893.973          51.000
E31  26891156.672 7 141313928.925 7     -2966.453          45.000    26891166.320 6 108279499.176 6     -2272.904          36.000
> 2020 05 04 14 07  0.0000000  0 17        .000000000000
G18  20384534.781 8 107121513.796 8      -527.543          50.000    20384535.141 8  83471306.550 8      -411.072          50.000
G20  23241415.195 7 122134489.583 7      3156.727          46.000    23241418.656 7  95169763.864 7      2459.787          44.000
G21  20747981.312 8 109031373.649 8      -656.793          50.000    20747979.594 8  84959544.985 8      -511.787          50.000
G26  20355506.859 8 106968917.876 8       684.816          48.000    20355508.062 8  83352390.663 8       533.623          48.000
G31  23029112.820 7 121018786.668 7     -3016.348          46.000    23029115.727 7  94300336.470 7     -2350.407          46.000
R11  22531071.422 6 120399197.122 6     -4362.391          37.000    22531071.922 5  93643842.681 5     -3392.974          35.000
R12  19546600.891 8 104414417.651 8     -1690.594          51.000    19546604.195 8  81211214.631 8     -1314.906          50.000
R22  19444632.195 7 103796765.380 7      -984.801          42.000    19444635.641 6  80730849.923 6      -765.956          39.000
R23  21556768.367 5 115314145.646 5      2841.512          34.000    21556777.133 6  89688826.272 6      2210.065          37.000
C05  39616332.805 5 206292640.293 5         9.574          35.000    39616335.180 6 159518564.736 6         7.461          37.000
C23  24159262.352 8 125803585.226 8     -3041.410          48.000
C27  24796586.547 6 129122404.450 6      2579.312          37.000
C28  21654869.703 7 112762581.130 7       555.211          47.000
E11  23549738.141 8 123754725.986 8      1731.055          48.000    23549735.188 7  94825009.808 7      1326.503          47.000
E12  21769947.391 8 114401867.482 8      -946.555          51.000    21769945.797 8  87658580.355 8      -725.294          51.000
E24  21936122.695 8 115275099.197 8     -1178.262          51.000    21936136.555 8  88327712.640 8      -902.812          51.000
E31  26908099.727 7 141402965.012 7     -2970.129          42.000    26908110.219 6 108347721.626 6     -2275.783          39.000
> 2020 05 04 14 07 30.0000000  0 18        .000000000000
G18  20387584.758 8 107137541.569 8      -540.770          50.000    20387584.797 8  83483795.718 8      -421.379          49.000
G20  23223396.695 7 122039801.116 7      3155.922          46.000    23223399.844 7  95095980.694 7      2459.163          44.000
G21  20751759.125 8 109051226.609 8      -666.453          49.000    20751757.289 8  84975014.822 8      -519.314          49.000
G26  20351630.094 8 106948545.725 8       673.348          48.000    20351631.094 8  83336516.264 8       524.686          48.000
G31  23046342.906 7 121109328.822 7     -3019.672          47.000    23046344.688 7  94370888.706 7     -2352.994          46.000
R11  22555572.938 6 120530117.788 6     -4365.324          39.000    22555572.430 5  93745669.709 5     -3395.258          34.000
R12  19556152.055 8 104465438.372 8     -1710.645          51.000    19556155.562 8  81250897.402 8     -1330.501          50.000
R21  22553996.180 5 120690939.135 5     -3486.867          31.000    22553999.469 4  93870782.340 4     -2712.008          26.000
R22  19450195.258 7 103826462.355 7      -995.082          43.000    19450198.836 6  80753947.558 6      -773.953          38.000
R23  21540851.906 6 115228996.683 6      2835.172          37.000    21540859.781 6  89622599.279 6      2205.131          36.000
C05  39616264.398 5 206292283.819 5        14.348          35.000    39616266.086 6 159518289.084 6        11.098          36.000
C23  24176793.445 8 125894873.975 8     -3044.211          48.000
C27  24781724.938 6 129045020.787 6      2579.078          37.000
C28  21651684.758 8 112745995.021 8       550.547          48.000
E11  23539867.344 8 123702856.145 8      1727.094          49.000    23539864.805 7  94785265.395 7      1323.468          47.000
E12  21775363.961 8 114430331.861 8      -950.836          51.000    21775362.828 8  87680390.726 8      -728.578          51.000
E24  21942871.477 8 115310562.906 8     -1185.793          51.000    21942884.789 8  88354886.112 8      -908.574          51.000
E31  26925055.086 6 141492067.723 6     -2970.004          40.000    26925066.500 6 108415995.101 6     -2275.598          39.000
> 2020 05 04 14 08  0.0000000  0 19        .000000000000
G18  20390734.000 8 107154090.600 8      -561.367          51.000    20390733.789 8  83496691.065 8      -437.429          50.000
G20  23205408.672 7 121945272.327 7      3147.121          46.000    23205411.602 7  95022321.954 7      2452.305          44.000
G21  20755615.977 8 109071495.555 8      -683.664          49.000    20755614.273 8  84990808.814 8      -532.722          49.000
G26  20347841.883 8 106928639.268 8       654.746          49.000    20347843.086 8  83321004.739 8       510.192          49.000
G29  22638070.398 6 118963855.563 6     -2596.395          36.000
G31  23063615.836 7 121200094.662 7     -3030.355          47.000    23063616.055 7  94441615.249 7     -2361.319          47.000
R11  22580112.711 6 120661245.647 6     -4375.270          40.000    22580111.648 5  93847657.886 5     -3402.990          34.000
R12  19565839.273 8 104517187.344 8     -1738.133          51.000    19565842.695 8  81291146.589 8     -1351.881          49.000
R21  22573555.047 5 120795606.138 5     -3490.422          35.000    22573557.734 4  93952190.066 4     -2714.773          27.000
R22  19455838.938 7 103856588.723 7     -1012.473          42.000    19455841.086 6  80777379.172 6      -787.476          36.000
R23  21524993.414 6 115144164.224 6      2821.195          37.000    21525001.219 5  89556618.487 5      2194.263          35.000
C05  39616192.844 5 206291911.469 5        11.133          34.000    39616194.078 6 159517998.134 6         8.859          36.000
C23  24194363.906 8 125986369.725 8     -3054.387          48.000
C27  24766887.406 6 128967758.896 6      2572.777          36.000
C28  21648551.398 8 112729676.108 8       538.395          48.000
E11  23530043.977 8 123651233.866 8      1715.648          49.000    23530040.945 7  94745710.664 7      1314.534          47.000
E12  21780828.180 8 114459047.058 8      -962.422          51.000    21780827.234 8  87702393.268 8      -737.461          51.000
E24  21949687.258 8 115346376.891 8     -1200.738          51.000    21949699.711 8  88382327.997 8      -920.070          51.000
E31  26942032.836 6 141581284.769 6     -2976.730          41.000    26942044.039 6 108484356.197 6     -2281.078          38.000
> 2020 05 04 14 08 30.0000000  0 19        .000000000000
G18  20393990.039 8 107171200.777 8      -579.289          51.000    20393989.852 8  83510023.676 8      -451.394          50.000
G20  23187459.422 7 121850946.870 7      3141.121          46.000    23187462.016 7  94948821.656 7      2447.627          44.000
G21  20759559.625 8 109092220.273 8      -697.961          48.000    20759557.867 8  85006957.941 8      -543.866          48.000
G26  20344150.398 8 106909240.736 8       638.582          49.000    20344151.953 8  83305888.996 8       497.596          49.000
G29  22652907.938 5 119041824.768 5     -2600.660          32.000
G31  23080938.719 7 121291122.263 7     -3038.141          45.000    23080937.391 7  94512545.781 7     -2367.385          45.000
R11  22604697.680 6 120792618.941 6     -4382.480          37.000    22604696.453 5  93949836.929 5     -3408.602          33.000
R12  19575670.570 8 104569704.461 8     -1762.910          51.000    19575673.695 8  81331993.211 8     -1371.155          48.000
R21  22593128.016 6 120900343.312 6     -3492.168          39.000    22593129.188 4  94033652.262 4     -2716.134          26.000
R22  19461570.867 7 103887184.248 7     -1027.293          43.000    19461571.656 6  80801175.716 6      -799.006          36.000
R23  21509202.180 6 115059690.614 6      2810.488          38.000    21509208.656 5  89490916.792 5      2185.935          33.000
C05  39616126.102 5 206291563.330 5        11.770          34.000    39616127.055 5 159517727.313 5         9.047          35.000
C23  24211981.125 7 126078110.944 7     -3061.691          47.000
C27  24752082.227 6 128890659.815 6      2567.508          39.000
C28  21645476.656 8 112713664.628 8       529.059          48.000
E11  23520275.703 8 123599900.391 8      1706.797          49.000    23520272.031 7  94706377.237 7      1307.707          47.000
E12  21786347.750 8 114488052.935 8      -971.363          51.000    21786346.805 8  87724618.534 8      -744.217          51.000
E24  21956577.297 8 115382581.956 8     -1212.918          51.000    21956589.258 8  88410069.522 8      -929.391          51.000
E31  26959040.453 7 141670656.033 7     -2981.266          43.000    26959050.305 6 108552835.414 6     -2284.167          36.000
> 2020 05 04 14 09  0.0000000  0 19        .000000000000
G18  20397347.172 8 107188842.331 8      -596.820          50.000    20397346.555 8  83523770.332 8      -465.055          50.000
G20  23169543.984 7 121756799.294 7      3135.277          46.000    23169545.672 7  94875459.976 7      2443.076          43.000
G21  20763584.297 8 109113370.677 8      -712.062          48.000    20763582.500 8  85023438.763 8      -554.854          48.000
G26  20340550.398 8 106890322.775 8       622.621          48.000    20340552.297 8  83291147.717 8       485.156          48.000
G29  22667768.094 5 119119924.454 5     -2604.461          34.000    22667791.516 5  92820820.905 5     -2029.450          34.000
G31  23098305.242 6 121382380.368 6     -3045.629          40.000    23098302.977 6  94583655.933 6     -2373.217          40.000
R11  22629322.188 5 120924205.288 5     -4389.797          35.000    22629320.500 5  94052181.700 5     -3414.293          34.000
R12  19585639.945 8 104622958.802 8     -1787.379          51.000    19585642.344 7  81373413.229 7     -1390.184          47.000
R21  22612709.125 6 121005119.346 6     -3492.855          36.000
R22  19467384.617 6 103918217.763 6     -1041.555          39.000    19467384.688 6  80825312.920 6      -810.095          37.000
R23  21493473.766 6 114975547.943 6      2799.363          37.000    21493477.078 4  89425472.568 4      2177.289          29.000
C05  39616058.773 5 206291213.106 5        12.102          35.000    39616059.398 5 159517454.747 5         9.152          35.000
C23  24229639.766 7 126170067.178 7     -3068.770          45.000
C27  24737304.461 6 128813695.536 6      2563.023          39.000
C28  21642455.258 8 112697931.917 8       519.844          48.000
E11  23510556.961 8 123548827.279 8      1697.926          49.000    23510553.070 8  94667243.331 8      1301.008          48.000
E12  21791917.000 8 114517319.813 8      -979.867          50.000    21791916.250 8  87747043.795 8      -750.807          51.000
E24  21963535.875 8 115419149.315 8     -1224.957          51.000    21963547.820 8  88438088.634 8      -938.582          51.000
E31  26976072.047 7 141760151.769 7     -2985.402          43.000    26976080.492 5 108621409.998 5     -2287.627          35.000
> 2020 05 04 14 09 30.0000000  0 18        .000000000000
G18  20400806.562 8 107207021.711 8      -614.070          50.000    20400805.945 8  83537936.082 8      -478.496          50.000
G20  23151664.227 7 121662840.081 7      3129.629          46.000    23151664.344 6  94802245.071 6      2438.675          40.000
G21  20767691.047 8 109134953.057 8      -725.777          48.000    20767689.523 8  85040256.212 8      -565.541          48.000
G26  20337043.586 8 106871894.246 8       606.906          49.000    20337045.727 8  83276787.794 8       472.914          49.000
G29  22682654.141 5 119198149.169 5     -2608.691          35.000    22682673.820 5  92881774.927 5     -2032.753          34.000
R11  22653986.695 5 121056008.822 5     -4396.305          34.000    22653986.625 6  94154695.409 6     -3419.354          37.000
R12  19595748.383 8 104676956.702 8     -1811.398          51.000    19595750.859 7  81415411.541 7     -1408.868          47.000
R21  22632297.617 5 121109940.577 5     -3493.902          35.000
R22  19473281.703 7 103949694.963 7     -1055.637          42.000    19473281.469 6  80849795.193 6      -821.051          38.000
R23  21477809.445 5 114891744.448 5      2788.738          35.000    21477809.516 4  89360292.217 4      2169.025          29.000
C05  39615992.109 5 206290866.007 5        12.902          35.000
C23  24247341.641 7 126262243.862 7     -3075.262          46.000
C27  24722554.781 6 128736873.935 6      2559.156          39.000
C28  21639489.141 8 112682485.135 8       511.043          48.000
E11  23500889.375 8 123498022.348 8      1689.816          50.000    23500885.797 8  94628314.911 8      1294.917          48.000
E12  21797537.055 8 114546854.159 8      -988.062          51.000    21797536.609 8  87769673.996 8      -757.051          51.000
E24  21970564.508 8 115456086.285 8     -1236.582          51.000    21970576.641 8  88466390.950 8      -947.484          51.000
E31  26993128.250 7 141849778.333 7     -2988.793          44.000    26993136.578 5 108690084.827 5     -2290.333          35.000
> 2020 05 04 14 10  0.0000000  0 18        .000000000000
G18  20404359.852 8 107225694.515 8      -628.688          51.000    20404359.555 8  83552486.319 8      -489.886          50.000
G20  23133812.562 7 121569029.128 7      3126.371          44.000    23133810.766 6  94729145.671 6      2436.136          39.000
G21  20771871.703 8 109156922.808 8      -736.781          49.000    20771870.234 8  85057375.484 8      -574.115          49.000
G26  20333621.906 8 106853913.054 8       593.887          50.000    20333624.023 8  83262776.474 8       462.769          50.000
G31  23133175.859 5 121565659.760 5     -3056.910          34.000    23133165.680 5  94726471.405 5     -2382.008          33.000
R11  22678682.031 4 121187981.726 4     -4398.992          29.000    22678684.422 6  94257340.979 6     -3421.435          37.000
R12  19605987.500 8 104731652.056 8     -1832.859          51.000    19605989.812 7  81457952.329 7     -1425.557          47.000
R21  22651885.922 6 121214761.137 6     -3491.863          37.000
R22  19479253.062 6 103981569.851 6     -1067.137          40.000    19479253.766 6  80874586.722 6      -829.995          39.000
R23  21462216.156 5 114808388.769 5      2780.863          33.000    21462200.633 5  89295349.971 5      2162.903          31.000
C05  39615918.016 5 206290480.654 5        15.457          34.000    39615918.516 5 159516886.926 5        12.143          35.000
C23  24265078.211 8 126354596.121 8     -3079.434          48.000
C27  24707823.828 5 128660152.625 5      2557.566          35.000
C28  21636569.727 8 112667281.093 8       504.789          49.000
E11  23491264.789 8 123447442.600 8      1684.359          51.000    23491261.734 8  94589559.017 8      1290.613          49.000
E12  21803199.609 8 114576611.649 8      -993.676          51.000    21803199.273 8  87792475.186 8      -761.424          51.000
E24  21977655.352 8 115493349.374 8     -1245.602          51.000    21977667.812 8  88494943.170 8      -954.368          51.000
E31  27010200.516 7 141939491.411 7     -2989.785          44.000    27010210.188 5 108758825.924 5     -2290.928          35.000
> 2020 05 04 14 10 30.0000000  0 17        .000000000000
G18  20408021.734 8 107244938.185 8      -651.395          51.000    20408021.398 8  83567481.373 8      -507.580          50.000
G20  23116004.445 7 121475447.933 7      3115.176          43.000    23116001.422 6  94656225.344 6      2427.413          40.000
G21  20776140.797 8 109179357.021 8      -755.941          49.000    20776139.211 8  85074856.699 8      -589.045          49.000
G26  20330300.625 8 106836459.069 8       572.473          50.000    20330302.664 8  83249175.971 8       446.083          50.000
G31  23150673.000 6 121657607.156 6     -3069.816          37.000    23150666.133 6  94798118.623 6     -2392.068          38.000
R11  22703421.969 4 121320200.970 4     -4412.023          29.000    22703427.633 6  94360178.132 6     -3431.577          36.000
R12  19616371.828 8 104787123.382 8     -1862.383          51.000    19616374.211 8  81501096.658 8     -1448.520          48.000
R21  22671489.156 6 121319659.148 6     -3498.305          40.000
R22  19485313.273 6 104013920.041 6     -1087.000          40.000    19485315.969 6  80899747.995 6      -845.444          39.000
C05  39615851.453 5 206290133.987 5        10.410          34.000    39615851.992 5 159516618.849 5         8.349          35.000
C23  24282863.125 8 126447199.718 8     -3091.254          48.000
C27  24693125.898 5 128583609.803 5      2547.672          35.000
C28  21633711.688 8 112652397.367 8       490.316          48.000
E11  23481697.914 8 123397166.868 8      1670.469          50.000    23481695.555 8  94551036.037 8      1279.919          49.000
E12  21808919.539 8 114606669.824 8     -1007.395          51.000    21808919.109 8  87815506.762 8      -771.867          51.000
E24  21984823.164 8 115531016.966 8     -1262.730          51.000    21984836.141 8  88523805.337 8      -967.535          51.000
E31  27027303.875 7 142029368.408 7     -2999.078          44.000    27027314.141 5 108827692.667 5     -2298.064          32.000
> 2020 05 04 14 11  0.0000000  0 17        .000000000000
G18  20411788.820 8 107264734.586 8      -668.910          51.000    20411788.570 8  83582907.144 8      -521.229          51.000
G20  23098237.633 7 121382082.586 7      3108.699          44.000    23098234.109 6  94583473.211 6      2422.366          38.000
G21  20780494.828 8 109202237.294 8      -769.918          50.000    20780493.250 8  85092685.486 8      -599.936          50.000
G26  20327076.672 8 106819516.604 8       556.445          51.000    20327078.672 8  83235974.038 8       433.594          51.000
G29  22727451.273 5 119433575.697 5     -2624.098          33.000
G31  23168216.430 6 121749799.992 6     -3077.199          39.000    23168212.523 6  94869957.157 6     -2397.818          39.000
R12  19626897.664 8 104843351.447 8     -1886.664          49.000    19626900.727 8  81544829.571 8     -1467.408          49.000
R21  22691102.648 6 121424615.661 6     -3499.109          39.000
R22  19491459.094 6 104046726.350 6     -1100.895          41.000    19491462.531 6  80925264.025 6      -856.251          38.000
C05                                                                  39615789.711 5 159516369.117 5         8.418          35.000
C23  24300692.336 8 126540035.815 8     -3098.211          48.000
C27  24678459.117 5 128507229.073 5      2543.578          34.000
C28  21630911.727 8 112637816.847 8       481.148          48.000
E11  23472185.492 8 123347178.410 8      1661.586          50.000    23472183.938 8  94512733.185 8      1273.118          50.000
E12  21814693.273 8 114637010.651 8     -1015.934          51.000    21814692.805 8  87838754.923 8      -778.437          51.000
E24  21992064.586 8 115569071.934 8     -1274.754          51.000    21992078.219 8  88552964.305 8      -976.739          51.000
E31  27044434.938 7 142119391.274 7     -3003.113          43.000    27044442.352 5 108896671.219 5     -2301.096          35.000
> 2020 05 04 14 11 30.0000000  0 17        .000000000000
G18  20415655.633 8 107285054.795 8      -686.219          51.000    20415655.570 8  83598741.091 8      -534.713          51.000
G20  23080507.312 7 121288908.261 7      3102.461          45.000    23080503.859 6  94510869.895 6      2417.502          39.000
G21  20784928.273 8 109225534.573 8      -783.602          50.000    20784926.852 8  85110839.227 8      -610.599          50.000
G26  20323944.938 8 106803059.077 8       540.336          51.000    20323946.992 8  83223149.997 8       421.041          51.000
G31  23185799.102 6 121842207.525 6     -3084.293          41.000    23185798.898 6  94941962.983 6     -2403.345          41.000
R11  22753030.594 5 121585289.829 5     -4424.316          34.000    22753034.820 5  94566359.036 5     -3441.144          35.000
R12  19637559.227 8 104900306.261 8     -1910.879          49.000    19637563.188 8  81589127.776 8     -1486.236          49.000
R21  22710721.062 5 121529600.784 5     -3499.945          34.000    22710729.062 4  94523083.712 4     -2722.180          29.000
R22  19497684.312 6 104079958.348 6     -1115.066          40.000    19497688.312 6  80951111.168 6      -867.274          37.000
C05  39615725.844 5 206289479.584 5        10.996          34.000    39615726.438 5 159516113.603 5         8.491          35.000
C23  24318559.867 8 126633074.827 8     -3104.871          48.000
C27  24663817.305 5 128430983.530 5      2539.992          31.000
C28  21628164.211 8 112623511.701 8       472.133          48.000
E11  23462722.414 8 123297449.688 8      1652.906          50.000    23462721.484 8  94474629.359 8      1266.557          51.000
E12  21820515.227 8 114667605.273 8     -1024.164          51.000    21820514.758 8  87862197.563 8      -784.767          51.000
E24  21999374.570 8 115607486.217 8     -1286.609          51.000    21999388.562 8  88582398.606 8      -985.847          51.000
E31  27061588.047 6 142209531.041 6     -3006.641          41.000    27061593.398 5 108965739.261 5     -2304.218          34.000
> 2020 05 04 14 12  0.0000000  0 18        .000000000000
G18  20419623.336 8 107305905.041 8      -704.875          51.000    20419623.250 8  83614988.038 8      -549.253          50.000
G20  23062815.273 7 121195935.312 7      3094.828          46.000    23062812.148 6  94438423.481 6      2411.557          39.000
G21  20789442.211 8 109249255.141 8      -798.762          50.000    20789440.844 8  85129322.793 8      -622.412          50.000
G26  20320906.977 8 106787095.142 8       522.938          50.000    20320909.414 8  83210710.551 8       407.484          50.000
G31  23203422.133 6 121934834.302 6     -3092.336          41.000    23203426.234 6  95014139.666 6     -2409.612          41.000
R11  22777891.391 5 121718126.654 5     -4432.539          35.000    22777894.297 5  94669676.399 5     -3447.536          35.000
R12  19648358.133 8 104957993.486 8     -1936.078          51.000    19648362.656 8  81633995.625 8     -1505.839          50.000
R21  22730346.648 5 121634620.331 5     -3502.180          32.000    22730354.977 4  94604765.553 4     -2723.914          29.000
R22  19503990.266 6 104113622.063 6     -1130.316          39.000    19503994.359 6  80977294.030 6      -879.135          36.000
R23  21400420.234 5 114477805.262 5      2729.805          30.000    21400422.469 4  89038312.468 4      2123.178          27.000
C05  39615663.070 5 206289152.838 5        10.422          35.000    39615663.875 5 159515861.977 5         7.560          35.000
C23  24336466.961 7 126726321.956 7     -3112.676          47.000
C27  24649203.375 5 128354867.931 5      2533.289          30.000
C28  21625471.055 8 112609488.947 8       461.688          49.000
E11  23453310.102 8 123247988.283 8      1643.266          49.000    23453309.305 8  94436730.371 8      1259.173          50.000
E12  21826386.703 8 114698460.077 8     -1033.902          51.000    21826386.188 8  87885839.542 8      -792.178          51.000
E24  22006754.406 8 115646267.019 8     -1299.805          51.000    22006768.414 8  88612113.733 8      -995.984          51.000
E31  27078764.570 6 142299794.050 6     -3011.641          41.000    27078768.562 6 109034901.831 6     -2308.037          36.000
> 2020 05 04 14 12 30.0000000  0 18        .000000000000
G18  20423690.125 8 107327275.992 8      -721.773          51.000    20423689.859 8  83631640.729 8      -562.421          50.000
G20  23045160.617 7 121103158.525 7      3088.621          46.000    23045157.828 6  94366129.927 6      2406.721          41.000
G21  20794034.836 8 109273389.063 8      -812.062          50.000    20794033.477 8  85148128.444 8      -632.776          50.000
G26  20317961.664 8 106771617.905 8       507.023          50.000    20317964.328 8  83198650.352 8       395.083          51.000
G29  22772482.039 5 119670200.702 5     -2634.430          31.000
G31  23221083.500 7 122027669.525 7     -3098.680          42.000    23221092.789 7  95086478.779 7     -2414.556          42.000
R11  22802785.922 5 121851149.563 5     -4437.918          34.000    22802789.172 5  94773138.433 5     -3451.726          34.000
R12  19659292.781 8 105016402.978 8     -1959.711          51.000    19659297.016 8  81679425.192 8     -1524.220          50.000
R21  22749977.289 5 121739664.269 5     -3502.117          35.000    22749983.906 4  94686480.535 4     -2723.863          28.000
R22  19510374.508 6 104147706.768 6     -1143.762          37.000    19510379.953 6  81003804.342 6      -889.592          36.000
R23  21385141.664 6 114396041.819 6      2719.047          37.000    21385139.234 4  88974718.616 4      2114.811          27.000
C05  39615599.273 5 206288820.748 5        10.109          34.000    39615600.195 5 159515605.092 5         8.186          35.000
