     3.02           OBSERVATION DATA    M (MIXED)           RINEX VERSION / TYPE
SAVERINEX           SC600               20200516 175931 LCL PGM / RUN BY / DATE
       G = GPS       R = GLONASS       C = COMPASS          COMMENT
       S = SBAS      J = QZSS          E = GALILEO          COMMENT
BEAN                                                        MARKER NAME
1                                                           MARKER NUMBER
GEODETIC                                                    MARKER TYPE
Unige DICCA         GTER                                    OBSERVER / AGENCY
SC60291900056       SC600               2.12(191202)        REC # / TYPE / VERS
                    HEMA45          NONE                    ANT # / TYPE
  4509407.8091   693652.4678  4442337.6214                  APPROX POSITION XYZ
        0.0000        0.0000        0.0000                  ANTENNA: DELTA H/E/N
G    8 C1C L1C D1C S1C C2Y L2Y D2Y S2Y                      SYS / # / OBS TYPES
R    8 C1C L1C D1C S1C C2P L2P D2P S2P                      SYS / # / OBS TYPES
C    4 C1I L1I D1I S1I                                      SYS / # / OBS TYPES
E    8 C1C L1C D1C S1C C7Q L7Q D7Q S7Q                      SYS / # / OBS TYPES
DBHZ                                                        COMMENT
     30.000                                                 INTERVAL
  2020    05    16    15    00    0.0000000     GPS         TIME OF FIRST OBS
  2020    05    16    15    59   30.0000000     GPS         TIME OF LAST OBS
     0                                                      RCV CLOCK OFFS APPL
G L1C  0.00000                                              SYS / PHASE SHIFT
G L2Y  0.00000                                              SYS / PHASE SHIFT
R L1C  0.00000                                              SYS / PHASE SHIFT
R L2P  0.25000                                              SYS / PHASE SHIFT
C L1I  0.00000                                              SYS / PHASE SHIFT
E L1C  0.50000                                              SYS / PHASE SHIFT
E L7Q -0.25000                                              SYS / PHASE SHIFT
 12 R02 -4 R03  5 R04  6 R05  1 R09 -2 R10 -5 R14 -7 R15  0 GLONASS SLOT / FRQ #
    R16 -1 R17  4 R18 -3 R19  3                             GLONASS SLOT / FRQ #
 C1C   71.950 C2C   71.950 C2P   71.950                     GLONASS COD/PHS/BIS
    18                                                      LEAP SECONDS
*** Above antenna height is from mark to ANTENNA BOTTOM.    COMMENT
    17     4        0.0000        ANT MEASURE TYPE/HEIGT    COMMENT
    0.0000    0.0000    0.0458    0.0405    0.0000          COMMENT
                    BASE STATION                            COMMENT
                                                            END OF HEADER
> 2020 05 16 15 00  0.0000000  0 16        .000000000000
G10  21953296.500 8 115365344.944 8      2450.711          51.000    21953300.109 8  89895094.191 8      1909.648          51.000
G16  20530843.898 8 107890304.554 8      -678.273          51.000    20530842.852 8  84070354.353 8      -528.525          49.000
G20  20974810.766 8 110223414.448 8       231.379          50.000    20974810.352 8  85888400.602 8       180.295          49.000
G21  22386808.398 6 117643538.779 6     -2295.156          37.000
G26  21598549.328 7 113501128.058 7     -2695.688          47.000    21598554.531 8  88442452.345 8     -2100.536          48.000
R04  22188360.352 6 118817670.230 6      3491.672          40.000    22188365.203 6  92413755.885 6      2715.745          38.000
R09  20379433.133 6 108825026.981 6     -1681.730          38.000    20379436.266 7  84641731.481 7     -1308.013          42.000
R18  22297497.188 5 119025559.361 5     -2872.672          32.000    22297494.867 4  92575420.024 4     -2234.300          25.000
C05  39621834.328 6 206321287.111 6        -4.102          36.000
C20  24636034.531 7 128286346.892 7      2855.711          42.000
C29  21891836.422 5 113996513.156 5       904.113          34.000
C30  22696879.555 7 118188707.079 7     -1673.980          46.000
E13  24934685.141 5 131032646.175 5      1724.707          34.000
E15  23134033.953 8 121570169.930 8      -452.836          51.000    23134037.656 8  93151247.520 8      -346.966          51.000
E27  24126460.922 8 126785402.138 8     -1530.781          51.000    24126464.688 8  97147266.172 8     -1172.966          51.000
E30  25813079.148 5 135648645.780 5     -3213.555          33.000
> 2020 05 16 15 00 30.0000000  0 15        .000000000000
G10  21939341.547 8 115292014.032 8      2437.965          51.000    21939345.508 8  89837953.258 8      1899.713          51.000
G16  20534768.258 8 107910925.781 8      -696.492          51.000    20534766.891 8  84086422.825 8      -542.721          49.000
G20  20973543.070 8 110216751.944 8       212.914          50.000    20973542.828 8  85883209.021 8       165.907          48.000
G21  22399922.234 6 117712450.825 6     -2298.605          38.000    22399919.453 5  91723932.637 5     -1791.115          31.000
G26  21613972.617 8 113582178.738 8     -2707.387          48.000    21613977.602 8  88505608.690 8     -2109.652          48.000
R04  22168830.812 6 118713093.563 6      3479.965          39.000    22168835.914 6  92332418.522 6      2706.642          38.000
R09  20388948.156 6 108875840.183 6     -1705.656          41.000    20388953.484 7  84681252.906 7     -1326.618          44.000
C05  39621855.016 6 206321395.086 6        -2.645          36.000
C20  24619599.391 7 128200765.704 7      2849.684          46.000
C29  21886640.914 5 113969463.803 5       898.098          30.000
C30  22706537.430 7 118238996.054 7     -1678.676          45.000
E13  24924855.359 6 130980971.048 6      1720.371          37.000
E15  23136634.492 8 121583836.535 8      -458.102          51.000    23136638.359 8  93161719.331 8      -351.046          51.000
E27  24135234.891 8 126831508.760 8     -1542.812          51.000    24135237.672 8  97182594.628 8     -1182.122          51.000
E30  25831427.945 6 135745070.313 6     -3214.668          36.000    25831431.672 5 104012466.129 5     -2463.364          33.000
> 2020 05 16 15 01  0.0000000  0 16        .000000000000
G10  21925464.617 8 115219093.464 8      2423.547          50.000    21925467.969 8  89781132.066 8      1888.478          50.000
G16  20538801.930 8 107932120.655 8      -716.293          51.000    20538800.008 8  84102938.301 8      -558.150          48.000
G20  20972385.781 8 110210670.313 8       192.676          49.000    20972385.406 7  85878470.090 7       150.137          47.000
G21  22413059.625 6 117781486.870 6     -2303.477          37.000    22413058.703 5  91777727.084 5     -1794.899          35.000
G26  21629467.711 8 113663605.503 8     -2720.918          49.000    21629472.039 8  88569058.089 8     -2120.199          49.000
R03  21732339.461 6 116334884.212 6       220.125          38.000    21732327.031 4  90482683.915 4       171.205          26.000
R04  22149375.039 6 118608906.287 6      3465.980          41.000    22149379.336 6  92251384.044 6      2695.766          37.000
R09  20398604.570 7 108927402.293 7     -1731.492          42.000    20398610.000 7  84721356.763 7     -1346.716          43.000
C05  39621875.250 6 206321501.209 6        -3.715          36.000
C20  24603206.391 8 128115395.599 8      2841.781          49.000
C29  21881485.781 5 113942623.800 5       890.875          34.000
C30  22716226.555 7 118289450.760 7     -1684.930          44.000
E13  24915051.750 5 130929451.647 5      1713.918          33.000
E15  23139270.125 8 121597687.212 8      -465.035          51.000    23139273.969 8  93172332.185 8      -356.344          51.000
E27  24144081.938 8 126877999.237 8     -1556.410          51.000    24144083.820 8  97218217.201 8     -1192.589          51.000
E30  25849788.766 5 135841557.211 5     -3217.156          34.000    25849793.398 5 104086399.111 5     -2465.609          33.000
> 2020 05 16 15 01 30.0000000  0 16        .000000000000
G10  21911669.492 8 115146601.645 8      2410.367          50.000    21911671.992 8  89724645.003 8      1878.211          50.000
G16  20542947.617 8 107953904.878 8      -734.801          51.000    20542944.945 8  84119913.005 8      -572.575          48.000
G20  20971342.242 8 110205185.800 8       174.082          49.000    20971341.414 7  85874196.414 7       135.648          46.000
G21  22426223.633 6 117850661.868 6     -2307.191          38.000    22426219.734 3  91831629.584 3     -1797.821          22.000
G26  21645037.281 8 113745422.294 8     -2732.586          50.000    21645040.820 8  88632811.385 8     -2129.291          50.000
R03  21731181.688 4 116328681.147 4       194.484          28.000
R04  22129996.328 7 118505129.388 7      3453.539          43.000    22129999.375 5  92170668.789 5      2686.086          35.000
R09  20408404.195 7 108979727.254 7     -1755.676          43.000    20408407.969 6  84762053.933 6     -1365.529          41.000
C05  39621897.953 6 206321619.382 6        -3.160          36.000
C20  24586857.508 8 128030254.924 8      2835.387          50.000
C29  21876373.602 5 113916009.507 5       884.930          30.000
C30  22725950.070 6 118340086.876 6     -1689.695          41.000
E13  24905280.062 5 130878128.890 5      1709.957          33.000
E15  23141943.852 8 121611737.414 8      -470.516          51.000    23141947.477 8  93183097.923 8      -360.501          51.000
E27  24153004.797 8 126924888.659 8     -1568.426          51.000    24153006.242 8  97254145.438 8     -1201.793          51.000
E30  25868164.500 5 135938125.044 5     -3219.109          35.000    25868170.094 5 104160399.537 5     -2466.707          33.000
> 2020 05 16 15 02  0.0000000  0 14        .000000000000
G10  21897955.391 8 115074533.745 8      2395.074          51.000    21897957.008 8  89668488.239 8      1866.292          51.000
G16  20547203.961 8 107976271.110 8      -755.344          51.000    20547200.789 8  84137341.217 8      -588.580          48.000
G20  20970410.711 8 110200291.107 8       153.211          49.000    20970410.203 7  85870382.401 7       119.388          46.000
G21  22439412.656 6 117919966.918 6     -2312.379          37.000    22439409.523 5  91885633.521 5     -1801.851          35.000
G26  21660679.328 8 113827619.806 8     -2746.246          50.000    21660682.047 8  88696861.350 8     -2139.932          50.000
R04  22110694.086 6 118401760.129 6      3438.680          41.000    22110694.461 5  92090270.554 5      2674.532          32.000
R09  20418343.875 6 109032804.920 6     -1781.828          40.000    20418346.836 6  84803336.550 6     -1385.869          41.000
C05  39621921.891 6 206321744.008 6        -4.320          36.000
C20  24570551.570 8 127945339.144 8      2826.664          50.000
C30  22735707.398 7 118390897.027 7     -1696.734          43.000
E13                                                                  24895540.141 4 100244025.563 4      1305.019          29.000
E15  23144654.070 8 121625979.333 8      -477.996          51.000    23144657.547 8  93194010.558 8      -366.305          51.000
E27  24162002.000 8 126972168.816 8     -1582.578          51.000    24162003.539 8  97290373.077 8     -1212.646          51.000
E30  25886554.188 6 136034762.744 6     -3222.625          36.000    25886560.234 5 104234446.533 5     -2469.449          34.000
> 2020 05 16 15 02 30.0000000  0 17        .000000000000
G10  21884322.102 8 115002889.216 8      2378.949          51.000    21884323.508 8  89612661.342 8      1853.727          51.000
G16  20551570.352 8 107999215.957 8      -776.586          51.000    20551567.148 8  84155220.293 8      -605.132          48.000
G18  22478917.039 5 118127486.213 5     -2880.426          32.000
G20  20969591.008 8 110195983.766 8       131.625          50.000    20969590.188 7  85867026.026 7       102.565          44.000
G21  22452625.688 6 117989398.181 6     -2318.707          37.000    22452623.266 5  91939735.766 5     -1806.785          32.000
G26  21676392.648 8 113910193.077 8     -2760.688          49.000    21676394.633 8  88761204.106 8     -2151.188          49.000
R04  22091467.609 6 118298800.349 6      3423.066          36.000    22091465.727 4  92010190.758 4      2662.388          28.000
R09  20428422.898 6 109086629.539 6     -1808.711          41.000    20428425.734 6  84845200.117 6     -1406.775          40.000
R18  22378378.984 5 119457306.042 5     -2887.027          32.000
C05  39621946.289 6 206321871.723 6        -6.266          36.000
C20  24554288.234 8 127860647.837 8      2817.207          49.000
C29  21866276.812 5 113863426.172 5       867.047          34.000
C30  22745498.258 6 118441878.020 6     -1704.270          39.000
E13  24885823.477 5 130775886.953 5      1696.219          34.000
E15  23147400.102 8 121640409.450 8      -486.254          51.000    23147403.625 8  93205067.393 8      -372.638          51.000
E27  24171072.703 8 127019835.824 8     -1597.465          51.000    24171074.719 8  97326897.113 8     -1224.020          51.000
E30  25904956.328 6 136131465.815 6     -3226.777          37.000    25904961.352 5 104308543.543 5     -2472.214          35.000
> 2020 05 16 15 03  0.0000000  0 16        .000000000000
G10  21870766.203 8 114931651.204 8      2368.770          51.000    21870767.906 8  89557151.244 8      1845.794          51.000
G16  20556043.031 8 108022719.830 8      -791.723          51.000    20556039.781 8  84173534.997 8      -616.927          48.000
G20  20968879.438 8 110192244.493 8       116.254          49.000    20968878.562 7  85864112.339 7        90.591          44.000
G21  22465858.914 4 118058935.171 4     -2318.758          29.000
G26  21692173.320 8 113993120.793 8     -2769.105          48.000    21692174.703 7  88825823.062 7     -2157.748          47.000
R04  22072313.656 6 118196235.024 6      3413.172          36.000    22072311.594 4  91930417.707 4      2654.689          25.000
R09  20438637.000 6 109141179.236 6     -1829.195          38.000    20438640.445 6  84887627.646 6     -1422.707          41.000
R18  22394606.039 5 119543877.652 5     -2885.781          32.000    22394613.031 4  92978629.766 4     -2244.503          28.000
C05  39621967.750 6 206321982.105 6        -2.531          36.000
C20  24538064.430 8 127776164.593 8      2813.684          49.000
C29  21861291.047 5 113837444.101 5       863.910          33.000
C30  22755317.641 6 118493010.713 6     -1705.957          39.000
E13  24876143.797 6 130725007.343 6      1694.566          36.000
E15  23150178.219 8 121655008.000 8      -488.395          51.000    23150181.836 8  93216253.291 8      -374.212          51.000
E27  24180213.438 8 127067869.517 8     -1606.230          51.000    24180215.586 8  97363702.118 8     -1230.733          51.000
E30  25923367.031 5 136228213.347 5     -3224.375          35.000    25923370.664 6 104382674.691 6     -2470.951          36.000
> 2020 05 16 15 03 30.0000000  0 13        .000000000000
G10  21857290.375 8 114860835.665 8      2353.043          49.000    21857292.523 8  89501970.341 8      1833.540          49.000
G16  20560624.398 8 108046796.142 8      -812.484          51.000    20560621.469 8  84192295.755 8      -633.105          49.000
G20  20968278.555 8 110189087.192 8        95.035          49.000    20968277.758 7  85861652.152 7        74.053          44.000
G26  21708023.781 8 114076414.480 8     -2782.945          49.000    21708024.547 8  88890727.192 8     -2168.529          48.000
R04  22053239.297 5 118094082.522 5      3398.125          34.000    22053235.305 4  91850965.726 4      2642.986          28.000
R09  20448989.648 6 109196465.165 6     -1855.570          40.000    20448994.359 7  84930627.817 7     -1443.224          43.000
C05  39621988.664 5 206322091.125 5        -3.660          35.000
C20  24521883.547 8 127691905.334 8      2804.367          50.000
C30  22765168.445 6 118544308.254 6     -1712.996          36.000
E13  24866493.594 5 130674283.552 5      1687.648          35.000    24866500.680 5 100127083.598 5      1293.193          34.000
E15  23152990.883 8 121669787.995 8      -496.137          51.000    23152994.438 8  93227578.222 8      -380.160          51.000
E27  24189426.547 8 127116282.493 8     -1620.508          51.000    24189428.430 8  97400797.742 8     -1241.697          51.000
E30  25941789.234 5 136325017.449 5     -3228.449          34.000    25941790.961 6 104456849.111 6     -2473.660          36.000
> 2020 05 16 15 04  0.0000000  0 14        .000000000000
G10  21843879.656 8 114790364.135 8      2337.789          48.000    21843882.203 8  89447057.513 8      1821.654          48.000
G16  20565299.172 8 108071363.792 8      -832.652          51.000    20565297.062 8  84211439.365 8      -648.823          49.000
G20  20967773.102 8 110186431.128 8        74.602          49.000    20967771.594 7  85859582.506 7        58.134          43.000
G26  21723928.250 8 114159991.260 8     -2796.039          50.000    21723928.586 8  88955851.903 8     -2178.735          50.000
R04  22034226.758 4 117992264.759 4      3382.051          28.000    22034222.992 5  91771774.265 5      2630.493          32.000
R09  20459466.117 7 109252402.465 7     -1880.934          44.000    20459470.906 7  84974134.559 7     -1462.951          44.000
R18  22427069.336 6 119717152.697 6     -2892.898          39.000    22427070.133 4  93113384.694 4     -2250.038          29.000
C05  39621993.734 6 206322117.814 6        -4.875          36.000
C20  24505730.914 8 127607792.538 8      2795.797          51.000
C30  22775034.680 5 118595690.570 5     -1720.062          33.000
E13  24856854.992 5 130623634.720 5      1682.066          34.000    24856861.656 6 100088274.780 6      1288.278          36.000
E15  23155822.594 8 121684668.092 8      -503.254          51.000    23155825.898 8  93238979.851 8      -385.643          51.000
E27  24198696.273 8 127164992.933 8     -1634.191          51.000    24198697.375 8  97438121.293 8     -1252.197          51.000
E30  25960206.758 5 136421806.563 5     -3231.398          31.000    25960206.648 6 104531003.640 6     -2475.719          36.000
> 2020 05 16 15 04 30.0000000  0 14        .000000000000
G10  21830576.008 8 114720452.778 8      2329.461          51.000    21830578.461 8  89392581.154 8      1815.164          51.000
G16  20570107.961 8 108096636.053 8      -845.578          50.000    20570106.492 8  84231132.016 8      -658.892          50.000
G20  20967403.625 8 110184490.072 8        61.195          49.000    20967402.227 7  85858070.035 7        47.685          44.000
G26  21739926.703 8 114244062.746 8     -2802.062          50.000    21739927.367 8  89021362.098 8     -2183.428          50.000
R03  21727312.258 5 116307994.913 5        40.141          32.000    21727292.148 4  90461737.370 4        31.220          25.000
R04  22015323.125 5 117891079.367 5      3374.441          32.000    22015319.734 5  91693034.947 5      2624.566          34.000
R09  20470104.898 7 109309205.618 7     -1899.301          46.000    20470109.430 7  85018314.721 7     -1477.237          45.000
C05  39622023.695 6 206322274.063 6          .742          36.000
C20  24489647.562 8 127524040.557 8      2793.973          51.000
C30  22784958.844 5 118647369.003 5     -1719.352          32.000
E13  24847270.719 5 130573292.819 5      1682.070          34.000    24847278.227 5 100049687.190 5      1288.832          35.000
E15  23158713.875 8 121699861.460 8      -503.160          51.000    23158717.008 8  93250621.520 8      -385.565          51.000
E27  24208062.688 8 127214213.566 8     -1640.684          51.000    24208063.016 8  97475835.764 8     -1257.084          51.000
E30                                                                  25978658.297 6 104605300.798 6     -2472.391          36.000
> 2020 05 16 15 05  0.0000000  0 14        .000000000000
G10  21817358.883 8 114650994.506 8      2311.191          51.000    21817360.992 8  89338457.809 8      1800.928          51.000
G16  20575030.070 8 108122503.177 8      -868.691          50.000    20575028.836 8  84251288.197 8      -676.902          50.000
G20  20967149.438 8 110183154.562 8        37.809          49.000    20967148.062 7  85857029.389 7        29.461          43.000
G26  21755998.070 8 114328517.494 8     -2818.008          50.000    21755999.391 8  89087170.943 8     -2195.853          50.000
R04  21996497.766 6 117790269.782 6      3356.176          38.000    21996494.805 5  91614627.085 5      2610.362          31.000
R09  20480884.000 7 109366760.921 7     -1927.297          45.000    20480888.219 7  85063079.920 7     -1499.009          43.000
R18  22459614.922 5 119890921.359 5     -2895.105          32.000    22459616.844 4  93248521.414 4     -2251.755          27.000
C05  39622057.688 6 206322451.473 6        -2.801          36.000
C20  24473612.930 8 127440543.515 8      2782.410          51.000
C30  22794920.227 4 118699235.284 4     -1728.711          29.000
E13  24837722.453 6 130523112.060 6      1672.902          37.000    24837727.914 5 100011236.887 5      1282.059          35.000
E15  23161643.820 8 121715258.221 8      -513.234          51.000    23161646.961 8  93262419.029 8      -393.299          51.000
E27  24217504.641 8 127263834.018 8     -1657.254          51.000    24217504.953 8  97513856.618 8     -1269.898          51.000
E30                                                                  25997124.922 6 104679655.551 6     -2476.890          36.000
> 2020 05 16 15 05 30.0000000  0 15        .000000000000
G10  21804218.734 8 114581940.563 8      2295.113          51.000    21804220.820 8  89284649.543 8      1788.400          51.000
G16  20580055.484 8 108148913.669 8      -889.398          48.000    20580054.602 7  84271867.783 7      -693.038          47.000
G20  20967000.656 8 110182373.358 8        16.902          48.000    20966999.430 7  85856420.675 7        13.171          43.000
G26  21772132.320 8 114413302.267 8     -2831.535          51.000    21772134.312 8  89153236.968 8     -2206.391          51.000
R04  21977748.086 5 117689863.330 5      3339.867          31.000    21977743.391 4  91536533.181 4      2597.678          26.000
R09  20491792.602 7 109425013.397 7     -1953.227          44.000    20491796.141 7  85108387.456 7     -1519.176          42.000
R18  22475905.250 5 119977891.854 5     -2899.227          32.000    22475907.602 5  93316148.600 5     -2254.957          31.000
C05  39622086.195 6 206322599.583 6        -4.137          36.000
C20  24457617.953 8 127357253.370 8      2773.012          51.000
C29  21836966.648 5 113710809.109 5       826.703          31.000
C30  22804906.141 5 118751238.422 5     -1735.910          32.000
E13  24828199.648 6 130473059.333 6      1666.473          38.000    24828201.711 6  99972884.821 6      1276.812          37.000
E15  23164602.438 8 121730806.693 8      -520.648          51.000    23164605.719 8  93274332.789 8      -398.947          51.000
E27  24227012.383 8 127313802.185 8     -1671.188          51.000    24227013.938 8  97552143.895 8     -1280.553          51.000
E30  26015593.945 5 136712870.181 5     -3234.684          31.000    26015596.141 5 104754027.501 5     -2479.146          35.000
> 2020 05 16 15 06  0.0000000  0 14        .000000000000
G10  21791150.977 8 114513267.290 8      2278.215          51.000    21791152.969 8  89231137.893 8      1775.232          51.000
G16  20585179.250 8 108175841.299 8      -910.770          48.000    20585178.734 7  84292850.324 7      -709.691          47.000
G20  20966952.555 7 110182120.975 7        -4.867          45.000    20966951.617 7  85856224.025 7        -3.793          45.000
G26  21788324.000 8 114498389.035 8     -2845.688          51.000    21788326.617 8  89219538.327 8     -2217.419          51.000
R03  21727394.758 6 116308445.918 6       -46.750          36.000
R04  21959067.859 5 117589808.735 5      3323.203          35.000    21959071.000 4  91458757.461 4      2584.714          28.000
R09  20502827.055 7 109483934.052 7     -1979.715          46.000    20502828.641 6  85154214.594 6     -1539.778          41.000
C05  39622104.094 6 206322692.757 6        -6.730          36.000
C20  24441658.359 8 127274146.937 8      2762.762          51.000
C29  21832223.977 5 113686094.610 5       817.719          31.000
E13  24818695.344 6 130423108.858 6      1659.066          36.000    24818695.617 6  99934611.116 6      1270.906          38.000
E15  23167584.859 8 121746480.406 8      -528.957          51.000    23167588.094 8  93286342.521 8      -405.290          51.000
E27  24236581.797 8 127364091.124 8     -1686.090          51.000    24236584.672 8  97590676.957 8     -1291.918          51.000
E30                                                                  26034066.484 6 104828395.526 6     -2482.139          36.000
> 2020 05 16 15 06 30.0000000  0 13        .000000000000
G10  21778186.430 8 114445136.784 8      2269.211          51.000    21778188.508 8  89178049.201 8      1768.216          51.000
G16  20590432.086 8 108203445.570 8      -924.180          48.000    20590431.805 8  84314360.137 8      -720.143          48.000
G20  20967035.414 7 110182557.020 7       -18.586          45.000    20967034.609 7  85856563.810 7       -14.483          44.000
G26  21804602.867 8 114583935.465 8     -2851.992          50.000    21804606.242 8  89286197.857 8     -2222.332          50.000
R03  21727742.953 6 116310286.893 6       -67.777          36.000
R04  21940491.180 5 117490332.136 5      3313.949          35.000    21940495.570 4  91381386.949 4      2577.525          26.000
R09  20514016.641 7 109543682.417 7     -1997.895          47.000    20514016.672 7  85200685.467 7     -1553.921          42.000
C05  39622141.844 6 206322889.888 6        -1.047          36.000
C20  24425764.031 8 127191385.136 8      2760.203          48.000
E13  24809240.172 5 130373420.406 5      1658.891          34.000    24809239.352 5  99896538.220 5      1271.149          35.000
E15  23170621.602 8 121762438.640 8      -529.449          51.000    23170624.609 8  93298570.249 8      -405.676          51.000
E27  24246243.141 8 127414859.624 8     -1692.945          51.000    24246246.719 8  97629577.482 8     -1297.246          51.000
E30                                                                  26052565.406 5 104902880.803 5     -2478.868          34.000
> 2020 05 16 15 07  0.0000000  0 14        .000000000000
G10  21765297.914 8 114377405.661 8      2250.727          51.000    21765300.047 8  89125271.717 8      1753.813          51.000
G16  20595785.875 8 108231579.929 8      -947.039          49.000    20595785.789 8  84336283.018 8      -737.953          49.000
G20  20967221.312 7 110183535.732 7       -42.121          44.000    20967220.953 7  85857326.425 7       -32.822          43.000
G26  21820940.906 8 114669793.695 8     -2867.434          50.000    21820944.680 8  89353100.360 8     -2234.364          50.000
R03  21728211.461 5 116312766.153 5       -98.129          33.000
R04  21921995.273 5 117391260.501 5      3295.027          30.000    21921991.852 4  91304328.628 4      2562.796          27.000
R09  20525332.602 8 109604107.505 8     -2025.695          48.000    20525332.078 7  85247682.741 7     -1575.544          43.000
C05  39622171.797 6 206323045.213 6        -5.055          36.000
C20  24409907.656 7 127108826.058 7      2748.273          46.000
C29  21822881.102 5 113637460.742 5       803.242          31.000
E13                                                                  24799804.227 5  99858554.468 5      1264.426          34.000
E15  23173684.727 8 121778535.119 8      -539.145          51.000    23173687.656 8  93310903.905 8      -413.078          51.000
E27  24255967.805 8 127465960.895 8     -1709.250          51.000    24255971.797 8  97668732.982 8     -1309.679          51.000
E30                                                                  26071063.438 5 104977370.545 5     -2483.549          32.000
> 2020 05 16 15 07 30.0000000  0 14        .000000000000
G10  21752490.062 8 114310098.977 8      2237.039          51.000    21752492.367 8  89072824.966 8      1743.147          51.000
G16  20601245.008 8 108260266.626 8      -964.688          50.000    20601244.859 8  84358636.295 8      -751.705          49.000
G20  20967515.195 7 110185079.819 7       -60.227          44.000    20967514.977 7  85858529.566 7       -46.930          44.000
G26  21837342.359 8 114755984.385 8     -2877.961          51.000    21837346.078 8  89420261.894 8     -2242.567          51.000
R09  20536779.586 8 109665229.674 8     -2048.340          51.000    20536778.516 7  85295222.184 7     -1593.156          43.000
R18  22541186.656 5 120326375.769 5     -2907.094          33.000    22541197.398 4  93587211.512 4     -2261.070          27.000
C05  39622198.219 6 206323182.822 6        -3.621          36.000
C20  24394095.492 7 127026494.830 7      2741.254          47.000
C29  21818268.031 5 113613437.247 5       797.746          30.000
C30  22845190.836 5 118960863.208 5     -1756.785          32.000
E13                                                                  24790396.586 6  99820677.237 6      1261.251          36.000
E15  23176778.320 8 121794792.118 8      -543.992          51.000    23176781.344 8  93323360.566 8      -416.816          51.000
E27  24265759.586 8 127517416.663 8     -1720.484          51.000    24265763.898 8  97708160.101 8     -1318.296          51.000
E30                                                                  26089566.414 5 105051875.854 5     -2483.501          34.000
> 2020 05 16 15 08  0.0000000  0 14        .000000000000
G10  21739766.922 8 114243239.181 8      2221.219          51.000    21739769.539 8  89020726.450 8      1730.820          51.000
G16  20606813.102 8 108289525.570 8      -984.832          50.000    20606812.727 8  84381435.466 8      -767.402          50.000
G20  20967920.438 7 110187209.055 7       -80.637          44.000    20967920.109 7  85860188.723 7       -62.831          44.000
G26  21853810.750 8 114842525.638 8     -2890.516          51.000    21853813.875 8  89487696.577 8     -2252.350          51.000
R04  21885230.414 5 117194399.111 5      3264.906          31.000    21885239.305 5  91151210.957 5      2539.378          32.000
R09  20548360.195 8 109727066.387 8     -2073.160          49.000    20548359.312 7  85343317.369 7     -1612.461          43.000
R18  22557537.555 5 120413654.042 5     -2910.715          31.000
C05  39622225.000 6 206323322.441 6        -4.691          36.000
C20  24378332.445 7 126944414.024 7      2731.848          47.000
C30  22855329.766 5 119013685.137 5     -1763.500          31.000
E13  24781024.375 5 130225171.845 5      1639.770          34.000    24781021.273 6  99782921.947 6      1256.198          37.000
E15  23179906.180 8 121811229.320 8      -550.859          51.000    23179909.281 8  93335955.315 8      -422.099          51.000
E27  24275622.211 8 127569246.110 8     -1733.824          51.000    24275626.734 8  97747873.544 8     -1328.524          51.000
E30                                                                  26108079.539 5 105126420.984 5     -2485.552          34.000
> 2020 05 16 15 08 30.0000000  0 15        .000000000000
G10  21727128.328 8 114176823.569 8      2206.809          51.000    21727130.961 8  88968974.055 8      1719.591          51.000
G16  20612489.273 8 108319351.356 8     -1003.293          51.000    20612488.398 8  84404676.328 8      -781.787          51.000
G20  20968436.320 7 110189919.024 7       -99.539          47.000    20968435.547 7  85862300.377 7       -77.563          44.000
G21  22612920.461 5 118831698.921 5     -2362.285          31.000
G26  21870344.555 8 114929410.298 8     -2901.395          50.000    21870347.023 8  89555398.828 8     -2260.827          50.000
R09  20560072.070 8 109789609.785 8     -2096.098          49.000    20560072.297 7  85391962.200 7     -1630.298          44.000
R18  22573898.930 5 120500993.723 5     -2911.887          32.000
C05  39622251.344 6 206323459.114 6        -4.023          36.000
C20  24362617.297 7 126862581.178 7      2723.996          47.000
C29  21809164.844 4 113566040.175 4       783.254          29.000
C30  22865493.891 4 119066632.128 4     -1769.414          29.000
E13                                                                  24771675.492 5  99745284.818 5      1252.541          35.000
E15  23183067.430 8 121827841.246 8      -556.285          51.000    23183070.406 8  93348683.936 8      -426.238          51.000
E27  24285554.891 8 127621443.143 8     -1745.613          51.000    24285559.281 8  97787868.666 8     -1337.596          51.000
E30                                                                  26126599.836 5 105200995.919 5     -2486.090          34.000
> 2020 05 16 15 09  0.0000000  0 15        .000000000000
G10  21714581.812 8 114110891.326 8      2192.410          51.000    21714584.633 8  88917598.303 8      1708.372          51.000
G16  20618280.234 8 108349779.984 8     -1021.586          51.000    20618278.938 8  84428386.941 8      -796.041          51.000
G20  20969069.773 7 110193246.303 7      -118.496          47.000    20969068.883 7  85864893.060 7       -92.332          44.000
G26  21886950.086 8 115016673.161 8     -2912.203          49.000    21886952.398 8  89623395.802 8     -2269.252          49.000
R04  21848823.758 4 116999457.140 4      3234.582          29.000    21848838.039 4  90999612.795 4      2515.783          27.000
R09  20571922.703 8 109852894.251 8     -2119.004          49.000    20571923.875 7  85441183.419 7     -1648.114          43.000
R18  22590284.047 5 120588496.761 5     -2913.410          30.000
C05  39622284.211 6 206323629.576 6        -3.602          36.000
C20  24346957.141 7 126781035.464 7      2716.027          46.000
C29  21804685.227 5 113542704.915 5       776.855          32.000
C30  22875697.758 4 119119814.365 4     -1773.508          29.000
E13                                                                  24762364.820 5  99707794.099 5      1249.332          32.000
E15  23186268.875 8 121844664.280 8      -561.523          51.000    23186271.766 8  93361574.313 8      -430.252          51.000
E27  24295564.273 8 127674043.611 8     -1757.336          51.000    24295568.531 8  97828172.920 8     -1346.506          51.000
E30                                                                  26145132.820 5 105275627.714 5     -2486.132          30.000
> 2020 05 16 15 09 30.0000000  0 14        .000000000000
G10  21702108.156 8 114045342.110 8      2173.430          51.000    21702111.250 8  88866521.001 8      1693.582          51.000
G16  20624166.094 8 108380708.554 8     -1044.383          51.000    20624164.516 8  84452487.112 8      -813.805          51.000
G20  20969800.820 8 110197087.996 8      -141.777          48.000    20969800.047 7  85867886.621 7      -110.473          44.000
G26  21903607.484 8 115104209.459 8     -2927.516          48.000    21903609.953 8  89691605.856 8     -2281.181          48.000
R09  20583892.664 8 109916812.656 8     -2146.406          50.000    20583893.664 7  85490897.679 7     -1669.430          42.000
R18  22606662.383 5 120675929.030 5     -2919.953          31.000    22606663.945 4  93859030.580 4     -2271.075          26.000
C05  39622303.875 6 206323732.292 6        -7.480          36.000
C20  24331332.648 7 126699677.755 7      2703.734          46.000
C29  21800234.016 5 113519512.879 5       765.559          34.000
C30  22885924.508 5 119173093.085 5     -1782.820          34.000
E13                                                                  24753068.516 5  99670351.332 5      1241.718          32.000
E15  23189490.750 8 121861595.368 8      -571.340          51.000    23189493.734 8  93374547.486 8      -437.831          51.000
E27  24305630.500 8 127726943.887 8     -1773.520          51.000    24305635.086 8  97868706.892 8     -1358.892          51.000
E30                                                                  26163660.023 5 105350216.662 5     -2491.230          30.000
> 2020 05 16 15 10  0.0000000  0 15        .000000000000
G10  21689751.609 8 113980409.306 8      2163.906          51.000    21689755.219 8  88815924.021 8      1686.161          51.000
G16  20630190.805 8 108412367.534 8     -1057.699          51.000    20630189.008 8  84477156.438 8      -824.178          51.000
G20  20970673.844 8 110201675.290 8      -155.523          48.000    20970672.812 7  85871461.128 7      -121.184          43.000
G26  21920360.133 7 115192248.202 7     -2933.270          46.000    21920363.367 7  89760207.460 7     -2285.665          46.000
R03  21734188.609 4 116344773.316 4      -253.477          27.000
R04  21812783.969 5 116806457.234 5      3205.199          35.000    21812780.914 4  90849460.496 4      2492.933          26.000
R09  20596024.844 8 109981596.838 8     -2163.961          50.000    20596024.469 7  85541285.346 7     -1683.084          42.000
R18  22623078.125 5 120763514.205 5     -2915.609          31.000
C05  39622354.594 5 206323996.367 5        -1.648          35.000
C20  24315789.461 7 126618739.704 7      2700.648          47.000
C29  21795854.297 5 113496699.527 5       763.945          33.000
C30  22896216.703 5 119226697.133 5     -1781.988          31.000
E13  24743842.719 5 130029785.793 5      1622.070          33.000    24743833.750 5  99633164.518 5      1242.568          32.000
E15  23192776.875 8 121878865.124 8      -571.473          51.000    23192780.023 8  93387780.168 8      -437.846          51.000
E27  24315797.742 8 127780374.039 8     -1780.051          51.000    24315802.492 8  97909646.869 8     -1363.878          51.000
> 2020 05 16 15 10 30.0000000  0 13        .000000000000
G10  21677442.344 8 113915726.201 8      2146.957          51.000    21677446.562 8  88765521.632 8      1672.954          51.000
G16  20636284.133 8 108444387.691 8     -1078.438          51.000    20636282.383 8  84502107.203 8      -840.341          51.000
G20  20971618.273 8 110206639.044 8      -176.730          48.000    20971617.625 7  85875329.017 7      -137.712          43.000
G26  21937137.492 7 115280418.306 7     -2946.109          45.000    21937142.016 7  89828911.435 7     -2295.673          45.000
R04  21794868.977 6 116710539.094 6      3187.660          36.000
R09  20608247.602 8 110046868.809 8     -2188.902          49.000    20608247.250 7  85592052.408 7     -1702.480          43.000
R18  22639476.883 5 120851028.083 5     -2919.812          34.000    22639471.477 4  93995249.547 4     -2270.965          25.000
C05  39622366.102 5 206324056.459 5        -3.852          35.000
C20  24300257.141 7 126537858.226 7      2690.176          46.000
C30  22906505.289 5 119280261.218 5     -1789.645          33.000
E13  24734592.672 5 129981179.288 5      1614.941          34.000    24734592.695 5  99595949.024 5      1237.432          33.000
E15  23196057.281 8 121896104.216 8      -579.137          51.000    23196060.297 8  93400989.347 8      -443.763          51.000
E27  24325996.070 8 127833964.080 8     -1794.008          51.000    24326000.008 8  97950709.350 8     -1374.668          51.000
> 2020 05 16 15 11  0.0000000  0 14        .000000000000
G10  21665243.547 8 113851623.785 8      2126.676          51.000    21665248.070 8  88715571.719 8      1657.150          51.000
G16  20642508.320 8 108477097.269 8     -1102.117          51.000    20642506.641 8  84527595.174 8      -858.793          50.000
G20  20972697.125 8 110212307.864 8      -201.156          48.000    20972696.656 7  85879746.298 7      -156.745          42.000
G21  22680614.586 5 119187456.727 5     -2382.770          31.000
G26  21954002.250 7 115369046.396 7     -2962.258          45.000    21954007.766 7  89897972.283 7     -2308.253          46.000
R04  21777070.031 5 116615228.634 5      3166.680          35.000
R09  20620623.562 8 110112959.471 8     -2216.852          49.000    20620623.844 7  85643456.223 7     -1724.221          44.000
R18  22655909.555 5 120938728.611 5     -2926.727          30.000    22655906.773 5  94063460.535 5     -2276.346          31.000
C05  39622401.047 5 206324238.375 5        -8.609          35.000
C20  24284799.180 7 126457361.650 7      2676.395          47.000
C30  22916846.859 5 119334110.587 5     -1799.801          35.000
E13  24725401.312 5 129932861.426 5      1605.203          32.000    24725405.180 4  99558959.714 4      1229.566          29.000
E15  23199394.477 8 121913640.903 8      -589.859          51.000    23199397.188 8  93414426.544 8      -452.018          51.000
E27  24336287.438 8 127888041.674 8     -1811.059          51.000    24336289.898 8  97992145.386 8     -1387.724          51.000
> 2020 05 16 15 11 30.0000000  0 11        .000000000000
G10  21653132.523 8 113787981.762 8      2114.926          51.000    21653136.992 8  88665980.546 8      1647.994          51.000
G16  20648840.055 8 108510372.683 8     -1117.441          51.000    20648838.461 8  84553524.059 8      -870.734          49.000
G20  20973886.609 7 110218558.696 7      -216.832          47.000    20973885.602 6  85884617.086 6      -168.960          40.000
G26  21970931.141 7 115458007.796 7     -2969.762          47.000    21970936.617 7  89967292.828 7     -2314.103          47.000
R04  21759361.477 6 116520405.375 6      3153.746          38.000
R09  20633129.195 8 110179741.272 8     -2236.473          49.000    20633130.914 7  85695397.600 7     -1739.479          44.000
C05  39622436.039 6 206324420.846 6        -4.973          36.000
C20  24269392.766 8 126377131.052 8      2671.227          48.000
C30  22927221.242 5 119388123.765 5     -1801.715          32.000
E15  23202764.781 8 121931352.156 8      -592.016          51.000    23202767.500 8  93427997.502 8      -453.533          51.000
E27  24346647.836 8 127942483.172 8     -1819.480          51.000    24346648.750 8  98033860.254 8     -1394.147          51.000
> 2020 05 16 15 12  0.0000000  0 11        .000000000000
G10  21641098.289 8 113724742.955 8      2106.648          51.000    21641102.523 8  88616703.602 8      1641.544          51.000
G16  20655268.078 8 108544154.262 8     -1129.012          51.000    20655266.719 8  84579847.362 8      -879.749          49.000
G18  22796481.539 5 119796316.119 5     -2966.688          33.000
G20  20975175.602 7 110225332.313 7      -229.117          46.000    20975174.562 6  85889895.234 6      -178.533          40.000
G26  21987912.094 8 115547240.995 8     -2973.438          48.000    21987917.227 8  90036825.157 8     -2316.964          48.000
R04  21741733.484 6 116426013.559 6      3144.609          39.000    21741733.078 5  90553536.733 5      2445.810          32.000
R09  20645752.258 8 110247150.882 8     -2251.945          49.000    20645755.312 7  85747827.304 7     -1751.513          45.000
C05  39622459.984 6 206324546.275 6         2.051          36.000
C20  24254026.516 8 126297110.222 8      2669.172          49.000
E15  23206156.836 8 121949178.224 8      -590.621          51.000    23206159.859 8  93441656.457 8      -452.635          51.000
E27  24357065.430 8 127997228.176 8     -1824.383          51.000    24357066.172 8  98075807.692 8     -1397.940          51.000
> 2020 05 16 15 12 30.0000000  0 11        .000000000000
G10  21629177.453 8 113662099.450 8      2084.211          51.000    21629181.336 8  88567890.551 8      1624.064          51.000
G16  20661828.234 8 108578630.964 8     -1154.727          50.000    20661827.383 8  84606712.295 8      -899.790          49.000
G20  20976600.055 7 110232818.429 7      -255.480          45.000    20976599.438 6  85895728.613 6      -199.076          38.000
G26  22004980.664 8 115636933.781 8     -2991.355          49.000    22004985.289 8  90106715.602 8     -2330.929          50.000
R04  21724222.422 5 116332250.984 5      3121.285          34.000    21724226.602 5  90480610.339 5      2427.666          34.000
R09  20658528.797 8 110315378.004 8     -2281.625          50.000    20658532.672 7  85800892.829 7     -1774.597          46.000
C05  39622508.938 6 206324800.856 6        -4.664          36.000
C20  24238736.914 8 126217489.865 8      2653.340          48.000
C29  21774471.875 5 113385385.528 5       724.484          33.000
E15  23209606.898 8 121967308.561 8      -603.305          51.000    23209610.141 8  93455548.526 8      -462.266          51.000
E27  24367575.852 8 128052465.461 8     -1843.363          51.000    24367577.883 8  98118132.356 8     -1412.429          51.000
> 2020 05 16 15 13  0.0000000  0 14        .000000000000
G10  21617313.719 8 113599754.022 8      2066.672          51.000    21617316.992 8  88519309.731 8      1610.394          51.000
G16  20668463.766 8 108613503.072 8     -1175.414          50.000    20668462.930 8  84633885.341 8      -915.907          48.000
G20  20978103.047 7 110240717.392 7      -276.926          43.000    20978102.383 6  85901883.620 6      -215.789          38.000
G21  22735131.781 5 119473923.570 5     -2393.539          31.000
G26  22022079.281 8 115726784.478 8     -3004.172          49.000    22022083.438 8  90176729.107 8     -2340.913          49.000
R03  21745510.484 5 116405418.912 5      -417.773          31.000
R04  21706762.648 5 116238731.652 5      3102.434          32.000    21706777.102 5  90407950.659 5      2413.004          32.000
R09  20671401.156 8 110384115.591 8     -2306.285          50.000    20671404.969 7  85854355.350 7     -1793.780          46.000
C05  39622525.953 5 206324889.624 5        -6.645          35.000
C20  24223467.547 8 126137975.802 8      2642.289          49.000
C29  21770309.086 6 113363706.728 6       715.039          36.000
E13  24688929.672 6 129741198.828 6      1585.840          36.000
E15  23213057.836 8 121985443.255 8      -611.047          51.000    23213061.242 8  93469443.927 8      -468.214          51.000
E27  24378122.742 8 128107894.492 8     -1857.398          51.000    24378126.383 8  98160603.936 8     -1423.124          51.000
> 2020 05 16 15 13 30.0000000  0 13        .000000000000
G10  21605552.609 8 113537946.858 8      2056.812          51.000    21605555.234 8  88471148.342 8      1602.711          51.000
G16  20675219.859 8 108649007.882 8     -1188.359          49.000    20675218.867 7  84661551.426 7      -925.994          47.000
G20  20979729.602 6 110249266.701 6      -290.156          39.000    20979729.703 6  85908545.484 6      -226.090          36.000
G26  22039252.625 8 115817029.019 8     -3009.039          49.000    22039256.406 8  90247049.490 8     -2344.709          49.000
R03  21747924.586 5 116418293.946 5      -438.406          31.000
R04  21689430.922 5 116145873.351 5      3091.887          34.000    21689439.531 5  90335727.802 5      2404.801          33.000
R09  20684414.008 8 110453602.019 8     -2322.910          51.000    20684417.250 7  85908400.291 7     -1806.708          46.000
C05  39622556.336 5 206325047.047 5         -.422          35.000
C20  24208263.938 8 126058806.453 8      2638.797          49.000
C29  21766202.102 6 113342317.092 6       713.559          37.000
E13  24679887.352 6 129693666.021 6      1586.340          36.000
E15  23216554.781 8 122003819.932 8      -611.000          51.000    23216558.445 8  93483524.749 8      -468.196          51.000
E27  24388752.008 8 128163752.209 8     -1863.395          51.000    24388756.258 8  98203403.997 8     -1427.826          51.000
> 2020 05 16 15 14  0.0000000  0 14        .000000000000
G10  21593867.586 8 113476539.608 8      2035.664          51.000    21593870.008 8  88423298.583 8      1586.232          51.000
G16  20682069.453 8 108685003.877 8     -1212.656          48.000    20682068.766 8  84689600.207 8      -944.930          48.000
G20  20981453.297 7 110258325.894 7      -315.125          42.000    20981453.211 6  85915604.639 6      -245.555          36.000
G26  22056473.602 8 115907524.741 8     -3025.266          49.000    22056476.828 8  90317565.574 8     -2357.353          50.000
R03  21750461.961 6 116431901.641 6      -470.227          36.000
R04  21672168.453 4 116053452.406 4      3069.344          29.000    21672179.633 5  90263844.958 5      2387.270          32.000
R09  20697539.938 8 110523691.123 8     -2351.070          51.000    20697542.609 7  85962914.012 7     -1828.607          46.000
R18  22754680.516 5 121466047.958 5     -2936.418          30.000    22754683.906 4  94473604.789 4     -2283.881          26.000
C05  39622573.430 5 206325136.580 5        -6.281          35.000
C20  24193099.328 8 125979845.079 8      2624.117          49.000
C29  21762124.195 6 113321077.777 6       701.059          37.000
C30  22979525.305 5 119660453.727 5     -1830.613          31.000
E15  23220070.852 8 122022297.653 8      -622.090          51.000    23220074.891 8  93497683.001 8      -476.657          51.000
E27  24399436.594 8 128219897.005 8     -1880.750          51.000    24399440.414 8  98246423.992 8     -1441.115          51.000
> 2020 05 16 15 14 30.0000000  0 14        .000000000000
G10  21582277.859 8 113415634.137 8      2021.164          51.000    21582280.242 8  88375839.806 8      1574.936          51.000
G16  20689031.781 8 108721590.268 8     -1229.988          48.000    20689031.055 8  84718109.053 8      -958.432          48.000
G18  22881640.703 5 120243832.265 5     -2994.000          34.000
G20  20983293.289 7 110267994.013 7      -332.938          42.000    20983292.062 6  85923138.226 6      -259.432          37.000
G26  22073760.898 8 115998369.144 8     -3034.598          50.000    22073763.367 8  90388353.335 8     -2364.625          50.000
R03  21753152.953 4 116446333.099 4      -495.023          29.000
R04  21655010.125 5 115961574.888 5      3052.785          30.000    21655020.336 5  90192384.651 5      2374.382          33.000
R09  20710796.391 8 110594481.201 8     -2371.973          50.000    20710798.352 7  86017972.954 7     -1844.868          45.000
C05  39622596.055 6 206325254.722 6        -5.035          36.000
C20  24177994.844 8 125901193.118 8      2615.961          50.000
C29  21758093.836 6 113300088.108 6       695.016          38.000
C30  22990076.250 5 119715377.737 5     -1834.688          31.000
E15  23223625.078 8 122040975.688 8      -626.555          51.000    23223629.375 8  93511994.746 8      -480.099          51.000
E27  24410194.680 8 128276427.449 8     -1891.398          51.000    24410197.250 8  98289739.478 8     -1449.190          51.000
> 2020 05 16 15 15  0.0000000  0 13        .000000000000
G10  21570823.508 8 113355440.616 8      2003.977          51.000    21570826.062 8  88328935.782 8      1561.540          51.000
G16  20696146.141 8 108758974.308 8     -1250.078          48.000    20696145.062 8  84747239.469 8      -974.087          48.000
G20  20985288.617 7 110278478.930 7      -353.789          43.000    20985287.656 6  85931308.309 6      -275.680          40.000
G26  22091153.578 8 116089768.067 8     -3046.504          49.000    22091155.734 8  90459573.215 8     -2373.902          49.000
R04  21637999.422 6 115870456.913 6      3033.883          37.000    21638002.172 5  90121515.144 5      2359.687          30.000
R09  20724223.219 8 110666180.223 8     -2395.504          50.000    20724223.953 7  86073738.856 7     -1863.173          45.000
R18  22787729.023 5 121642396.589 5     -2940.793          33.000    22787731.000 4  94610787.015 4     -2287.283          27.000
C05  39622663.945 5 206325607.730 5        -6.590          35.000
C20  24162990.445 8 125823059.213 8      2605.027          50.000
C29  21754151.062 6 113279554.744 6       686.023          38.000
C30  23000703.734 5 119770699.250 5     -1841.691          31.000
E15  23227257.102 8 122060061.669 8      -633.668          51.000    23227261.312 8  93526619.066 8      -485.577          51.000
E27  24421065.211 8 128333550.387 8     -1904.668          51.000    24421066.617 8  98333508.963 8     -1459.418          51.000
> 2020 05 16 15 15 30.0000000  0 14        .000000000000
G10  21559411.281 8 113295468.555 8      1986.602          51.000    21559413.773 8  88282204.328 8      1548.001          51.000
G16  20703318.281 8 108796662.845 8     -1270.102          49.000    20703317.211 8  84776607.161 8      -989.690          49.000
G20  20987345.695 7 110289287.606 7      -374.379          44.000    20987345.180 7  85939730.675 7      -291.724          42.000
G26  22108557.414 8 116181226.748 8     -3058.414          48.000    22108559.766 8  90530839.676 8     -2383.183          48.000
R03  21759032.227 5 116477763.983 5      -550.840          31.000
R04  21621035.688 6 115779600.857 6      3015.281          40.000    21621030.969 4  90050849.381 4      2345.219          28.000
R09  20737726.445 8 110738284.572 8     -2419.074          51.000    20737727.055 7  86129819.976 7     -1881.505          46.000
R18  22804240.461 5 121730585.860 5     -2944.055          30.000    22804239.125 4  94679335.822 4     -2289.820          26.000
C05  39622683.414 5 206325709.592 5        -7.844          35.000
C20  24147992.812 8 125744957.808 8      2594.129          51.000
C29  21750202.180 6 113258990.041 6       677.453          38.000
E13  24644007.789 5 129505133.980 5      1558.398          32.000    24644012.039 6  99231221.892 6      1193.987          36.000
E15  23230873.008 8 122079062.566 8      -640.676          51.000    23230877.000 8  93541178.194 8      -490.913          51.000
E27  24431954.297 8 128390772.104 8     -1917.781          51.000    24431955.297 8  98377354.143 8     -1469.475          51.000
> 2020 05 16 15 16  0.0000000  0 14        .000000000000
G10  21548086.594 8 113235958.404 8      1963.578          51.000    21548089.227 8  88235832.807 8      1530.064          51.000
G16  20710593.594 8 108834893.223 8     -1295.824          51.000    20710592.523 8  84806397.040 8     -1009.733          49.000
G20  20989509.484 7 110300658.212 7      -400.863          45.000    20989508.562 6  85948590.873 6      -312.361          41.000
G26  22126017.336 8 116272981.366 8     -3075.758          48.000    22126020.398 7  90602336.739 7     -2396.697          47.000
R03  21762172.414 6 116494540.222 6      -584.715          36.000
R04  21604164.906 6 115689254.338 6      2990.363          38.000    21604158.109 5  89980579.997 5      2325.844          30.000
R09  20751350.234 8 110811032.984 8     -2448.113          51.000    20751351.156 7  86186402.072 7     -1904.088          46.000
C05  39622699.914 5 206325794.739 5       -14.602          35.000
C20  24133047.055 8 125667127.633 8      2577.504          50.000
C29  21746292.445 6 113238630.713 6       662.945          38.000
C30  23021947.344 5 119881325.954 5     -1860.871          34.000
E13                                                                  24635103.961 5  99195341.451 5      1184.630          35.000
E15  23234517.984 8 122098216.385 8      -653.461          51.000    23234521.797 8  93555854.486 8      -500.716          51.000
E27  24442906.922 8 128448329.818 8     -1936.598          51.000    24442908.516 8  98421456.793 8     -1483.884          51.000
> 2020 05 16 15 16 30.0000000  0 14        .000000000000
G10  21536883.516 8 113177088.148 8      1958.641          50.000    21536886.555 8  88189959.876 8      1526.217          50.000
G16  20718005.453 8 108873840.672 8     -1303.328          51.000    20718003.984 8  84836745.701 8     -1015.580          50.000
G20  20991813.805 7 110312766.284 7      -408.902          45.000    20991812.766 7  85958025.724 7      -318.625          44.000
G26  22143566.727 8 116365205.774 8     -3075.035          48.000    22143570.578 8  90674199.877 8     -2396.131          48.000
R03  21765485.539 5 116512270.809 5      -599.637          31.000    21765487.641 3  90620699.179 3      -466.381          23.000
R04  21587422.570 6 115599601.116 6      2983.809          38.000    21587416.617 5  89910849.786 5      2320.743          30.000
R09  20765127.297 8 110884601.046 8     -2458.871          51.000    20765127.953 7  86243621.637 7     -1912.458          46.000
R18  22837327.664 5 121907206.932 5     -2943.875          30.000    22837334.367 4  94816746.553 4     -2289.681          26.000
C05  39622746.945 6 206326040.752 6        -3.746          36.000
C20  24118186.164 8 125589745.606 8      2578.711          49.000
C29  21742455.742 6 113218651.660 6       666.793          39.000
E13                                                                  24626257.562 5  99159702.866 5      1189.383          32.000
E15  23238225.414 8 122117698.701 8      -647.977          51.000    23238229.062 8  93570782.486 8      -496.505          51.000
E27  24453956.477 8 128506398.409 8     -1937.230          51.000    24453959.266 8  98465950.916 8     -1484.359          51.000
> 2020 05 16 15 17  0.0000000  0 12        .000000000000
G10  21525765.141 8 113118662.004 8      1928.742          51.000    21525768.430 8  88144433.021 8      1502.916          51.000
G16  20725515.727 8 108913306.227 8     -1335.320          51.000    20725514.266 8  84867498.084 8     -1040.509          50.000
G20  20994220.539 7 110325413.309 7      -441.891          46.000    20994219.891 7  85967880.563 7      -344.330          43.000
G26  22161167.484 7 116457699.537 7     -3098.703          47.000    22161171.938 7  90746272.908 7     -2414.577          47.000
R04  21570772.477 6 115510443.653 6      2952.145          39.000    21570769.641 5  89841505.172 5      2296.115          34.000
R09  20779019.766 8 110958784.090 8     -2494.301          51.000    20779019.742 7  86301319.471 7     -1940.015          46.000
C05  39622786.742 6 206326248.468 6       -17.762          36.000
C20  24103373.609 8 125512617.834 8      2555.430          49.000
C29  21738653.633 6 113198856.987 6       645.910          37.000
E13                                                                  24617432.180 4  99124197.139 4      1174.972          29.000
E15  23241957.539 8 122137310.934 8      -667.223          51.000    23241961.031 8  93585810.035 8      -511.356          51.000
E27  24465065.664 8 128564778.532 8     -1962.516          51.000    24465069.172 8  98510683.734 8     -1503.776          51.000
> 2020 05 16 15 17 30.0000000  0 13        .000000000000
G10  21514741.930 8 113060735.212 8      1913.816          51.000    21514745.461 8  88099295.303 8      1491.286          51.000
G16  20733134.273 8 108953342.631 8     -1352.781          51.000    20733133.320 8  84898695.239 8     -1054.118          51.000
G20  20996739.891 7 110338652.244 7      -459.996          46.000    20996738.898 7  85978196.593 7      -358.439          43.000
G26  22178829.617 8 116550513.933 8     -3107.941          49.000    22178833.922 8  90818595.791 8     -2421.773          49.000
R03  21772529.711 5 116550061.098 5      -665.746          32.000
R04  21554225.531 6 115421840.807 6      2934.953          39.000    21554226.297 5  89772591.933 5      2282.744          31.000
R09  20793036.781 8 111033632.782 8     -2514.879          51.000    20793037.727 8  86359535.076 8     -1956.017          48.000
R18  22870469.797 5 122084121.575 5     -2960.668          31.000    22870476.523 4  94954341.286 4     -2302.739          29.000
C05  39622829.594 5 206326469.893 5       -16.469          35.000
C20  24088620.438 8 125435799.757 8      2546.691          50.000
C29  21734897.070 6 113179300.137 6       639.230          36.000
E15  23245724.484 8 122157106.127 8      -671.625          51.000    23245727.828 8  93600977.774 8      -514.598          51.000
