     3.02           OBSERVATION DATA    M (MIXED)           RINEX VERSION / TYPE
SAVERINEX           SC600               20200506 135930 LCL PGM / RUN BY / DATE
       G = GPS       R = GLONASS       C = COMPASS          COMMENT
       S = SBAS      J = QZSS          E = GALILEO          COMMENT
BEAN                                                        MARKER NAME
1                                                           MARKER NUMBER
GEODETIC                                                    MARKER TYPE
Unige DICCA         GTER                                    OBSERVER / AGENCY
SC60291900056       SC600               2.12(191226)        REC # / TYPE / VERS
                    HEMA45          NONE                    ANT # / TYPE
  4509407.8091   693652.4678  4442337.6214                  APPROX POSITION XYZ
        0.0000        0.0000        0.0000                  ANTENNA: DELTA H/E/N
G    8 C1C L1C D1C S1C C2Y L2Y D2Y S2Y                      SYS / # / OBS TYPES
R    8 C1C L1C D1C S1C C2P L2P D2P S2P                      SYS / # / OBS TYPES
C    8 C1I L1I D1I S1I C7I L7I D7I S7I                      SYS / # / OBS TYPES
E    8 C1C L1C D1C S1C C7Q L7Q D7Q S7Q                      SYS / # / OBS TYPES
DBHZ                                                        COMMENT
     30.000                                                 INTERVAL
  2020    05    06    11    00    0.0000000     GPS         TIME OF FIRST OBS
  2020    05    06    11    59   30.0000000     GPS         TIME OF LAST OBS
     0                                                      RCV CLOCK OFFS APPL
G L1C  0.00000                                              SYS / PHASE SHIFT
G L2Y  0.00000                                              SYS / PHASE SHIFT
R L1C  0.00000                                              SYS / PHASE SHIFT
R L2P  0.25000                                              SYS / PHASE SHIFT
C L1I  0.00000                                              SYS / PHASE SHIFT
C L7I  0.00000                                              SYS / PHASE SHIFT
E L1C  0.50000                                              SYS / PHASE SHIFT
E L7Q -0.25000                                              SYS / PHASE SHIFT
 13 R01  1 R02 -4 R07  5 R08  6 R09 -2 R10 -5 R11  0 R12 -1 GLONASS SLOT / FRQ #
    R13 -2 R20  2 R21  4 R22 -3 R23  3                      GLONASS SLOT / FRQ #
 C1C   71.950 C2C   71.950 C2P   71.950                     GLONASS COD/PHS/BIS
    18                                                      LEAP SECONDS
*** Above antenna height is from mark to ANTENNA BOTTOM.    COMMENT
    17     4        0.0000        ANT MEASURE TYPE/HEIGT    COMMENT
    0.0000    0.0000    0.0458    0.0405    0.0000          COMMENT
                    BASE STATION                            COMMENT
                                                            END OF HEADER
> 2020 05 06 11 00  0.0000000  0 11        .000000000000
G24  24461058.531 6 128543656.559 6     -3697.773          36.000    24461057.523 6 100163890.345 6     -2881.385          36.000
G25  20249093.320 8 106409692.209 8      -633.734          51.000    20249094.508 8  82916650.318 8      -493.819          51.000
G29  20541711.719 8 107947417.889 8      1371.926          51.000    20541711.172 8  84114871.220 8      1069.033          51.000
G32  23170664.164 7 121762666.544 7     -2365.414          46.000    23170667.789 7  94879967.784 7     -1843.180          45.000
R12  20089505.742 8 107314521.222 8     -1817.703          51.000    20089508.711 8  83466854.471 8     -1413.769          49.000
R22  19870646.484 8 106070867.573 8     -1897.402          51.000    19870649.312 8  82499584.504 8     -1475.757          51.000
R23  20271199.531 8 108437236.562 8      3138.980          50.000    20271205.023 6  84340108.712 6      2441.429          38.000
C26  21385525.828 8 111360047.309 8      -442.477          51.000
C29  24560087.750 5 127890836.854 5     -2832.766          31.000
E02  23569476.844 8 123858424.963 8      -715.613          51.000    23569478.734 8  94904516.271 8      -548.336          51.000
E36  23948538.320 7 125850446.124 7        41.234          47.000    23948541.531 7  96430950.500 7        31.484          44.000
> 2020 05 06 11 00 30.0000000  0 12        .000000000000
G12  21647149.438 5 113756559.156 5     -2265.754          32.000
G24  24482168.281 6 128654590.191 6     -3698.652          36.000    24482168.875 5 100250332.076 5     -2882.067          35.000
G25  20252737.000 8 106428839.226 8      -643.211          51.000    20252738.305 8  82931570.085 8      -501.203          51.000
G29  20533918.680 8 107906465.048 8      1357.902          51.000    20533918.031 8  84082959.890 8      1058.103          51.000
G32  23184193.430 7 121833763.494 7     -2374.801          45.000    23184197.594 7  94935367.971 7     -1850.494          45.000
R12  20099750.797 8 107369251.637 8     -1831.355          51.000    20099754.930 8  83509422.565 8     -1424.388          50.000
R22  19881368.961 8 106128104.659 8     -1918.676          51.000    19881371.844 8  82544102.230 8     -1492.303          51.000
R23  20253642.984 8 108343320.245 8      3121.621          50.000    20253648.242 6  84267062.720 6      2427.931          39.000
C26  21388106.117 8 111373484.419 8      -453.719          51.000
C29  24576420.438 4 127975870.862 4     -2837.840          29.000
E02  23573575.203 8 123879962.567 8      -720.586          51.000    23573576.852 8  94921019.081 8      -552.131          51.000
E36  23948337.828 7 125849394.955 7        28.355          46.000    23948341.281 7  96430145.128 7        21.757          45.000
> 2020 05 06 11 01  0.0000000  0 11        .000000000000
G12  21660122.039 5 113824726.201 5     -2273.418          35.000    21660111.820 5  88694538.666 5     -1771.498          35.000
G24  24503305.352 5 128765669.419 5     -3702.168          35.000    24503307.750 5 100336887.245 5     -2884.806          34.000
G25  20256458.867 8 106448397.157 8      -655.695          51.000    20256460.242 8  82946810.031 8      -510.931          51.000
G29  20526230.523 8 107866063.448 8      1340.641          51.000    20526230.039 8  84051478.119 8      1044.655          51.000
G32  23197800.609 7 121905269.645 7     -2387.145          45.000    23197805.250 7  94991087.027 7     -1860.113          44.000
R12  20110098.242 8 107424526.373 8     -1848.406          51.000    20110102.844 8  83552414.032 8     -1437.649          50.000
R22  19892235.805 8 106186112.429 8     -1943.285          51.000    19892238.555 8  82589219.392 8     -1511.447          51.000
R23  20236208.367 8 108250056.460 8      3101.086          50.000    20236213.617 6  84194524.269 6      2411.959          39.000
C26  21390775.969 8 111387386.840 8      -468.109          51.000
E02  23577727.258 8 123901781.492 8      -728.785          51.000    23577728.688 8  94937737.492 8      -558.456          51.000
E36  23948235.547 7 125848858.875 7        12.449          46.000    23948239.742 7  96429734.399 7         9.521          47.000
> 2020 05 06 11 01 30.0000000  0 12        .000000000000
G02  23267316.055 6 122270522.019 6     -1413.156          37.000
G12  21673116.242 5 113893021.982 5     -2282.266          32.000    21673109.734 5  88747756.111 5     -1778.392          32.000
G24  24524440.047 6 128876733.395 6     -3706.078          36.000    24524443.727 6 100423430.583 6     -2887.853          36.000
G25  20260228.508 8 106468206.514 8      -668.176          51.000    20260229.945 8  82962245.882 8      -520.653          51.000
G29  20518617.141 8 107826054.074 8      1323.434          51.000    20518616.680 8  84020301.992 8      1031.250          51.000
G32  23211454.883 7 121977022.784 7     -2399.625          45.000    23211459.430 7  95046998.510 7     -1869.841          44.000
R12  20120517.555 8 107480183.069 8     -1865.230          51.000    20120522.062 8  83595702.560 8     -1450.735          49.000
R22  19903216.094 8 106244725.690 8     -1967.531          51.000    19903218.758 8  82634807.473 8     -1530.302          50.000
R23  20218865.711 8 108157286.037 8      3080.395          51.000    20218871.109 6  84122369.543 6      2395.862          38.000
C26  21393504.984 8 111401597.045 8      -482.410          51.000
E02  23581902.617 8 123923722.710 8      -736.992          51.000    23581903.977 8  94954549.604 8      -564.702          51.000
E36  23948201.109 7 125848678.305 7        -3.594          45.000    23948205.164 8  96429596.016 8        -2.649          48.000
> 2020 05 06 11 02  0.0000000  0 12        .000000000000
G02  23275424.242 6 122313138.265 6     -1427.586          37.000
G12  21686159.078 6 113961581.058 6     -2288.312          37.000    21686155.500 6  88801178.694 6     -1783.101          36.000
G24  24545596.859 5 128987981.467 5     -3706.996          35.000    24545602.438 5 100510065.915 5     -2888.568          34.000
G25  20264071.727 8 106488402.685 8      -678.301          51.000    20264073.227 8  82977983.158 8      -528.546          51.000
G29  20511103.961 8 107786572.325 8      1308.539          51.000    20511103.281 8  83989537.003 8      1019.641          51.000
G32  23225181.461 7 122049155.325 7     -2409.566          46.000    23225185.391 7  95103205.621 7     -1877.587          44.000
R12  20131033.969 8 107536359.033 8     -1879.832          51.000    20131038.148 8  83639394.960 8     -1462.092          49.000
R22  19914334.891 8 106304078.958 8     -1989.414          51.000    19914337.781 8  82680971.126 8     -1547.322          50.000
R23  20201641.445 8 108065149.743 8      3061.910          51.000    20201646.852 6  84050707.986 6      2381.486          37.000
C26  21396318.984 8 111416249.615 8      -494.516          51.000
E02  23586126.938 8 123945921.930 8      -743.051          51.000    23586128.203 8  94971559.395 8      -569.330          51.000
E36  23948259.602 7 125848988.316 7       -17.113          43.000    23948263.602 8  96429833.528 8       -13.170          49.000
> 2020 05 06 11 02 30.0000000  0 11        .000000000000
G12  21699240.680 5 114030331.447 5     -2295.367          35.000    21699238.648 5  88854750.438 5     -1788.601          35.000
G24  24566761.398 5 129099199.274 5     -3707.328          33.000
G25  20267974.938 8 106508914.138 8      -689.309          51.000    20267976.539 8  82993966.120 8      -537.124          51.000
G29  20503677.508 8 107747547.600 8      1292.801          51.000    20503676.906 8  83959128.146 8      1007.377          51.000
G32  23238966.086 7 122121592.928 7     -2419.918          47.000    23238969.375 7  95159650.446 7     -1885.650          43.000
R12  20141633.930 8 107592981.728 8     -1895.203          51.000    20141637.938 8  83683434.836 8     -1474.047          49.000
R22  19925578.055 8 106364096.015 8     -2011.934          51.000    19925580.812 8  82727651.064 8     -1564.837          50.000
R23  20184522.820 8 107973577.611 8      3042.609          51.000    20184528.117 6  83979485.240 6      2366.477          38.000
C26  21399204.445 8 111431274.195 8      -507.410          51.000
E02  23590386.680 8 123968308.163 8      -749.609          50.000    23590387.930 8  94988712.475 8      -574.418          51.000
E36  23948397.805 7 125849717.201 7       -31.512          44.000    23948402.578 8  96430392.039 8       -24.202          50.000
> 2020 05 06 11 03  0.0000000  0 12        .000000000000
G02  23291896.391 5 122399745.168 5     -1458.523          35.000
G12  21712364.172 6 114099297.173 6     -2302.598          37.000    21712363.703 6  88908489.961 6     -1794.235          37.000
G24  24587940.438 5 129210498.880 5     -3710.504          34.000    24587952.312 5 100683543.186 5     -2891.302          32.000
G25  20271942.812 8 106529765.418 8      -700.758          51.000    20271944.539 8  83010213.865 8      -546.045          51.000
G29  20496342.781 8 107709004.520 8      1276.746          51.000    20496342.312 8  83929094.597 8       994.867          51.000
G32  23252812.789 8 122194357.341 8     -2430.949          48.000    23252815.672 7  95216349.957 7     -1894.249          44.000
R12  20152322.258 8 107650075.693 8     -1910.996          51.000    20152326.148 8  83727841.231 8     -1486.330          49.000
R22  19936949.703 8 106424798.863 8     -2034.781          50.000    19936952.242 8  82774864.362 8     -1582.611          50.000
R23  20167515.664 8 107882597.721 8      3022.781          51.000    20167520.539 6  83908723.148 6      2351.055          39.000
C26  21402166.195 8 111446695.658 8      -520.625          51.000
E02  23594686.828 8 123990906.514 8      -756.898          51.000    23594688.242 8  95006028.061 8      -579.997          51.000
E36  23948620.711 7 125850889.464 7       -46.512          46.000    23948626.000 8  96431290.235 8       -35.636          51.000
> 2020 05 06 11 03 30.0000000  0 13        .000000000000
G02  23300239.453 5 122443590.754 5     -1474.281          34.000
G12  21725504.078 5 114168348.352 5     -2310.293          31.000    21725502.547 4  88962296.024 4     -1800.231          29.000
G24  24609107.633 5 129321732.801 5     -3713.641          34.000
G25  20275950.656 8 106550826.743 8      -712.945          51.000    20275952.320 8  83026625.257 8      -555.542          51.000
G29  20489075.070 8 107670813.493 8      1259.828          51.000    20489074.930 8  83899335.377 8       981.684          51.000
G32  23266696.438 8 122267315.967 8     -2442.562          48.000    23266699.508 7  95273200.805 7     -1903.295          44.000
R12  20163074.023 8 107707509.142 8     -1927.504          51.000    20163077.930 8  83772511.661 8     -1499.170          49.000
R22  19948424.570 8 106486052.476 8     -2058.430          51.000    19948427.289 8  82822506.081 8     -1601.001          50.000
R23  20150595.352 8 107792081.120 8      3001.938          51.000    20150599.477 6  83838321.380 6      2334.843          40.000
C26  21405179.562 8 111462385.856 8      -534.773          51.000
C29  24675163.039 5 128490037.418 5     -2875.559          32.000
E02  23599003.016 8 124013587.586 8      -764.703          51.000    23599004.469 8  95023407.037 8      -585.911          51.000
E36  23948903.523 7 125852375.004 7       -61.832          47.000    23948908.906 8  96432428.493 8       -47.405          51.000
> 2020 05 06 11 04  0.0000000  0 12        .000000000000
G12  21738715.852 5 114237777.108 5     -2320.129          34.000    21738715.258 5  89016396.346 5     -1807.893          34.000
G24  24630321.664 5 129433210.221 5     -3719.715          33.000    24630322.188 4 100857051.012 4     -2898.479          29.000
G25  20280054.203 8 106572391.179 8      -726.926          51.000    20280055.922 8  83043428.696 8      -566.439          51.000
G29  20481930.586 8 107633268.453 8      1240.953          51.000    20481930.539 8  83870079.510 8       966.976          51.000
G32  23280672.117 8 122340758.947 8     -2455.820          48.000    23280675.711 7  95330429.051 7     -1913.626          45.000
R12  20173945.031 8 107765579.439 8     -1946.016          51.000    20173948.633 8  83817677.427 8     -1513.568          48.000
R22  19960057.742 8 106548151.231 8     -2083.848          49.000    19960060.398 8  82870805.082 8     -1620.770          50.000
R23  20133817.094 8 107702328.977 8      2979.176          51.000    20133821.422 6  83768514.191 6      2317.137          40.000
C26  21408300.391 8 111478635.648 8      -550.754          51.000
C29  24691747.836 5 128576401.770 5     -2884.516          32.000
E02  23603390.977 8 124036644.967 8      -774.688          51.000    23603392.352 8  95041074.366 8      -593.673          51.000
E36  23949302.336 7 125854466.662 7       -79.672          47.000    23949306.898 8  96434031.192 8       -61.098          51.000
> 2020 05 06 11 04 30.0000000  0 11        .000000000000
G24  24651537.469 6 129544702.904 6     -3717.172          36.000    24651536.328 5 100943934.114 5     -2896.498          35.000
G25  20284219.266 8 106594278.520 8      -734.273          51.000    20284221.094 8  83060483.753 8      -572.161          51.000
G29  20474874.820 8 107596188.995 8      1228.801          51.000    20474874.852 8  83841186.418 8       957.507          51.000
G32  23294705.133 7 122414503.255 7     -2462.484          46.000    23294708.953 7  95387892.102 7     -1918.822          45.000
R12  20184901.102 8 107824103.477 8     -1957.805          51.000    20184904.422 8  83863196.091 8     -1522.740          48.000
R22  19971814.305 8 106610908.695 8     -2102.297          50.000    19971817.453 8  82919616.454 8     -1635.120          50.000
R23  20117147.688 8 107613160.863 8      2963.043          51.000    20117152.477 6  83699161.204 6      2304.586          41.000
C26  21411494.219 8 111495266.950 8      -560.148          51.000
C29  24708362.711 5 128662923.539 5     -2885.762          34.000
E02  23607816.133 8 124059898.900 8      -777.828          51.000    23607817.758 8  95058892.272 8      -596.007          51.000
E36  23949781.945 8 125856983.965 8       -90.418          48.000    23949785.633 8  96435960.033 8       -69.254          51.000
> 2020 05 06 11 05  0.0000000  0 11        .000000000000
G24  24672765.609 5 129656258.865 5     -3719.766          35.000    24672767.672 5 101030860.747 5     -2898.522          31.000
G25  20288447.766 8 106616499.062 8      -746.637          51.000    20288449.523 8  83077798.447 8      -581.795          51.000
G29  20467909.531 8 107559585.884 8      1211.645          51.000    20467909.758 8  83812664.501 8       944.139          51.000
G32  23308796.656 7 122488556.314 7     -2474.180          43.000    23308800.461 7  95445595.748 7     -1927.932          43.000
R12  20195944.008 8 107883091.461 8     -1974.449          51.000    20195947.125 8  83909075.586 8     -1535.686          48.000
R22  19983695.664 8 106674332.045 8     -2125.664          49.000    19983698.508 8  82968945.719 8     -1653.294          49.000
R23  20100590.289 8 107524590.105 8      2941.898          51.000    20100595.367 6  83630272.837 6      2288.143          41.000
C26  21414763.398 8 111512290.424 8      -574.477          51.000
C29  24725009.570 5 128749611.115 5     -2892.609          34.000
E02  23612280.555 8 124083360.200 8      -785.906          51.000    23612282.578 8  95076869.113 8      -602.170          51.000
E36  23950344.344 8 125859937.031 8      -106.035          49.000    23950347.703 8  96438222.771 8       -81.299          51.000
> 2020 05 06 11 05 30.0000000  0 11        .000000000000
G24  24694003.750 5 129767879.064 5     -3721.566          35.000    24694018.938 5 101117881.801 5     -2899.940          32.000
G25  20292739.094 8 106639050.190 8      -757.930          51.000    20292740.812 8  83095370.733 8      -590.595          51.000
G29  20461034.555 8 107523456.835 8      1195.680          51.000    20461034.469 8  83784511.992 8       931.698          51.000
G32  23322946.062 7 122562912.621 7     -2484.246          45.000    23322949.555 7  95503535.715 7     -1935.773          45.000
R12  20207073.250 8 107942540.715 8     -1990.066          51.000    20207075.773 8  83955313.863 8     -1547.829          48.000
R22  19995700.922 8 106738415.446 8     -2147.762          48.000    19995703.492 8  83018788.361 8     -1670.481          50.000
R23  20084144.898 8 107436617.116 8      2921.652          51.000    20084149.523 6  83561849.389 6      2272.396          40.000
C26  21418107.391 8 111529703.934 8      -587.676          51.000
C29  24741688.141 5 128836460.179 5     -2898.594          33.000
E02  23616784.117 8 124107026.786 8      -793.105          51.000    23616786.180 8  95095003.286 8      -607.707          51.000
E36  23950989.195 8 125863323.037 8      -120.840          49.000    23950992.008 8  96440817.239 8       -92.648          49.000
> 2020 05 06 11 06  0.0000000  0 12        .000000000000
G12  21791952.422 6 114517498.145 6     -2346.348          37.000    21791958.805 6  89234398.386 6     -1828.326          36.000
G24  24715254.742 5 129879557.839 5     -3724.488          32.000    24715255.664 5 101204838.541 5     -2902.199          32.000
G25  20297098.352 8 106661958.024 8      -769.961          51.000    20297099.984 8  83113220.981 8      -599.970          51.000
G29  20454255.062 8 107487828.380 8      1178.828          51.000    20454254.055 8  83756749.563 8       918.567          51.000
G32  23337157.938 7 122637595.499 7     -2495.336          47.000    23337161.250 7  95561730.164 7     -1944.418          45.000
R12  20218293.555 8 108002477.410 8     -2006.551          51.000    20218295.992 8  84001931.260 8     -1560.654          48.000
R22  20007833.586 8 106803182.015 8     -2170.727          48.000    20007836.773 8  83069162.377 8     -1688.343          49.000
R23  20067816.789 8 107349271.072 8      2900.469          51.000    20067820.812 6  83493913.587 6      2255.920          41.000
C26  21421531.328 8 111547533.854 8      -601.770          51.000
C29  24758401.898 5 128923494.755 5     -2905.258          30.000
E02  23621331.820 8 124130925.081 8      -801.055          51.000    23621333.906 8  95113314.949 8      -613.873          51.000
E36  23951721.055 8 125867167.813 8      -136.395          49.000    23951723.547 8  96443763.233 8      -104.600          48.000
> 2020 05 06 11 06 30.0000000  0 11        .000000000000
G12  21805381.648 6 114588061.710 6     -2354.160          39.000    21805387.445 6  89289382.839 6     -1834.411          39.000
G24  24736532.086 5 129991378.022 5     -3726.695          35.000    24736531.719 5 101291971.017 5     -2903.918          33.000
G25  20301538.711 8 106685292.042 8      -781.895          51.000    20301540.250 8  83131403.310 8      -609.268          51.000
G29  20447584.047 8 107452770.329 8      1162.137          51.000    20447582.695 8  83729431.612 8       905.564          51.000
G32  23351444.742 7 122712671.507 7     -2506.082          47.000    23351448.078 7  95620230.891 7     -1952.794          45.000
R12  20229618.086 8 108062971.946 8     -2022.820          51.000    20229620.641 7  84048982.566 7     -1573.305          47.000
R22  20020107.383 8 106868698.966 8     -2193.289          48.000    20020109.734 8  83120119.957 8     -1705.895          48.000
R23  20051619.211 8 107262625.847 8      2879.543          50.000    20051623.438 7  83426522.891 7      2239.648          42.000
C26  21425048.758 8 111565849.347 8      -615.680          51.000
E02  23625937.016 8 124155124.987 8      -808.668          51.000    23625939.203 8  95131857.690 8      -619.647          51.000
E36  23952553.141 8 125871540.457 8      -151.469          49.000    23952556.156 7  96447113.699 7      -116.028          47.000
> 2020 05 06 11 07  0.0000000  0 11        .000000000000
G12  21818827.211 6 114658720.983 6     -2358.738          40.000    21818827.281 6  89344442.086 6     -1837.975          40.000
G24  24757797.008 6 130103135.121 6     -3726.102          36.000    24757799.156 6 101379054.380 6     -2903.459          37.000
G25  20306021.633 8 106708850.319 8      -791.039          51.000    20306023.219 8  83149760.410 8      -616.394          51.000
G29  20440982.797 8 107418080.932 8      1148.141          50.000    20440981.719 8  83702400.912 8       894.655          50.000
G32  23365767.352 7 122787935.847 7     -2513.867          47.000    23365770.883 7  95678878.383 7     -1958.858          44.000
R12  20241008.195 8 108123818.855 8     -2036.113          51.000    20241011.133 8  84096307.944 8     -1583.641          48.000
R22  20032482.188 7 106934757.713 7     -2212.953          47.000    20032485.289 8  83171499.023 8     -1721.186          49.000
R23  20035514.227 8 107176478.593 8      2861.238          49.000    20035519.711 7  83359519.521 7      2225.408          43.000
C26  21428621.250 8 111584450.807 8      -626.746          51.000
E02  23630561.234 8 124179425.223 8      -813.691          51.000    23630563.562 8  95150477.314 8      -623.475          51.000
E36  23953447.484 8 125876238.887 8      -164.043          49.000    23953450.445 7  96450713.785 7      -125.674          44.000
> 2020 05 06 11 07 30.0000000  0 11        .000000000000
G12  21832316.023 6 114729607.771 6     -2367.582          39.000    21832317.789 6  89399678.453 6     -1844.869          39.000
G24  24779075.219 5 130214960.015 5     -3729.387          34.000    24779080.109 5 101466190.569 5     -2906.022          35.000
G25  20310572.383 8 106732764.947 8      -803.727          51.000    20310573.789 8  83168395.186 8      -626.280          51.000
G29  20434476.922 8 107383892.318 8      1130.602          51.000    20434475.797 8  83675760.408 8       880.985          51.000
G32  23380150.336 8 122863517.703 8     -2525.406          48.000    23380154.141 7  95737773.312 7     -1967.849          44.000
R12  20252489.555 8 108185152.039 8     -2053.090          51.000    20252493.227 8  84144011.497 8     -1596.848          48.000
R22  20044983.320 7 107001489.471 7     -2236.211          46.000    20044986.609 8  83223401.493 8     -1739.275          48.000
R23  20019528.133 8 107090966.688 8      2839.090          49.000    20019534.711 7  83293010.228 7      2208.181          43.000
C26  21432273.820 8 111603469.543 8      -641.512          51.000
E02  23635229.742 8 124203958.381 8      -822.156          51.000    23635232.031 8  95169275.449 8      -629.937          51.000
E36  23954428.531 7 125881394.785 7      -180.012          47.000    23954430.570 6  96454664.388 6      -137.922          41.000
> 2020 05 06 11 08  0.0000000  0 12        .000000000000
G02  23379484.234 5 122859987.168 5     -1610.066          35.000
G12  21845844.383 7 114800700.254 7     -2374.047          42.000    21845847.523 7  89455075.157 7     -1849.907          42.000
G24  24800362.062 5 130326829.737 5     -3729.621          31.000    24800369.406 5 101553361.656 5     -2906.198          31.000
G25  20315187.016 8 106757014.767 8      -814.859          51.000    20315188.258 8  83187291.176 8      -634.955          51.000
G29  20428062.172 8 107350183.967 8      1114.566          49.000    20428061.320 8  83649494.134 8       868.493          49.000
G32  23394589.156 8 122939393.000 8     -2534.938          49.000    23394593.117 7  95796896.883 7     -1975.276          43.000
R12  20264058.359 8 108246949.769 8     -2068.746          51.000    20264062.023 8  84192076.390 8     -1609.025          48.000
R22  20057605.547 7 107068868.897 7     -2257.691          46.000    20057608.570 7  83275807.711 7     -1755.985          47.000
R23  20003657.688 8 107006071.299 8      2818.516          50.000    20003664.953 7  83226980.460 7      2192.179          44.000
C26  21436002.680 8 111622885.004 8      -654.758          51.000
E02  23639938.727 8 124228703.717 8      -829.461          51.000    23639940.719 8  95188236.179 8      -635.534          51.000
E36  23955492.500 7 125886986.744 7      -194.734          47.000    23955494.625 6  96458949.100 6      -149.389          37.000
> 2020 05 06 11 08 30.0000000  0 12        .000000000000
G02  23388717.047 5 122908497.917 5     -1623.477          32.000
G12  21859414.430 6 114872011.175 6     -2379.793          39.000    21859415.469 6  89510642.095 6     -1854.384          39.000
G24  24821662.453 5 130438730.154 5     -3731.789          31.000    24821671.867 5 101640596.155 5     -2907.888          30.000
G25  20319867.859 8 106781612.677 8      -825.117          51.000    20319869.109 8  83206458.377 8      -642.952          51.000
G29  20421740.695 8 107316968.635 8      1099.449          49.000    20421740.469 8  83623612.062 8       856.714          49.000
G32  23409085.562 8 123015571.836 8     -2543.672          48.000    23409089.445 7  95856256.982 7     -1982.082          44.000
R12  20275716.398 8 108309224.822 8     -2083.293          51.000    20275720.148 8  84240512.524 8     -1620.342          48.000
R22  20070351.031 7 107136905.836 7     -2278.180          45.000    20070354.203 7  83328725.343 7     -1771.918          46.000
R23  19987905.859 8 106921808.637 8      2798.750          50.000    19987913.305 7  83161442.846 7      2176.806          42.000
C26  21439810.219 8 111642710.397 8      -667.156          51.000
E02  23644690.773 8 124253674.571 8      -835.609          51.000    23644692.156 8  95207369.680 8      -640.269          51.000
E36  23956642.156 7 125893027.402 7      -208.254          45.000    23956645.859 5  96463482.518 5      -160.044          33.000
> 2020 05 06 11 09  0.0000000  0 11        .000000000000
G12  21872975.812 6 114943275.168 6     -2389.539          41.000    21872974.734 6  89566172.493 6     -1861.975          41.000
G25  20324564.500 8 106806293.644 8      -838.961          51.000    20324565.750 8  83225690.293 8      -653.736          51.000
G29  20415463.500 8 107283981.941 8      1080.809          51.000    20415463.047 8  83597908.146 8       842.189          51.000
G32  23423588.492 7 123091786.285 7     -2556.051          46.000    23423592.273 7  95915644.822 7     -1991.728          45.000
R12  20287413.336 8 108371707.713 8     -2101.504          51.000    20287417.398 8  84289110.308 8     -1634.503          49.000
R22  20083168.648 7 107205327.645 7     -2302.305          44.000    20083171.766 7  83381942.323 7     -1790.681          45.000
R23  19972222.594 8 106837911.437 8      2775.219          51.000    19972229.383 6  83096189.457 6      2158.503          40.000
C26  21443645.953 8 111662683.526 8      -683.074          51.000
C29  24859310.961 5 129448953.193 5     -2938.254          30.000
E02  23649435.305 8 124278606.473 8      -845.297          51.000    23649436.133 8  95226473.324 8      -647.764          51.000
E36  23957825.930 6 125899251.375 6      -225.465          41.000    23957833.359 5  96468251.336 5      -172.588          35.000
> 2020 05 06 11 09 30.0000000  0 11        .000000000000
G12  21886675.109 6 115015264.655 6     -2396.348          39.000    21886673.516 6  89622268.228 6     -1867.284          39.000
G25  20329424.211 8 106831831.315 8      -850.066          51.000    20329425.547 8  83245589.783 8      -662.389          51.000
G29  20409377.227 8 107251996.963 8      1064.871          51.000    20409376.414 8  83572984.808 8       829.770          51.000
G32  23438244.727 7 123168806.959 7     -2565.398          46.000    23438248.492 7  95975660.908 7     -1999.012          44.000
R12  20299296.516 8 108435184.274 8     -2116.859          51.000    20299300.383 8  84338480.938 8     -1646.446          49.000
R22  20096205.258 7 107274916.642 7     -2323.379          46.000    20096207.953 7  83436067.097 7     -1807.072          45.000
R23  19956755.062 8 106755169.791 8      2754.527          50.000    19956761.102 6  83031834.888 6      2142.410          39.000
C26  21447657.117 8 111683571.236 8      -696.281          51.000
C29  24876286.047 5 129537367.612 5     -2943.766          31.000
E02  23654319.688 8 124304273.406 8      -852.344          51.000    23654320.258 8  95246140.171 8      -653.142          51.000
E36  23959192.031 6 125906431.863 6      -240.078          40.000    23959199.992 6  96473753.208 6      -184.040          37.000
> 2020 05 06 11 10  0.0000000  0 11        .000000000000
G12  21900348.562 6 115087119.011 6     -2402.129          38.000    21900347.586 6  89678258.576 6     -1871.789          37.000
G25  20334283.211 8 106857365.391 8      -860.297          51.000    20334284.695 8  83265486.454 8      -670.361          51.000
G29  20403317.805 8 107220154.206 8      1049.824          51.000    20403317.125 8  83548172.317 8       818.045          51.000
G32  23452890.438 7 123245770.805 7     -2573.754          47.000    23452894.008 7  96035632.704 7     -2005.523          42.000
R12  20311202.164 8 108498779.771 8     -2131.258          51.000    20311205.547 8  84387944.082 8     -1657.645          49.000
R22  20109296.430 7 107344795.814 7     -2343.414          46.000    20109299.023 7  83490417.583 7     -1822.655          44.000
R23  19941340.008 8 106672710.889 8      2734.488          50.000    19941345.648 6  82967700.231 6      2126.827          38.000
C26  21451680.219 8 111704521.545 8      -708.566          51.000
C29  24893226.594 5 129625596.133 5     -2946.570          34.000
E02  23659180.406 8 124329815.714 8      -858.582          51.000    23659180.781 8  95265711.541 8      -657.836          51.000
E36  23960576.500 7 125913708.317 7      -253.348          42.000    23960582.773 6  96479328.597 6      -194.279          37.000
> 2020 05 06 11 10 30.0000000  0 11        .000000000000
G12  21914080.203 6 115159277.694 6     -2408.715          36.000    21914079.008 6  89734486.082 6     -1876.918          36.000
G25  20339225.250 8 106883335.541 8      -870.609          51.000    20339226.688 8  83285722.944 8      -678.397          51.000
G29  20397369.172 8 107188893.527 8      1034.574          51.000    20397368.914 8  83523813.370 8       806.162          51.000
G32  23467608.547 7 123323114.560 7     -2582.199          46.000    23467611.742 7  96095900.515 7     -2012.106          43.000
R12  20323213.336 8 108562940.821 8     -2145.852          51.000    20323216.797 8  84437847.078 8     -1668.999          49.000
R22  20122524.633 7 107415408.040 7     -2363.605          47.000    20122526.852 7  83545338.194 7     -1838.363          43.000
R23  19926062.102 8 106590985.043 8      2714.180          50.000    19926067.648 6  82904135.708 6      2111.029          38.000
C26  21455799.031 8 111725970.462 8      -721.051          51.000
C29  24910215.898 5 129714072.874 5     -2951.438          35.000
E02  23664101.109 8 124355673.488 8      -864.945          51.000    23664101.008 8  95285524.651 8      -662.762          51.000
E36  23962062.531 7 125921520.058 7      -266.934          42.000    23962067.320 6  96485314.099 6      -204.713          41.000
> 2020 05 06 11 11  0.0000000  0 10        .000000000000
G25  20344222.125 8 106909593.834 8      -881.176          51.000    20344223.516 8  83306183.954 8      -686.630          51.000
G29  20391503.133 8 107158066.978 8      1019.238          51.000    20391503.086 8  83499792.694 8       794.212          51.000
G32  23482370.102 7 123400687.405 7     -2590.570          45.000    23482373.062 7  96156346.832 7     -2018.629          44.000
R12  20335301.828 8 108627516.894 8     -2160.531          51.000    20335305.250 8  84488072.891 8     -1680.413          48.000
R22  20135861.023 7 107486599.576 7     -2383.738          46.000    20135863.258 6  83600709.395 6     -1854.019          41.000
R23  19910893.703 8 106509844.161 8      2693.875          51.000    19910898.961 6  82841026.156 6      2095.236          39.000
C26  21459985.234 8 111747771.803 8      -733.578          51.000
C29  24927224.672 5 129802649.348 5     -2955.023          35.000
E02  23669053.602 8 124381699.243 8      -871.375          51.000    23669053.203 8  95305466.434 8      -667.755          51.000
E36  23963622.914 7 125929718.703 7      -280.840          44.000    23963626.992 7  96491596.149 7      -215.201          43.000
> 2020 05 06 11 11 30.0000000  0 10        .000000000000
G25  20349292.648 8 106936239.720 8      -893.574          51.000    20349293.930 8  83326946.967 8      -696.292          51.000
G29  20385738.773 8 107127774.406 8      1001.984          51.000    20385738.633 8  83476188.099 8       780.770          51.000
G32  23497193.438 7 123478585.811 7     -2600.914          43.000    23497196.656 7  96217046.860 7     -2026.683          43.000
R12  20347486.789 8 108692608.380 8     -2177.172          51.000    20347490.406 8  84538699.580 8     -1693.359          48.000
R22  20149324.344 7 107558467.939 7     -2405.840          45.000    20149326.227 6  83656606.989 6     -1871.209          40.000
R23  19895854.172 8 106429392.400 8      2671.316          51.000    19895859.367 6  82778452.582 6      2077.691          41.000
C26  21464257.977 8 111770024.419 8      -748.250          50.000
C29  24944271.742 5 129891422.369 5     -2960.961          35.000
E02  23674056.969 8 124407992.903 8      -879.816          51.000    23674056.586 8  95325613.477 8      -674.187          51.000
E36  23965275.734 7 125938403.360 7      -296.531          46.000    23965279.484 7  96498250.589 7      -227.242          45.000
> 2020 05 06 11 12  0.0000000  0 11        .000000000000
G12  21955502.938 6 115376957.269 6     -2430.016          36.000    21955500.055 6  89904112.027 6     -1893.516          36.000
G25  20354432.148 8 106963248.267 8      -905.785          51.000    20354433.430 8  83347992.559 8      -705.807          51.000
G29  20380071.328 8 107097990.687 8       984.777          51.000    20380070.891 8  83452980.022 8       767.359          51.000
G32  23512073.516 7 123556781.971 7     -2610.977          44.000    23512077.117 7  96277978.911 7     -2034.527          44.000
R12  20359763.820 8 108758189.715 8     -2193.727          51.000    20359767.469 8  84589707.252 8     -1706.232          48.000
R22  20162909.328 7 107630984.174 7     -2427.484          47.000    20162911.570 6  83713008.531 6     -1888.046          40.000
R23  19880939.219 8 106349606.810 8      2648.906          51.000    19880944.414 6  82716397.134 6      2060.260          41.000
C26  21468612.953 8 111792703.946 8      -762.672          51.000
C29  24961352.195 5 129980365.574 5     -2966.656          33.000
E02  23679106.656 8 124434530.060 8      -888.074          51.000    23679106.492 8  95345947.105 8      -680.452          51.000
E36  23967016.047 7 125947548.661 7      -312.016          45.000    23967019.398 7  96505258.006 7      -239.008          45.000
> 2020 05 06 11 12 30.0000000  0 12        .000000000000
G12  21969387.781 6 115449913.645 6     -2435.449          37.000    21969375.734 5  89960961.095 5     -1897.759          33.000
G14  23047583.875 6 121115862.745 6     -1256.422          36.000
G25  20359626.992 8 106990547.535 8      -915.902          51.000    20359628.445 8  83369264.697 8      -713.687          51.000
G29  20374486.836 8 107068644.072 8       969.855          51.000    20374485.961 8  83430112.540 8       755.732          51.000
G32  23526996.164 7 123635201.010 7     -2618.879          45.000    23527000.164 7  96339084.647 7     -2040.685          44.000
R12  20372119.062 8 108824187.328 8     -2207.980          51.000    20372122.328 8  84641038.677 8     -1717.318          48.000
R22  20176601.477 7 107704072.038 7     -2446.816          44.000    20176602.945 6  83769854.576 6     -1903.082          37.000
R23  19866135.523 8 106270416.398 8      2628.484          50.000    19866140.688 6  82654804.613 6      2044.380          41.000
C26  21473036.539 8 111815739.402 8      -774.875          51.000
C29  24978450.938 5 130069405.790 5     -2970.137          32.000
E02  23684189.180 8 124461239.204 8      -894.309          51.000    23684189.148 8  95366412.533 8      -685.199          51.000
E36  23968830.680 8 125957082.243 8      -325.371          48.000    23968833.180 7  96512562.950 7      -249.406          45.000
> 2020 05 06 11 13  0.0000000  0 12        .000000000000
G12  21983310.617 6 115523073.910 6     -2441.969          38.000    21983301.352 6  90017968.985 6     -1902.839          38.000
G14  23054799.977 5 121153788.742 5     -1272.285          35.000
G25  20364886.102 8 107018185.013 8      -927.039          51.000    20364887.539 8  83390800.413 8      -722.365          51.000
G29  20368994.562 8 107039781.993 8       953.871          51.000    20368993.328 8  83407622.608 8       743.276          51.000
G32  23541969.961 7 123713887.491 7     -2627.582          45.000    23541974.445 7  96400398.761 7     -2047.467          44.000
R12  20384561.156 8 108890648.945 8     -2223.254          51.000    20384564.328 8  84692730.994 8     -1729.197          49.000
R22  20190408.148 7 107777775.742 7     -2467.152          45.000    20190409.500 6  83827179.680 6     -1918.896          36.000
R23  19851452.172 8 106191872.620 8      2607.129          51.000    19851457.547 6  82593715.043 6      2027.767          40.000
C26  21477537.703 8 111839178.130 8      -788.129          51.000
C29  24995576.445 5 130158588.448 5     -2975.598          30.000
E02  23689313.531 8 124488168.294 8      -901.375          51.000    23689313.805 8  95387046.498 8      -690.685          51.000
E36  23970728.141 7 125967051.137 7      -339.582          47.000    23970730.266 7  96520201.420 7      -260.151          46.000
> 2020 05 06 11 13 30.0000000  0 11        .000000000000
G12  21997281.828 6 115596494.064 6     -2453.188          40.000    21997277.359 6  90075179.440 6     -1911.578          39.000
G14  23062107.273 5 121192216.420 5     -1292.617          33.000
G25  20370220.250 8 107046216.984 8      -942.410          51.000    20370221.812 8  83412643.487 8      -734.349          51.000
G29  20363605.211 8 107011461.172 8       933.594          51.000    20363603.969 8  83385554.444 8       727.476          51.000
G32  23557004.875 7 123792894.858 7     -2640.383          46.000    23557009.508 7  96461962.913 7     -2057.441          43.000
R12  20397100.570 8 108957631.790 8     -2242.910          51.000    20397103.680 8  84744828.738 8     -1744.486          48.000
R22  20204340.875 7 107852149.106 7     -2491.824          44.000    20204343.289 6  83885025.605 6     -1938.086          36.000
R23  19836901.234 8 106114035.008 8      2581.297          51.000    19836906.203 6  82533174.687 6      2007.675          39.000
C26  21482127.094 8 111863076.349 8      -805.754          50.000
E02  23694490.477 8 124515374.165 8      -912.977          51.000    23694491.117 8  95407892.545 8      -699.521          51.000
E36  23972718.742 7 125977511.303 7      -358.258          47.000    23972720.914 7  96528216.356 7      -274.518          47.000
> 2020 05 06 11 14  0.0000000  0 10        .000000000000
G12  22011289.742 6 115670106.731 6     -2455.195          40.000    22011288.047 6  90132539.831 6     -1913.142          40.000
G25  20375616.766 8 107074576.332 8      -948.988          51.000    20375618.406 8  83434741.662 8      -739.471          51.000
G29  20358305.914 8 106983614.611 8       922.102          51.000    20358304.789 8  83363855.835 8       718.521          51.000
G32  23572087.469 7 123872153.066 7     -2644.121          46.000    23572091.516 7  96523722.535 7     -2060.354          43.000
R12  20409724.367 8 109025066.788 8     -2253.473          51.000    20409727.523 8  84797278.171 8     -1752.701          48.000
R22  20218385.094 7 107927120.453 7     -2507.195          44.000    20218389.312 5  83943336.714 5     -1950.038          33.000
R23  19822470.336 8 106036837.912 8      2564.316          51.000    19822474.383 6  82473132.467 6      1994.465          38.000
C26  21486792.180 8 111887367.812 8      -814.629          50.000
E02  23699707.516 8 124542790.182 8      -915.598          51.000    23699708.516 8  95428899.600 8      -701.571          51.000
E36  23974789.852 7 125988395.236 7      -368.062          47.000    23974792.430 7  96536555.968 7      -282.022          47.000
> 2020 05 06 11 14 30.0000000  0 10        .000000000000
G12  22025327.727 6 115743876.034 6     -2462.840          39.000    22025327.086 6  90190022.386 6     -1919.099          38.000
G25  20381068.875 8 107103227.850 8      -961.293          51.000    20381070.594 8  83457067.507 8      -749.062          51.000
G29  20353090.086 8 106956206.897 8       904.832          51.000    20353089.086 8  83342499.177 8       705.064          51.000
G32  23587210.430 7 123951623.979 7     -2653.918          45.000    23587213.562 7  96585647.870 7     -2067.991          44.000
R12  20422426.227 8 109092917.959 8     -2270.086          51.000    20422429.562 8  84850051.275 8     -1765.625          48.000
R22  20232534.727 7 108002650.504 7     -2528.547          44.000    20232536.453 5  84002082.203 5     -1966.651          32.000
R23  19808152.664 8 105960247.852 8      2541.367          51.000    19808156.180 6  82413562.439 6      1976.622          38.000
C26  21491526.312 8 111912017.873 8      -829.078          51.000
E02  23704958.102 8 124570381.584 8      -923.984          51.000    23704959.398 8  95450041.063 8      -707.955          51.000
E36  23976934.781 7 125999667.172 7      -383.531          46.000    23976937.484 7  96545192.894 7      -293.925          46.000
> 2020 05 06 11 15  0.0000000  0 10        .000000000000
G12  22039407.000 5 115817867.534 5     -2469.270          34.000    22039407.602 5  90247678.040 5     -1924.109          33.000
G25  20386589.180 8 107132237.232 8      -972.477          51.000    20386591.117 8  83479672.209 8      -757.774          51.000
G29  20347970.703 8 106929303.953 8       888.855          51.000    20347969.516 8  83321535.854 8       692.618          51.000
G32  23602385.656 7 124031370.390 7     -2662.418          43.000    23602388.062 7  96647787.862 7     -2074.614          42.000
R12  20435218.289 8 109161251.419 8     -2285.238          51.000    20435221.484 8  84903199.477 8     -1777.408          48.000
R22  20246800.352 7 108078802.072 7     -2548.203          43.000    20246802.562 4  84061311.248 4     -1981.936          28.000
R23  19793960.945 8 105884334.275 8      2519.695          50.000    19793965.180 6  82354518.564 6      1959.763          40.000
C26  21496341.812 8 111937091.938 8      -842.340          51.000
E02  23710254.539 8 124598214.574 8      -931.262          51.000    23710256.188 8  95471367.660 8      -713.591          51.000
E36  23979165.977 7 126011392.385 7      -397.977          44.000    23979168.383 7  96554177.158 7      -304.832          46.000
> 2020 05 06 11 15 30.0000000  0 10        .000000000000
G12  22053524.305 5 115892055.689 5     -2475.410          32.000    22053524.164 5  90305486.831 5     -1928.900          32.000
G25  20392172.797 8 107161579.233 8      -983.500          51.000    20392174.555 8  83502536.123 8      -766.361          51.000
G29  20342942.516 8 106902880.426 8       872.906          51.000    20342941.445 8  83300946.095 8       680.187          51.000
G32  23617607.523 6 124111363.969 6     -2670.395          41.000    23617609.953 6  96710120.497 6     -2080.830          41.000
R12  20448095.852 8 109230041.143 8     -2300.500          51.000    20448099.195 8  84956702.564 8     -1789.278          48.000
R22  20261177.281 7 108155546.328 7     -2567.910          44.000    20261179.500 4  84120984.605 4     -1997.263          25.000
R23  19779890.992 8 105809073.828 8      2497.902          50.000    19779896.695 6  82295982.714 6      1942.816          40.000
C26  21501233.812 8 111962565.248 8      -855.684          51.000
E02  23715592.203 8 124626264.319 8      -938.395          51.000    23715593.992 8  95492860.323 8      -718.994          51.000
E36  23981478.719 7 126023545.129 7      -412.090          43.000    23981480.562 7  96563488.975 7      -315.664          46.000
> 2020 05 06 11 16  0.0000000  0  9        .000000000000
G25  20397823.430 8 107191273.434 8      -995.836          51.000    20397825.102 8  83525674.457 8      -775.976          51.000
G29  20338009.211 8 106876956.215 8       855.738          51.000    20338008.664 8  83280745.426 8       666.809          51.000
G32  23632879.695 7 124191621.542 7     -2679.797          42.000    23632882.578 7  96772658.864 7     -2088.156          43.000
R12  20461062.008 8 109299306.547 8     -2316.906          51.000    20461065.867 8  85010575.633 8     -1802.038          48.000
R22  20275667.852 7 108232899.222 7     -2588.664          43.000
R23  19765947.945 8 105734488.932 8      2474.727          51.000    19765954.578 6  82237972.278 6      1924.787          40.000
C26  21506206.320 8 111988457.554 8      -870.141          51.000
E02  23720974.930 8 124654550.920 8      -946.965          51.000    23720976.875 8  95514534.468 8      -725.599          51.000
E36  23983875.844 6 126036144.513 6      -427.336          40.000    23983878.195 7  96573143.082 7      -327.640          45.000
> 2020 05 06 11 16 30.0000000  0  9        .000000000000
G25  20403534.492 8 107221285.011 8     -1005.859          51.000    20403536.312 8  83549060.072 8      -783.787          51.000
G29  20333164.367 8 106851496.415 8       840.660          51.000    20333164.117 8  83260906.597 8       655.060          51.000
G32  23648195.516 7 124272105.440 7     -2686.809          47.000    23648198.516 7  96835373.552 7     -2093.620          43.000
R12  20474110.602 8 109369011.522 8     -2331.008          51.000    20474115.000 8  85064790.594 8     -1813.006          48.000
R22  20290265.547 7 108310822.080 7     -2607.211          44.000    20290270.430 4  84241768.343 4     -2027.831          26.000
R23  19752125.781 8 105660546.559 8      2453.793          50.000    19752132.242 6  82180461.537 6      1908.506          40.000
C26  21511252.969 8 112014734.623 8      -882.453          51.000
E02  23726396.156 8 124683040.089 8      -953.152          51.000    23726398.344 8  95536363.830 8      -730.332          51.000
E36  23986352.109 6 126049155.373 6      -440.617          38.000    23986354.844 7  96583112.434 7      -337.628          45.000
> 2020 05 06 11 17  0.0000000  0 10        .000000000000
G14  23115798.023 5 121474338.336 5     -1398.465          32.000
G25  20409309.984 8 107251635.240 8     -1017.258          51.000    20409311.766 8  83572709.561 8      -792.668          51.000
G29  20328411.844 8 106826522.146 8       824.500          51.000    20328411.586 8  83241446.140 8       642.471          51.000
G32  23663558.031 8 124352833.908 8     -2694.875          48.000    23663560.773 7  96898278.790 7     -2099.903          42.000
R12  20487245.773 8 109439177.218 8     -2346.387          51.000    20487250.211 7  85119363.891 7     -1824.967          47.000
R22  20304973.250 7 108389332.689 7     -2626.695          43.000    20304982.352 5  84302831.683 5     -2042.985          31.000
R23  19738427.273 7 105587270.785 7      2431.438          47.000    19738433.930 6  82123469.289 6      1891.118          39.000
C26  21516377.484 8 112041417.658 8      -896.090          51.000
E02  23731860.219 8 124711753.503 8      -960.762          51.000    23731862.148 8  95558365.007 8      -736.186          51.000
E36  23988910.172 4 126062573.359 4      -455.168          29.000    23988912.625 7  96593412.847 7      -348.873          44.000
> 2020 05 06 11 17 30.0000000  0 11        .000000000000
G14  23123828.000 5 121516502.267 5     -1412.570          32.000
G25  20415149.258 8 107282320.999 8     -1028.074          51.000    20415151.180 8  83596620.533 8      -801.097          51.000
G29  20323751.344 8 106802030.368 8       808.645          51.000    20323751.234 8  83222361.638 8       630.113          51.000
G32  23678965.922 7 124433800.908 7     -2702.668          47.000    23678968.078 7  96961369.869 7     -2105.975          42.000
R12  20500466.633 8 109509800.288 8     -2361.441          51.000    20500470.961 8  85174292.914 8     -1836.677          48.000
R22  20319790.195 6 108468424.269 6     -2645.699          41.000    20319792.891 5  84364347.354 5     -2057.763          32.000
R23  19724853.305 7 105514660.655 7      2409.531          47.000    19724859.742 6  82066994.725 6      1874.080          39.000
R24  22651439.250 6 121127430.788 6      4276.324          37.000    22651440.695 6  94210222.549 6      3326.030          37.000
C26  21521579.070 8 112068503.927 8      -909.352          51.000
E02  23737366.484 8 124740688.539 8      -967.945          51.000    23737368.062 8  95580536.003 8      -741.630          51.000
E36                                                                  23991551.508 7  96604041.560 7      -359.480          45.000
> 2020 05 06 11 18  0.0000000  0 11        .000000000000
G25  20421045.250 8 107313304.862 8     -1036.434          51.000    20421047.086 8  83620763.814 8      -807.611          51.000
G29  20319175.539 8 106777983.447 8       795.434          51.000    20319175.641 8  83203623.795 8       619.818          51.000
G32  23694411.266 7 124514966.037 7     -2707.531          45.000    23694413.148 7  97024615.366 7     -2109.765          43.000
R12  20513766.250 8 109580841.784 8     -2373.773          51.000    20513769.984 7  85229547.373 7     -1846.268          47.000
R22  20334707.320 6 108548055.035 6     -2662.242          39.000    20334707.211 5  84426282.342 5     -2070.633          34.000
R23  19711398.125 8 105442680.614 8      2390.082          51.000    19711403.125 6  82011010.230 6      1858.950          40.000
R24  22627462.508 6 120999235.927 6      4271.191          38.000    22627466.430 5  94110515.530 5      3322.038          35.000
C26  21526850.875 8 112095956.478 8      -919.926          51.000
C29  25168312.227 5 131057986.139 5     -3015.363          30.000
E02  23742907.773 8 124769808.228 8      -972.395          51.000    23742909.352 8  95602848.452 8      -745.034          51.000
E36  23994260.875 5 126090684.848 5      -481.000          35.000    23994266.297 7  96614969.525 7      -368.095          46.000
> 2020 05 06 11 18 30.0000000  0 11        .000000000000
G25  20426963.906 8 107344408.211 8     -1071.414          51.000    20426965.633 8  83645000.201 8      -834.868          51.000
G29  20314650.398 8 106754203.046 8       755.609          51.000    20314650.430 8  83185093.612 8       588.787          51.000
G32  23709859.188 7 124596147.821 7     -2738.875          42.000    23709861.945 7  97087873.849 7     -2134.188          42.000
R12  20527109.961 8 109652119.842 8     -2413.008          51.000    20527113.203 8  85284985.836 8     -1876.784          48.000
R22  20349691.352 6 108628039.894 6     -2705.383          40.000    20349693.258 6  84488492.786 6     -2104.187          37.000
R23  19698027.102 8 105371150.859 8      2343.633          51.000    19698031.688 7  81955375.993 7      1822.826          42.000
R24  22603491.500 6 120871062.405 6      4238.840          36.000    22603497.133 6  94010825.058 6      3296.875          36.000
C26  21532159.188 8 112123598.638 8      -956.805          51.000
C29  25185669.914 5 131148390.167 5     -3043.168          30.000
E02  23748450.367 8 124798934.493 8     -1003.562          51.000    23748451.992 8  95625165.929 8      -768.943          51.000
E36  23997018.203 6 126105158.219 6      -518.551          36.000    23997021.320 7  96626059.510 7      -397.307          45.000
> 2020 05 06 11 19  0.0000000  0 11        .000000000000
G25  20433061.359 8 107376451.465 8     -1061.961          50.000    20433063.227 8  83669968.958 8      -827.502          50.000
G29  20310332.195 8 106731509.565 8       760.340          51.000    20310332.125 8  83167410.395 8       592.473          51.000
G32  23725465.812 7 124678163.765 7     -2725.758          42.000    23725469.641 7  97151782.351 7     -2123.970          42.000
R12  20540653.906 8 109724467.764 8     -2407.020          51.000    20540657.391 8  85341256.405 8     -1872.129          48.000
R22  20364896.281 5 108709208.670 5     -2702.887          33.000    20364900.555 6  84551624.105 6     -2102.239          37.000
R23  19684896.531 8 105300908.835 8      2342.203          51.000    19684901.508 7  81900743.340 7      1821.714          42.000
R24  22579681.477 5 120743748.432 5      4251.617          30.000    22579688.156 5  93911803.209 5      3306.813          35.000
C26  21537660.258 8 112152243.580 8      -949.766          51.000
C29  25203166.609 5 131239502.275 5     -3027.281          30.000
E02  23754150.602 8 124828888.259 8      -990.309          51.000    23754152.078 8  95648117.467 8      -758.823          51.000
E36  23999967.500 6 126120662.760 6      -512.020          39.000    23999971.938 7  96637939.672 7      -392.387          44.000
> 2020 05 06 11 19 30.0000000  0  9        .000000000000
G25  20439152.062 8 107408459.203 8     -1073.238          49.000    20439154.234 8  83694910.021 8      -836.290          50.000
G29  20306034.938 8 106708927.262 8       743.871          51.000    20306034.938 8  83149813.812 8       579.640          51.000
G32  23741045.391 7 124760035.560 7     -2733.715          45.000    23741049.914 7  97215578.531 7     -2130.164          44.000
R12  20554212.328 8 109796893.431 8     -2422.570          51.000    20554215.617 8  85397587.460 8     -1884.221          48.000
R22  20380138.055 6 108790566.929 6     -2722.242          38.000    20380140.492 6  84614902.793 6     -2117.299          36.000
R23  19671821.305 8 105230964.071 8      2319.430          51.000    19671826.547 7  81846341.908 7      1804.004          42.000
C26  21543168.227 8 112180924.973 8      -963.566          51.000
E02  23759822.805 8 124858694.577 8      -997.953          51.000    23759824.016 8  95670956.042 8      -764.701          51.000
E36  24002928.750 7 126136222.753 7      -526.594          42.000    24002932.992 7  96649862.251 7      -403.332          43.000
> 2020 05 06 11 20  0.0000000  0 10        .000000000000
G25  20445303.805 8 107440786.865 8     -1091.027          51.000    20445306.094 8  83720100.411 8      -850.151          50.000
G29  20301826.086 8 106686811.696 8       721.234          51.000    20301826.414 8  83132580.908 8       562.001          51.000
G32  23756664.781 8 124842115.648 8     -2747.578          48.000    23756668.617 6  97279536.998 6     -2140.970          41.000
R12  20567852.844 8 109869757.569 8     -2444.414          51.000    20567856.062 8  85454259.553 8     -1901.214          48.000
R22  20395481.312 5 108872472.059 5     -2748.457          31.000    20395483.547 6  84678606.767 6     -2137.686          36.000
R23  19658869.234 8 105161680.480 8      2290.137          51.000    19658874.625 7  81792454.694 7      1781.217          43.000
C12  24486438.773 6 127507307.291 6      3091.793          38.000    24486429.750 5  98596702.711 5      2390.834          30.000
C26  21548750.672 8 112209995.184 8      -983.629          51.000
E02  23765534.562 8 124888709.345 8     -1012.109          51.000    23765535.398 8  95693954.338 8      -775.506          51.000
E36  24005968.461 7 126152192.929 7      -547.371          42.000    24005972.016 7  96662099.117 7      -419.381          42.000
> 2020 05 06 11 20 30.0000000  0 11        .000000000000
G12  22196777.055 5 116644849.009 5     -2541.906          34.000    22196765.359 5  90892039.277 5     -1980.706          34.000
G25  20451530.180 8 107473506.268 8     -1095.570          51.000    20451532.508 8  83745596.076 8      -853.691          51.000
G29  20297719.953 8 106665234.505 8       711.879          51.000    20297720.141 8  83115767.507 8       554.711          51.000
G32  23772337.031 8 124924472.897 8     -2748.176          48.000    23772338.969 6  97343711.442 6     -2141.439          40.000
R12  20581589.117 8 109943132.533 8     -2452.668          51.000    20581592.094 8  85511328.929 8     -1907.631          49.000
R22  20410941.164 6 108954993.186 6     -2759.391          37.000    20410943.328 6  84742789.957 6     -2146.190          36.000
R23  19646054.508 8 105093132.943 8      2274.254          51.000    19646060.109 7  81739139.950 7      1768.864          42.000
C12  24468610.469 6 127414469.839 6      3091.820          38.000
C26  21554421.750 8 112239525.513 8      -990.418          51.000
E02  23771299.602 8 124919004.884 8     -1012.902          51.000    23771300.391 8  95717167.765 8      -776.093          51.000
