     3.02           OBSERVATION DATA    M (MIXED)           RINEX VERSION / TYPE
SAVERINEX           SC600               20200519 085930 LCL PGM / RUN BY / DATE
       G = GPS       R = GLONASS       C = COMPASS          COMMENT
       S = SBAS      J = QZSS          E = GALILEO          COMMENT
BEAN                                                        MARKER NAME
1                                                           MARKER NUMBER
GEODETIC                                                    MARKER TYPE
Unige DICCA         GTER                                    OBSERVER / AGENCY
SC60291900056       SC600               2.12(191202)        REC # / TYPE / VERS
                    HEMA45          NONE                    ANT # / TYPE
  4509407.8091   693652.4678  4442337.6214                  APPROX POSITION XYZ
        0.0000        0.0000        0.0000                  ANTENNA: DELTA H/E/N
G    8 C1C L1C D1C S1C C2Y L2Y D2Y S2Y                      SYS / # / OBS TYPES
R    8 C1C L1C D1C S1C C2P L2P D2P S2P                      SYS / # / OBS TYPES
C    4 C1I L1I D1I S1I                                      SYS / # / OBS TYPES
E    8 C1C L1C D1C S1C C7Q L7Q D7Q S7Q                      SYS / # / OBS TYPES
DBHZ                                                        COMMENT
     30.000                                                 INTERVAL
  2020    05    19    06    00    0.0000000     GPS         TIME OF FIRST OBS
  2020    05    19    06    59   30.0000000     GPS         TIME OF LAST OBS
     0                                                      RCV CLOCK OFFS APPL
G L1C  0.00000                                              SYS / PHASE SHIFT
G L2Y  0.00000                                              SYS / PHASE SHIFT
R L1C  0.00000                                              SYS / PHASE SHIFT
R L2P  0.25000                                              SYS / PHASE SHIFT
C L1I  0.00000                                              SYS / PHASE SHIFT
E L1C  0.50000                                              SYS / PHASE SHIFT
E L7Q -0.25000                                              SYS / PHASE SHIFT
 14 R02 -4 R03  5 R04  6 R05  1 R06 -4 R09 -2 R10 -5 R13 -2 GLONASS SLOT / FRQ #
    R14 -7 R15  0 R16 -1 R17  4 R18 -3 R23  3               GLONASS SLOT / FRQ #
 C1C   71.950 C2C   71.950 C2P   71.950                     GLONASS COD/PHS/BIS
    18                                                      LEAP SECONDS
*** Above antenna height is from mark to ANTENNA BOTTOM.    COMMENT
    17     4        0.0000        ANT MEASURE TYPE/HEIGT    COMMENT
    0.0000    0.0000    0.0458    0.0405    0.0000          COMMENT
                    BASE STATION                            COMMENT
                                                            END OF HEADER
> 2020 05 19 06 00  0.0000000  0 13        .000000000000
G12  22864469.969 6 120153581.493 6      3415.492          37.000    22864449.609 6  93626121.904 6      2661.426          36.000
G13  21737099.234 8 114229208.698 8     -2793.547          51.000    21737097.445 7  89009751.848 7     -2176.790          46.000
G15  20752926.172 8 109057351.958 8     -1658.109          51.000    20752924.656 8  84979752.323 8     -1292.033          51.000
G17  22389597.406 5 117658125.130 5       175.066          35.000    22389591.000 5  91681616.353 5       136.412          35.000
R05  21305011.898 8 113887494.781 8     -3892.219          51.000    21305013.680 7  88579134.074 7     -3027.281          47.000
R15  20443087.523 5 109241680.535 5     -2201.562          35.000    20443088.375 4  84965740.000 4     -1712.326          29.000
C21  24583504.859 5 128012736.427 5     -3132.855          33.000
C26  21788951.344 6 113460797.174 6       938.504          39.000
E02  23357128.188 8 122742531.450 8       508.535          51.000    23357128.719 8  94049504.622 8       389.690          51.000
E03  25117097.727 8 131991229.257 8     -2533.371          51.000    25117100.336 8 101136135.357 8     -1941.226          51.000
E08  21983349.188 7 115523279.416 7        33.367          46.000    21983350.562 7  88517837.235 7        25.561          45.000
E25  24775681.922 8 130197143.960 8     -1845.707          49.000    24775684.172 7  99761428.090 7     -1414.246          45.000
E30  25304734.812 8 132977268.298 8      2353.465          51.000    25304735.758 7 101891684.855 7      1803.343          47.000
> 2020 05 19 06 00 30.0000000  0 14        .000000000000
G12  22844995.453 5 120051244.589 5      3409.520          35.000    22844973.773 5  93546378.944 5      2656.772          34.000
G13  21753080.477 8 114313186.431 8     -2802.570          51.000    21753078.289 7  89075189.028 7     -2183.821          46.000
G15  20762439.594 8 109107344.776 8     -1672.266          51.000    20762438.242 8  85018707.730 8     -1303.067          51.000
G17  22388646.031 5 117653120.389 5       158.598          32.000    22388646.391 5  91677760.334 5       123.583          33.000
G19  22224047.148 6 116788137.256 6      2126.469          40.000    22224041.195 5  91003730.874 5      1656.992          33.000
R05  21326892.602 8 114004460.809 8     -3902.984          51.000    21326894.484 7  88670107.629 7     -3035.655          46.000
R15  20455466.406 5 109307826.776 5     -2205.699          35.000    20455466.961 4  85017187.048 4     -1715.547          29.000
C21  24601566.883 5 128106793.746 5     -3134.949          31.000
C26  21783568.172 6 113432756.579 6       933.242          40.000
E02  23354248.617 8 122727399.485 8       502.723          51.000    23354249.109 8  94037910.008 8       385.182          51.000
E03  25131581.992 8 132067346.562 8     -2538.609          51.000    25131584.734 8 101194458.992 8     -1945.147          51.000
E08  21983197.141 7 115522481.618 7        22.238          45.000    21983197.602 7  88517225.935 7        17.082          46.000
E25  24786230.125 8 130252575.818 8     -1847.371          48.000    24786232.195 7  99803901.832 7     -1415.458          44.000
E30  25291312.547 8 132906732.975 8      2351.391          50.000    25291312.883 7 101837638.332 7      1801.724          47.000
> 2020 05 19 06 01  0.0000000  0 13        .000000000000
G13  21769136.516 8 114397559.353 8     -2814.902          51.000    21769134.328 7  89140934.132 7     -2193.430          47.000
G15  20772057.164 8 109157885.464 8     -1689.797          51.000    20772056.102 8  85058090.056 8     -1316.725          51.000
G17  22387815.094 6 117648749.298 6       139.340          36.000    22387813.062 6  91674354.337 6       108.573          37.000
G19  22211977.570 7 116724708.156 7      2109.012          42.000    22211970.438 5  90954305.697 5      1643.389          33.000
R05  21348857.109 8 114121876.649 8     -3917.168          51.000    21348858.930 7  88761431.022 7     -3046.689          44.000
R15  20467895.469 6 109374245.183 6     -2214.348          36.000    20467895.734 4  85068844.861 4     -1722.270          27.000
C21  24619668.297 5 128201055.712 5     -3141.328          30.000
C26  21778236.484 6 113404988.285 6       924.992          36.000
E02  23351425.945 8 122712566.001 8       493.391          51.000    23351426.578 8  94026544.077 8       378.062          51.000
E03  25146120.078 8 132143746.103 8     -2547.449          51.000    25146122.836 8 101252998.892 8     -1951.849          51.000
E08  21983131.469 7 115522137.595 7         7.973          46.000    21983131.812 7  88516962.323 7         5.944          46.000
E25  24796811.516 8 130308181.101 8     -1852.418          48.000    24796813.430 7  99846508.460 7     -1419.433          44.000
E30  25277925.219 8 132836382.445 8      2345.941          49.000    25277925.719 8 101783733.398 8      1797.429          48.000
> 2020 05 19 06 01 30.0000000  0 14        .000000000000
G12  22806175.312 5 119847257.627 5      3392.410          30.000    22806171.828 5  93387459.683 5      2643.436          30.000
G13  21785245.828 8 114482214.359 8     -2827.344          51.000    21785244.133 7  89206899.050 7     -2203.125          46.000
G15  20781757.484 8 109208861.354 8     -1707.191          51.000    20781756.695 8  85097811.514 8     -1330.279          51.000
G17  22387075.398 5 117644867.774 5       120.094          33.000    22387074.453 5  91671329.699 5        93.577          33.000
G19  22199989.766 6 116661711.589 6      2091.809          38.000    22199983.711 6  90905217.485 6      1629.987          36.000
R05  21370883.531 8 114239624.830 8     -3931.266          50.000    21370884.922 7  88853012.890 7     -3057.651          42.000
R15  20480353.672 6 109440820.733 6     -2222.172          38.000
C21  24637785.867 5 128295409.512 5     -3147.242          31.000
C26  21772933.094 5 113377381.724 5       916.953          31.000
E02  23348638.648 8 122697918.944 8       484.262          51.000    23348639.617 8  94015321.012 8       371.073          51.000
E03  25160690.555 8 132220314.969 8     -2556.027          51.000    25160693.320 8 101311668.547 8     -1958.532          51.000
E08  21983131.180 7 115522136.233 7        -6.531          47.000    21983131.508 7  88516961.248 7        -5.052          46.000
E25  24807404.641 7 130363847.312 7     -1857.512          47.000    24807406.984 7  99889161.759 7     -1423.273          45.000
E30  25264551.633 8 132766105.467 8      2340.477          49.000    25264552.805 8 101729884.809 8      1793.340          48.000
> 2020 05 19 06 02  0.0000000  0 14        .000000000000
G12  22786837.352 6 119745615.806 6      3385.145          38.000    22786830.117 6  93308258.262 6      2637.775          37.000
G13  21801415.266 8 114567187.403 8     -2836.930          51.000    21801414.320 7  89273111.811 7     -2210.595          46.000
G15  20791547.289 8 109260308.682 8     -1721.973          51.000    20791546.938 8  85137900.324 8     -1341.797          51.000
G17  22386436.781 5 117641515.400 5       103.730          34.000    22386440.633 5  91668716.050 5        80.832          34.000
G19  22188090.688 6 116599187.585 6      2076.988          39.000    22188086.305 5  90856497.532 5      1618.429          35.000
R05  21392978.664 8 114357739.405 8     -3942.430          49.000    21392979.719 7  88944879.765 7     -3066.334          43.000
R15  20492848.438 6 109507589.948 6     -2228.090          36.000
C21  24655929.609 6 128389889.997 6     -3150.465          36.000
C26  21767669.211 5 113349974.249 5       911.180          31.000
E02  23345893.789 8 122683495.301 8       477.867          51.000    23345894.859 8  94004269.134 8       366.167          51.000
E03  25175300.117 8 132297089.339 8     -2561.820          51.000    25175303.148 8 101370495.622 8     -1962.962          51.000
E08  21983203.398 8 115522515.355 8       -18.195          48.000    21983203.125 7  88517251.728 7       -13.987          46.000
E25  24818016.188 7 130419610.880 7     -1859.641          47.000    24818019.539 7  99931889.664 7     -1424.934          44.000
E30  25251199.023 8 132695939.777 8      2337.762          48.000    25251201.062 8 101676121.474 8      1791.233          48.000
> 2020 05 19 06 02 30.0000000  0 15        .000000000000
G12  22767538.750 6 119644196.747 6      3376.758          41.000    22767532.898 7  93229230.544 7      2631.246          42.000
G13  21817644.719 8 114652476.954 8     -2848.164          51.000    21817644.625 7  89339571.198 7     -2219.349          45.000
G15  20801426.430 8 109312226.256 8     -1738.398          50.000    20801426.492 8  85178355.583 8     -1354.596          50.000
G19  22176282.500 6 116537138.882 6      2060.281          38.000    22176280.883 6  90808147.803 6      1605.408          37.000
R05  21415141.945 8 114476216.500 8     -3955.117          48.000    21415143.719 7  89037028.602 7     -3076.202          44.000
R15  20505379.664 6 109574551.286 6     -2235.160          36.000
R24  23053899.500 5 123279533.061 5      -885.359          30.000
C21  24674098.641 6 128484494.836 6     -3155.586          38.000
C24  25427587.359 5 132408112.004 5      2540.137          30.000
C26  21762441.961 5 113322765.853 5       904.180          30.000
E02  23343191.336 8 122669294.710 8       469.797          51.000    23343192.336 8  93993388.165 8       359.956          51.000
E03  25189948.352 8 132374067.995 8     -2569.180          50.000    25189951.773 8 101429479.213 8     -1968.604          51.000
E08  21983347.984 8 115523275.393 8       -31.578          48.000    21983347.617 7  88517834.081 7       -24.250          46.000
E25  24828645.852 7 130475470.904 7     -1863.500          46.000    24828650.320 7  99974691.480 7     -1427.916          44.000
E30  25237867.789 8 132625885.810 8      2333.340          49.000    25237870.602 8 101622443.738 8      1787.902          49.000
> 2020 05 19 06 03  0.0000000  0 15        .000000000000
G12  22748299.023 6 119543094.709 6      3365.859          41.000    22748296.977 6  93150449.801 6      2622.748          41.000
G13  21833951.852 8 114738174.079 8     -2862.320          50.000    21833951.977 7  89406348.132 7     -2230.379          44.000
G15  20811412.539 8 109364705.517 8     -1757.695          49.000    20811412.914 8  85219248.533 8     -1369.633          50.000
G19  22164583.242 6 116475660.756 6      2040.949          39.000    22164581.359 5  90760242.788 5      1590.347          34.000
G24  20829118.438 5 109457780.740 5      1627.590          35.000
R05  21437390.125 8 114595145.818 8     -3970.605          49.000    21437392.516 7  89129529.191 7     -3088.249          43.000
R15  20517964.812 5 109641797.183 5     -2244.941          34.000
C21  24692309.586 7 128579313.486 7     -3163.066          42.000
C24  25412982.969 5 132332035.176 5      2535.223          31.000
C26  21757272.422 5 113295848.199 5       893.051          31.000
E02  23340548.828 8 122655409.343 8       458.680          51.000    23340549.977 8  93982748.726 8       351.438          51.000
E03  25204652.828 8 132451342.314 8     -2579.684          49.000    25204656.891 8 101488689.352 8     -1976.563          51.000
E08  21983582.516 8 115524509.410 8       -47.926          49.000    21983583.023 7  88518779.597 7       -36.731          47.000
E25  24839311.320 7 130531519.072 7     -1870.309          46.000    24839316.375 7 100017637.470 7     -1433.177          43.000
E30  25224576.023 8 132556036.477 8      2326.004          50.000    25224579.172 8 101568922.822 8      1782.254          49.000
> 2020 05 19 06 03 30.0000000  0 16        .000000000000
G12  22729105.125 5 119442240.491 5      3356.785          34.000    22729107.172 5  93071862.185 5      2615.677          33.000
G13  21850322.844 8 114824205.648 8     -2873.871          50.000    21850322.430 7  89473385.632 7     -2239.386          43.000
G15  20821492.047 8 109417673.593 8     -1774.359          50.000    20821492.375 8  85260522.394 8     -1382.615          50.000
G19  22152979.984 7 116414684.296 7      2023.617          42.000    22152976.484 5  90712728.675 5      1576.848          32.000
G24  20819863.469 5 109409120.825 5      1617.070          30.000
R05  21459709.016 8 114714451.108 8     -3983.637          49.000    21459710.922 7  89222322.150 7     -3098.387          42.000
R15  20530589.781 5 109709253.734 5     -2252.840          33.000
R24  23064141.258 6 123334264.284 6      -938.031          36.000    23064142.906 5  95926708.411 5      -729.580          30.000
C21  24710547.898 7 128674272.694 7     -3168.137          43.000
C24  25398387.758 5 132256037.279 5      2531.641          34.000
C26  21752147.922 6 113269150.519 6       886.148          36.000
E02  23337952.711 8 122641767.199 8       450.066          51.000    23337953.945 8  93972295.657 8       344.880          51.000
E03  25219399.852 8 132528839.549 8     -2587.570          49.000    25219404.305 8 101548070.372 8     -1982.723          51.000
E08  21983893.750 8 115526146.241 8       -61.930          48.000    21983894.578 7  88520033.771 7       -47.456          47.000
E25  24849998.875 7 130587682.890 7     -1874.680          45.000    24850003.914 7 100060672.069 7     -1436.353          42.000
E30  25211309.922 8 132486320.592 8      2321.043          50.000    25211313.031 8 101515504.167 8      1778.482          49.000
> 2020 05 19 06 04  0.0000000  0 15        .000000000000
G12  22709968.000 5 119341681.475 5      3347.508          33.000    22709971.445 5  92993504.404 5      2608.442          34.000
G13  21866766.289 8 114910616.131 8     -2885.922          51.000    21866764.352 7  89540718.418 7     -2248.773          42.000
G15  20831673.305 8 109471174.953 8     -1791.414          51.000    20831673.258 8  85302211.769 8     -1395.907          50.000
G19  22141481.555 7 116354257.895 7      2005.875          43.000    22141476.633 5  90665643.246 5      1563.019          30.000
R05  21482106.172 7 114834174.690 7     -3997.039          47.000    21482107.000 6  89315440.396 6     -3108.811          41.000
R15  20543260.891 5 109776965.767 5     -2260.512          35.000    20543261.672 4  85382080.492 4     -1758.176          26.000
R24  23069476.859 5 123362800.387 5      -963.469          30.000    23069479.773 4  95948903.267 4      -749.365          29.000
C21  24728821.281 7 128769415.506 7     -3173.684          44.000
C24  25383814.523 5 132180163.799 5      2527.793          33.000
C26  21747074.258 6 113242718.343 6       877.566          36.000
E02  23335411.734 8 122628413.572 8       440.930          51.000    23335412.633 8  93962063.656 8       337.903          51.000
E03  25234197.984 8 132606604.069 8     -2595.941          50.000    25234202.242 8 101607656.187 8     -1989.080          51.000
E08  21984290.539 8 115528232.030 8       -76.281          49.000    21984290.953 7  88521631.965 7       -58.449          47.000
E25  24860717.031 7 130644007.163 7     -1879.539          46.000    24860721.812 6 100103829.631 6     -1440.268          41.000
E30  25198077.742 8 132416784.215 8      2315.598          49.000    25198080.953 8 101462223.041 8      1774.268          49.000
> 2020 05 19 06 04 30.0000000  0 14        .000000000000
G12  22690887.977 6 119241416.704 6      3339.621          40.000    22690890.289 6  92915375.985 6      2602.302          40.000
G13  21883281.367 8 114997401.599 8     -2896.625          51.000    21883278.977 7  89608343.419 7     -2257.113          43.000
G15  20841955.508 8 109525206.103 8     -1807.301          51.000    20841955.367 8  85344313.947 8     -1408.286          51.000
G19  22130087.992 7 116294382.272 7      1989.145          44.000    22130080.844 5  90618986.971 5      1549.980          30.000
R05  21504579.414 7 114954310.069 7     -4008.781          45.000    21504581.156 7  89408878.961 7     -3117.941          43.000
R15  20555978.562 6 109844929.658 6     -2267.535          37.000    20555988.086 4  85434940.711 4     -1763.638          29.000
C21  24747128.742 7 128864737.376 7     -3177.867          44.000
C24  25369264.633 4 132104412.771 4      2525.285          28.000
C26  21742050.047 6 113216549.251 6       870.465          36.000
E02  23332925.133 8 122615345.764 8       433.359          51.000    23332925.656 8  93952050.665 8       332.031          51.000
E03  25249046.531 8 132684632.375 8     -2602.793          50.000    25249050.414 8 101667444.135 8     -1994.366          51.000
E08  21984772.680 8 115530764.865 8       -89.410          49.000    21984772.805 8  88523572.703 8       -68.539          48.000
E25  24871465.164 7 130700488.708 7     -1882.746          47.000    24871469.500 6 100147107.653 6     -1442.513          41.000
E30  25184878.875 7 132347425.389 7      2311.469          46.000    25184882.633 8 101409077.964 8      1771.179          49.000
> 2020 05 19 06 05  0.0000000  0 14        .000000000000
G12  22671852.273 7 119141383.678 7      3330.145          42.000    22671853.906 6  92837428.215 6      2594.918          41.000
G13  21899855.141 8 115084495.814 8     -2908.738          51.000    21899853.258 7  89676209.007 7     -2266.549          46.000
G15  20852325.969 8 109579701.047 8     -1824.465          51.000    20852325.586 8  85386777.521 8     -1421.661          51.000
G19  22118787.047 6 116234995.406 6      1970.836          40.000    22118780.781 5  90572711.555 5      1535.716          32.000
R05  21527115.727 7 115074787.588 7     -4021.848          42.000    21527120.273 7  89502583.725 7     -3128.101          45.000
R15  20568730.398 6 109913078.087 6     -2275.000          38.000    20568738.938 5  85487945.128 5     -1769.441          31.000
C21  24765457.250 6 128960172.042 6     -3183.371          41.000
C24  25354724.859 4 132028713.801 4      2521.953          27.000
C26  21737063.266 5 113190579.484 5       862.258          34.000
E02  23330480.344 8 122602498.849 8       424.176          51.000    23330480.719 8  93942206.925 8       325.021          51.000
E03  25263932.516 8 132762858.587 8     -2611.184          49.000    25263936.078 8 101727383.676 8     -2000.747          51.000
E08  21985327.852 8 115533680.632 8      -103.957          50.000    21985328.117 8  88525806.841 8       -79.625          49.000
E25  24882230.703 7 130757062.133 7     -1887.738          47.000    24882234.406 6 100190456.082 6     -1446.368          40.000
E30  25171701.383 7 132278179.997 7      2305.941          46.000    25171705.727 8 101356019.801 8      1766.920          49.000
> 2020 05 19 06 05 30.0000000  0 15        .000000000000
G12  22652860.586 6 119041581.818 6      3321.938          41.000    22652861.969 7  92759660.594 7      2588.526          42.000
G13  21916487.070 8 115171895.293 8     -2919.496          51.000    21916485.883 7  89744312.457 7     -2274.932          47.000
G15  20862783.922 8 109634656.383 8     -1840.613          51.000    20862782.969 8  85429599.853 8     -1434.244          51.000
G19  22107578.609 6 116176098.136 6      1954.113          38.000    22107574.828 6  90526817.594 6      1522.686          37.000
G24  20783375.750 5 109217366.826 5      1578.758          33.000
R05  21549715.328 7 115195600.926 7     -4033.723          43.000    21549722.297 7  89596549.660 7     -3137.340          46.000
R15  20581516.648 6 109981407.607 6     -2282.051          39.000    20581525.375 5  85541090.286 5     -1774.931          33.000
C21  24783806.797 6 129055715.068 6     -3187.754          38.000
C24  25340195.859 4 131953035.311 4      2519.516          29.000
C26  21732114.945 6 113164807.056 6       855.023          36.000
E02  23328076.969 8 122589870.186 8       416.375          51.000    23328077.422 8  93932530.415 8       318.999          51.000
E03  25278854.953 8 132841279.276 8     -2618.332          48.000    25278858.359 8 101787472.235 8     -2006.242          50.000
E08  21985955.602 8 115536977.495 8      -117.227          50.000    21985955.641 8  88528333.008 8       -89.856          49.000
E25  24893013.312 7 130813724.332 7     -1891.281          46.000    24893016.156 6 100233872.547 6     -1449.017          40.000
E30  25158545.625 8 132209046.112 8      2301.539          48.000    25158549.867 8 101303047.080 8      1763.586          49.000
> 2020 05 19 06 06  0.0000000  0 15        .000000000000
G12  22633926.219 7 118942079.109 7      3312.281          43.000    22633926.555 7  92682125.998 7      2580.995          43.000
G13  21933189.328 8 115259664.503 8     -2931.195          51.000    21933188.797 7  89812704.033 7     -2284.045          47.000
G15  20873341.344 8 109690136.723 8     -1857.461          51.000    20873340.203 8  85472831.261 8     -1447.372          51.000
G19  22096476.234 6 116117758.883 6      1936.000          38.000    22096474.922 6  90481358.372 6      1508.568          38.000
G28  23685109.094 5 124466086.574 5     -3051.516          31.000
R05  21572390.508 7 115316813.318 7     -4046.246          42.000    21572398.367 7  89690825.997 7     -3147.080          45.000
R15  20594349.430 7 110049983.568 7     -2289.730          42.000    20594357.195 5  85594427.167 5     -1780.901          32.000
C21  24802191.344 5 129151429.575 5     -3192.688          30.000
C24  25325697.172 5 131877522.711 5      2515.633          31.000
C26  21727217.086 6 113139297.403 6       846.383          36.000
E02  23325727.586 8 122577525.422 8       407.445          51.000    23325728.352 8  93923071.416 8       312.156          51.000
E03  25293826.352 8 132919959.150 8     -2626.254          48.000    25293830.156 8 101847759.409 8     -2012.390          50.000
E08  21986668.109 8 115540721.851 8      -131.570          50.000    21986668.180 8  88531202.050 8      -100.900          50.000
E25  24903825.297 7 130870540.408 7     -1895.707          46.000    24903827.375 6 100277406.923 6     -1452.731          40.000
E30  25145424.266 8 132140090.125 8      2296.148          49.000    25145428.016 8 101250210.694 8      1759.437          49.000
> 2020 05 19 06 06 30.0000000  0 12        .000000000000
G12  22615038.797 7 118842821.106 7      3305.656          46.000    22615037.461 7  92604782.103 7      2575.839          46.000
G13  21949950.430 8 115347745.723 8     -2940.000          49.000    21949950.438 7  89881338.796 7     -2290.909          46.000
G15  20883987.484 8 109746084.830 8     -1871.648          51.000    20883986.531 8  85516427.151 8     -1458.427          51.000
G19  22085470.219 6 116059924.369 6      1920.562          37.000    22085470.742 6  90436292.425 6      1496.539          36.000
R05  21595130.023 7 115438363.861 7     -4055.988          44.000    21595137.203 7  89785365.283 7     -3154.658          44.000
R15  20607217.703 6 110118747.767 6     -2294.008          38.000    20607225.234 5  85647910.422 5     -1784.231          33.000
C24  25311214.164 4 131802078.116 4      2514.367          29.000
E02  23323421.633 8 122565408.057 8       401.223          51.000    23323422.695 8  93913786.670 8       307.454          51.000
E03  25308836.664 8 132998841.050 8     -2631.574          49.000    25308840.852 8 101908201.343 8     -2016.389          50.000
E08  21987455.031 8 115544858.026 8      -143.262          50.000    21987455.539 8  88534371.310 8      -109.781          50.000
E25  24914655.594 7 130927453.518 7     -1897.688          46.000    24914657.148 6 100321015.648 6     -1454.123          40.000
E30  25132326.227 8 132071256.360 8      2293.520          50.000    25132329.406 8 101197467.973 8      1757.408          49.000
> 2020 05 19 06 07  0.0000000  0 12        .000000000000
G12  22596206.336 8 118743852.759 8      3293.270          49.000    22596203.664 8  92527663.975 8      2566.187          49.000
G13  21966777.969 8 115436180.644 8     -2954.605          48.000    21966778.961 7  89950249.174 7     -2302.287          46.000
G15  20894730.727 8 109802542.391 8     -1891.410          50.000    20894729.648 8  85560420.043 8     -1473.826          50.000
G19  22074569.438 6 116002640.287 6      1899.129          39.000    22074570.078 6  90391655.492 6      1479.838          36.000
R05  21617940.656 7 115560292.171 7     -4071.348          46.000    21617946.523 7  89880198.345 7     -3166.604          42.000
R15  20620130.094 6 110187742.678 6     -2304.527          39.000    20620135.828 5  85701573.091 5     -1792.410          33.000
C26  21717545.992 5 113088961.632 5       830.238          35.000
E02  23321167.281 8 122553560.829 8       389.531          51.000    23321168.414 8  93904708.930 8       298.466          51.000
E03  25323894.016 8 133077966.838 8     -2642.492          50.000    25323898.250 8 101968830.142 8     -2024.782          51.000
E08  21988325.047 8 115549429.530 8      -160.543          50.000    21988325.547 8  88537874.150 8      -122.972          50.000
E25  24925512.258 7 130984505.890 7     -1904.840          45.000    24925513.727 6 100364731.065 6     -1459.475          39.000
E30  25119259.547 8 132002588.365 8      2285.230          50.000    25119261.875 8 101144852.242 8      1751.069          48.000
> 2020 05 19 06 07 30.0000000  0 13        .000000000000
G12  22577423.516 8 118645146.135 8      3285.730          50.000    22577420.047 8  92450749.734 8      2560.309          50.000
G13  21983667.711 8 115524938.298 8     -2964.176          51.000    21983668.836 7  90019410.976 7     -2309.747          45.000
G15  20905564.914 8 109859478.553 8     -1905.941          48.000    20905563.938 8  85604785.857 8     -1485.149          48.000
G19  22063768.062 6 115945879.892 6      1883.109          39.000    22063769.312 6  90347426.675 6      1467.358          38.000
R05  21640816.211 7 115682564.560 7     -4081.723          47.000    21640819.500 6  89975299.036 6     -3174.673          39.000
R15  20633079.852 6 110256937.110 6     -2309.676          37.000    20633084.258 5  85755390.923 5     -1796.411          32.000
C21  24857482.719 5 129439414.175 5     -3205.277          30.000
C26  21712778.242 6 113064130.575 6       824.051          38.000
E02  23318958.766 8 122541953.995 8       382.633          51.000    23318959.938 8  93895815.382 8       293.192          51.000
E03  25338992.383 8 133157305.821 8     -2648.523          50.000    25338996.500 8 102029622.293 8     -2029.340          51.000
E08  21989272.180 8 115554407.352 8      -172.914          50.000    21989272.719 8  88541688.337 8      -132.564          50.000
E25  24936389.461 7 131041667.385 7     -1907.543          44.000    24936391.523 6 100408530.097 6     -1461.453          39.000
E30  25106218.547 8 131934057.142 8      2281.848          49.000    25106220.352 8 101092341.311 8      1748.432          49.000
> 2020 05 19 06 08  0.0000000  0 15        .000000000000
G12  22558692.914 8 118546717.088 8      3279.680          49.000    22558690.078 8  92374051.791 8      2555.595          49.000
G13  22000621.781 8 115614030.394 8     -2971.969          51.000    22000622.047 7  90088833.337 7     -2315.823          44.000
G15  20916492.633 8 109916905.493 8     -1918.977          49.000    20916491.930 8  85649534.081 8     -1495.306          50.000
G17  22387209.883 5 117645566.650 5      -120.215          34.000    22387180.672 5  91671833.449 5       -93.677          34.000
G19  22053069.469 6 115889659.106 6      1868.117          40.000    22053070.727 6  90303618.378 6      1455.682          36.000
R05  21663757.789 7 115805190.405 7     -4090.023          47.000    21663757.812 5  90070674.589 5     -3181.132          34.000
R15  20646068.695 6 110326343.152 6     -2313.957          36.000    20646071.977 5  85809373.445 5     -1799.738          33.000
R24  23117189.094 4 123617994.795 4     -1158.527          29.000    23117191.539 4  96147333.848 4      -901.077          29.000
C21  24875959.766 4 129535657.059 4     -3206.422          27.000
C26  21708055.172 6 113039534.063 6       819.117          37.000
E02  23316798.383 8 122530600.511 8       377.594          51.000    23316799.812 8  93887115.955 8       289.289          51.000
E03  25354133.664 8 133236870.132 8     -2652.547          51.000    25354137.734 8 102090587.147 8     -2032.474          51.000
E08  21990299.195 8 115559805.187 8      -183.598          49.000    21990299.945 8  88545824.335 8      -140.652          50.000
E25  24947289.797 7 131098950.443 7     -1908.238          42.000    24947292.594 6 100452422.296 6     -1462.043          39.000
E30  25093205.859 8 131865676.352 8      2280.141          49.000    25093207.531 8 101039945.635 8      1747.217          49.000
> 2020 05 19 06 08 30.0000000  0 11        .000000000000
G12  22540015.664 8 118448569.183 8      3262.145          50.000    22540013.977 8  92297572.926 8      2541.931          50.000
G13  22017639.758 8 115703457.724 8     -2991.312          51.000    22017639.102 7  90158516.926 7     -2330.893          43.000
G15  20927514.422 8 109974824.100 8     -1943.648          51.000    20927513.500 8  85694665.433 8     -1514.531          51.000
G19  22042474.695 6 115833982.880 6      1841.914          37.000    22042474.094 5  90260234.303 5      1435.258          33.000
R05  21686764.836 7 115928168.018 7     -4109.879          45.000    21686759.891 5  90166323.651 5     -3196.582          32.000
C26  21703376.570 6 113015174.316 6       802.953          36.000
E02  23314686.516 8 122519502.169 8       360.844          51.000    23314688.016 8  93878612.023 8       276.524          51.000
E03  25369317.961 8 133316660.684 8     -2668.246          51.000    25369322.117 8 102151725.345 8     -2044.446          51.000
E08  21991406.781 8 115565625.595 8      -205.871          50.000    21991407.562 8  88550284.118 8      -157.772          50.000
E25  24958213.773 6 131156356.412 6     -1920.199          41.000    24958216.664 6 100496408.716 6     -1471.525          38.000
E30  25080222.383 8 131797448.539 8      2266.922          49.000    25080223.930 8 100987667.180 8      1736.887          49.000
> 2020 05 19 06 09  0.0000000  0 11        .000000000000
G12  22521395.422 8 118350719.648 8      3257.816          51.000    22521394.336 8  92221326.543 8      2538.558          51.000
G13  22034723.797 8 115793234.442 8     -2997.156          51.000    22034722.867 6  90228472.777 6     -2335.446          41.000
G15  20938632.695 8 110033248.689 8     -1954.676          51.000    20938631.523 8  85740191.066 8     -1523.124          51.000
G19  22031986.242 6 115778869.307 6      1829.027          36.000    22031985.867 5  90217288.764 5      1425.216          35.000
R05  21709839.070 7 116051509.258 7     -4116.125          43.000    21709833.289 5  90262255.621 5     -3201.434          35.000
C26  21698746.531 6 112991067.066 6       800.551          37.000
E02  23312626.109 8 122508674.238 8       357.680          51.000    23312627.289 8  93870315.300 8       274.066          51.000
E03  25384548.078 8 133396691.890 8     -2670.512          51.000    25384552.320 8 102213047.947 8     -2046.209          51.000
E08  21992597.961 8 115571884.594 8      -214.656          51.000    21992598.484 8  88555079.955 8      -164.480          50.000
E25  24969164.078 7 131213900.272 7     -1919.172          42.000    24969166.055 6 100540500.790 6     -1470.813          37.000
E30  25067271.320 8 131729389.804 8      2267.012          49.000    25067273.031 8 100935518.282 8      1737.112          50.000
> 2020 05 19 06 09 30.0000000  0 13        .000000000000
G12  22502824.203 8 118253126.524 8      3248.625          51.000    22502822.828 8  92145279.985 8      2531.396          51.000
G13  22051865.281 8 115883315.193 8     -3007.938          50.000    22051864.242 7  90298665.533 7     -2343.850          42.000
G15  20949838.648 8 110092133.830 8     -1970.656          51.000    20949837.336 8  85786075.564 8     -1535.576          51.000
G19  22021598.102 6 115724277.287 6      1810.871          36.000    22021598.000 6  90174749.576 6      1411.068          37.000
R05  21732971.914 7 116175165.284 7     -4127.137          42.000    21732967.820 6  90358432.534 6     -3209.995          36.000
R15  20685266.422 6 110535796.179 6     -2337.605          36.000    20685271.883 5  85972299.884 5     -1818.135          31.000
C21  24931564.641 5 129825208.386 5     -3222.605          31.000
C26  21694156.578 6 112967168.961 6       792.746          38.000
E02  23310608.680 8 122498072.393 8       349.480          51.000    23310609.742 8  93862191.807 8       267.754          51.000
E03  25399815.336 8 133476918.582 8     -2677.652          51.000    25399819.633 8 102274520.326 8     -2051.759          51.000
E08  21993864.469 8 115578538.562 8      -228.586          51.000    21993864.469 8  88560178.432 8      -175.183          50.000
E25  24980132.133 7 131271537.241 7     -1922.875          42.000    24980133.469 6 100584664.154 6     -1473.512          37.000
E30  25054344.438 8 131661456.537 8      2262.148          49.000    25054346.438 8 100883465.534 8      1733.355          50.000
> 2020 05 19 06 10  0.0000000  0 16        .000000000000
G12  22484302.141 8 118155790.514 8      3240.000          51.000    22484300.188 8  92069433.762 8      2524.678          51.000
G13  22069064.211 8 115973697.228 8     -3017.996          51.000    22069063.156 6  90369093.055 6     -2351.685          41.000
G15  20961131.656 8 110151477.149 8     -1985.902          51.000    20961130.758 8  85832317.095 8     -1547.456          51.000
G17  22390864.742 5 117664794.461 5      -197.156          34.000
G19  22011308.766 5 115670208.353 5      1793.543          35.000    22011309.727 5  90132617.919 5      1397.569          32.000
R05  21756162.531 6 116299131.293 6     -4137.348          39.000    21756158.586 5  90454850.544 5     -3217.937          32.000
R15  20698406.703 6 110606001.952 6     -2343.250          38.000    20698411.492 5  86026904.242 5     -1822.534          33.000
R24  23144347.992 5 123763216.975 5     -1259.977          31.000
C21  24950137.953 5 129921927.038 5     -3225.820          31.000
C24  25210317.281 5 131276735.628 5      2492.133          33.000
C26  21689607.078 6 112943479.014 6       785.875          39.000
E02  23308633.977 8 122487695.192 8       341.910          51.000    23308635.258 8  93854240.435 8       262.004          51.000
E03  25415119.258 8 133557338.432 8     -2684.047          51.000    25415123.586 8 102336140.707 8     -2056.595          51.000
E08  21995205.930 8 115585586.781 8      -241.754          51.000    21995205.602 8  88565579.002 8      -185.228          49.000
E25  24991117.523 7 131329265.435 7     -1926.160          42.000    24991119.523 6 100628897.383 6     -1475.664          37.000
E30  25041441.312 8 131593648.058 8      2258.020          49.000    25041443.531 8 100831508.386 8      1730.129          49.000
> 2020 05 19 06 10 30.0000000  0 13        .000000000000
G12  22465837.438 8 118058756.769 8      3228.738          51.000    22465835.859 8  91993823.075 8      2515.900          51.000
G13  22086328.750 8 116064422.354 8     -3030.613          51.000    22086327.625 6  90439787.887 6     -2361.520          41.000
G15  20972519.531 8 110211320.685 8     -2003.746          51.000    20972519.281 8  85878948.408 8     -1561.361          51.000
R05  21779417.930 6 116423447.352 6     -4150.367          39.000
R15  20711587.352 6 110676429.142 6     -2352.164          36.000    20711593.289 5  86081681.014 5     -1829.458          34.000
C21  24968740.234 5 130018784.507 5     -3231.113          31.000
C24  25195974.562 5 131202046.541 5      2486.680          35.000
C26  21685105.891 6 112920040.526 6       776.582          38.000
E02  23306710.203 8 122477585.807 8       331.883          51.000    23306711.562 8  93846494.275 8       254.312          51.000
E03  25430467.883 8 133637993.733 8     -2693.043          51.000    25430471.930 8 102397941.482 8     -2063.456          51.000
E08  21996630.617 8 115593073.112 8      -257.527          51.000    21996630.414 8  88571315.262 8      -197.266          50.000
E25  25002128.281 6 131387127.648 6     -1931.613          41.000    25002130.766 6 100673233.321 6     -1480.166          38.000
E30  25028570.094 8 131526008.321 8      2251.141          49.000    25028572.625 8 100779680.512 8      1724.909          49.000
> 2020 05 19 06 11  0.0000000  0 13        .000000000000
G12  22447425.430 8 117962001.051 8      3220.332          50.000    22447424.633 8  91918429.015 8      2509.350          50.000
G13  22103653.398 8 116155462.931 8     -3040.086          51.000    22103652.172 6  90510728.554 6     -2368.898          41.000
G15  20983997.195 8 110271637.063 8     -2018.547          51.000    20983997.586 8  85925948.175 8     -1572.894          51.000
G17  22393344.680 5 117677820.123 5      -236.242          34.000
G19  21991054.359 5 115563743.584 5      1755.789          35.000    21991052.867 5  90049699.737 5      1368.150          33.000
R05  21802732.031 6 116548083.071 6     -4160.062          41.000    21802746.570 5  90648582.767 5     -3235.607          30.000
C24  25181644.953 5 131127445.876 5      2485.070          32.000
C26  21680647.305 6 112896827.981 6       770.102          37.000
E02  23304832.375 8 122467717.861 8       324.754          51.000    23304833.602 8  93838933.114 8       248.831          51.000
E03  25445855.734 8 133718857.297 8     -2699.082          51.000    25445859.273 8 102459901.854 8     -2068.131          51.000
E08  21998133.688 8 115600971.864 8      -270.316          51.000    21998133.789 8  88577367.543 8      -207.093          50.000
E25  25013159.406 6 131445097.058 6     -1934.168          40.000    25013161.680 6 100717651.389 6     -1482.067          38.000
E30  25015725.508 7 131458511.686 7      2247.391          47.000    25015728.500 8 100727962.319 8      1721.988          48.000
> 2020 05 19 06 11 30.0000000  0 13        .000000000000
G12  22429073.414 8 117865561.171 8      3210.156          49.000    22429073.078 8  91843281.033 8      2501.420          50.000
G13  22121044.344 8 116246853.568 8     -3051.328          50.000    22121042.938 6  90581942.000 6     -2377.658          41.000
G15  20995571.516 8 110332460.643 8     -2035.125          51.000    20995572.094 8  85973343.162 8     -1585.812          51.000
G19  21981091.406 6 115511373.220 6      1736.938          37.000    21981086.164 5  90008891.611 5      1353.455          33.000
G20  23524923.422 4 123624306.259 4     -1400.742          28.000
R05  21826113.016 7 116673071.012 7     -4170.984          42.000    21826122.109 5  90745795.185 5     -3244.096          33.000
C21  25006016.430 4 130212878.524 4     -3238.176          29.000
C26  21676239.359 6 112873876.883 6       761.691          36.000
E02  23303007.336 8 122458126.752 8       315.941          51.000    23303008.500 8  93831584.080 8       242.118          51.000
E03  25461289.430 8 133799963.633 8     -2706.773          50.000    25461292.586 8 102522048.248 8     -2073.925          51.000
E08  21999722.164 8 115609319.124 8      -284.859          51.000    21999722.648 8  88583763.491 8      -218.329          50.000
E25  25024217.922 6 131503208.716 6     -1938.941          38.000    25024219.016 6 100762178.466 6     -1485.515          37.000
E30  25002914.531 7 131391194.322 7      2241.781          46.000    25002917.383 7 100676381.464 7      1717.779          46.000
> 2020 05 19 06 12  0.0000000  0 12        .000000000000
G12  22410774.656 8 117769401.474 8      3200.559          51.000    22410774.031 8  91768351.407 8      2493.942          51.000
G13  22138494.250 8 116338555.218 8     -3061.984          49.000    22138492.609 6  90653397.848 6     -2385.959          41.000
G15  21007235.133 8 110393752.821 8     -2050.965          51.000    21007235.430 8  86021103.291 8     -1598.157          51.000
G19  21971229.859 6 115459552.099 6      1718.359          40.000    21971225.047 5  89968511.610 5      1338.987          35.000
R05  21849552.883 7 116798369.199 7     -4181.836          43.000    21849560.164 6  90843249.284 6     -3252.539          36.000
R15  20751357.242 5 110888961.080 5     -2371.168          34.000    20751364.898 5  86246990.963 5     -1844.242          32.000
C26  21671874.906 5 112851150.834 5       753.512          35.000
E02  23301227.906 8 122448774.957 8       307.727          51.000    23301229.203 8  93824418.421 8       235.773          51.000
E03  25476761.969 8 133881274.255 8     -2713.695          49.000    25476764.633 8 102584351.166 8     -2079.316          50.000
E08  22001389.078 8 115618078.003 8      -298.910          51.000    22001389.773 8  88590474.830 8      -228.954          51.000
E25  25035295.836 5 131561424.674 5     -1942.285          34.000    25035296.828 6 100806785.489 6     -1488.074          37.000
E30  24990131.008 7 131324019.404 7      2236.695          47.000    24990133.180 7 100624909.764 7      1713.864          46.000
> 2020 05 19 06 12 30.0000000  0 15        .000000000000
G12  22392528.633 8 117673518.053 8      3190.191          50.000    22392527.172 8  91693637.079 8      2485.866          50.000
G13  22156002.289 8 116430560.833 8     -3073.355          49.000    22156001.039 7  90725090.518 7     -2394.822          44.000
G15  21018986.453 8 110455506.246 8     -2067.188          51.000    21018986.234 8  86069222.813 8     -1610.795          51.000
G19  21961472.672 6 115408276.801 6      1698.691          39.000    21961467.453 5  89928556.937 5      1323.659          32.000
R05  21873049.938 6 116923967.662 6     -4192.867          41.000    21873054.438 5  90940936.935 5     -3261.122          34.000
R15  20764692.266 6 110960184.217 6     -2378.250          36.000    20764691.289 5  86302386.622 5     -1849.750          31.000
R24  23181446.320 5 123961610.013 5     -1384.461          31.000
C21  25043371.680 5 130407403.795 5     -3248.008          30.000
C24  25138777.312 5 130904215.616 5      2474.008          31.000
C26  21667551.797 6 112828643.645 6       745.605          37.000
E02  23299492.617 8 122439656.077 8       298.918          51.000    23299494.039 8  93817431.222 8       229.053          51.000
E03  25492272.141 8 133962781.988 8     -2721.441          49.000    25492273.992 8 102646805.116 8     -2085.188          49.000
E08  22003133.266 8 115627242.785 8      -313.438          51.000    22003134.039 8  88597497.195 8      -240.154          51.000
E25                                                                  25046393.922 6 100851467.298 6     -1491.408          37.000
E30  24977374.039 8 131256981.347 8      2231.082          48.000    24977375.672 7 100573542.949 7      1709.665          46.000
> 2020 05 19 06 13  0.0000000  0 13        .000000000000
G12  22374332.016 8 117577896.088 8      3183.262          48.000    22374330.477 8  91619126.465 8      2480.464          48.000
G13  22173565.352 8 116522852.455 8     -3080.980          51.000    22173564.164 7  90797006.019 7     -2400.767          45.000
G15  21030822.195 8 110517703.347 8     -2080.391          51.000    21030821.398 8  86117688.065 8     -1621.084          51.000
G19  21951817.000 6 115357533.914 6      1682.824          38.000    21951810.398 6  89889016.999 6      1311.292          36.000
R05  21896599.523 6 117049845.922 6     -4200.203          36.000    21896602.156 5  91038842.145 5     -3266.831          32.000
R15  20778057.086 6 111031572.552 6     -2382.125          36.000    20778044.891 4  86357910.811 4     -1852.764          28.000
C24  25124527.039 5 130829976.571 5      2473.262          32.000
C26  21663268.562 6 112806339.851 6       740.387          40.000
E02  23297798.383 8 122430753.752 8       293.422          51.000    23297799.758 8  93810609.948 8       224.836          51.000
E03  25507816.633 8 134044469.505 8     -2725.676          49.000    25507816.891 8 102709396.830 8     -2088.583          48.000
E08  22004951.484 8 115636797.804 8      -324.734          51.000    22004952.281 8  88604818.560 8      -248.822          51.000
E25  25057505.234 6 131678072.587 6     -1947.566          38.000    25057506.641 6 100896211.046 6     -1492.228          38.000
E30  24964640.453 8 131190064.549 8      2228.785          48.000    24964641.828 7 100522269.055 7      1707.729          46.000
> 2020 05 19 06 13 30.0000000  0 13        .000000000000
G12  22356192.461 8 117482574.546 8      3172.320          48.000    22356191.469 8  91544849.890 8      2471.935          48.000
G13  22191189.625 8 116615465.412 8     -3092.473          51.000    22191188.039 7  90869171.933 7     -2409.719          45.000
G15  21042749.078 8 110580379.591 8     -2097.301          51.000    21042747.859 8  86166526.692 8     -1634.260          51.000
G19  21942269.492 6 115307362.607 6      1662.953          39.000    21942264.305 6  89849922.524 6      1295.814          36.000
R05  21920208.195 6 117176037.807 6     -4211.758          37.000    21920209.922 4  91136991.238 4     -3275.812          27.000
R15  20791460.766 6 111103162.293 6     -2390.156          38.000    20791439.836 4  86413567.762 4     -1859.004          29.000
C24  25110294.078 5 130755841.531 5      2469.590          34.000
C26  21659032.031 6 112784276.365 6       731.312          40.000
E02  23296152.414 8 122422104.626 8       283.949          51.000    23296153.875 8  93803982.691 8       217.601          51.000
E03  25523402.148 8 134126372.581 8     -2733.738          48.000    25523401.086 8 102772153.674 8     -2094.733          48.000
E08  22006851.047 8 115646780.304 8      -339.930          51.000    22006851.484 8  88612467.474 8      -260.475          51.000
E25  25068639.695 6 131736584.040 6     -1952.285          40.000    25068642.289 6 100941044.513 6     -1496.044          38.000
E30  24951936.836 7 131123306.349 7      2222.453          47.000    24951939.062 7 100471116.695 7      1703.005          47.000
> 2020 05 19 06 14  0.0000000  0 14        .000000000000
G12  22338111.688 8 117387559.766 8      3162.547          50.000    22338111.016 8  91470812.429 8      2464.325          50.000
G13  22208875.188 8 116708402.579 8     -3102.816          51.000    22208873.805 7  90941590.478 7     -2417.779          45.000
G15  21054767.531 8 110643538.002 8     -2112.855          51.000    21054766.320 8  86215741.062 8     -1646.381          51.000
G19  21932832.094 7 115257770.206 7      1643.812          43.000    21932827.273 6  89811279.147 6      1280.896          37.000
R05  21943874.688 6 117302543.770 6     -4221.516          39.000
R15  20804900.445 5 111174956.983 5     -2395.516          34.000    20804876.797 5  86469401.047 5     -1863.182          32.000
R18  23504029.820 6 125466101.709 6      4040.742          38.000    23504034.461 6  97584764.009 6      3142.799          37.000
C24  25096080.656 5 130681815.393 5      2465.980          32.000
C26  21654842.344 6 112762457.704 6       723.949          39.000
E02  23294555.586 8 122413712.755 8       275.875          51.000    23294557.258 8  93797552.552 8       211.382          51.000
E03  25539028.820 7 134208494.388 7     -2740.594          47.000    25539028.008 8 102835078.130 8     -2099.888          48.000
E08  22008832.797 8 115657194.986 8      -353.930          51.000    22008832.859 8  88620447.546 8      -271.175          51.000
E25  25079797.359 6 131795216.372 6     -1956.059          39.000    25079800.672 6 100985970.556 6     -1498.780          38.000
E30  24939263.945 7 131056711.533 7      2217.477          47.000    24939267.672 7 100420089.510 7      1699.096          47.000
> 2020 05 19 06 14 30.0000000  0 16        .000000000000
G12  22320091.703 8 117292863.188 8      3150.824          51.000    22320090.773 8  91397022.966 8      2455.188          51.000
G13  22226623.492 8 116801672.187 8     -3114.863          50.000    22226622.492 7  91014268.080 7     -2427.166          44.000
G15  21066879.242 8 110707186.699 8     -2130.297          51.000    21066878.438 8  86265337.466 8     -1659.972          50.000
G17  22405399.586 5 117741198.840 5      -368.801          35.000    22405399.859 5  91746359.495 5      -287.377          35.000
G19  21923507.516 7 115208768.402 7      1623.004          44.000    21923501.281 5  89773095.919 5      1264.678          34.000
G24  20630424.672 5 108413612.990 5      1395.750          33.000
R05  21967600.523 7 117429369.596 7     -4233.027          42.000    21967600.797 4  91333990.193 4     -3292.355          26.000
R15  20818378.430 6 111246965.492 6     -2404.168          36.000    20818355.516 5  86525407.582 5     -1869.911          34.000
R18  23481338.844 6 125344974.395 6      4034.855          36.000    23481343.406 6  97490554.000 6      3138.224          37.000
C24  25081889.016 4 130607908.169 4      2460.508          28.000
C26  21650701.617 6 112740893.668 6       714.137          41.000
E02  23293009.469 8 122405587.485 8       266.105          51.000    23293011.055 8  93791326.702 8       203.902          51.000
E03  25554698.195 7 134290843.368 7     -2749.121          46.000    25554699.266 8 102898176.699 8     -2106.496          50.000
E08  22010898.633 8 115668051.781 8      -369.590          51.000    22010898.703 8  88628766.371 8      -283.171          51.000
E25  25090979.406 5 131853978.520 5     -1961.398          35.000    25090982.586 6 101030996.059 6     -1502.719          37.000
E30  24926624.109 7 130990290.268 7      2210.758          47.000    24926628.812 7 100369195.286 7      1694.005          47.000
> 2020 05 19 06 15  0.0000000  0 15        .000000000000
G12  22302126.047 8 117198451.947 8      3140.465          50.000    22302124.672 8  91323455.775 8      2447.115          50.000
G13  22244427.797 8 116895238.217 8     -3125.508          48.000    22244427.344 7  91087176.657 7     -2435.461          43.000
G15  21079077.750 8 110771290.111 8     -2146.211          51.000    21079077.461 8  86315288.160 8     -1672.372          51.000
G17  22407548.961 5 117752504.905 5      -387.953          31.000    22407545.836 5  91755169.478 5      -302.292          30.000
G19  21914288.391 6 115160325.260 6      1603.672          40.000    21914282.461 5  89735348.040 5      1249.621          34.000
G28  24001071.930 5 126126474.349 5     -3097.516          34.000    24001075.648 5  98280391.648 5     -2413.649          31.000
R05  21991378.781 7 117556476.729 7     -4243.309          42.000    21991378.859 4  91432851.340 4     -3300.351          29.000
R18  23458668.453 5 125223961.128 5      4029.738          31.000    23458672.617 5  97396432.576 5      3134.244          35.000
C24  25067713.844 4 130534163.404 4      2457.656          27.000
C26  21646603.352 6 112719550.528 6       706.148          40.000
E02  23291507.453 8 122397694.226 8       257.430          51.000    23291508.492 8  93785278.617 8       197.233          51.000
E03  25570404.492 7 134373384.022 7     -2756.480          47.000    25570407.555 8 102961422.131 8     -2112.022          51.000
E08  22013042.156 8 115679316.730 8      -384.176          51.000    22013042.406 8  88637397.951 8      -294.362          51.000
E25  25102178.773 6 131912835.526 6     -1965.352          36.000    25102181.984 6 101076094.256 6     -1506.009          36.000
E30  24914011.023 7 130924008.721 7      2205.293          47.000    24914015.938 8 100318408.188 8      1689.674          48.000
> 2020 05 19 06 15 30.0000000  0 15        .000000000000
G12  22284222.078 8 117104365.227 8      3133.113          50.000    22284220.680 8  91250141.470 8      2441.387          50.000
G13  22262295.359 7 116989136.137 7     -3133.113          47.000    22262295.516 7  91160343.848 7     -2441.387          44.000
G15  21091369.648 8 110835883.698 8     -2158.832          51.000    21091369.742 8  86365620.789 8     -1682.210          51.000
G17  22409811.086 5 117764398.305 5      -403.914          34.000    22409812.203 5  91764437.050 5      -314.738          35.000
G19  21905182.570 6 115112480.361 6      1587.043          39.000    21905178.852 6  89698066.397 6      1236.657          36.000
G28  24018753.375 5 126219398.041 5     -3096.348          33.000
R05  22015215.734 7 117683898.252 7     -4250.148          42.000    22015216.328 4  91531956.956 4     -3305.671          28.000
R18  23436025.359 5 125103103.958 5      4027.863          32.000    23436032.000 5  97302432.583 5      3132.783          34.000
C24  25053557.984 4 130460469.847 4      2457.133          28.000
C26  21642554.016 6 112698464.965 6       700.867          40.000
E02  23290056.531 8 122390069.385 8       252.047          51.000    23290057.141 8  93779436.206 8       193.118          51.000
E03  25586154.984 8 134456151.945 8     -2760.352          49.000    25586159.078 8 103024841.724 8     -2115.093          51.000
E08  22015270.203 8 115691026.845 8      -395.383          51.000    22015270.852 8  88646370.635 8      -303.030          51.000
E25  25113403.195 6 131971823.437 6     -1966.297          36.000    25113405.766 5 101121292.778 5     -1506.341          35.000
E30  24901431.867 7 130857903.955 7      2202.875          47.000    24901436.289 8 100267756.515 8      1687.923          48.000
> 2020 05 19 06 16  0.0000000  0 15        .000000000000
G12  22266372.047 8 117010562.834 8      3125.684          49.000    22266370.984 8  91177048.690 8      2435.598          49.000
G13  22280218.336 7 117083323.303 7     -3140.777          47.000    22280218.977 7  91233736.382 7     -2447.362          43.000
G15  21103746.602 8 110900924.584 8     -2171.781          51.000    21103746.836 8  86416301.954 8     -1692.297          51.000
G17  22412177.945 5 117776837.965 5      -419.992          35.000    22412180.414 6  91774130.309 6      -327.264          36.000
G19  21896183.477 6 115065194.990 6      1570.680          38.000    21896180.094 4  89661220.625 4      1223.897          29.000
G28  24036444.570 5 126312363.593 5     -3095.598          30.000
R05  22039102.930 6 117811588.678 6     -4256.887          41.000    22039099.266 4  91631260.836 4     -3310.906          25.000
C21  25174747.219 4 131091514.690 4     -3266.016          29.000
C24  25039418.750 4 130386827.428 4      2456.758          29.000
C26  21638545.852 6 112677596.518 6       695.445          37.000
E02  23288648.758 8 122382671.583 8       246.531          51.000    23288649.445 8  93773767.771 8       188.892          51.000
E03  25601941.281 8 134539104.827 8     -2764.336          51.000    25601945.516 8 103088403.018 8     -2118.181          51.000
E08  22017575.008 8 115703141.344 8      -406.824          51.000    22017576.148 8  88655653.154 8      -311.749          51.000
E25  25124645.609 5 132030903.528 5     -1966.980          32.000    25124647.117 5 101166559.658 5     -1506.751          35.000
E30  24888878.727 7 130791935.336 7      2200.441          46.000    24888882.172 7 100217209.142 7      1686.005          47.000
> 2020 05 19 06 16 30.0000000  0 14        .000000000000
G12  22248573.648 8 116917031.334 8      3110.461          49.000    22248572.469 8  91104166.920 8      2423.733          49.000
G13  22298193.406 7 117177782.340 7     -3155.883          47.000    22298193.820 7  91307340.818 7     -2459.129          44.000
G15  21116205.406 8 110966395.827 8     -2192.234          51.000    21116205.195 8  86467318.476 8     -1708.235          51.000
G19  21887288.094 5 115018455.971 5      1546.145          35.000    21887284.680 5  89624800.566 5      1204.782          32.000
G20  23609166.594 4 124067007.551 4     -1550.535          29.000
G28  24054138.953 5 126405354.514 5     -3102.906          31.000
R05  22063036.555 6 117939528.471 6     -4271.555          40.000    22063032.516 4  91730762.566 4     -3322.320          27.000
C21  25193585.680 5 131189607.067 5     -3273.051          31.000
C26  21634575.961 5 112656930.213 5       682.789          35.000
E02  23287281.039 8 122375485.074 8       233.301          51.000    23287281.992 8  93768261.226 8       178.769          51.000
E03  25617759.516 8 134622226.009 8     -2776.285          51.000    25617763.578 8 103152093.260 8     -2127.280          51.000
E08  22019954.062 8 115715645.024 8      -425.922          51.000    22019955.602 8  88665233.883 8      -326.410          51.000
E25                                                                  25135903.133 5 101211882.610 5     -1513.994          34.000
E30  24876348.344 7 130726087.933 7      2190.246          44.000    24876350.883 7 100166754.673 7      1678.166          47.000
> 2020 05 19 06 17  0.0000000  0 16        .000000000000
G12  22230841.344 8 116823846.797 8      3104.949          49.000    22230840.367 8  91031555.675 8      2419.444          49.000
