     3.02           OBSERVATION DATA    M (MIXED)           RINEX VERSION / TYPE
SAVERINEX           SC600               20200507 235930 LCL PGM / RUN BY / DATE
       G = GPS       R = GLONASS       C = COMPASS          COMMENT
       S = SBAS      J = QZSS          E = GALILEO          COMMENT
BEAN                                                        MARKER NAME
1                                                           MARKER NUMBER
GEODETIC                                                    MARKER TYPE
Unige DICCA         GTER                                    OBSERVER / AGENCY
SC60291900056       SC600               2.12(191226)        REC # / TYPE / VERS
                    HEMA45          NONE                    ANT # / TYPE
  4509407.8091   693652.4678  4442337.6214                  APPROX POSITION XYZ
        0.0000        0.0000        0.0000                  ANTENNA: DELTA H/E/N
G    8 C1C L1C D1C S1C C2Y L2Y D2Y S2Y                      SYS / # / OBS TYPES
R    8 C1C L1C D1C S1C C2P L2P D2P S2P                      SYS / # / OBS TYPES
C    8 C1I L1I D1I S1I C7I L7I D7I S7I                      SYS / # / OBS TYPES
E    8 C1C L1C D1C S1C C7Q L7Q D7Q S7Q                      SYS / # / OBS TYPES
DBHZ                                                        COMMENT
     30.000                                                 INTERVAL
  2020    05    07    21    00    0.0000000     GPS         TIME OF FIRST OBS
  2020    05    07    21    59   30.0000000     GPS         TIME OF LAST OBS
     0                                                      RCV CLOCK OFFS APPL
G L1C  0.00000                                              SYS / PHASE SHIFT
G L2Y  0.00000                                              SYS / PHASE SHIFT
R L1C  0.00000                                              SYS / PHASE SHIFT
R L2P  0.25000                                              SYS / PHASE SHIFT
C L1I  0.00000                                              SYS / PHASE SHIFT
C L7I  0.00000                                              SYS / PHASE SHIFT
E L1C  0.50000                                              SYS / PHASE SHIFT
E L7Q -0.25000                                              SYS / PHASE SHIFT
 14 R04  6 R05  1 R06 -4 R07  5 R09 -2 R10 -5 R14 -7 R15  0 GLONASS SLOT / FRQ #
    R16 -1 R18 -3 R19  3 R20  2 R21  4 R22 -3               GLONASS SLOT / FRQ #
 C1C   71.950 C2C   71.950 C2P   71.950                     GLONASS COD/PHS/BIS
    18                                                      LEAP SECONDS
*** Above antenna height is from mark to ANTENNA BOTTOM.    COMMENT
    17     4        0.0000        ANT MEASURE TYPE/HEIGT    COMMENT
    0.0000    0.0000    0.0458    0.0405    0.0000          COMMENT
                    BASE STATION                            COMMENT
                                                            END OF HEADER
> 2020 05 07 21 00  0.0000000  0 17        .000000000000
G01  20625259.164 8 108386470.008 8     -1327.832          51.000    20625260.570 8  84457001.905 8     -1034.674          51.000
G03  20361781.227 7 107001923.306 7       438.207          46.000    20361781.469 7  83378155.031 7       341.460          46.000
G04  22323675.367 7 117311758.948 7      3210.340          47.000    22323674.422 7  91411733.911 7      2501.564          45.000
G11  22195250.875 8 116636862.469 8     -3439.934          49.000    22195252.273 7  90885843.793 7     -2680.468          45.000
G14  23165553.953 5 121735801.694 5     -2547.492          30.000
G22  20921870.453 8 109945275.048 8     -1043.609          51.000    20921866.883 8  85671570.200 8      -813.202          50.000
R05  20627795.477 5 110267317.513 5     -2903.457          30.000    20627785.641 5  85763451.480 5     -2258.250          33.000
R06  19479004.078 8 103943762.646 8      1191.199          48.000
R07  22908096.305 6 122628869.551 6      3620.895          41.000    22908098.016 6  95378032.912 6      2816.251          38.000
R20  20849519.445 6 111491755.400 6     -3227.090          36.000    20849525.125 7  86715825.188 7     -2509.959          46.000
R21  19394941.930 6 103786254.059 6      1104.027          38.000    19394943.352 5  80722635.795 5       858.688          31.000
C05                                                                  39695748.352 5 159838328.883 5       -28.043          34.000
C11  23234185.836 8 120986487.918 8     -2686.699          49.000    23234185.789 8  93554418.497 8     -2077.372          50.000
C14  21588327.703 8 112416095.897 8       615.508          50.000    21588325.828 8  86927284.134 8       476.046          51.000
C21  25062946.508 5 130509351.981 5     -2805.777          35.000
E03  23742827.070 8 124769410.811 8      1274.770          51.000    23742829.852 8  95602584.365 8       976.786          51.000
E05                                                                  24365576.031 7  98110076.944 7     -1147.965          46.000
> 2020 05 07 21 00 30.0000000  0 15        .000000000000
G01  20632878.148 8 108426508.613 8     -1340.273          51.000    20632879.539 8  84488200.814 8     -1044.369          51.000
G03  20359311.633 7 106988945.570 7       428.250          45.000    20359311.773 7  83368042.514 7       333.701          45.000
G04  22305374.531 7 117215591.165 7      3202.145          47.000    22305373.758 7  91336798.008 7      2495.181          44.000
G11  22214916.789 8 116740202.105 8     -3448.172          51.000    22214917.047 7  90966368.203 7     -2686.887          45.000
G22  20927852.578 8 109976710.943 8     -1050.914          51.000    20927848.883 8  85696065.708 8      -818.894          51.000
R05  20644139.844 5 110354732.733 5     -2913.160          30.000
R06  19472358.219 8 103908300.354 8      1174.059          48.000
R07  22887824.805 6 122520359.585 6      3614.082          41.000    22887826.992 6  95293636.306 6      2810.956          40.000
R20  20867669.727 6 111588811.273 6     -3242.430          37.000    20867675.016 7  86791313.099 7     -2521.890          46.000
R21  19388817.289 6 103753486.894 6      1081.727          36.000    19388818.508 5  80697150.220 5       841.343          32.000
C11  23249693.258 7 121067243.519 7     -2695.828          47.000    23249694.164 8  93616863.819 8     -2084.552          50.000
C14  21584812.648 8 112397792.456 8       606.008          50.000    21584810.789 8  86913130.752 8       468.616          51.000
C21  25079113.891 5 130593534.706 5     -2805.555          32.000
E03  23735581.039 8 124731332.426 8      1265.070          51.000    23735584.031 8  95573407.409 8       969.337          51.000
E05                                                                  24374153.484 7  98144617.569 7     -1153.733          45.000
> 2020 05 07 21 01  0.0000000  0 16        .000000000000
G01  20640560.086 8 108466877.485 8     -1346.242          51.000    20640561.625 8  84519657.086 8     -1049.020          51.000
G03  20356891.523 7 106976229.105 7       424.680          45.000    20356892.500 7  83358133.612 7       330.919          45.000
G04  22287114.898 8 117119638.397 8      3199.668          48.000    22287114.375 7  91262029.636 7      2493.251          44.000
G11  22234622.156 8 116843748.794 8     -3450.121          51.000    22234621.258 7  91047053.927 7     -2688.406          46.000
G22  20933868.766 8 110008326.116 8     -1052.020          51.000    20933865.188 8  85720700.922 8      -819.755          50.000
R05  20660507.781 6 110442176.142 6     -2914.434          38.000    20660478.648 5  85899444.540 5     -2266.782          31.000
R06  19465801.578 8 103873313.427 8      1163.336          48.000
R07  22867584.328 7 122412010.829 7      3613.988          42.000    22867587.219 7  95209365.110 7      2810.883          42.000
R20  20885897.641 6 111686280.178 6     -3250.746          39.000    20885902.164 7  86867122.217 7     -2528.358          47.000
R21  19382810.578 6 103721345.139 6      1065.840          39.000    19382811.523 5  80672151.086 5       828.987          34.000
C05                                                                  39696146.539 5 159839932.260 5       -20.942          34.000
C11  23265245.922 8 121148233.752 8     -2698.781          48.000    23265246.992 8  93679490.632 8     -2086.839          49.000
C14  21581344.805 8 112379734.496 8       602.605          50.000    21581343.102 8  86899167.212 8       465.964          51.000
C21  25095272.570 5 130677669.462 5     -2799.602          30.000
E03  23728381.227 8 124693497.184 8      1261.926          51.000    23728384.359 8  95544416.739 8       966.963          51.000
E05  24382763.922 5 128132288.626 5     -1507.281          34.000    24382765.922 7  98179299.540 7     -1154.741          45.000
> 2020 05 07 21 01 30.0000000  0 16        .000000000000
G01  20648320.438 8 108507658.382 8     -1357.137          51.000    20648322.234 8  84551434.397 8     -1057.512          51.000
G03  20354536.953 7 106963855.442 7       415.805          45.000    20354538.219 7  83348491.794 7       324.004          45.000
G04  22268912.594 8 117023984.661 8      3192.555          48.000    22268912.484 7  91187494.289 7      2487.705          45.000
G11  22254382.016 8 116947582.437 8     -3456.773          51.000    22254380.234 7  91127963.235 7     -2693.590          46.000
G22  20939934.297 8 110040201.442 8     -1057.770          51.000    20939930.945 8  85745538.858 8      -824.233          50.000
R05  20676926.625 5 110529963.104 5     -2921.660          35.000    20676894.898 5  85967712.092 5     -2272.408          30.000
R06  19459349.445 8 103838884.691 8      1147.543          48.000
R07  22847390.367 7 122303908.523 7      3608.574          42.000    22847393.742 7  95125285.580 7      2806.672          43.000
R20  20904217.914 6 111784243.148 6     -3264.469          38.000    20904222.258 8  86943315.632 8     -2539.034          48.000
R21  19376936.438 6 103689914.324 6      1045.102          37.000    19376939.141 5  80647704.928 5       812.857          35.000
C05                                                                  39696335.422 5 159840692.765 5       -18.235          34.000
C11  23280859.445 8 121229537.972 8     -2706.324          48.000    23280859.930 8  93742360.245 8     -2092.623          49.000
C14  21577939.383 8 112362002.596 8       594.695          49.000    21577937.938 8  86885455.807 8       459.886          51.000
C21  25111439.008 4 130761858.614 4     -2798.949          29.000
E03  23721243.023 8 124655987.018 8      1254.102          50.000    23721246.523 8  95515675.182 8       960.950          51.000
E05  24391427.102 5 128177816.452 5     -1512.480          33.000    24391429.430 7  98214184.464 7     -1159.195          45.000
> 2020 05 07 21 02  0.0000000  0 16        .000000000000
G01  20656164.422 8 108548878.775 8     -1372.488          51.000    20656166.367 8  84583554.161 8     -1069.471          51.000
G03  20352252.539 7 106951851.927 7       403.000          44.000    20352253.344 7  83339138.428 7       314.026          44.000
G04  22250773.156 8 116928660.119 8      3180.836          49.000    22250773.711 7  91113215.449 7      2478.573          46.000
G11  22274200.969 8 117051728.126 8     -3467.820          51.000    22274198.766 7  91209115.686 7     -2702.198          46.000
G22  20946054.422 8 110072364.096 8     -1068.023          51.000    20946051.156 8  85770600.681 8      -832.226          51.000
R05  20693413.242 5 110618097.411 5     -2933.051          30.000    20693374.234 4  86036207.545 4     -2281.265          29.000
R06  19453007.812 8 103805042.308 8      1127.316          49.000
R07  22827248.828 7 122196082.669 7      3598.520          43.000    22827251.742 7  95041421.051 7      2798.849          43.000
R20  20922634.578 6 111882725.364 6     -3282.012          37.000    20922639.758 8  87019912.899 8     -2552.676          49.000
R21  19371201.297 6 103659225.329 6      1019.547          39.000    19371205.359 6  80623835.666 6       792.981          36.000
C05                                                                  39696527.766 5 159841467.099 5       -19.528          34.000
C11  23296538.711 8 121311182.093 8     -2718.293          49.000    23296538.469 8  93805492.690 8     -2101.999          50.000
C14  21574601.633 8 112344623.884 8       582.211          49.000    21574600.453 8  86872017.504 8       450.163          51.000
C21  25127620.344 5 130846110.027 5     -2800.586          33.000
E03  23714172.477 8 124618829.955 8      1241.512          51.000    23714175.742 8  95487204.199 8       951.300          51.000
E05  24400144.711 5 128223625.545 5     -1523.312          34.000    24400148.562 7  98249292.640 7     -1167.210          45.000
> 2020 05 07 21 02 30.0000000  0 15        .000000000000
G01  20664105.039 8 108590606.538 8     -1393.879          51.000    20664106.789 8  84616069.287 8     -1086.139          51.000
G03  20350051.406 7 106940286.372 7       383.695          45.000    20350052.125 7  83330126.315 7       298.983          45.000
G04  22232709.742 8 116833735.150 8      3162.852          49.000    22232711.031 7  91039247.958 7      2464.560          46.000
G11  22294091.445 8 117156251.720 8     -3484.902          51.000    22294089.367 7  91290562.603 7     -2715.508          46.000
G22  20952242.008 8 110104881.273 8     -1084.238          50.000    20952239.047 8  85795938.754 8      -844.861          50.000
R06  19446788.781 8 103771854.998 8      1100.996          48.000
R07  22807172.352 7 122088603.942 7      3582.402          45.000    22807173.953 7  94957826.526 7      2786.313          42.000
R20  20941160.406 5 111981793.781 5     -3306.410          35.000    20941166.453 8  87096966.098 8     -2571.652          48.000
R21  19365619.141 7 103629349.982 7       987.883          42.000    19365621.992 6  80600599.312 6       768.353          37.000
C05                                                                  39696736.906 5 159842309.333 5       -25.083          35.000
C11  23312295.719 8 121393231.818 8     -2736.422          49.000    23312295.305 8  93868938.739 8     -2116.026          51.000
C14  21571344.625 8 112327665.434 8       563.590          49.000    21571343.766 8  86858904.181 8       435.731          51.000
C21  25143828.250 5 130930505.731 5     -2809.988          33.000
E03  23707182.625 8 124582094.327 8      1222.863          51.000    23707184.930 8  95459056.107 8       936.978          51.000
E05  24408931.547 6 128269802.945 6     -1540.258          38.000    24408935.867 7  98284675.252 7     -1179.973          45.000
> 2020 05 07 21 03  0.0000000  0 15        .000000000000
G01  20672108.344 8 108632664.383 8     -1412.145          51.000    20672109.797 8  84648841.622 8     -1100.372          51.000
G03  20347900.195 7 106928981.392 7       367.812          45.000    20347901.062 7  83321317.250 7       286.610          44.000
G04  22214689.078 8 116739034.938 8      3148.195          48.000    22214691.055 7  90965455.595 7      2453.139          47.000
G11  22314019.562 8 117260974.221 8     -3498.648          51.000    22314017.406 7  91372164.539 7     -2726.217          45.000
G22  20958463.305 8 110137575.381 8     -1097.383          50.000    20958460.867 8  85821414.685 8      -855.103          51.000
R06  19440658.742 8 103739142.947 8      1077.730          48.000
R07  22787126.562 7 121981293.910 7      3569.383          45.000    22787127.258 6  94874363.221 6      2776.187          41.000
R20  20959762.039 5 112081265.473 5     -3326.344          34.000    20959768.117 8  87174332.978 8     -2587.156          48.000
R21  19360155.508 7 103600110.086 7       959.309          42.000    19360157.781 6  80577857.178 6       746.129          37.000
C05                                                                  39696928.977 5 159843082.876 5       -28.275          34.000
C11  23328096.578 8 121475510.030 8     -2751.020          49.000    23328096.109 8  93932561.457 8     -2127.202          51.000
C14  21568134.773 8 112310951.353 8       548.375          49.000    21568133.883 8  86845979.807 8       424.177          51.000
C21  25160027.945 5 131014861.013 5     -2815.723          32.000
E03  23700239.156 8 124545603.163 8      1207.719          51.000    23700240.570 8  95431095.343 8       925.416          51.000
E05  24417753.344 6 128316160.020 6     -1552.441          37.000    24417757.602 7  98320195.573 7     -1189.814          46.000
> 2020 05 07 21 03 30.0000000  0 16        .000000000000
G01  20680186.461 8 108675114.909 8     -1429.523          51.000    20680187.852 8  84681919.936 8     -1113.914          51.000
G03  20345810.312 7 106917999.481 7       352.770          42.000    20345811.609 7  83312759.927 7       274.885          42.000
G04  22196723.570 8 116644624.677 8      3134.121          48.000    22196726.109 7  90891889.162 7      2442.172          46.000
G11  22333996.453 8 117365956.012 8     -3511.609          49.000    22333994.023 7  91453968.550 7     -2736.316          43.000
G22  20964730.219 8 110170508.247 8     -1109.652          51.000    20964727.984 8  85847076.658 8      -864.664          50.000
R05  20743184.539 6 110884163.641 6     -2977.570          37.000    20743160.516 5  86243199.485 5     -2315.888          30.000
R06  19434629.352 7 103706968.995 7      1055.398          47.000
R07  22767123.148 7 121874218.253 7      3557.164          43.000    22767124.578 7  94791082.187 7      2766.683          42.000
R20  20978449.406 5 112181202.247 5     -3347.176          33.000    20978456.695 8  87252061.584 8     -2603.359          48.000
R21  19354822.414 7 103571571.969 7       931.555          42.000    19354824.477 6  80555660.875 6       724.543          38.000
C05                                                                  39697116.008 5 159843835.852 5       -30.767          34.000
C11  23343953.070 8 121558077.201 8     -2764.949          49.000    23343952.125 8  93996407.628 8     -2138.001          50.000
C14  21564983.906 8 112294543.538 8       533.965          49.000    21564982.820 8  86833292.277 8       412.814          51.000
C21  25176231.211 5 131099237.273 5     -2820.480          35.000
E03  23693353.797 8 124509419.537 8      1192.945          51.000    23693354.875 8  95403370.256 8       914.075          51.000
E05  24426621.375 6 128362758.324 6     -1565.113          36.000    24426625.188 7  98355900.794 7     -1199.344          46.000
> 2020 05 07 21 04  0.0000000  0 15        .000000000000
G01  20688364.258 8 108718088.159 8     -1440.613          51.000    20688365.758 8  84715405.589 8     -1122.556          51.000
G03  20343806.438 7 106907470.587 7       343.891          45.000    20343808.133 7  83304555.594 7       267.967          45.000
G04  22178838.414 8 116550636.862 8      3126.395          48.000    22178841.180 7  90818651.929 7      2436.155          45.000
G11  22354046.445 7 117471324.893 7     -3518.168          47.000    22354044.117 7  91536074.243 7     -2741.427          42.000
G22  20971067.422 8 110203809.679 8     -1115.641          51.000    20971064.852 8  85873025.822 8      -869.330          50.000
R06  19428725.328 7 103675466.269 7      1039.418          47.000
R07  22747188.484 7 121767511.146 7      3551.387          43.000    22747191.078 7  94708087.797 7      2762.190          43.000
R20  20997248.758 5 112281733.925 5     -3359.977          33.000    20997256.336 8  87330252.958 8     -2613.312          49.000
R21  19349645.922 7 103543870.670 7       909.957          44.000    19349647.953 6  80534115.411 6       707.744          39.000
C05                                                                  39697322.836 5 159844668.158 5       -28.556          34.000
C11  23359889.727 8 121641060.730 8     -2772.570          49.000    23359887.969 8  94060575.755 8     -2143.867          51.000
C14  21561916.562 8 112278570.594 8       525.676          49.000    21561915.547 8  86820941.007 8       406.492          51.000
C21  25192464.078 6 131183762.508 6     -2819.625          36.000
E03  23686551.430 8 124473673.893 8      1184.715          51.000    23686552.594 8  95375980.760 8       907.748          51.000
E05  24435559.906 6 128409726.881 6     -1571.359          40.000    24435563.164 7  98391889.704 7     -1203.909          47.000
> 2020 05 07 21 04 30.0000000  0 15        .000000000000
G01  20696612.742 8 108761433.113 8     -1447.953          51.000    20696614.305 8  84749180.878 8     -1128.275          51.000
G03  20341860.477 7 106897243.533 7       338.914          45.000    20341862.477 7  83296586.481 7       264.092          46.000
G04  22161005.336 7 116456922.998 7      3122.184          47.000    22161007.656 7  90745628.180 7      2432.873          44.000
G11  22374140.930 7 117576928.045 7     -3520.926          47.000    22374139.086 7  91618362.463 7     -2743.579          43.000
G22  20977445.953 8 110237328.002 8     -1117.828          51.000    20977442.977 8  85899143.991 8      -871.035          51.000
R06  19422918.391 8 103644480.276 8      1027.402          48.000
R07  22727295.180 7 121661020.347 7      3549.051          44.000    22727298.148 7  94625261.662 7      2760.376          43.000
R20  21016130.336 5 112382704.629 5     -3369.605          34.000    21016138.438 8  87408785.740 8     -2620.804          50.000
R21  19344597.242 7 103516854.779 7       892.184          43.000    19344599.609 6  80513103.048 6       693.921          40.000
C05                                                                  39697520.594 5 159845465.280 5       -23.742          34.000
C11  23375876.914 7 121724309.395 7     -2776.410          47.000    23375874.719 8  94124948.913 8     -2146.739          50.000
C14  21558904.141 8 112262882.750 8       521.254          50.000    21558902.953 8  86808810.185 8       403.193          51.000
C21  25208697.234 6 131268286.257 6     -2814.672          36.000
E03  23679803.469 8 124438215.623 8      1180.395          51.000    23679805.008 8  95348811.451 8       904.449          51.000
E05  24444539.859 7 128456913.610 7     -1573.371          43.000    24444542.891 7  98428045.730 7     -1205.522          47.000
> 2020 05 07 21 05  0.0000000  0 15        .000000000000
G01  20704939.078 8 108805187.732 8     -1468.754          51.000    20704940.758 8  84783275.370 8     -1144.484          51.000
G03  20339979.383 7 106887356.366 7       320.426          47.000    20339981.586 7  83288882.217 7       249.682          47.000
G04  22143231.828 7 116363523.698 7      3104.566          46.000    22143232.703 7  90672849.544 7      2419.146          42.000
G11  22394287.461 8 117682801.420 8     -3537.074          48.000    22394286.258 7  91700861.238 7     -2756.162          43.000
G22  20983872.867 8 110271100.903 8     -1133.359          51.000    20983869.734 8  85925460.540 8      -883.137          50.000
R06  19417215.703 8 103614050.372 8      1001.598          48.000
R07  22707449.672 7 121554786.843 7      3533.340          45.000    22707453.117 6  94542635.640 6      2748.153          41.000
R20  21035101.375 6 112484150.622 6     -3393.090          36.000    21035109.469 8  87487688.201 8     -2639.070          50.000
R21  19339683.773 7 103490565.690 7       860.805          43.000    19339686.016 6  80492655.985 6       669.515          40.000
C11  23391921.695 7 121807859.511 7     -2793.277          47.000    23391919.664 8  94189555.186 8     -2160.051          51.000
C14  21555953.719 8 112247517.484 8       503.430          50.000    21555952.133 8  86796928.796 8       389.278          51.000
C21  25224937.312 6 131352845.306 6     -2822.660          38.000
E03  23673117.141 8 124403083.181 8      1162.207          51.000    23673119.531 8  95321891.805 8       890.537          51.000
E05  24453568.023 7 128504355.406 7     -1589.051          42.000    24453571.094 7  98464397.244 7     -1217.527          47.000
E15  23336618.336 6 122634759.127 6       929.113          38.000    23336616.453 6  93966885.886 6       711.924          37.000
> 2020 05 07 21 05 30.0000000  0 17        .000000000000
G01  20713343.781 8 108849354.270 8     -1479.090          51.000    20713345.539 8  84817690.850 8     -1152.538          51.000
G03  20338163.008 7 106877811.110 7       312.699          45.000    20338165.016 7  83281444.373 7       243.662          45.000
G04  22125518.367 7 116270443.636 7      3097.520          44.000    22125518.180 7  90600319.644 7      2413.652          43.000
G11  22414485.789 8 117788945.241 8     -3542.473          48.000    22414485.273 7  91783570.741 7     -2760.368          45.000
G22  20990348.461 8 110305129.852 8     -1138.426          51.000    20990345.219 8  85951976.608 8      -887.085          51.000
R05  20810324.422 5 111243088.242 5     -3008.922          32.000    20810313.539 5  86522375.019 5     -2340.279          30.000
R06  19411617.562 8 103584178.031 8       986.586          48.000
R07  22687652.758 7 121448814.623 7      3528.195          43.000    22687656.680 6  94460212.787 6      2744.149          40.000
R20  21054161.672 6 112586071.814 6     -3404.828          37.000    21054169.250 8  87566960.238 8     -2648.200          48.000
R21  19334907.484 7 103465007.845 7       839.859          44.000    19334910.039 6  80472777.663 6       653.227          41.000
C05                                                                  39697911.258 5 159847037.723 5       -25.741          34.000
C11  23408024.531 8 121891711.791 8     -2799.957          48.000    23408022.883 8  94254395.078 8     -2165.086          51.000
C14  21553065.406 8 112232476.761 8       496.105          50.000    21553063.711 8  86785298.377 8       383.693          51.000
C21  25241183.562 6 131437441.223 6     -2820.387          37.000
E03  23666493.523 8 124368279.132 8      1154.840          51.000    23666496.688 8  95295223.797 8       884.871          51.000
E05  24462644.734 7 128552053.387 7     -1594.027          43.000    24462647.586 7  98500945.057 7     -1221.335          47.000
E15  23331323.078 6 122606940.583 6       922.297          38.000    23331323.875 6  93945570.388 6       706.815          39.000
> 2020 05 07 21 06  0.0000000  0 15        .000000000000
G01  20721823.648 8 108893916.740 8     -1496.488          51.000    20721825.656 8  84852414.853 8     -1166.092          51.000
G03  20336408.492 7 106868591.836 7       297.430          45.000    20336410.336 7  83274260.491 7       231.763          45.000
G04  22107863.156 7 116177669.413 7      3082.820          46.000    22107863.234 7  90528028.031 7      2402.198          44.000
G11  22434732.328 8 117895341.337 8     -3555.141          49.000    22434732.555 7  91866476.799 7     -2770.239          46.000
G22  20996869.734 8 110339398.713 8     -1150.742          51.000    20996866.375 8  85978679.627 8      -896.682          51.000
R06  19406120.875 7 103554847.812 7       964.047          47.000
R07  22667902.961 7 121343089.547 7      3515.504          44.000    22667905.938 6  94377982.139 6      2734.281          40.000
R20  21073307.625 6 112688449.571 6     -3424.766          37.000    21073313.844 7  87646587.378 7     -2663.710          45.000
R21  19330265.352 7 103440167.623 7       811.637          44.000    19330268.141 7  80453457.490 7       631.273          42.000
C11  23424182.320 8 121975848.955 8     -2813.629          49.000    23424181.008 8  94319455.254 8     -2175.800          51.000
C14  21550236.453 8 112217744.620 8       481.453          50.000    21550234.656 8  86773906.571 8       372.218          51.000
C21  25257432.688 5 131522057.282 5     -2825.469          35.000
E03  23659929.977 8 124333787.959 8      1139.984          51.000    23659933.320 8  95268795.528 8       873.471          51.000
E05  24471767.000 7 128599990.629 7     -1606.566          45.000    24471769.352 7  98537676.181 7     -1230.919          47.000
E15  23326084.172 6 122579413.586 6       908.312          37.000    23326088.055 6  93924478.327 6       695.788          40.000
> 2020 05 07 21 06 30.0000000  0 16        .000000000000
G01  20730396.844 8 108938970.602 8     -1507.332          51.000    20730399.258 8  84887521.756 8     -1174.544          51.000
G03  20334734.531 7 106859793.911 7       288.887          46.000    20334736.094 7  83267404.973 7       225.107          46.000
G04  22090285.656 7 116085298.968 7      3075.016          47.000    22090286.117 7  90456051.073 7      2396.116          45.000
G11  22455044.922 8 118002083.308 8     -3561.145          50.000    22455045.547 7  91949652.360 7     -2774.918          46.000
G22  21003454.695 8 110374002.547 8     -1156.355          51.000    21003451.320 8  86005643.665 8      -901.056          51.000
R06  19400743.977 8 103526156.058 8       948.480          48.000
R07  22648218.578 7 121237710.374 7      3509.598          46.000    22648219.219 6  94296020.611 6      2729.690          40.000
R20  21092556.875 6 112791378.578 6     -3437.336          37.000    21092560.336 6  87726643.227 6     -2673.487          41.000
R21  19325775.898 7 103416144.499 7       789.742          45.000    19325778.734 7  80434772.828 7       614.244          42.000
C05                                                                  39698306.242 5 159848628.784 5       -26.581          34.000
C11  23440412.977 8 122060364.059 8     -2820.793          50.000    23440411.641 8  94384807.696 8     -2181.283          51.000
C14  21547484.852 8 112203415.533 8       473.555          50.000    21547482.953 8  86762826.402 8       366.119          51.000
C21  25273703.211 5 131606787.428 5     -2823.727          34.000
E03  23653444.336 8 124299705.554 8      1131.875          51.000    23653447.812 8  95242680.465 8       867.278          51.000
E05  24480952.656 7 128648261.522 7     -1611.996          45.000    24480954.766 8  98574662.965 8     -1235.211          48.000
E15  23320919.359 6 122552275.274 6       900.492          37.000    23320925.289 6  93903683.989 6       690.203          40.000
> 2020 05 07 21 07  0.0000000  0 16        .000000000000
G01  20739026.023 8 108984319.741 8     -1518.227          49.000    20739028.883 8  84922858.746 8     -1183.034          49.000
G03  20333103.391 7 106851221.172 7       280.484          46.000    20333104.672 7  83260724.949 7       218.559          45.000
G04  22072748.695 8 115993138.801 8      3066.883          49.000    22072749.258 7  90384237.972 7      2389.779          46.000
G11  22475385.820 8 118108973.026 8     -3567.113          51.000    22475385.859 7  92032943.041 7     -2779.572          45.000
G22  21010066.016 8 110408744.913 8     -1161.992          51.000    21010062.688 8  86032715.645 8      -905.445          51.000
R06  19395449.625 7 103497903.678 7       932.754          47.000
R07  22628561.234 7 121132479.571 7      3503.621          47.000    22628559.625 7  94214174.539 7      2725.042          42.000
R20  21111871.352 6 112894657.035 6     -3449.773          40.000    21111872.461 7  87806970.847 7     -2683.160          42.000
R21  19321402.352 7 103392741.307 7       767.945          46.000    19321405.273 7  80416570.370 7       597.291          43.000
C05                                                                  39698487.500 5 159849357.974 5       -24.125          34.000
C11  23456678.195 8 122145061.337 8     -2827.965          49.000    23456677.055 8  94450300.998 8     -2186.587          51.000
C14  21544773.148 8 112189294.981 8       465.578          49.000    21544771.078 8  86751907.483 8       360.166          51.000
C21  25289957.867 5 131691436.640 5     -2821.770          32.000
E03  23646999.453 8 124265836.242 8      1123.859          51.000    23647003.188 8  95216728.682 8       861.163          51.000
E05  24490164.062 7 128696668.943 7     -1617.367          46.000    24490166.445 7  98611754.369 7     -1239.186          47.000
E15  23315791.734 6 122525330.919 6       893.449          38.000    23315798.445 6  93883038.324 6       684.606          41.000
> 2020 05 07 21 07 30.0000000  0 16        .000000000000
G01  20747751.453 8 109030174.903 8     -1544.934          49.000    20747754.398 8  84958590.061 8     -1203.844          49.000
G03  20331555.141 7 106843084.309 7       256.062          47.000    20331556.180 7  83254384.556 7       199.532          47.000
G04  22055292.391 8 115901402.165 8      3042.867          50.000    22055293.070 7  90312754.911 7      2371.068          46.000
G11  22495794.547 8 118216218.968 8     -3588.684          51.000    22495793.812 7  92116511.273 7     -2796.377          44.000
G22  21016743.492 8 110443835.692 8     -1183.488          51.000    21016740.312 8  86060059.107 8      -922.199          51.000
R05  20878298.641 6 111606413.866 6     -3055.555          37.000
R06  19390277.438 8 103470304.527 8       901.066          48.000
R07  22608971.281 7 121027613.259 7      3481.328          47.000    22608968.969 7  94132611.935 7      2707.703          43.000
R20  21131291.008 6 112998497.181 6     -3478.988          41.000    21131291.719 7  87887735.364 7     -2705.880          44.000
R21  19317185.336 7 103370174.868 7       730.211          47.000    19317188.234 7  80399018.685 7       567.942          43.000
C05                                                                  39698685.883 5 159850157.328 5       -33.939          34.000
C11  23473017.812 8 122230148.122 8     -2850.547          48.000    23473016.969 8  94516095.529 8     -2204.263          50.000
C14  21542141.562 8 112175591.625 8       441.941          49.000    21542139.250 8  86741311.201 8       341.689          51.000
E03  23640635.664 8 124232391.200 8      1099.898          51.000    23640639.359 8  95191101.973 8       842.740          51.000
E05  24499441.461 7 128745422.606 7     -1638.695          47.000    24499444.219 7  98649111.086 7     -1255.752          47.000
E15  23310742.453 6 122498792.805 6       869.766          40.000    23310748.461 6  93862703.913 6       666.552          41.000
> 2020 05 07 21 08  0.0000000  0 15        .000000000000
G01  20756559.352 8 109076462.036 8     -1546.434          50.000    20756562.375 8  84994657.977 8     -1205.013          50.000
G03  20330075.773 7 106835309.379 7       256.812          46.000    20330076.789 7  83248326.157 7       200.114          46.000
G04  22037903.016 8 115810017.642 8      3043.891          50.000    22037903.594 7  90241546.222 7      2371.866          47.000
G11  22516256.609 8 118323745.564 8     -3585.211          51.000    22516255.016 7  92200298.195 7     -2793.671          44.000
G22  21023473.148 8 110479200.816 8     -1179.785          51.000    21023470.164 8  86087616.352 8      -919.313          50.000
R05  20895418.906 5 111697944.828 5     -3051.844          35.000
R06  19385213.867 8 103443283.460 8       894.727          48.000
R07  22589435.117 7 120923038.185 7      3484.633          45.000    22589433.672 7  94051275.801 7      2710.270          44.000
R20  21150800.438 6 113102821.428 6     -3482.016          41.000    21150801.734 7  87968876.427 7     -2708.234          46.000
R21  19313111.062 7 103348372.391 7       717.684          47.000    19313113.664 7  80382061.217 7       558.198          43.000
C11  23489417.664 7 122315549.679 7     -2848.395          47.000    23489416.734 8  94582133.456 8     -2202.547          48.000
C14  21539576.055 8 112162232.030 8       443.223          50.000    21539573.672 8  86730980.726 8       342.707          51.000
E03  23634338.500 8 124199296.880 8      1100.891          51.000    23634342.000 8  95165744.002 8       843.575          51.000
E05  24508770.617 7 128794447.576 7     -1635.113          47.000    24508773.578 7  98686675.662 7     -1252.852          47.000
E15  23305756.758 6 122472588.404 6       871.516          41.000    23305762.344 7  93842625.251 7       667.764          43.000
> 2020 05 07 21 08 30.0000000  0 15        .000000000000
G01  20765439.617 8 109123127.515 8     -1563.414          51.000    20765442.445 8  85031020.652 8     -1218.245          51.000
G03  20328654.648 7 106827842.515 7       242.098          46.000    20328656.227 7  83242507.851 7       188.648          46.000
G04  22020570.711 8 115718933.970 8      3029.586          50.000    22020571.242 7  90170571.966 7      2360.719          47.000
G11  22536761.328 8 118431496.848 8     -3597.074          50.000    22536759.234 7  92284260.219 7     -2802.915          44.000
G22  21030244.789 8 110514786.220 8     -1191.500          50.000    21030241.898 8  86115345.241 8      -928.442          50.000
R05  20912582.359 5 111789699.872 5     -3063.809          34.000
R06  19380248.547 8 103416785.512 8       872.898          48.000
R07  22569943.633 7 120818701.404 7      3472.266          46.000    22569942.781 7  93970124.967 7      2700.651          44.000
R20  21170389.211 6 113207572.606 6     -3500.422          38.000    21170391.203 7  88050349.550 7     -2722.550          47.000
R21  19309170.016 8 103327281.331 8       689.488          48.000    19309172.000 7  80365657.059 7       536.272          43.000
C11  23505867.188 7 122401211.256 7     -2861.305          46.000    23505865.992 7  94648372.431 7     -2212.576          47.000
C14  21537066.242 8 112149162.813 8       429.141          50.000    21537064.000 8  86720874.775 8       331.869          51.000
E03  23628097.656 8 124166499.888 8      1086.609          51.000    23628100.859 8  95140613.862 8       832.588          51.000
E05  24518140.688 7 128843689.001 7     -1646.582          47.000    24518143.805 7  98724406.098 7     -1261.640          47.000
E15  23300824.469 6 122446665.537 6       857.816          41.000    23300829.969 7  93822762.273 7       657.186          43.000
> 2020 05 07 21 09  0.0000000  0 15        .000000000000
G01  20774410.031 8 109170265.053 8     -1579.305          51.000    20774412.297 8  85067751.169 8     -1230.627          51.000
G03  20327310.008 7 106820777.546 7       228.637          45.000    20327311.492 7  83237002.687 7       178.158          45.000
G04  22003313.594 8 115628247.551 8      3015.996          48.000    22003314.391 7  90099907.234 7      2350.127          47.000
G11  22557325.664 8 118539564.482 8     -3607.766          48.000    22557324.008 7  92368468.765 7     -2811.246          43.000
G22  21037076.055 8 110550684.897 8     -1202.082          50.000    21037073.141 8  86143318.257 8      -936.684          50.000
R06  19375398.648 7 103390906.150 7       852.094          47.000
R07  22550515.766 7 120714700.413 7      3460.859          47.000    22550514.211 7  93889235.287 7      2691.780          43.000
R20  21190075.102 5 113312843.720 5     -3517.867          34.000    21190077.641 8  88132227.070 8     -2736.119          48.000
R21  19305380.039 8 103306999.586 8       662.355          48.000    19305381.352 7  80349882.374 7       515.162          43.000
C05                                                                  39699285.695 5 159852572.404 5       -28.354          34.000
C11  23522384.438 7 122487224.346 7     -2873.258          46.000    23522383.078 7  94714883.185 7     -2221.652          47.000
C14  21534629.828 8 112136476.709 8       416.215          49.000    21534627.703 8  86711065.092 8       321.865          51.000
E03  23621931.367 8 124134094.532 8      1073.504          51.000    23621933.969 8  95115783.789 8       822.522          51.000
E05  24527569.625 7 128893239.731 7     -1656.984          47.000    24527572.680 7  98762373.543 7     -1269.658          47.000
E15  23295963.836 6 122421119.560 6       844.852          40.000    23295968.758 7  93803188.056 7       647.500          43.000
> 2020 05 07 21 09 30.0000000  0 16        .000000000000
G01  20783430.734 8 109217666.781 8     -1594.312          51.000    20783432.539 8  85104687.553 8     -1242.321          51.000
G03  20326002.227 7 106813906.620 7       216.074          45.000    20326003.625 7  83231648.705 7       168.370          45.000
G04  21986092.602 7 115537753.038 7      3003.473          47.000    21986094.031 7  90029392.033 7      2340.368          47.000
G11  22577909.852 8 118647738.728 8     -3617.355          48.000    22577908.414 7  92452760.427 7     -2818.719          42.000
G22  21043927.367 8 110586688.918 8     -1211.676          50.000    21043924.406 8  86171373.351 8      -944.160          50.000
R05  20947050.461 5 111973956.961 5     -3084.250          35.000    20947058.352 4  87090904.653 4     -2398.861          25.000
R06  19370625.219 7 103365433.672 7       832.523          47.000
R07  22531111.492 8 120610825.228 8      3450.387          49.000    22531109.328 7  93808443.458 7      2683.634          44.000
R20  21209817.008 5 113418420.583 5     -3534.160          30.000    21209821.383 8  88214342.483 8     -2748.788          48.000
R21  19301702.094 8 103287317.687 8       636.129          49.000    19301703.406 7  80334574.235 7       494.767          44.000
C11  23538929.766 7 122573381.450 7     -2883.934          46.000    23538928.484 7  94781505.323 7     -2230.134          47.000
C14  21532227.492 8 112123967.659 8       404.371          49.000    21532225.234 8  86701392.329 8       312.559          51.000
C21  25371414.250 5 132115596.539 5     -2834.422          31.000
E03  23615800.078 8 124101873.359 8      1061.078          51.000    23615802.102 8  95091094.830 8       813.070          51.000
E05  24537018.039 8 128942890.954 8     -1666.551          48.000    24537020.844 7  98800417.974 7     -1277.072          47.000
E15  23291134.992 6 122395744.036 6       833.117          40.000    23291139.203 7  93783744.504 7       638.330          42.000
> 2020 05 07 21 10  0.0000000  0 17        .000000000000
G01  20792559.008 8 109265634.753 8     -1607.262          51.000    20792560.500 8  85142065.175 8     -1252.412          51.000
G03  20324788.992 7 106807531.769 7       205.371          46.000    20324790.523 7  83226681.291 7       160.026          46.000
G04  21968966.000 7 115447755.121 7      2992.559          46.000    21968968.062 7  89959263.780 7      2331.864          46.000
G11  22598571.578 8 118756319.907 8     -3624.984          48.000    22598570.711 7  92537369.142 7     -2824.663          42.000
G22  21050856.219 8 110623100.343 8     -1219.410          50.000    21050853.203 8  86199745.888 8      -950.190          50.000
R05  20964370.047 5 112066539.458 5     -3091.500          34.000    20964375.000 5  87162894.664 5     -2404.503          30.000
R06  19365985.398 8 103340674.926 8       814.570          48.000
R07  22511788.461 8 120507385.650 8      3441.840          49.000    22511786.352 7  93727990.463 7      2676.990          45.000
R20  21229673.234 5 113524608.823 5     -3548.730          34.000    21229679.711 8  88296933.400 8     -2760.124          49.000
R21  19298193.789 8 103268545.639 8       611.629          49.000    19298195.359 7  80319973.743 7       475.711          44.000
C05                                                                  39699666.023 5 159854104.150 5       -28.795          34.000
C11  23555560.352 7 122659980.551 7     -2892.953          47.000    23555559.211 8  94848469.225 8     -2236.927          48.000
C14  21529916.555 8 112111934.866 8       394.320          49.000    21529914.359 8  86692087.812 8       304.977          51.000
C21  25387738.320 5 132200585.362 5     -2835.078          34.000
E03  23609761.273 8 124070138.870 8      1050.824          51.000    23609762.805 8  95066778.800 8       805.216          51.000
E05  24546543.055 8 128992943.753 8     -1673.891          48.000    24546545.648 7  98838770.107 7     -1282.600          47.000
E15  23286395.953 6 122370842.699 6       823.250          39.000    23286399.656 7  93764664.278 7       630.973          42.000
> 2020 05 07 21 10 30.0000000  0 16        .000000000000
G01  20801767.375 8 109314023.715 8     -1619.105          51.000    20801768.578 8  85179770.853 8     -1261.641          51.000
G03  20323642.734 7 106801507.821 7       195.711          47.000    20323644.422 7  83221987.303 7       152.502          47.000
G04  21951906.805 7 115358111.055 7      2982.879          46.000    21951908.844 7  89889411.263 7      2324.321          45.000
G11  22619283.227 8 118865160.891 8     -3631.762          49.000    22619282.758 7  92622180.294 7     -2829.944          43.000
G22  21057834.961 8 110659773.460 8     -1226.109          51.000    21057831.836 8  86228322.344 8      -955.410          51.000
R06  19361451.602 7 103316482.361 7       797.621          46.000
R07  22492519.016 8 120404235.482 8      3434.125          48.000    22492517.320 7  93647762.598 7      2670.989          45.000
R20  21249617.453 6 113631257.822 6     -3561.652          37.000    21249624.281 8  88379882.633 8     -2770.174          50.000
R21  19294828.609 8 103250537.629 8       588.227          49.000    19294829.836 7  80305967.534 7       457.510          44.000
C05                                                                  39699871.617 5 159854931.645 5       -26.943          34.000
C11  23572248.164 7 122746876.211 7     -2900.797          47.000    23572247.227 8  94915662.456 8     -2242.999          50.000
C14  21527669.102 8 112100234.256 8       385.254          48.000    21527667.430 8  86683040.160 8       297.954          51.000
C21  25404068.070 5 132285613.416 5     -2834.508          34.000
E03  23603787.328 8 124038746.214 8      1041.520          51.000    23603788.367 8  95042724.711 8       798.080          51.000
E05  24556116.625 8 129043251.908 8     -1680.367          48.000    24556118.844 7  98877317.897 7     -1287.461          47.000
E15  23281719.633 6 122346271.793 6       814.230          39.000    23281722.891 7  93745837.222 7       624.026          42.000
> 2020 05 07 21 11  0.0000000  0 16        .000000000000
G01  20811049.984 8 109362804.233 8     -1630.160          51.000    20811051.266 8  85217781.677 8     -1270.252          51.000
G03  20322557.602 7 106795805.235 7       186.973          47.000    20322559.164 7  83217543.751 7       145.693          46.000
G04  21934910.000 7 115268793.962 7      2973.898          47.000    21934911.172 7  89819813.550 7      2317.323          45.000
G11  22640038.562 8 118974230.006 8     -3637.137          48.000    22640038.156 7  92707169.193 7     -2834.133          42.000
G22  21064857.836 8 110696678.219 8     -1231.816          51.000    21064854.594 8  86257079.288 8      -959.857          51.000
R06  19357017.883 7 103292826.023 7       781.812          46.000
R07  22473297.398 7 120301346.453 7      3427.523          46.000    22473296.695 7  93567737.864 7      2665.852          44.000
R20  21269642.211 6 113738335.402 6     -3574.324          38.000    21269648.672 8  88463165.224 8     -2780.030          50.000
R21  19291600.812 8 103233266.165 8       565.672          49.000    19291602.258 7  80292534.162 7       439.964          45.000
C05                                                                  39700073.070 5 159855742.684 5       -24.892          34.000
C11  23588987.188 8 122834037.907 8     -2907.559          48.000    23588986.594 8  94983061.392 8     -2248.384          51.000
C14  21525479.906 8 112088836.548 8       377.039          49.000    21525478.781 8  86674226.751 8       291.490          51.000
C21  25420400.867 5 132370650.831 5     -2833.047          31.000
E03  23597872.961 8 124007666.431 8      1032.969          51.000    23597873.398 8  95018910.365 8       791.445          51.000
E05  24565732.953 8 129093785.045 8     -1686.141          48.000    24565734.531 7  98916038.095 7     -1291.933          47.000
E15  23277100.688 6 122322003.451 6       805.977          39.000    23277103.859 7  93727242.013 7       617.438          42.000
> 2020 05 07 21 11 30.0000000  0 16        .000000000000
G01  20820400.523 8 109411942.743 8     -1652.805          50.000    20820401.961 8  85256071.461 8     -1287.897          50.000
G03  20321527.258 8 106790390.501 8       166.727          48.000    20321528.469 8  83213324.490 8       129.917          48.000
G04  21917969.805 8 115179772.802 8      2953.410          48.000    21917969.500 7  89750446.496 7      2301.362          44.000
G11  22660830.680 8 119083491.832 8     -3654.184          48.000    22660830.086 6  92792308.300 6     -2847.416          41.000
G22  21071918.375 8 110733780.925 8     -1249.066          51.000    21071915.102 8  86285990.469 8      -973.298          50.000
R05  21016581.789 5 112345630.013 5     -3120.633          34.000
R06  19352678.758 7 103269671.375 7       754.422          47.000
R07  22454117.836 7 120198686.492 7      3409.055          44.000    22454118.469 7  93487891.275 7      2651.487          43.000
R20  21289739.969 6 113845804.923 6     -3597.848          37.000    21289745.875 8  88546752.669 8     -2798.326          49.000
R21  19288504.914 8 103216699.003 8       531.359          50.000    19288506.461 7  80279648.588 7       413.280          46.000
C11  23605770.664 8 122921430.838 8     -2925.809          49.000    23605770.477 8  95050639.125 8     -2262.445          51.000
C14  21523342.750 8 112077708.364 8       357.590          49.000    21523341.875 8  86665621.727 8       276.421          51.000
C21  25436728.570 5 132455719.693 5     -2842.238          31.000
E03  23592011.891 8 123976866.370 8      1012.992          51.000    23592011.945 8  94995310.342 8       776.207          51.000
E05  24575385.484 8 129144508.618 8     -1703.039          49.000    24575386.727 7  98954904.201 7     -1304.809          47.000
E15  23272533.766 6 122298005.611 6       786.414          40.000    23272536.906 7  93708854.044 7       602.481          43.000
> 2020 05 07 21 12  0.0000000  0 16        .000000000000
G01  20829838.719 8 109461540.843 8     -1662.922          51.000    20829840.070 8  85294719.359 8     -1295.780          51.000
G03  20320571.062 7 106785365.327 7       159.074          47.000    20320572.172 7  83209408.792 7       123.957          47.000
G04  21901105.992 8 115091151.802 8      2945.395          49.000    21901105.266 7  89681391.220 7      2295.113          45.000
G11  22681678.305 7 119193045.986 7     -3658.637          47.000    22681677.859 7  92877675.189 7     -2850.886          43.000
G22  21079035.789 8 110771182.875 8     -1253.723          51.000    21079032.438 8  86315134.854 8      -976.924          50.000
R06  19348452.883 7 103247121.354 7       739.633          45.000
R07  22435001.203 7 120096361.180 7      3403.086          44.000    22435003.109 7  93408304.892 7      2646.842          43.000
R20  21309929.195 6 113953767.623 6     -3608.758          36.000    21309934.766 7  88630723.677 7     -2806.812          45.000
R21  19285560.125 8 103200941.976 8       509.688          49.000    19285561.797 7  80267393.143 7       396.421          46.000
C05                                                                  39700463.531 5 159857315.541 5       -29.049          34.000
C11  23622617.703 8 123009154.300 8     -2931.590          50.000    23622617.711 8  95118472.464 8     -2266.888          51.000
C14  21521276.484 8 112066950.348 8       350.488          48.000    21521275.992 8  86657302.954 8       271.059          51.000
C21  25453069.297 5 132540808.171 5     -2839.660          31.000
E03  23586223.172 8 123946448.111 8      1005.703          51.000    23586223.477 8  94972002.874 8       770.601          51.000
E05  24585093.219 8 129195523.366 8     -1707.203          48.000    24585094.906 8  98993993.416 8     -1308.174          48.000
E15  23268038.828 7 122274381.468 7       779.227          42.000    23268041.453 7  93690752.449 7       597.016          44.000
> 2020 05 07 21 12 30.0000000  0 16        .000000000000
G01  20839353.914 8 109511543.119 8     -1673.105          51.000    20839355.125 8  85333682.171 8     -1303.719          51.000
G03  20319678.398 8 106780674.276 8       151.148          48.000    20319679.664 8  83205753.430 8       117.781          48.000
G04  21884308.352 8 115002878.044 8      2936.973          50.000    21884308.289 7  89612606.498 7      2288.550          47.000
G11  22702570.547 7 119302835.129 7     -3663.316          47.000    22702570.266 7  92963225.183 7     -2854.532          42.000
G22  21086199.500 8 110808828.381 8     -1258.664          51.000    21086195.898 8  86344469.014 8      -980.777          49.000
R06  19344329.664 7 103225119.790 7       724.629          46.000
R07  22415938.250 7 119994315.375 7      3397.234          44.000    22415940.602 7  93328935.915 7      2642.293          44.000
R20  21330198.742 5 114062164.556 5     -3620.223          32.000    21330203.617 6  88715032.333 6     -2815.732          41.000
R21  19282756.633 8 103185940.605 8       487.730          50.000    19282758.445 7  80255725.418 7       379.343          47.000
C05                                                                  39700661.469 5 159858112.259 5       -25.883          34.000
C11  23639517.211 8 123097151.952 8     -2937.586          50.000    23639517.219 8  95186517.829 8     -2271.407          51.000
C14  21519270.883 8 112056507.417 8       343.160          49.000    21519270.547 8  86649227.832 8       265.365          51.000
C21  25469411.281 4 132625910.883 4     -2837.605          29.000
E03  23580496.547 8 123916356.659 8       997.953          51.000    23580497.133 8  94948945.811 8       764.647          51.000
E05  24594845.328 7 129246772.884 7     -1711.828          47.000    24594847.938 8  99033262.544 8     -1311.714          48.000
E15  23263604.594 7 122251077.161 7       771.711          42.000    23263606.836 7  93672895.906 7       591.476          44.000
> 2020 05 07 21 13  0.0000000  0 16        .000000000000
G01  20848940.109 8 109561919.215 8     -1686.988          51.000    20848941.102 8  85372936.265 8     -1314.536          51.000
G03  20318843.508 8 106776287.037 8       139.523          48.000    20318845.078 8  83202334.808 8       108.723          48.000
G04  21867571.531 8 114914923.764 8      2924.828          50.000    21867572.164 8  89544070.695 8      2279.087          48.000
G11  22723501.289 7 119412826.895 7     -3671.293          47.000    22723500.656 6  93048933.073 6     -2860.748          41.000
G22  21093403.688 8 110846686.704 8     -1267.059          50.000    21093399.867 8  86373969.014 8      -987.318          49.000
R06  19340303.578 7 103203635.538 7       705.918          46.000
R07  22396923.289 7 119892520.569 7      3387.359          45.000    22396925.422 7  93249762.193 7      2634.613          45.000
R20  21350542.445 4 114170944.390 4     -3634.895          28.000    21350547.805 7  88799652.762 7     -2827.143          42.000
R21  19280089.109 8 103171666.224 8       461.984          51.000    19280091.180 8  80244623.095 8       359.318          48.000
C05                                                                  39700851.883 5 159858879.347 5       -26.424          34.000
C11  23656463.039 8 123185392.144 8     -2947.039          50.000    23656462.969 8  95254750.776 8     -2278.768          51.000
C14  21517320.375 8 112046349.401 8       332.285          49.000    21517319.797 8  86641373.009 8       256.929          51.000
C21  25485751.867 5 132710998.082 5     -2837.191          31.000
E03  23574826.875 8 123886562.114 8       986.551          51.000    23574827.641 8  94926116.225 8       755.973          51.000
E05  24604636.211 8 129298225.929 8     -1720.145          48.000    24604639.359 8  99072687.611 8     -1317.949          48.000
E15  23259225.438 7 122228063.883 7       760.754          42.000    23259227.727 7  93655262.373 7       582.948          45.000
> 2020 05 07 21 13 30.0000000  0 15        .000000000000
G01  20858593.602 8 109612649.503 8     -1708.793          51.000    20858594.758 8  85412466.323 8     -1331.530          51.000
G03  20318062.875 8 106772184.089 8       120.305          49.000    20318064.656 8  83199137.713 8        93.744          49.000
G04  21850892.227 8 114827271.925 8      2904.930          50.000    21850893.062 8  89475770.566 8      2263.582          48.000
G11  22744466.398 7 119523000.069 7     -3687.121          47.000    22744464.633 6  93134782.293 6     -2873.081          40.000
G22  21100644.602 8 110884738.090 8     -1283.426          50.000    21100640.828 8  86403619.451 8     -1000.072          49.000
R05  21086830.695 5 112721165.717 5     -3153.008          35.000
R06  19336370.930 7 103182648.760 7       679.395          45.000
R07  22377952.062 7 119790958.525 7      3369.387          47.000    22377953.844 7  93170769.521 7      2620.634          44.000
R21  19277554.266 8 103158100.935 8       428.344          51.000    19277556.102 7  80234072.327 7       333.156          47.000
C05                                                                  39701031.391 5 159859602.070 5       -32.350          34.000
C11  23673451.227 8 123273854.173 8     -2964.066          49.000    23673450.953 8  95323155.238 8     -2291.956          50.000
C14  21515420.656 8 112036456.787 8       313.668          49.000    21515420.031 8  86633723.422 8       242.563          51.000
E03  23569210.242 8 123857045.339 8       967.539          51.000    23569211.484 8  94903499.491 8       741.358          51.000
E05  24614462.227 7 129349862.026 7     -1735.945          47.000    24614465.141 7  99112252.940 7     -1330.182          47.000
E15  23254898.070 7 122205323.664 7       741.637          42.000    23254900.914 7  93637838.044 7       568.393          45.000
> 2020 05 07 21 14  0.0000000  0 16        .000000000000
G01  20868357.328 8 109663958.194 8     -1713.734          51.000    20868358.539 8  85452447.091 8     -1335.377          51.000
G03  20317379.148 8 106768589.711 8       117.473          49.000    20317380.781 8  83196336.912 8        91.537          49.000
G04  21834313.523 8 114740149.313 8      2901.383          50.000    21834314.219 7  89407882.819 7      2260.818          47.000
G11  22765508.695 7 119633576.874 7     -3686.312          47.000    22765506.242 6  93220945.993 6     -2872.451          41.000
G22  21107964.781 8 110923206.260 8     -1282.961          50.000    21107961.273 8  86433594.651 8      -999.710          50.000
R05  21104516.227 5 112815709.517 5     -3152.090          31.000
R06  19332573.977 7 103162386.633 7       669.652          45.000
R07  22359066.641 7 119689859.510 7      3368.574          47.000    22359068.617 7  93092137.004 7      2620.005          43.000
R20  21391495.227 6 114389915.429 6     -3663.051          37.000    21391499.555 8  88969956.826 8     -2849.039          49.000
R21  19275194.867 8 103145475.155 8       411.500          51.000    19275196.445 8  80224252.296 8       320.056          48.000
C05                                                                  39701242.703 5 159860452.617 5       -25.484          34.000
C11  23690524.383 8 123362758.774 8     -2964.691          49.000    23690523.562 8  95391901.941 8     -2292.490          49.000
C14  21513614.641 8 112027051.695 8       311.488          50.000    21513613.914 8  86626450.835 8       240.884          51.000
E03  23563689.242 8 123828030.980 8       964.992          51.000    23563690.836 8  94881267.729 8       739.395          51.000
E05  24624365.820 7 129401904.453 7     -1735.277          46.000    24624368.141 8  99152129.623 8     -1329.658          48.000
E15  23250665.211 6 122183082.280 6       739.223          41.000    23250669.016 7  93620795.941 7       566.343          46.000
