     3.04           OBSERVATION DATA    M (MIXED)           RINEX VERSION / TYPE
Convert 2.6.2       NovAtel             20200515 161617 UTC PGM / RUN BY / DATE 
Rinex Version 3.04 Observation File                         COMMENT             
                                                            MARKER NAME         
                                                            MARKER NUMBER       
                                                            MARKER TYPE         
                                                            OBSERVER / AGENCY   
                    NovAtel GPSCard                         REC # / TYPE / VERS 
                                                            ANT # / TYPE        
        0.0000        0.0000        0.0000                  APPROX POSITION XYZ 
        0.0000        0.0000        0.0000                  ANTENNA: DELTA H/E/N
G    8 C1C L1C D1C S1C C2W L2W D2W S2W                      SYS / # / OBS TYPES 
R    8 C1C L1C D1C S1C C2P L2P D2P S2P                      SYS / # / OBS TYPES 
E    8 C1C L1C D1C S1C C7Q L7Q D7Q S7Q                      SYS / # / OBS TYPES 
C    8 C2I L2I D2I S2I C7I L7I D7I S7I                      SYS / # / OBS TYPES 
DBHZ                                                        SIGNAL STRENGTH UNIT
    30.000                                                  INTERVAL            
  2020    05    14    12    00    0.0000000     GPS         TIME OF FIRST OBS   
  2020    05    14    12    59   30.0000000     GPS         TIME OF LAST OBS    
G L1C  0.00000  05 G18 G31 G21 G25 G29                      SYS / PHASE SHIFT   
G L2W  0.00000  05 G18 G31 G21 G25 G29                      SYS / PHASE SHIFT   
R L1C  0.00000  07 R24 R13 R23 R22 R12 R17 R14              SYS / PHASE SHIFT   
R L2P  0.25000  06 R24 R13 R23 R12 R17 R14                  SYS / PHASE SHIFT   
E L1C  0.50000  05 E12 E31 E33 E24 E11                      SYS / PHASE SHIFT   
E L7Q -0.25000  05 E12 E31 E33 E24 E11                      SYS / PHASE SHIFT   
C L2I  0.00000  05 C29 C26 C13 C05 C12                      SYS / PHASE SHIFT   
C L7I  0.00000  03 C13 C05 C12                              SYS / PHASE SHIFT   
  7 R24  2 R13 -2 R23  3 R22 -3 R12 -1 R17  4 R14 -7        GLONASS SLOT / FRQ #
 C1C  -71.950 C2C  -71.950 C2P  -71.950                     GLONASS COD/PHS/BIS 
     0     0     0     0GPS                                 LEAP SECONDS        
                                                            END OF HEADER       
> 2020 05 14 12 00  0.0000000  0 17      -0.000000000000
G18  21589843.109 7 113455451.898 7      2727.602          46.000    21589844.867 7  88406859.055 7      2125.405          45.000  
G31  21161934.875 7 111206720.294 7      -479.762          42.000    21161932.430 7  86654576.979 7      -373.840          42.000  
G21  21664494.227 8 113847701.360 8      2347.641          48.000    21664490.562 6  88712508.036 6      1829.331          40.000  
G25  22024442.305 7 115739185.981 7     -2603.758          43.000    22024446.164 7  90186396.146 7     -2028.906          43.000  
G29  20610155.992 8 108307126.503 8     -1333.965          51.000    20610155.633 8  84395145.354 8     -1039.453          51.000  
R24  19859095.633 8 106195175.610 8      2058.434          51.000    19859098.367 7  82596229.575 7      1601.004          46.000  
R13  19551364.023 6 104402799.922 6     -1745.047          40.000    19551365.562 7  81202180.539 7     -1357.259          42.000  
R23  19196261.477 8 102686712.808 8     -1107.824          51.000    19196265.922 7  79867443.266 7      -861.641          43.000  
R22  23364120.391 5 124718829.970 5     -4104.566          30.000                                                                  
R12  23315804.617 6 124548482.777 6     -4108.902          39.000    23315812.008 6  96871060.564 6     -3195.820          40.000  
E12  21767330.406 8 114388105.216 8      1042.453          48.000    21767332.141 8  87648034.529 8       798.805          51.000  
E31  24515360.430 8 128829068.920 8     -1743.977          51.000    24515364.125 8  98713189.411 8     -1336.297          51.000  
E33  24796771.875 8 130307900.011 8     -1764.602          48.000    24796772.273 7  99846349.874 7     -1352.155          43.000  
E24  21799431.328 6 114556791.319 6       795.078          40.000    21799442.578 6  87777324.692 6       609.324          38.000  
C29  22687099.234 8 118137679.757 8     -2029.477          51.000                                                                  
C26  21852052.352 6 113789374.700 6       621.793          41.000                                                                  
C13                                                                  38448096.953 4 154814554.744 4      -562.129          27.000  
> 2020 05 14 12 00 30.0000000  0 17      -0.000000000000
G18  21574310.594 8 113373826.112 8      2716.156          48.000    21574312.102 7  88343254.532 7      2116.486          46.000  
G31  21164728.117 6 111221399.982 6      -496.840          41.000    21164726.531 6  86666015.693 6      -387.151          40.000  
G21  21651129.562 7 113777473.543 7      2336.027          47.000    21651125.789 6  88657785.130 6      1820.282          41.000  
G25  22039332.719 6 115817431.648 6     -2610.707          41.000    22039335.359 6  90247366.713 6     -2034.321          41.000  
G29  20617802.578 8 108347309.350 8     -1342.875          51.000    20617802.227 8  84426456.660 8     -1046.396          51.000  
R24  19847602.938 8 106133718.536 8      2040.727          51.000    19847605.734 7  82548429.635 7      1587.232          47.000  
R13  19561227.453 6 104455470.879 6     -1764.832          40.000    19561229.500 7  81243146.817 7     -1372.647          42.000  
R23  19202531.875 8 102720255.175 8     -1126.328          51.000    19202536.414 7  79893531.774 7      -876.033          43.000  
R22  23387193.242 4 124842040.217 4     -4104.855          29.000                                                                  
R12  23338899.250 7 124671846.394 7     -4113.324          43.000    23338906.195 6  96967009.930 6     -3199.259          39.000  
E12  21761415.000 8 114357018.733 8      1031.941          48.000    21761416.641 8  87624215.030 8       790.721          51.000  
E31  24525341.227 8 128881516.432 8     -1750.523          51.000    24525344.250 8  98753376.456 8     -1341.305          51.000  
E33  24806872.812 8 130360980.172 8     -1771.996          48.000    24806873.695 7  99887021.664 7     -1357.746          43.000  
E24  21794916.797 6 114533067.925 6       788.191          41.000    21794927.336 6  87759147.051 6       603.927          38.000  
C29  22698813.328 8 118198677.299 8     -2035.152          50.000                                                                  
C26  21848514.453 6 113770949.710 6       608.508          40.000                                                                  
C13                                                                  38452289.227 4 154831435.194 4      -562.951          29.000  
> 2020 05 14 12 01  0.0000000  0 16      -0.000000000000
G18  21558854.445 8 113292599.880 8      2699.387          50.000    21558855.602 7  88279961.375 7      2103.419          47.000  
G31  21167629.055 6 111236647.331 6      -519.145          41.000    21167628.555 6  86677896.734 6      -404.531          41.000  
G21  21637841.992 8 113707649.866 8      2319.246          48.000    21637839.266 7  88603377.084 7      1807.205          42.000  
G25  22054271.586 6 115895934.732 6     -2622.352          40.000    22054272.234 6  90308537.905 6     -2043.395          40.000  
G29  20625510.266 8 108387813.270 8     -1356.934          51.000    20625510.062 8  84458018.147 8     -1057.354          51.000  
R24  19836219.203 8 106072845.430 8      2017.887          51.000    19836222.328 7  82501083.927 7      1569.468          47.000  
R13  19571211.992 6 104508789.525 6     -1789.488          40.000    19571214.469 7  81284616.841 7     -1391.828          43.000  
R23  19208916.008 8 102754405.314 8     -1149.996          51.000    19208920.469 7  79920092.994 7      -894.442          43.000  
R12  23362028.180 6 124795395.634 6     -4123.008          41.000    23362034.773 6  97063103.617 6     -3206.791          37.000  
E12  21755570.320 8 114326303.569 8      1016.211          48.000    21755571.641 8  87600680.038 8       778.638          51.000  
E31  24535369.836 8 128934216.006 8     -1762.316          50.000    24535372.320 8  98793756.626 8     -1350.341          51.000  
E33  24817025.836 8 130414335.256 8     -1784.504          48.000    24817027.570 7  99927904.115 7     -1367.351          44.000  
E24  21790453.141 6 114509613.186 6       775.762          41.000    21790464.062 6  87741175.247 6       594.385          39.000  
C29  22710570.125 8 118259897.031 8     -2045.855          51.000                                                                  
C26  21845062.977 6 113752978.666 6       590.023          40.000                                                                  
C13                                                                  38456499.352 4 154848387.178 4      -567.730          29.000  
> 2020 05 14 12 01 30.0000000  0 16      -0.000000000000
G18  21543480.156 8 113211803.710 8      2677.426          50.000    21543480.953 8  88217003.312 8      2086.306          48.000  
G31  21170643.484 6 111252489.680 6      -546.949          41.000    21170643.594 6  86690241.418 6      -426.197          41.000  
G21  21624637.703 8 113638260.287 8      2297.020          50.000    21624636.305 7  88549307.296 7      1789.886          45.000  
G25  22069263.602 6 115974722.598 6     -2639.520          37.000    22069265.117 6  90369930.988 6     -2056.772          37.000  
G29  20633284.133 8 108428664.915 8     -1376.238          51.000    20633283.977 8  84489850.590 8     -1072.394          51.000  
R24  19824950.164 8 106012585.989 8      1989.480          51.000    19824952.664 7  82454215.497 7      1547.374          45.000  
R13  19581323.156 6 104562783.936 6     -1819.824          40.000    19581326.078 7  81326612.467 7     -1415.419          44.000  
R23  19215418.438 8 102789189.177 8     -1178.887          51.000    19215422.945 7  79947147.125 7      -916.912          42.000  
R12  23385195.711 6 124919156.340 6     -4137.719          40.000    23385202.297 6  97159361.767 6     -3218.232          36.000  
E12  21749801.461 8 114295987.981 8       995.109          48.000    21749802.703 8  87577451.224 8       762.532          51.000  
E31  24545451.422 8 128987195.557 8     -1779.363          51.000    24545453.602 8  98834351.327 8     -1363.346          50.000  
E33  24827236.289 7 130467991.803 7     -1802.176          47.000    24827238.352 7  99969017.567 7     -1380.964          43.000  
E24  21786046.250 6 114486456.266 6       758.305          41.000    21786057.812 6  87723431.614 6       580.991          40.000  
C29  22722374.359 8 118321365.230 8     -2061.711          49.000                                                                  
C26  21841704.297 6 113735490.404 6       566.250          41.000                                                                  
C13                                                                  38460733.055 4 154865434.731 4      -576.504          29.000  
> 2020 05 14 12 02  0.0000000  0 16      -0.000000000000
G18  21528191.227 8 113131457.022 8      2674.516          50.000    21528191.680 7  88154395.534 7      2084.039          47.000  
G31  21173774.500 6 111268943.950 6      -554.973          41.000    21173774.695 6  86703062.943 6      -432.446          41.000  
G21  21611519.953 8 113569323.567 8      2294.086          51.000    21611519.422 7  88495590.385 7      1787.603          47.000  
G25  22084312.680 6 116053811.714 6     -2637.812          36.000    22084316.133 6  90431558.786 6     -2055.442          37.000  
G29  20641127.195 8 108469880.310 8     -1376.090          51.000    20641126.969 8  84521966.466 8     -1072.278          51.000  
R24  19813799.438 8 105952958.550 8      1980.852          51.000    19813801.234 7  82407838.622 7      1540.666          46.000  
R13  19591564.039 6 104617470.146 6     -1830.484          38.000    19591567.266 7  81369146.157 7     -1423.713          44.000  
R23  19222042.195 8 102824621.869 8     -1188.031          51.000    19222046.773 7  79974705.882 7      -924.024          42.000  
R12  23408404.992 6 125043143.825 6     -4132.461          38.000    23408412.562 5  97255796.344 5     -3214.140          35.000  
E12  21744111.898 8 114266089.284 8       993.414          48.000    21744112.789 8  87554541.838 8       761.248          51.000  
E31  24555589.656 8 129040472.103 8     -1777.039          51.000    24555591.867 8  98875173.585 8     -1361.613          51.000  
E33  24837507.281 7 130521965.595 7     -1800.703          47.000    24837508.898 7 100010374.087 7     -1379.727          43.000  
E24  21781699.617 7 114463615.391 7       759.820          43.000    21781711.680 6  87705930.185 6       582.122          41.000  
C29  22734229.000 8 118383097.371 8     -2058.438          48.000                                                                  
C26  21838441.953 6 113718502.953 6       561.559          40.000                                                                  
C13                                                                  38464992.953 5 154882587.626 5      -570.515          31.000  
> 2020 05 14 12 02 30.0000000  0 16      -0.000000000000
G18  21512968.531 8 113051459.928 8      2658.617          49.000    21512968.961 7  88092060.195 7      2071.653          47.000  
G31  21177002.203 6 111285907.466 6      -575.973          41.000    21177002.344 6  86716281.223 6      -448.810          40.000  
G21  21598469.148 8 113500739.429 8      2278.258          50.000    21598469.133 8  88442148.220 8      1775.266          48.000  
G25  22099401.055 6 116133099.060 6     -2648.852          38.000    22099405.508 6  90493341.094 6     -2064.044          38.000  
G29  20649019.734 8 108511355.705 8     -1388.883          51.000    20649019.289 8  84554284.946 8     -1082.247          51.000  
R24  19802748.031 8 105893860.205 8      1958.945          51.000    19802749.766 8  82361873.238 8      1523.624          48.000  
R13  19601914.773 6 104672743.971 6     -1854.320          38.000    19601918.172 7  81412136.912 7     -1442.249          44.000  
R23  19228767.250 8 102860597.051 8     -1210.242          51.000    19228772.070 7  80002686.577 7      -941.300          42.000  
R12  23431636.336 6 125167251.484 6     -4141.602          38.000    23431646.352 5  97352324.482 5     -3221.246          33.000  
E12  21738482.336 8 114236505.392 8       978.867          48.000    21738482.602 8  87531873.639 8       750.054          51.000  
E31  24565765.023 8 129093943.184 8     -1787.609          51.000    24565767.570 8  98916144.912 8     -1369.689          51.000  
E33  24847818.875 7 130576152.762 7     -1811.836          46.000    24847819.906 7 100051894.117 7     -1388.300          43.000  
E24  21777394.312 7 114440989.440 7       748.715          43.000    21777406.695 6  87688593.426 6       573.691          41.000  
C29  22746114.727 8 118444990.676 8     -2067.969          49.000                                                                  
C26  21835256.609 7 113701915.966 7       544.242          42.000                                                                  
C13                                                                  38469259.711 5 154899767.217 5      -574.263          30.000  
> 2020 05 14 12 03  0.0000000  0 16      -0.000000000000
G18  21497827.633 8 112971895.024 8      2645.836          49.000    21497828.211 7  88030061.635 7      2061.694          45.000  
G31  21180342.469 6 111303460.147 6      -594.059          41.000    21180341.953 6  86729958.607 6      -462.906          41.000  
G21  21585500.898 8 113432589.881 8      2265.312          51.000    21585501.141 7  88389044.694 7      1765.182          47.000  
G25  22114542.703 6 116212664.210 6     -2655.730          41.000    22114546.406 6  90555339.880 6     -2069.401          41.000  
G29  20656976.820 8 108553170.076 8     -1398.500          51.000    20656976.242 8  84586867.575 8     -1089.738          51.000  
R24  19791811.039 8 105835373.406 8      1940.254          51.000    19791812.883 8  82316383.519 8      1509.087          48.000  
R13  19612390.711 6 104728684.924 6     -1875.527          38.000    19612394.414 7  81455646.559 7     -1458.744          45.000  
R23  19235608.445 8 102897193.350 8     -1229.199          51.000    19235613.406 7  80031150.375 7      -956.044          42.000  
R12  23454906.375 6 125291558.821 6     -4145.895          38.000    23454918.484 5  97449007.965 5     -3224.585          31.000  
E12  21732927.789 8 114207316.721 8       967.238          48.000    21732928.312 8  87509508.292 8       741.146          51.000  
E31  24575992.773 8 129147688.929 8     -1795.250          51.000    24575995.891 8  98957326.682 8     -1375.579          51.000  
E33  24858186.070 7 130630632.105 7     -1819.984          46.000    24858186.922 7 100093638.039 7     -1394.430          42.000  
E24  21773145.562 7 114418659.781 7       740.344          44.000    21773158.453 7  87671483.687 7       567.280          42.000  
C29  22758046.570 8 118507123.160 8     -2074.176          48.000                                                                  
C26  21832163.734 7 113685809.934 7       529.629          42.000                                                                  
C13                                                                  38473548.469 4 154917034.651 4      -576.136          29.000  
> 2020 05 14 12 03 30.0000000  0 16      -0.000000000000
G18  21482763.211 8 112892732.200 8      2632.016          48.000    21482763.758 7  87968376.375 7      2050.925          46.000  
G31  21183788.641 6 111321569.351 6      -612.859          41.000    21183787.453 6  86744069.619 6      -477.553          41.000  
G21  21572609.602 8 113364843.883 8      2251.457          51.000    21572609.758 7  88336255.645 7      1754.383          47.000  
G25  22129730.906 7 116292473.891 7     -2664.570          42.000    22129734.242 7  90617529.226 7     -2076.292          42.000  
G29  20664991.898 8 108595289.440 8     -1409.055          51.000    20664991.344 8  84619687.852 8     -1097.965          51.000  
R24  19780982.500 8 105777466.054 8      1920.520          51.000    19780984.203 7  82271344.477 7      1493.741          47.000  
R13  19622985.703 6 104785260.167 6     -1896.441          39.000    19622989.391 7  81499649.540 7     -1475.010          45.000  
R23  19242559.242 8 102934375.416 8     -1249.133          51.000    19242564.172 6  80060069.760 6      -971.551          41.000  
R12  23478208.625 6 125416030.135 6     -4151.523          38.000    23478221.703 5  97545818.898 5     -3228.966          34.000  
E12  21727442.164 8 114178490.940 8       954.746          48.000    21727443.273 8  87487421.023 8       731.607          51.000  
E31  24586266.203 8 129201676.677 8     -1803.570          51.000    24586270.031 8  98998693.877 8     -1381.927          51.000  
E33  24868602.148 7 130685369.694 7     -1828.750          47.000    24868603.430 7 100135579.826 7     -1401.368          43.000  
E24  21768947.203 7 114396595.070 7       731.133          44.000    21768960.555 7  87654576.921 7       560.183          43.000  
C29  22770017.961 7 118569461.159 7     -2081.414          47.000                                                                  
C26  21829157.125 7 113670153.702 7       514.348          42.000                                                                  
C13                                                                  38477852.500 4 154934364.683 4      -578.954          29.000  
> 2020 05 14 12 04  0.0000000  0 16      -0.000000000000
G18  21467778.602 8 112813988.904 8      2617.629          49.000    21467779.086 7  87907017.993 7      2039.714          46.000  
G31  21187343.453 7 111340248.857 7      -632.133          42.000    21187341.539 7  86758625.132 7      -492.568          42.000  
G21  21559798.438 8 113297517.875 8      2237.113          51.000    21559798.000 7  88283793.859 7      1743.206          47.000  
G25  22144967.914 7 116372542.468 7     -2673.320          42.000    22144971.406 7  90679920.303 7     -2083.107          42.000  
G29  20673067.664 8 108637727.759 8     -1420.000          51.000    20673066.828 8  84652756.668 8     -1106.494          51.000  
R24  19770265.000 8 105720154.410 8      1900.375          51.000    19770266.477 7  82226768.789 7      1478.070          47.000  
R13  19633702.094 6 104842484.076 6     -1918.344          41.000    19633705.992 7  81544157.010 7     -1492.048          45.000  
R23  19249621.812 8 102972156.097 8     -1269.363          50.000    19249626.727 6  80089454.748 6      -987.283          41.000  
R12  23501544.977 6 125540678.437 6     -4158.543          37.000    23501556.391 6  97642767.424 6     -3234.429          36.000  
E12  21722028.734 8 114150043.296 8       941.957          48.000    21722029.656 8  87465623.487 8       721.670          50.000  
E31  24596588.258 8 129255921.354 8     -1812.523          51.000    24596593.047 8  99040257.949 8     -1388.776          51.000  
E33  24879069.945 7 130740379.159 7     -1838.219          46.000    24879071.492 7 100177729.906 7     -1408.551          42.000  
E24  21764802.328 7 114374811.467 7       721.270          45.000    21764815.875 7  87637885.599 7       552.688          43.000  
C29  22782031.539 7 118632018.118 7     -2088.957          47.000                                                                  
C26  21826240.109 7 113654963.225 7       498.445          42.000                                                                  
C13                                                                  38482174.695 4 154951768.533 4      -580.923          29.000  
> 2020 05 14 12 04 30.0000000  0 16      -0.000000000000
G18  21452875.078 8 112735670.888 8      2603.070          49.000    21452875.070 7  87845990.961 7      2028.367          46.000  
G31  21191007.078 6 111359502.116 6      -651.699          40.000    21191005.469 6  86773627.652 6      -507.818          40.000  
G21  21547068.195 8 113230617.397 8      2222.586          51.000    21547066.945 7  88231663.649 7      1731.886          46.000  
G25  22160254.125 6 116452872.692 6     -2682.387          40.000    22160256.688 6  90742515.289 6     -2090.172          40.000  
G29  20681204.375 8 108680486.800 8     -1431.016          51.000    20681203.172 8  84686075.399 8     -1115.077          51.000  
R24  19759659.539 8 105663443.002 8      1879.984          51.000    19759660.477 7  82182659.925 7      1462.210          46.000  
R13  19644540.305 7 104900358.143 7     -1940.246          42.000    19644544.203 7  81589170.152 7     -1509.081          45.000  
R23  19256796.508 8 103010536.469 8     -1289.629          51.000    19256801.703 6  80119306.147 6     -1003.048          41.000  
R12  23524914.422 5 125665504.718 5     -4163.957          35.000    23524923.938 6  97739854.403 6     -3238.637          36.000  
E12  21716688.102 8 114121977.403 8       928.836          48.000    21716688.648 8  87444118.437 8       711.700          51.000  
E31  24606959.961 8 129310426.241 8     -1821.566          51.000    24606965.367 8  99082021.416 8     -1395.681          51.000  
E33  24889590.055 7 130795662.447 7     -1847.805          46.000    24889591.219 7 100220089.832 7     -1415.887          43.000  
E24  21760711.531 7 114353313.582 7       711.348          44.000    21760725.273 7  87621413.191 7       545.268          44.000  
C29  22794087.516 7 118694796.027 7     -2096.500          47.000                                                                  
C26  21823413.203 7 113640242.841 7       482.477          43.000                                                                  
C13                                                                  38486515.805 4 154969248.740 4      -584.726          28.000  
> 2020 05 14 12 05  0.0000000  0 15      -0.000000000000
G18  21438054.406 8 112657787.118 8      2589.340          50.000    21438054.195 7  87785302.292 7      2017.668          47.000  
G31  21194781.445 7 111379335.144 7      -670.219          43.000    21194780.000 7  86789081.931 7      -522.252          43.000  
G21  21534420.211 8 113164150.900 8      2208.668          51.000    21534418.516 7  88179871.600 7      1721.041          45.000  
G25  22175591.492 7 116533470.531 7     -2690.785          43.000    22175593.273 7  90805318.782 7     -2096.716          43.000  
G29  20689403.211 8 108723572.227 8     -1441.234          51.000    20689402.047 8  84719648.464 8     -1123.040          51.000  
R24  19749167.688 8 105607339.038 8      1860.352          51.000    19749168.539 7  82139023.517 7      1446.940          47.000  
R13  19655501.297 7 104958889.215 7     -1961.645          42.000    19655505.438 7  81634694.245 7     -1525.727          45.000  
R23  19264084.055 8 103049520.762 8     -1309.125          50.000    19264089.461 6  80149627.271 6     -1018.209          41.000  
R12  23548317.273 6 125790513.368 6     -4169.336          37.000    23548325.969 5  97837083.178 5     -3242.821          35.000  
E12  21711421.445 8 114094300.066 8       916.531          49.000    21711422.055 8  87422911.140 8       702.308          51.000  
E31  24617382.398 8 129365197.844 8     -1829.723          51.000    24617387.977 8  99123989.255 8     -1401.975          51.000  
E33  24900163.055 7 130851224.789 7     -1856.293          47.000    24900164.297 7 100262663.563 7     -1422.478          43.000  
E24  21756676.406 7 114332109.219 7       702.188          45.000    21756690.445 7  87605165.704 7       538.097          45.000  
C29  22806186.883 7 118757800.053 7     -2103.402          47.000                                                                  
C26  21820678.188 7 113626000.177 7       467.359          44.000                                                                  
> 2020 05 14 12 05 30.0000000  0 15      -0.000000000000
G18  21423314.594 8 112580327.534 8      2575.430          50.000    21423314.531 8  87724944.176 8      2006.829          48.000  
G31  21198663.867 7 111399735.060 7      -688.883          45.000    21198662.273 7  86804977.942 7      -536.792          45.000  
G21  21521852.125 8 113098107.910 8      2194.887          49.000    21521850.852 7  88128409.520 7      1710.302          47.000  
G25  22190977.359 6 116614322.775 6     -2698.656          40.000    22190978.703 6  90868320.478 6     -2102.853          40.000  
G29  20697661.477 8 108766970.160 8     -1451.312          51.000    20697660.617 8  84753465.039 8     -1130.893          51.000  
R24  19738787.297 8 105551831.197 8      1840.773          51.000    19738788.883 7  82095850.781 7      1431.713          47.000  
R13  19666582.648 6 105018062.563 6     -1982.609          41.000    19666586.641 7  81680717.916 7     -1542.030          44.000  
R23  19271481.562 8 103089093.637 8     -1328.391          51.000    19271487.211 6  80180406.174 6     -1033.196          40.000  
R12  23571751.133 6 125915689.289 6     -4174.734          38.000    23571759.570 5  97934442.154 5     -3247.019          33.000  
E12  21706226.320 8 114066999.020 8       904.152          48.000    21706226.883 8  87401992.186 8       692.703          50.000  
E31  24627853.344 8 129420223.666 8     -1837.969          51.000    24627858.828 8  99166151.865 8     -1408.386          51.000  
E33  24910786.664 7 130907052.313 7     -1864.859          46.000    24910788.227 7 100305440.494 7     -1429.045          43.000  
E24  21752695.086 7 114311187.080 7       693.172          45.000    21752709.234 7  87589134.453 7       531.054          45.000  
C29  22818327.016 7 118821016.427 7     -2110.215          46.000                                                                  
C26  21818032.781 7 113612223.884 7       451.738          45.000                                                                  
> 2020 05 14 12 06  0.0000000  0 14      -0.000000000000
G18  21408658.055 8 112503305.798 8      2558.863          51.000    21408658.273 8  87664927.253 8      1993.920          48.000  
G31  21202656.172 7 111420712.618 7      -709.777          45.000    21202654.336 7  86821324.118 7      -553.073          45.000  
G21  21509366.750 8 113032500.845 8      2178.578          50.000    21509366.422 7  88077287.128 7      1697.591          47.000  
G25  22206412.898 6 116695440.103 6     -2709.391          36.000    22206414.891 6  90931528.720 6     -2111.217          36.000  
G29  20705981.109 8 108810690.554 8     -1463.676          51.000    20705980.336 8  84787532.892 8     -1140.524          51.000  
R24  19728520.781 8 105496931.694 8      1818.809          51.000    19728522.586 7  82053151.171 7      1414.629          46.000  
R13  19677785.820 6 105077889.308 6     -2005.922          38.000    19677789.914 7  81727249.796 7     -1560.162          44.000  
R23  19278991.070 8 103129264.239 8     -1350.000          48.000    19278996.086 6  80211649.963 6     -1050.000          39.000  
E12  21701104.961 8 114040085.738 8       889.527          48.000    21701104.984 8  87381370.334 8       681.595          49.000  
E31  24638375.055 8 129475514.833 8     -1848.578          51.000    24638379.680 8  99208517.783 8     -1416.369          51.000  
E33  24921462.891 7 130963154.874 7     -1875.629          46.000    24921464.336 7 100348428.175 7     -1437.258          42.000  
E24  21748769.844 7 114290559.670 7       681.688          46.000    21748783.938 7  87573329.025 7       522.311          46.000  
C29  22830509.664 7 118884454.982 7     -2119.473          45.000                                                                  
C26  21815478.930 7 113598926.125 7       434.398          45.000                                                                  
> 2020 05 14 12 06 30.0000000  0 14      -0.000000000000
G18  21394085.680 8 112426726.624 8      2545.445          51.000    21394086.273 7  87605255.185 7      1983.464          47.000  
G31  21206758.094 7 111442269.831 7      -727.879          42.000    21206756.789 6  86838121.934 6      -567.182          41.000  
G21  21496965.711 8 112967333.851 8      2165.219          51.000    21496966.016 8  88026507.672 8      1687.187          48.000  
G25  22221898.711 5 116776824.170 5     -2717.480          35.000    22221901.352 5  90994944.912 5     -2117.518          35.000  
G29  20714362.391 8 108854734.628 8     -1473.246          51.000    20714361.492 8  84821852.942 8     -1147.984          51.000  
R24  19718368.742 8 105442643.910 8      1799.664          50.000    19718370.500 7  82010927.343 7      1399.739          45.000  
R13  19689111.891 6 105138370.804 6     -2026.684          38.000    19689116.094 7  81774290.952 7     -1576.310          44.000  
R23  19286612.172 8 103170032.604 8     -1368.496          49.000    19286617.602 6  80243358.700 6     -1064.386          39.000  
E12  21696057.961 8 114013562.822 8       877.879          49.000    21696057.297 8  87361047.598 8       672.562          48.000  
E31  24648947.867 8 129531073.664 8     -1856.207          51.000    24648951.820 8  99251088.804 8     -1422.310          51.000  
E33  24932191.531 7 131019533.576 7     -1883.637          46.000    24932192.562 7 100391627.409 7     -1443.436          42.000  
E24  21744901.602 7 114270230.576 7       672.922          46.000    21744915.430 7  87557752.180 7       515.586          46.000  
C29  22842734.984 7 118948116.697 7     -2125.625          44.000                                                                  
C26  21813017.641 7 113586110.292 7       419.215          45.000                                                                  
> 2020 05 14 12 07  0.0000000  0 14      -0.000000000000
G18  21379595.484 8 112350579.892 8      2531.387          51.000    21379596.320 7  87545920.086 7      1972.510          47.000  
G31  21210967.750 7 111464393.735 7      -746.602          43.000    21210966.844 7  86855361.359 7      -581.765          43.000  
G21  21484646.703 8 112902596.446 8      2151.070          51.000    21484646.766 8  87976063.004 8      1676.159          48.000  
G25  22237433.938 6 116858461.793 6     -2724.918          40.000    22237435.977 6  91058558.656 6     -2123.313          40.000  
G29  20722802.641 8 108899088.408 8     -1483.285          51.000    20722801.703 8  84856414.319 8     -1155.807          51.000  
R24  19708328.578 8 105388955.777 8      1779.949          50.000    19708330.609 7  81969169.949 7      1384.405          45.000  
R13  19700558.070 6 105199492.723 6     -2047.621          39.000    19700562.086 7  81821830.214 7     -1592.594          44.000  
R23  19294342.203 8 103211383.010 8     -1387.711          48.000    19294347.555 6  80275520.127 6     -1079.331          39.000  
E12  21691082.945 8 113987417.948 8       865.535          49.000    21691082.125 8  87341014.533 8       663.280          49.000  
E31  24659569.000 8 129586887.537 8     -1864.371          51.000    24659572.562 8  99293855.241 8     -1428.566          51.000  
E33  24942970.242 7 131076174.396 7     -1892.109          44.000    24942970.820 7 100435027.515 7     -1449.760          43.000  
E24  21741088.016 7 114250188.453 7       663.652          47.000    21741101.516 7  87542395.229 7       508.525          47.000  
C29  22855000.648 7 119011987.811 7     -2132.184          44.000                                                                  
C26  21810647.125 7 113573764.961 7       404.031          46.000                                                                  
> 2020 05 14 12 07 30.0000000  0 14      -0.000000000000
G18  21365186.430 8 112274859.961 8      2517.438          51.000    21365187.281 7  87486917.578 7      1961.640          46.000  
G31  21215283.961 7 111487075.759 7      -765.109          45.000    21215283.180 7  86873035.705 7      -596.186          45.000  
G21  21472408.336 8 112838282.081 8      2137.211          51.000    21472407.602 7  87925947.965 7      1665.363          47.000  
G25  22253016.336 6 116940344.698 6     -2732.832          41.000    22253015.688 6  91122363.451 6     -2129.483          41.000  
G29  20731300.164 8 108943743.195 8     -1493.133          51.000    20731299.164 8  84891210.247 8     -1163.480          51.000  
R24  19698399.375 8 105335860.145 8      1760.398          51.000    19698401.398 7  81927873.364 7      1369.199          46.000  
R13  19712122.844 6 105261246.224 6     -2068.527          41.000    19712126.430 7  81869860.694 7     -1608.858          44.000  
R23  19302178.883 8 103253304.973 8     -1406.438          50.000    19302184.562 6  80308126.110 6     -1093.899          39.000  
E12  21686178.125 8 113961643.313 8       853.512          48.000    21686177.594 8  87321265.188 8       653.933          49.000  
E31  24670236.852 8 129642948.420 8     -1872.383          50.000    24670240.719 8  99336810.948 8     -1434.678          51.000  
E33  24953796.820 7 131133068.058 7     -1900.355          45.000    24953797.766 7 100478621.349 7     -1455.920          43.000  
E24  21737327.703 8 114230426.574 8       654.445          48.000    21737341.047 7  87527253.010 7       501.396          47.000  
C29  22867305.070 7 119076059.104 7     -2138.441          45.000                                                                  
C26  21808365.305 7 113561883.272 7       388.641          46.000                                                                  
> 2020 05 14 12 08  0.0000000  0 14      -0.000000000000
G18  21350858.406 8 112199566.108 8      2502.395          50.000    21350858.945 7  87428247.095 7      1949.922          45.000  
G31  21219705.930 7 111510312.256 7      -784.164          47.000    21219705.156 7  86891142.066 7      -611.034          47.000  
G21  21460250.281 8 112774389.486 8      2122.438          51.000    21460248.812 7  87876161.578 7      1653.851          47.000  
G25  22268644.859 7 117022468.807 7     -2741.770          43.000    22268643.492 7  91186356.129 7     -2136.448          43.000  
G29  20739853.984 8 108988694.235 8     -1503.605          51.000    20739852.922 8  84926237.031 8     -1171.641          51.000  
R24  19688580.391 8 105283354.662 8      1739.965          50.000    19688582.727 7  81887035.797 7      1353.309          46.000  
R13  19723805.078 6 105323626.954 6     -2090.176          40.000    19723808.273 7  81918378.996 7     -1625.693          43.000  
R23  19310121.961 7 103295793.141 7     -1425.992          47.000    19310127.172 6  80341172.441 6     -1109.105          38.000  
E12  21681343.328 8 113936236.022 8       840.555          49.000    21681342.352 8  87301797.276 8       644.101          48.000  
E31  24680950.922 8 129699253.035 8     -1881.152          49.000    24680955.375 8  99379953.452 8     -1441.400          51.000  
E33  24964670.570 7 131190210.100 7     -1909.242          46.000    24964672.242 7 100522405.497 7     -1462.756          42.000  
E24  21733620.289 8 114210943.014 8       644.543          49.000    21733633.383 7  87512324.049 7       493.871          47.000  
C29  22879647.250 7 119140326.193 7     -2145.828          46.000                                                                  
C26  21806172.203 7 113550463.067 7       372.812          45.000                                                                  
> 2020 05 14 12 08 30.0000000  0 14      -0.000000000000
G18  21336614.219 8 112124713.105 8      2487.223          50.000    21336613.797 7  87369920.124 7      1938.096          45.000  
G31  21224235.797 7 111534115.154 7      -803.410          47.000    21224234.727 7  86909689.765 7      -626.034          46.000  
G21  21448175.039 8 112710932.816 8      2107.512          51.000    21448173.297 7  87826714.862 7      1642.217          47.000  
G25  22284321.266 6 117104845.983 6     -2750.551          40.000    22284319.844 6  91250545.965 6     -2143.293          40.000  
G29  20748466.344 8 109033952.725 8     -1514.242          51.000    20748465.227 8  84961503.377 8     -1179.929          51.000  
R24  19678873.812 8 105231452.694 8      1719.461          50.000    19678876.516 7  81846667.626 7      1337.362          45.000  
R13  19735606.219 6 105386646.913 6     -2112.047          37.000    19735609.805 7  81967394.491 7     -1642.703          43.000  
R23  19318172.195 8 103338857.229 8     -1445.543          49.000    19318177.984 6  80374666.744 6     -1124.314          38.000  
E12  21676580.953 8 113911208.744 8       827.406          49.000    21676579.508 8  87282620.514 8       633.969          49.000  
E31  24691713.570 8 129755813.775 8     -1890.160          48.000    24691718.945 8  99423292.220 8     -1448.281          51.000  
E33  24975593.820 7 131247611.589 7     -1918.371          42.000    24975595.500 7 100566388.430 7     -1469.748          42.000  
E24  21729968.273 8 114191751.483 8       634.309          49.000    21729981.047 7  87497618.860 7       486.020          47.000  
C29  22892029.117 7 119204800.063 7     -2152.941          46.000                                                                  
C26  21804069.758 7 113539517.724 7       356.453          45.000                                                                  
> 2020 05 14 12 09  0.0000000  0 14      -0.000000000000
G18  21322458.031 8 112050322.923 8      2471.898          50.000    21322456.922 7  87311953.768 7      1926.158          45.000  
G31  21228876.664 7 111558503.430 7      -822.613          45.000    21228875.406 7  86928693.584 7      -641.001          45.000  
G21  21436186.188 8 112647933.070 8      2092.273          49.000    21436184.883 8  87777624.172 8      1630.343          48.000  
G25  22300049.172 6 117187495.087 6     -2759.102          36.000    22300048.609 6  91314947.810 6     -2149.947          36.000  
G29  20757140.742 8 109079537.276 8     -1525.016          51.000    20757139.781 8  84997023.800 8     -1188.324          51.000  
R24  19669284.211 8 105180175.163 8      1698.691          51.000    19669286.750 7  81806785.090 7      1321.205          46.000  
R13  19747529.312 5 105450324.924 5     -2134.238          32.000    19747534.359 7  82016921.822 7     -1659.963          42.000  
R23  19326334.008 7 103382514.756 7     -1465.141          47.000    19326339.133 6  80408622.559 6     -1139.554          37.000  
E12  21671894.344 8 113886581.164 8       814.234          49.000    21671893.531 8  87263750.050 8       623.912          50.000  
E31  24702528.750 8 129812650.150 8     -1899.203          48.000    24702534.953 8  99466842.166 8     -1455.151          51.000  
E33  24986569.609 6 131305290.689 6     -1927.301          40.000    24986570.781 6 100610584.122 6     -1476.638          41.000  
E24  21726375.594 8 114172872.779 8       624.121          49.000    21726388.477 8  87483153.349 8       478.241          48.000  
C29  22904453.883 7 119269498.821 7     -2160.473          46.000                                                                  
C26  21802062.633 7 113529067.598 7       339.867          46.000                                                                  
> 2020 05 14 12 09 30.0000000  0 14      -0.000000000000
G18  21308392.391 8 111976408.124 8      2457.098          51.000    21308391.328 7  87254357.853 7      1914.625          45.000  
G31  21233630.422 7 111583486.803 7      -841.309          46.000    21233629.320 7  86948161.128 7      -655.565          46.000  
G21  21424285.883 7 112585402.417 7      2077.723          47.000    21424285.789 7  87728898.991 7      1619.002          47.000  
G25  22315831.422 5 117270485.05825     -2767.539          33.000    22315832.000 5  91379600.67425     -2156.525          32.000  
G29  20765878.992 8 109125457.151 8     -1534.977          51.000    20765878.211 8  85032805.515 8     -1196.086          51.000  
R24  19659813.969 8 105129533.128 8      1678.734          50.000    19659816.273 7  81767396.861 7      1305.682          46.000  
R13  19759578.492 5 105514669.560 5     -2155.012          35.000    19759584.133 7  82066967.683 7     -1676.121          42.000  
R23  19334607.562 7 103426773.747 7     -1484.016          47.000    19334612.852 6  80443046.248 6     -1154.235          37.000  
E12  21667285.914 8 113862363.792 8       801.582          49.000    21667285.398 8  87245193.914 8       614.176          50.000  
E31  24713399.172 8 129869772.380 8     -1907.562          51.000    24713404.953 8  99510611.120 8     -1461.658          51.000  
E33  24997599.672 6 131363256.445 6     -1935.766          41.000    24997600.492 6 100654999.440 6     -1483.121          41.000  
E24  21722844.719 8 114154318.411 8       614.305          50.000    21722857.828 8  87468936.370 8       470.719          48.000  
C29  22916923.195 7 119334431.362 7     -2167.137          44.000                                                                  
C26  21800153.023 7 113519123.786 7       324.289          46.000                                                                  
> 2020 05 14 12 10  0.0000000  0 14      -0.000000000000
G18  21294406.961 8 111902914.719 8      2443.113          51.000    21294406.367 7  87197090.278 7      1903.725          46.000  
G31  21238486.812 7 111609008.085 7      -859.297          46.000    21238485.727 7  86968047.843 7      -669.582          46.000  
G21  21412464.859 8 112523286.325 8      2063.891          48.000    21412465.359 7  87680496.809 7      1608.227          47.000  
G25  22331652.984 6 117353644.044 6     -2774.883          37.000    22331655.406 6  91444399.584 6     -2162.247          37.000  
G29  20774670.086 8 109171654.394 8     -1544.254          51.000    20774669.391 8  85068803.361 8     -1203.315          51.000  
R24  19650451.805 8 105079470.014 8      1659.422          50.000    19650453.922 7  81728458.945 7      1290.662          45.000  
R13  19771742.906 6 105579622.367 6     -2175.023          40.000    19771747.344 7  82117486.503 7     -1691.685          42.000  
R23  19342982.625 8 103471574.081 8     -1502.082          48.000    19342987.641 6  80477890.946 6     -1168.286          36.000  
E12  21662745.070 8 113838500.440 8       789.887          49.000    21662743.891 8  87226908.988 8       605.283          50.000  
E31  24724313.852 8 129927123.980 8     -1915.184          51.000    24724317.969 8  99554555.823 8     -1467.419          49.000  
E33  25008673.867 6 131421451.108 6     -1943.137          40.000    25008674.164 6 100699590.171 6     -1489.074          41.000  
E24  21719365.203 8 114136033.238 8       605.371          50.000    21719378.484 8  87454925.645 8       463.880          49.000  
C29  22929426.438 7 119399540.493 7     -2173.035          43.000                                                                  
C26  21798330.203 7 113509631.468 7       309.191          46.000                                                                  
> 2020 05 14 12 10 30.0000000  0 14      -0.000000000000
G18  21280503.375 8 111829853.178 8      2427.723          48.000    21280503.797 7  87140159.208 7      1891.733          46.000  
G31  21243447.234 8 111635074.934 8      -878.477          48.000    21243446.031 8  86988359.674 8      -684.527          48.000  
G21  21400725.375 8 112461594.164 8      2048.855          50.000    21400725.609 7  87632424.995 7      1596.511          47.000  
G25  22347522.805 7 117437031.722 7     -2784.078          42.000    22347525.469 7  91509376.935 7     -2169.415          42.000  
G29  20783515.320 8 109218136.217 8     -1554.539          51.000    20783514.703 8  85105022.955 8     -1211.329          51.000  
R24  19641199.930 8 105029995.018 8      1638.887          51.000    19641201.648 7  81689978.380 7      1274.690          46.000  
R13  19784022.695 6 105645190.799 6     -2196.418          41.000    19784026.125 7  82168484.119 7     -1708.328          43.000  
R23  19351459.562 7 103516921.548 7     -1521.156          46.000    19351464.898 6  80513161.196 6     -1183.122          37.000  
E12  21658273.109 8 113814999.454 8       776.855          48.000    21658271.664 8  87208901.722 8       595.265          51.000  
E31  24735273.773 8 129984713.079 8     -1924.086          51.000    24735275.758 8  99598682.494 8     -1474.274          48.000  
E33  25019792.477 6 131479881.534 6     -1951.836          36.000    25019793.055 6 100744361.517 6     -1495.575          41.000  
E24  21715938.719 8 114118026.684 8       595.133          50.000    21715952.023 8  87441128.429 8       455.972          49.000  
C29  22941965.156 7 119464833.113 7     -2179.840          44.000                                                                  
C26  21796595.766 7 113500599.672 7       292.988          46.000                                                                  
> 2020 05 14 12 11  0.0000000  0 14      -0.000000000000
G18  21266685.711 7 111757245.189 7      2412.707          45.000    21266687.320 7  87083581.564 7      1880.032          45.000  
G31  21248515.102 7 111661706.261 7      -897.258          47.000    21248513.945 7  87009111.339 7      -699.162          47.000  
G21  21389071.148 8 112400347.667 8      2033.941          51.000    21389070.883 7  87584700.480 7      1584.890          47.000  
G25  22363439.422 7 117520670.327 7     -2792.168          42.000    22363440.633 7  91574549.745 7     -2175.722          42.000  
G29  20792418.148 8 109264920.581 8     -1564.719          51.000    20792417.602 8  85141478.308 8     -1219.262          51.000  
R24  19632061.992 8 104981128.472 8      1618.531          51.000    19632063.844 7  81651971.062 7      1258.858          47.000  
R13  19796421.156 6 105711393.076 6     -2217.438          41.000    19796423.789 7  82219974.736 7     -1724.674          44.000  
R23  19360042.250 8 103562833.371 8     -1539.930          48.000    19360048.070 6  80548870.377 6     -1197.726          37.000  
E12  21653873.516 8 113791880.370 8       764.055          48.000    21653872.758 8  87191187.118 8       585.544          51.000  
E31  24746282.133 8 130042558.960 8     -1932.562          51.000    24746282.570 8  99643005.908 8     -1480.792          49.000  
E33  25030959.070 6 131538565.708 6     -1960.348          37.000    25030960.594 6 100789327.372 6     -1502.064          39.000  
E24  21712569.242 8 114100319.383 8       585.062          51.000    21712582.320 8  87427560.487 8       448.415          50.000  
C29  22954542.766 7 119530327.151 7     -2186.609          45.000                                                                  
C26  21794953.414 7 113492048.546 7       276.828          45.000                                                                  
> 2020 05 14 12 11 30.0000000  0 14      -0.000000000000
G18  21252956.766 7 111685102.333 7      2397.086          45.000    21252959.219 7  87027366.387 7      1867.863          45.000  
G31  21253692.070 8 111688910.574 8      -916.164          48.000    21253690.500 8  87030309.478 8      -713.897          48.000  
G21  21377503.695 8 112339557.356 8      2018.668          51.000    21377502.930 7  87537331.434 7      1572.992          46.000  
G25  22379404.906 7 117604568.518 7     -2800.930          43.000    22379405.492 7  91639924.865 7     -2182.546          42.000  
G29  20801380.172 8 109312015.755 8     -1575.062          51.000    20801379.539 8  85178175.854 8     -1227.322          51.000  
R24  19623039.664 8 104932880.575 8      1597.918          50.000    19623041.852 8  81614444.932 8      1242.825          48.000  
R13  19808939.461 6 105778237.491 6     -2238.953          40.000    19808941.602 7  82271964.822 7     -1741.408          44.000  
R23  19368732.055 7 103609316.410 7     -1559.062          46.000    19368737.367 6  80585023.830 6     -1212.601          36.000  
E12  21649548.352 7 113769152.603 7       751.008          47.000    21649548.023 8  87173772.357 8       575.505          50.000  
E31  24757340.562 8 130100670.782 8     -1941.555          51.000    24757340.742 8  99687533.075 8     -1487.638          49.000  
E33  25042176.227 6 131597511.682 6     -1969.055          39.000    25042178.016 6 100834493.768 6     -1508.886          39.000  
E24  21709258.695 8 114082921.785 8       574.738          50.000    21709271.516 8  87414229.880 8       440.324          50.000  
C29  22967160.492 7 119596030.501 7     -2193.586          44.000                                                                  
C26  21793405.406 7 113483988.185 7       260.457          46.000                                                                  
> 2020 05 14 12 12  0.0000000  0 14      -0.000000000000
G18  21239313.938 7 111613410.273 7      2381.883          45.000    21239316.617 7  86971502.482 7      1856.013          45.000  
G31  21258974.820 8 111716670.665 8      -935.004          49.000    21258972.344 8  87051940.717 8      -728.572          49.000  
G21  21366019.875 8 112279207.494 8      2004.008          51.000    21366018.703 7  87490305.614 7      1561.565          46.000  
G25  22395415.930 6 117688709.024 6     -2809.160          39.000    22395416.273 6  91705488.863 6     -2188.957          40.000  
G29  20810397.953 8 109359403.989 8     -1584.770          51.000    20810397.133 8  85215101.745 8     -1234.886          51.000  
R24  19614129.656 8 104885234.999 8      1577.918          51.000    19614132.250 8  81577387.270 8      1227.270          48.000  
R13  19821574.172 6 105845705.837 6     -2259.578          39.000    19821576.633 7  82324440.209 7     -1757.450          44.000  
R23  19377524.477 7 103656351.158 7     -1577.250          46.000    19377530.273 6  80621606.415 6     -1226.750          36.000  
E12  21645294.633 7 113746799.725 7       738.531          47.000    21645293.805 8  87156644.808 8       565.972          49.000  
E31  24768446.148 8 130159031.807 8     -1949.773          51.000    24768447.125 8  99732251.205 8     -1493.929          50.000  
E33  25053439.711 6 131656701.466 6     -1977.406          40.000    25053441.516 6 100879846.951 6     -1514.926          39.000  
E24  21706003.906 8 114065818.523 8       565.027          51.000    21706016.586 8  87401124.777 8       432.859          50.000  
C29  22979814.766 7 119661925.397 7     -2200.012          43.000                                                                  
C26  21791948.688 7 113476403.016 7       244.523          46.000                                                                  
> 2020 05 14 12 12 30.0000000  0 14      -0.000000000000
G18  21225761.734 7 111542193.322 7      2366.348          46.000    21225763.938 7  86916008.780 7      1843.911          46.000  
G31  21264367.125 8 111745007.739 8      -953.719          48.000    21264364.039 8  87074021.549 8      -743.158          48.000  
G21  21354624.266 8 112219322.411 8      1988.906          51.000    21354622.312 7  87443641.949 7      1549.801          44.000  
G25  22411476.336 6 117773113.181 6     -2817.422          39.000    22411478.797 6  91771258.306 6     -2195.397          38.000  
G29  20819475.367 8 109407106.012 8     -1594.789          51.000    20819474.531 8  85252272.152 8     -1242.693          51.000  
R24  19605336.320 8 104838214.861 8      1557.406          50.000    19605339.078 7  81540816.049 7      1211.316          47.000  
R13  19834329.977 7 105913819.939 7     -2280.691          42.000    19834332.445 7  82377417.827 7     -1773.875          44.000  
R23  19386424.250 7 103703957.526 7     -1595.926          46.000    19386429.516 5  80658633.571 5     -1241.276          35.000  
E12  21641116.484 7 113724843.825 7       725.750          47.000    21641115.172 8  87139821.456 8       556.136          50.000  
E31  24779603.125 8 130217663.934 8     -1958.473          51.000    24779604.688 8  99777177.099 8     -1500.634          50.000  
E33  25064753.461 6 131716155.722 6     -1985.500          39.000    25064754.953 6 100925402.793 6     -1521.705          39.000  
E24  21702809.602 8 114049032.859 8       554.742          51.000    21702822.055 8  87388263.037 8       425.059          50.000  
C29  22992510.047 7 119728032.468 7     -2206.645          42.000                                                                  
C26  21790587.242 7 113469315.777 7       228.602          46.000                                                                  
> 2020 05 14 12 13  0.0000000  0 14      -0.000000000000
G18  21212296.547 7 111471434.246 7      2351.039          45.000    21212298.320 7  86860871.850 7      1831.979          45.000  
G31  21269865.352 8 111773901.594 8      -972.461          49.000    21269862.398 8  87096536.242 8      -757.762          49.000  
G21  21343313.500 8 112159884.083 8      1973.785          51.000    21343310.414 7  87397326.404 7      1538.015          43.000  
G25  22427583.523 6 117857760.800 6     -2825.504          37.000    22427588.047 6  91837217.489 6     -2201.695          36.000  
G29  20828608.539 8 109455101.341 8     -1604.762          51.000    20828607.906 8  85289671.106 8     -1250.464          51.000  
R24  19596656.070 8 104791800.705 8      1536.953          50.000    19596659.453 7  81504716.181 7      1195.411          47.000  
R13  19847202.883 7 105982557.377 7     -2301.574          44.000    19847204.898 7  82430880.247 7     -1790.117          43.000  
R23  19395426.531 7 103752112.812 7     -1614.418          45.000    19395430.992 5  80696087.680 5     -1255.656          34.000  
E12  21637010.078 8 113703265.540 8       712.945          48.000    21637009.016 8  87123287.477 8       546.247          50.000  
E31  24790807.898 8 130276547.561 8     -1967.012          51.000    24790810.055 8  99822295.704 8     -1507.186          50.000  
E33  25076113.844 6 131775853.617 6     -1994.105          39.000    25076114.633 6 100971145.305 6     -1527.790          38.000  
E24  21699672.305 8 114032546.479 8       544.492          51.000    21699684.492 8  87375630.611 8       417.250          50.000  
C29  23005242.258 7 119794331.102 7     -2213.406          42.000                                                                  
C26  21789318.164 7 113462708.033 7       212.188          46.000                                                                  
> 2020 05 14 12 13 30.0000000  0 14      -0.000000000000
G18  21198920.422 7 111401141.537 7      2335.852          45.000    21198921.727 7  86806098.334 7      1820.148          45.000  
G31  21275470.625 8 111803357.872 8      -990.590          48.000    21275468.227 8  87119489.171 8      -771.888          48.000  
G21  21332089.148 8 112100900.202 8      1959.141          51.000    21332085.180 7  87351364.977 7      1526.607          43.000  
G25  22443737.953 5 117942657.604 5     -2833.285          35.000    22443743.477 5  91903370.859 5     -2207.755          35.000  
G29  20837798.508 8 109503395.040 8     -1614.102          51.000    20837798.047 8  85327302.536 8     -1257.745          51.000  
R24  19588091.016 8 104745999.759 8      1517.145          51.000    19588094.625 7  81469093.247 7      1180.002          47.000  
R13  19860193.375 7 106051923.487 7     -2321.984          43.000    19860194.820 7  82484831.615 7     -1805.991          43.000  
R23  19404532.008 8 103800820.797 8     -1632.102          48.000    19404536.469 5  80733971.666 5     -1269.413          34.000  
E12  21632976.836 8 113682071.297 8       700.766          48.000    21632975.938 8  87107047.762 8       536.948          50.000  
E31  24802062.039 8 130335688.929 8     -1975.082          51.000    24802064.172 8  99867611.807 8     -1513.354          51.000  
E33  25087521.805 6 131835800.147 6     -2001.707          41.000    25087521.961 6 101017078.347 6     -1533.926          38.000  
E24  21696593.258 8 114016366.938 8       534.820          51.000    21696605.508 8  87363233.311 8       409.783          51.000  
C29  23018012.195 6 119860826.259 6     -2219.395          41.000                                                                  
C26  21788142.758 7 113456586.853 7       196.691          47.000                                                                  
> 2020 05 14 12 14  0.0000000  0 14      -0.000000000000
G18  21185631.156 7 111331303.078 7      2320.621          47.000    21185632.047 7  86751678.790 7      1808.280          46.000  
G31  21281180.008 8 111833361.356 8     -1008.844          49.000    21281178.125 8  87142868.497 8      -786.112          49.000  
G21  21320948.688 8 112042358.191 8      1944.328          50.000    21320944.930 7  87305747.863 7      1515.061          44.000  
