     3.04           OBSERVATION DATA    M (MIXED)           RINEX VERSION / TYPE
Convert 2.6.2       NovAtel             20200515 160616 UTC PGM / RUN BY / DATE 
Rinex Version 3.04 Observation File                         COMMENT             
                                                            MARKER NAME         
                                                            MARKER NUMBER       
                                                            MARKER TYPE         
                                                            OBSERVER / AGENCY   
                    NovAtel GPSCard                         REC # / TYPE / VERS 
                                                            ANT # / TYPE        
        0.0000        0.0000        0.0000                  APPROX POSITION XYZ 
        0.0000        0.0000        0.0000                  ANTENNA: DELTA H/E/N
G    8 C1C L1C D1C S1C C2W L2W D2W S2W                      SYS / # / OBS TYPES 
R    8 C1C L1C D1C S1C C2P L2P D2P S2P                      SYS / # / OBS TYPES 
E    8 C1C L1C D1C S1C C7Q L7Q D7Q S7Q                      SYS / # / OBS TYPES 
C    8 C2I L2I D2I S2I C7I L7I D7I S7I                      SYS / # / OBS TYPES 
DBHZ                                                        SIGNAL STRENGTH UNIT
    30.000                                                  INTERVAL            
  2020    05    11    22    00    0.0000000     GPS         TIME OF FIRST OBS   
  2020    05    11    22    59   30.0000000     GPS         TIME OF LAST OBS    
G L1C  0.00000  08 G09 G17 G03 G04 G01 G31 G22 G19          SYS / PHASE SHIFT   
G L2W  0.00000  08 G09 G17 G03 G04 G01 G31 G22 G19          SYS / PHASE SHIFT   
R L1C  0.00000  08 R17 R02 R03 R11 R18 R04 R12 R13          SYS / PHASE SHIFT   
R L2P  0.25000  08 R17 R02 R03 R11 R18 R04 R12 R13          SYS / PHASE SHIFT   
E L1C  0.50000  04 E05 E36 E09 E03                          SYS / PHASE SHIFT   
E L7Q -0.25000  04 E05 E36 E09 E03                          SYS / PHASE SHIFT   
C L2I  0.00000  05 C19 C29 C20 C30 C23                      SYS / PHASE SHIFT   
C L7I  0.00000  01 C05                                      SYS / PHASE SHIFT   
  8 R17  4 R02 -4 R03  5 R11  0 R18 -3 R04  6 R12 -1 R13 -2 GLONASS SLOT / FRQ #
 C1C  -71.950 C2C  -71.950 C2P  -71.950                     GLONASS COD/PHS/BIS 
    18    18  1929     7GPS                                 LEAP SECONDS        
                                                            END OF HEADER       
> 2020 05 11 22 00  0.0000000  0 17      -0.000000000000
G09  22156714.281 8 116434412.782 8      2932.152          48.000    22156716.422 8  90728099.008 8      2284.795          48.000  
G17  22259312.711 5 116973475.811 5     -1181.066          34.000    22259319.688 5  91148180.339 5      -920.309          31.000  
G03  20721674.820 8 108893133.978 8     -1190.395          51.000    20721676.445 8  84851836.972 8      -927.580          51.000  
G04  20413270.883 8 107272456.617 8       993.051          51.000    20413270.867 8  83588945.511 8       773.806          51.000  
G01  22653064.859 8 119042645.341 8     -3180.238          51.000    22653068.758 8  92760508.154 8     -2478.112          51.000  
G31  23592212.945 5 123977921.211 5     -1441.664          33.000    23592215.648 5  96606175.467 5     -1123.369          31.000  
R17  20115664.352 8 107642623.240 8     -2934.746          49.000    20115667.453 8  83722016.610 8     -2282.581          48.000  
R02  19684860.078 6 105041802.026 6     -1528.012          39.000    19684863.172 6  81699163.951 6     -1188.451          37.000  
R03  20396304.984 4 109182598.293 4      1812.727          28.000    20396295.219 4  84919779.91024      1409.899          25.000  
R11  22973655.672 6 122763867.825 6       876.520          36.000    22973658.164 4  95483017.594 4       681.731          29.000  
E05  23913196.844 8 125664685.288 8      1222.766          51.000    23913197.734 8  96288565.311 8       936.919          51.000  
E36  23963492.953 8 125929014.937 8     -1912.719          50.000    23963496.352 8  96491066.063 8     -1465.588          51.000  
E09  22048633.141 8 115866431.180 8     -1326.203          51.000    22048635.023 8  88780784.939 8     -1016.266          51.000  
C19  23088549.008 4 120228137.778 4      1908.387          29.000                                                                  
C29  22868404.828 8 119081782.025 8     -1996.344          50.000                                                                  
C05                                                                  39731977.555 5 159984208.29725       -21.842          34.000  
C20  21986000.227 8 114486957.974 8      -541.500          51.000                                                                  
> 2020 05 11 22 00 30.0000000  0 15      -0.000000000000
G09  22140051.867 8 116346850.189 8      2918.316          50.000    22140053.109 8  90659868.438 8      2274.017          50.000  
G17  22266155.109 5 117009430.502 5     -1202.551          34.000                                                                  
G03  20728544.266 8 108929232.900 8     -1203.023          51.000    20728545.859 8  84879966.010 8      -937.421          51.000  
G04  20407696.992 8 107243168.149 8       972.656          50.000    20407697.430 8  83566123.330 8       757.914          50.000  
G01  22671292.766 8 119138430.738 8     -3192.559          50.000    22671295.945 8  92835146.088 8     -2487.712          49.000  
R17  20132221.477 8 107731228.905 8     -2958.988          48.000    20132225.344 8  83790932.125 8     -2301.436          48.000  
R02  19693529.633 7 105088060.822 7     -1542.969          42.000    19693533.906 5  81735143.015 5     -1200.090          34.000  
R11  22968850.484 5 122738185.047 5       848.879          32.000    22968850.648 5  95463042.198 5       660.242          31.000  
E05  23906288.508 8 125628382.756 8      1210.465          51.000    23906289.953 8  96260749.103 8       927.470          51.000  
E36  23974490.289 8 125986808.324 8     -1927.211          49.000    23974493.773 8  96535349.313 8     -1476.782          51.000  
E09  22056271.633 8 115906570.983 8     -1336.691          51.000    22056273.438 8  88811541.419 8     -1024.308          51.000  
C19  23077618.328 5 120171245.242 5      1898.344          33.000                                                                  
C29  22879992.117 8 119142116.256 8     -2013.133          50.000                                                                  
C05                                                                  39732183.781 5 159985038.408 5       -23.865          34.000  
C20  21989190.125 8 114503568.521 8      -552.930          51.000                                                                  
> 2020 05 11 22 01  0.0000000  0 14      -0.000000000000
G09  22123416.211 8 116259426.238 8      2907.758          50.000    22123416.445 8  90591745.903 8      2265.786          50.000  
G22  22401141.391 6 117718810.980 6     -2184.840          37.000                                                                  
G03  20735433.227 8 108965434.339 8     -1212.648          51.000    20735434.750 8  84908174.925 8      -944.921          51.000  
G04  20402187.211 8 107214215.913 8       955.277          50.000    20402187.883 8  83543563.136 8       744.372          50.000  
G01  22689537.242 8 119234305.045 8     -3201.418          49.000    22689539.805 8  92909853.289 8     -2494.612          49.000  
R17  20148862.164 8 107820279.517 8     -2980.062          50.000    20148866.438 7  83860193.694 7     -2317.827          47.000  
R02  19702228.625 6 105134480.311 6     -1554.414          41.000    19702231.641 5  81771246.999 5     -1208.992          35.000  
R11  22964142.633 5 122713035.891 5       825.039          34.000    22964144.828 5  95443481.848 5       641.700          32.000  
E05  23899396.602 8 125592168.854 8      1201.453          51.000    23899399.344 8  96233000.811 8       920.580          51.000  
E36  23985517.617 8 126044756.108 8     -1938.410          51.000    23985520.742 8  96579750.845 8     -1485.297          51.000  
E09  22063916.609 8 115946745.278 8     -1343.922          51.000    22063918.266 8  88842324.316 8     -1029.777          51.000  
C29  22891623.789 8 119202681.012 8     -2026.723          50.000                                                                  
C20  21992393.047 8 114520246.447 8      -561.203          51.000                                                                  
C30  25830245.078 4 134504858.23824     -3493.703          28.000                                                                  
> 2020 05 11 22 01 30.0000000  0 15      -0.000000000000
G09  22106848.422 8 116172359.648 8      2896.484          50.000    22106848.617 8  90523901.853 8      2257.005          50.000  
G22  22413630.578 6 117784439.235 6     -2190.738          38.000    22413630.250 4  91780067.075 4     -1707.075          29.000  
G03  20742382.945 8 109001955.099 8     -1222.461          51.000    20742384.422 8  84936632.642 8      -952.567          51.000  
G04  20396783.094 8 107185817.286 8       937.695          50.000    20396783.836 8  83521434.342 8       730.672          51.000  
G01  22707838.859 7 119330483.810 7     -3210.578          45.000    22707841.609 7  92984797.744 7     -2501.750          45.000  
G31  23617463.039 6 124110612.270 6     -1501.723          36.000    23617465.117 6  96709571.800 6     -1170.174          37.000  
R17  20165627.867 8 107909992.943 8     -3001.219          51.000    20165631.367 7  83929970.787 7     -2334.282          45.000  
R02  19710998.633 6 105181279.207 6     -1566.023          39.000    19711001.914 5  81807646.178 5     -1218.018          35.000  
R11  22959578.016 5 122688642.922 5       800.965          35.000    22959580.586 5  95424509.621 5       622.973          32.000  
E05  23892562.867 8 125556260.697 8      1192.203          51.000    23892566.875 8  96205486.784 8       913.507          51.000  
E36  23996615.844 8 126103074.572 8     -1949.898          51.000    23996618.492 8  96624436.400 8     -1494.037          51.000  
E09  22071609.234 8 115987170.141 8     -1351.348          51.000    22071610.695 8  88873299.204 8     -1035.416          51.000  
C29  22903340.438 8 119263689.744 8     -2040.730          51.000                                                                  
C20  21995650.000 8 114537206.417 8      -569.793          51.000                                                                  
C30  25850378.305 5 134609668.664 5     -3494.555          32.000                                                                  
> 2020 05 11 22 02  0.0000000  0 17      -0.000000000000
G09  22090373.609 8 116085782.351 8      2876.055          50.000    22090373.820 8  90456439.062 8      2241.082          50.000  
G22  22426184.516 6 117850412.472 6     -2206.191          37.000    22426180.594 4  91831466.968 4     -1719.102          27.000  
G17  22287210.984 6 117120108.225 6     -1263.727          37.000    22287208.477 6  91262389.881 6      -984.722          36.000  
G03  20749418.141 8 109038925.120 8     -1241.375          51.000    20749419.586 8  84965440.451 8      -967.305          51.000  
G04  20391509.242 8 107158102.817 8       910.867          51.000    20391510.289 8  83499838.687 8       709.770          51.000  
G01  22726222.453 7 119427095.805 7     -3229.113          43.000    22726225.297 7  93060079.790 7     -2516.196          43.000  
G31  23626117.320 6 124156086.173 6     -1529.199          38.000    23626117.961 6  96745006.020 6     -1191.584          38.000  
R17  20182541.672 8 108000498.588 8     -3031.688          51.000    20182543.977 7  84000364.079 7     -2357.980          44.000  
R02  19719864.398 6 105228587.979 6     -1586.992          38.000    19719866.422 5  81844441.870 5     -1234.321          34.000  
R03  20356360.828 5 108968779.40625      1747.641          32.000                                                                  
R11  22955180.203 5 122665140.772 5       766.973          35.000    22955183.555 5  95406230.096 5       596.531          31.000  
E05  23885812.688 8 125520788.640 8      1173.551          51.000    23885816.875 8  96178306.906 8       899.224          51.000  
E36  24007809.328 8 126161893.350 8     -1970.566          51.000    24007811.570 8  96669505.322 8     -1509.808          51.000  
E09  22079374.109 8 116027974.865 8     -1368.008          51.000    22079375.547 8  88904565.161 8     -1048.193          51.000  
C19  23045006.070 5 120001379.257 5      1868.441          34.000                                                                  
C29  22915165.914 8 119325269.832 8     -2063.770          48.000                                                                  
C20  21998985.641 8 114554576.987 8      -587.418          51.000                                                                  
> 2020 05 11 22 02 30.0000000  0 17      -0.000000000000
G09  22073924.531 8 115999341.347 8      2881.992          49.000    22073924.664 8  90389082.487 8      2245.709          48.000  
G22  22438736.625 5 117916375.645 5     -2195.383          35.000                                                                  
G17  22294414.656 6 117157961.393 6     -1264.480          36.000    22294413.242 5  91291898.918 5      -985.316          34.000  
G03  20756471.203 8 109075989.473 8     -1234.238          51.000    20756472.688 8  84994321.759 8      -961.744          51.000  
G04  20386298.312 8 107130718.178 8       910.184          50.000    20386299.133 8  83478500.014 8       709.234          50.000  
G01  22744620.844 7 119523784.896 7     -3221.328          43.000    22744623.164 7  93135421.885 7     -2510.126          43.000  
G31  23634841.492 6 124201926.738 6     -1531.465          38.000    23634841.281 6  96780725.924 6     -1193.350          38.000  
R17  20199534.898 8 108091432.343 8     -3035.293          51.000    20199537.242 7  84071090.320 7     -2360.787          44.000  
R02  19728757.625 6 105276044.383 6     -1581.680          38.000    19728760.258 5  81881352.484 5     -1230.193          35.000  
R03  20346539.727 5 108916230.973 5      1752.203          33.000                                                                  
R11  22950881.352 6 122642170.208 6       759.828          37.000    22950884.984 5  95388364.138 5       590.978          31.000  
E05  23879078.242 8 125485398.070 8      1181.293          51.000    23879081.766 8  96151189.488 8       905.150          51.000  
E36  24019030.180 8 126220857.024 8     -1964.871          51.000    24019032.492 8  96714685.287 8     -1505.471          51.000  
E09  22087143.609 8 116068803.897 8     -1358.418          51.000    22087145.227 8  88935849.734 8     -1040.788          51.000  
C29  22927031.797 7 119387068.143 7     -2060.656          47.000                                                                  
C20  22002332.688 8 114572006.264 8      -579.004          51.000                                                                  
C30  25890663.469 5 134819457.283 5     -3487.246          32.000                                                                  
> 2020 05 11 22 03  0.0000000  0 17      -0.000000000000
G09  22057547.625 7 115913282.723 7      2861.578          47.000    22057548.734 7  90322023.827 7      2229.802          47.000  
G22  22451334.000 6 117982572.629 6     -2211.199          40.000    22451334.695 5  91934460.950 5     -1723.013          31.000  
G17  22301726.961 5 117196383.318 5     -1291.230          34.000    22301719.938 5  91321838.090 5     -1006.160          34.000  
G03  20763588.641 8 109113392.244 8     -1253.031          51.000    20763590.031 8  85023466.753 8      -976.388          51.000  
G04  20381196.445 8 107103907.990 8       883.371          50.000    20381197.156 8  83457608.960 8       688.341          50.000  
G01  22763080.875 7 119620793.936 7     -3239.559          45.000    22763083.188 7  93211013.317 7     -2524.332          45.000  
G31  23643680.781 6 124248376.879 6     -1559.270          40.000    23643680.266 6  96816920.872 6     -1215.016          39.000  
R17  20216654.453 8 108183039.807 8     -3065.547          51.000    20216656.523 7  84142340.523 7     -2384.318          44.000  
R02  19737725.492 6 105323895.678 6     -1602.227          39.000    19737729.445 5  81918570.139 5     -1246.177          34.000  
R03  20336803.477 5 108864114.51125      1728.781          31.000                                                                  
R11  22946729.945 6 122619981.968 6       726.035          36.000    22946732.352 5  95371106.630 5       564.697          34.000  
E05  23872405.867 8 125450333.456 8      1162.684          51.000    23872408.766 8  96124321.828 8       890.891          51.000  
E36  24030324.680 8 126280209.317 8     -1985.602          51.000    24030327.469 8  96760163.030 8     -1521.442          51.000  
E09  22094963.992 8 116109900.632 8     -1375.047          51.000    22094965.773 8  88967339.441 8     -1053.665          51.000  
C29  22938986.117 7 119449325.204 7     -2083.539          46.000                                                                  
C20  22005737.594 8 114589735.966 8      -596.742          51.000                                                                  
C30  25910802.703 5 134924313.084 5     -3496.871          32.000                                                                  
> 2020 05 11 22 03 30.0000000  0 16      -0.000000000000
G09  22041236.977 7 115827574.731 7      2851.492          46.000    22041239.719 7  90255238.359 7      2221.943          46.000  
G22  22463969.242 6 118048970.051 6     -2216.305          36.000                                                                  
G17  22309141.633 5 117235338.942 5     -1306.980          35.000    22309130.641 5  91352193.118 5     -1018.430          35.000  
G03  20770764.109 8 109151099.833 8     -1261.488          51.000    20770765.195 8  85052849.276 8      -982.978          51.000  
G04  20376197.602 8 107077639.156 8       867.047          49.000    20376198.688 8  83437139.761 8       675.621          49.000  
G01  22781595.648 7 119718088.077 7     -3247.215          46.000    22781598.875 7  93286826.899 7     -2530.298          46.000  
G31  23652629.367 6 124295401.775 6     -1576.703          38.000    23652628.688 6  96853563.717 6     -1228.597          38.000  
R17  20233893.125 8 108275283.684 8     -3084.836          51.000    20233893.945 7  84214085.706 7     -2399.320          44.000  
R02  19746759.945 6 105372105.353 6     -1612.340          37.000    19746764.414 5  81956066.557 5     -1254.042          32.000  
R11  22942717.898 5 122598543.620 5       702.480          35.000    22942721.023 5  95354432.438 5       546.377          35.000  
E05  23865789.305 8 125415561.466 8      1154.789          51.000    23865792.141 8  96097678.363 8       884.812          51.000  
E36  24041686.016 8 126339916.121 8     -1995.660          49.000    24041689.367 8  96805912.382 8     -1529.107          51.000  
E09  22102828.711 8 116151230.762 8     -1380.957          51.000    22102830.445 8  88999007.970 8     -1058.178          51.000  
C29  22951023.664 8 119512006.300 8     -2095.836          48.000                                                                  
C20  22009193.633 8 114607732.549 8      -603.688          51.000                                                                  
C30  25930944.203 5 135029191.397 5     -3495.684          30.000                                                                  
> 2020 05 11 22 04  0.0000000  0 17      -0.000000000000
G09  22024991.414 8 115742204.153 8      2841.770          49.000    22024994.594 8  90188715.831 8      2214.366          49.000  
G22  22476639.508 6 118115553.203 6     -2220.633          39.000                                                                  
G17  22316654.016 6 117274811.912 6     -1322.957          36.000    22316646.367 5  91382951.165 5     -1030.876          34.000  
G03  20777994.742 8 109189097.163 8     -1269.699          51.000    20777995.414 8  85082457.579 8      -989.376          51.000  
G04  20371298.766 8 107051897.100 8       851.051          48.000    20371300.008 8  83417081.018 8       663.157          48.000  
G01  22800161.500 7 119815650.941 7     -3254.672          45.000    22800165.953 7  93362849.896 7     -2536.109          45.000  
G31  23661684.359 6 124342985.043 6     -1593.121          36.000    23661683.711 6  96890641.637 6     -1241.393          37.000  
R17  20251246.711 8 108368145.739 8     -3103.895          51.000    20251246.969 7  84286311.698 7     -2414.141          45.000  
R02  19755858.828 6 105420657.206 6     -1622.125          37.000    19755862.203 5  81993829.079 5     -1261.656          31.000  
R11  22938842.945 6 122577842.047 6       679.484          37.000    22938847.180 5  95338331.201 5       528.488          32.000  
E05  23859225.492 8 125381067.344 8      1146.902          51.000    23859228.758 8  96071247.790 8       878.808          51.000  
E36  24053111.266 8 126399961.901 8     -2005.445          48.000    24053114.969 8  96851921.470 8     -1536.704          51.000  
E09  22110734.875 8 116192778.574 8     -1386.793          51.000    22110736.406 8  89030843.292 8     -1062.662          51.000  
C19  23002043.625 5 119777666.290 5      1851.613          32.000                                                                  
C29  22963140.227 8 119575095.066 8     -2107.961          50.000                                                                  
C20  22012697.805 8 114625980.889 8      -610.738          51.000                                                                  
C30  25951084.250 4 135134105.68524     -3495.172          29.000                                                                  
> 2020 05 11 22 04 30.0000000  0 17      -0.000000000000
G09  22008802.320 8 115657127.484 8      2828.449          50.000    22008804.922 8  90122422.369 8      2203.990          50.000  
G22  22489336.930 6 118182276.316 6     -2229.410          38.000                                                                  
G17  22324255.656 5 117314754.48225     -1341.668          31.000    22324251.195 4  91414076.01724     -1045.456          29.000  
G03  20785271.938 8 109227338.831 8     -1281.176          51.000    20785272.391 8  85112256.269 8      -998.319          51.000  
G04  20366491.695 8 107026636.958 8       831.512          49.000    20366492.711 8  83397397.779 8       647.934          49.000  
G01  22818769.266 7 119913435.954 7     -3265.715          45.000    22818774.641 7  93439046.031 7     -2544.714          45.000  
G31  23670836.312 5 124391080.539 5     -1613.777          32.000    23670836.375 5  96928118.656 5     -1257.492          31.000  
R17  20268706.227 8 108461576.647 8     -3126.367          51.000    20268706.562 7  84358980.159 7     -2431.619          45.000  
R02  19765012.805 6 105469503.523 6     -1635.887          37.000    19765016.891 4  82031820.631 4     -1272.354          29.000  
R11  22935097.906 6 122557833.021 6       652.512          36.000    22935102.133 5  95322768.594 5       507.509          31.000  
E05  23852705.789 8 125346806.021 8      1135.668          51.000    23852709.352 8  96044995.588 8       870.110          51.000  
E36  24064592.672 8 126460300.778 8     -2018.570          49.000    24064596.320 8  96898155.135 8     -1546.787          51.000  
E09  22118673.812 8 116234498.005 8     -1395.988          51.000    22118675.164 8  89062810.126 8     -1069.717          51.000  
C19  22991404.359 5 119722228.323 5      1842.816          32.000                                                                  
C29  22975326.414 8 119638545.129 8     -2123.336          50.000                                                                  
C20  22016241.578 8 114644435.796 8      -621.016          51.000                                                                  
C30  25971219.469 4 135238949.078 4     -3497.477          29.000                                                                  
> 2020 05 11 22 05  0.0000000  0 16      -0.000000000000
G09  21992691.844 8 115572463.890 8      2819.023          50.000    21992692.648 8  90056450.795 8      2196.642          50.000  
G22  22502083.391 5 118249245.724 5     -2232.582          33.000                                                                  
G03  20792617.930 8 109265942.090 8     -1289.055          51.000    20792618.414 8  85142336.709 8     -1004.462          51.000  
G04  20361799.078 8 107001976.354 8       815.969          50.000    20361799.984 8  83378181.744 8       635.820          49.000  
G01  22837441.516 7 120011559.038 7     -3272.594          45.000    22837447.117 7  93515505.604 7     -2550.074          45.000  
R17  20286293.555 8 108555692.947 8     -3144.656          49.000    20286294.469 7  84432181.730 7     -2445.844          45.000  
R02  19774243.648 6 105518761.859 6     -1644.828          36.000    19774249.227 4  82070132.690 4     -1279.314          29.000  
R11  22931504.383 5 122538637.580 5       629.961          34.000    22931510.023 5  95307838.807 5       489.970          32.000  
E05  23846252.836 8 125312894.972 8      1128.453          51.000    23846255.859 8  96019011.774 8       864.647          51.000  
E03  27652172.930 6 145313165.253 6      2618.285          41.000                                                                  
E36  24076152.836 8 126521049.455 8     -2027.879          51.000    24076155.922 8  96944702.819 8     -1553.866          51.000  
E09  22126667.562 8 116276505.573 8     -1401.172          51.000    22126668.961 8  89094997.743 8     -1073.635          51.000  
C19  22980813.484 5 119667123.389 5      1838.320          31.000                                                                  
C29  22987603.906 8 119702471.115 8     -2134.977          51.000                                                                  
C20  22019847.391 8 114663213.225 8      -627.492          51.000                                                                  
C30  25991368.094 4 135343874.228 4     -3494.980          29.000                                                                  
> 2020 05 11 22 05 30.0000000  0 16      -0.000000000000
G09  21976645.805 8 115488142.966 8      2807.914          48.000    21976645.938 7  89990746.183 7      2187.986          47.000  
G22  22514865.289 5 118316414.74025     -2238.535          31.000                                                                  
G03  20800018.945 8 109304834.541 8     -1298.406          51.000    20800019.406 8  85172642.499 8     -1011.745          51.000  
G04  20357206.805 8 106977843.446 8       798.457          50.000    20357207.523 8  83359376.902 8       622.174          48.000  
G01  22856164.398 7 120109946.640 7     -3281.211          47.000    22856169.773 7  93592171.254 7     -2556.789          47.000  
R17  20303994.250 8 108650418.028 8     -3164.730          48.000    20303996.336 7  84505856.805 7     -2461.458          44.000  
R02  19783538.266 6 105568357.289 6     -1655.891          37.000    19783543.844 4  82108707.008 4     -1287.909          28.000  
R03  20289257.086 4 108609595.05624      1666.332          29.000                                                                  
R11  22928050.141 5 122520184.485 5       605.812          31.000    22928056.727 5  95293486.343 5       471.182          31.000  
E05  23839852.906 8 125279262.204 8      1119.262          51.000    23839855.156 8  95993241.213 8       857.605          51.000  
E03  27637250.750 6 145234755.772 6      2614.566          41.000                                                                  
E36  24087777.703 8 126582135.139 8     -2039.020          51.000    24087779.617 8  96991508.717 8     -1562.337          51.000  
E09  22134702.117 8 116318728.287 8     -1408.168          51.000    22134703.781 8  89127350.212 8     -1078.998          51.000  
C29  22999958.414 8 119766799.934 8     -2148.172          51.000                                                                  
C20  22023501.633 8 114682241.335 8      -635.609          51.000                                                                  
C30  26011513.477 5 135448790.708 5     -3495.188          30.000                                                                  
> 2020 05 11 22 06  0.0000000  0 15      -0.000000000000
G09  21960650.906 8 115404092.302 8      2797.137          49.000    21960652.516 8  89925252.157 8      2179.588          49.000  
G22  22527671.414 5 118383713.568 5     -2243.988          34.000                                                                  
G17  22347667.602 5 117437784.418 5     -1390.500          30.000    22347670.234 5  91509959.339 5     -1083.510          32.000  
G03  20807460.930 8 109343942.045 8     -1307.141          51.000    20807461.398 8  85203115.869 8     -1018.551          51.000  
G04  20352700.773 8 106954164.451 8       781.805          49.000    20352701.188 8  83340925.749 8       609.199          48.000  
G01  22874923.492 7 120208523.343 7     -3288.965          47.000    22874928.148 7  93668984.239 7     -2562.831          47.000  
R17  20321794.805 8 108745673.168 8     -3183.922          50.000    20321797.219 7  84579944.100 7     -2476.387          44.000  
R02  19792881.797 6 105618213.212 6     -1666.238          37.000    19792875.617 4  82147484.76424     -1295.963          29.000  
R11  22924721.547 5 122502399.965 5       581.547          32.000    22924729.281 5  95279653.915 5       452.314          31.000  
E05  23833491.680 8 125245833.804 8      1110.781          51.000    23833493.492 8  95967627.252 8       851.137          51.000  
E03  27622337.102 6 145156387.877 6      2611.652          41.000    27622332.266 5 111223683.265 5      2001.066          34.000  
E36  24099452.750 8 126643483.139 8     -2049.355          51.000    24099453.594 8  97038515.621 8     -1570.307          51.000  
E09  22142763.461 8 116361091.271 8     -1414.410          51.000    22142765.320 8  89159810.164 8     -1083.781          51.000  
C29  23012375.000 8 119831456.538 8     -2160.684          50.000                                                                  
C20  22027189.992 8 114701446.375 8      -643.125          51.000                                                                  
> 2020 05 11 22 06 30.0000000  0 14      -0.000000000000
G09  21944721.234 8 115320381.078 8      2785.297          51.000    21944723.664 8  89860022.629 8      2170.362          50.000  
G17  22355657.562 5 117479768.411 5     -1407.156          34.000    22355658.688 5  91542674.080 5     -1096.489          34.000  
G03  20814956.695 8 109383331.962 8     -1316.996          51.000    20814957.117 8  85233809.302 8     -1026.231          51.000  
G04  20348294.070 8 106931007.200 8       763.977          50.000    20348294.281 8  83322881.148 8       595.307          48.000  
G01  22893731.211 8 120307355.152 8     -3297.887          49.000    22893735.461 8  93745996.008 8     -2569.783          49.000  
R17  20339707.242 8 108841523.833 8     -3204.195          51.000    20339709.094 7  84654494.568 7     -2492.156          44.000  
R02  19802285.734 6 105668395.944 6     -1677.441          40.000    19802285.359 5  82186515.785 5     -1304.677          34.000  
R11  22921532.094 5 122485354.420 5       556.691          34.000    22921539.445 5  95266396.258 5       432.985          32.000  
E05  23827182.031 8 125212677.458 8      1101.359          51.000    23827183.773 8  95942221.762 8       843.839          51.000  
E03  27607444.023 7 145078129.889 7      2607.523          42.000    27607441.766 5 111163719.383 5      1997.737          35.000  
E36  24111190.219 8 126705160.310 8     -2060.762          51.000    24111190.625 8  97085774.736 8     -1579.059          51.000  
E09  22150864.289 8 116403661.264 8     -1421.770          51.000    22150866.266 8  89192428.736 8     -1089.483          51.000  
C29  23024865.773 7 119896506.184 7     -2174.242          47.000                                                                  
C20  22030924.984 8 114720894.925 8      -651.633          51.000                                                                  
> 2020 05 11 22 07  0.0000000  0 14      -0.000000000000
G09  21928851.680 8 115236984.778 8      2774.254          49.000    21928853.859 8  89795038.494 8      2161.757          48.000  
G17  22363738.242 6 117522228.548 6     -1423.680          37.000    22363739.109 6  91575759.948 6     -1109.361          38.000  
G03  20822501.062 8 109422977.889 8     -1326.301          51.000    20822501.516 8  85264702.225 8     -1033.481          51.000  
G04  20343981.789 8 106908345.632 8       746.633          50.000    20343981.922 8  83305222.798 8       581.792          49.000  
G01  22912582.336 8 120406414.418 8     -3306.172          49.000    22912585.297 8  93823185.019 8     -2576.239          49.000  
R17  20357725.406 8 108937940.272 8     -3223.703          51.000    20357726.875 7  84729485.100 7     -2507.325          46.000  
R02  19811745.922 6 105718877.450 6     -1688.047          38.000    19811746.703 5  82225779.219 5     -1312.923          34.000  
R11  22918476.773 5 122469022.405 5       532.008          31.000    22918482.758 5  95253693.661 5       413.781          32.000  
E05  23820919.070 8 125179766.952 8      1092.527          51.000    23820920.984 8  95917004.644 8       837.159          51.000  
E03  27592567.094 7 144999956.366 7      2603.875          43.000    27592567.562 6 111103820.190 6      1995.163          38.000  
E36  24122984.555 8 126767139.710 8     -2071.309          51.000    24122985.398 8  97133265.429 8     -1587.128          51.000  
E09  22158999.367 8 116446411.172 8     -1428.402          51.000    22159001.492 8  89225185.154 8     -1094.452          51.000  
C29  23037425.820 7 119961921.170 7     -2187.078          47.000                                                                  
C20  22034701.570 8 114740560.617 8      -659.484          51.000                                                                  
> 2020 05 11 22 07 30.0000000  0 14      -0.000000000000
G09  21913054.781 8 115153970.531 8      2762.562          50.000    21913056.414 8  89730352.096 8      2152.647          50.000  
G17  22371921.609 6 117565228.022 6     -1440.363          38.000    22371921.344 6  91609266.037 6     -1122.364          37.000  
G03  20830106.508 8 109462945.082 8     -1335.789          51.000    20830107.023 8  85295845.490 8     -1040.875          51.000  
G04  20339776.336 8 106886245.416 8       729.109          51.000    20339776.594 8  83288001.854 8       568.137          50.000  
G01  22931488.750 8 120505765.080 8     -3314.734          49.000    22931490.086 8  93900601.088 8     -2582.914          49.000  
R17  20375860.852 8 109034985.831 8     -3243.473          50.000    20375862.633 8  84804964.956 8     -2522.701          48.000  
R02  19821273.625 6 105769722.987 6     -1698.977          36.000    19821273.836 5  82265325.756 5     -1321.430          34.000  
E05  23814715.422 8 125147167.932 8      1083.227          51.000    23814717.727 8  95892026.192 8       829.969          51.000  
E03  27577719.094 7 144921933.528 7      2600.047          43.000    27577721.898 6 111044036.479 6      1992.062          38.000  
E36  24134848.250 8 126829486.156 8     -2082.555          51.000    24134850.250 8  97181037.326 8     -1595.674          51.000  
E09  22167180.883 8 116489405.640 8     -1435.359          51.000    22167183.234 8  89258128.971 8     -1099.887          51.000  
C19  22928374.133 5 119394035.486 5      1804.809          32.000                                                                  
C29  23050070.141 8 120027764.801 8     -2200.086          50.000                                                                  
C20  22038532.430 8 114760507.969 8      -667.746          51.000                                                                  
> 2020 05 11 22 08  0.0000000  0 17      -0.000000000000
G09  21897311.766 8 115071238.827 8      2754.887          50.000    21897313.062 8  89665885.877 8      2146.669          50.000  
G22  22579204.750 5 118654520.88225     -2265.590          31.000                                                                  
G17  22380187.953 6 117608664.349 6     -1453.266          40.000    22380188.289 6  91643112.516 6     -1132.415          39.000  
G03  20837753.828 8 109503132.209 8     -1341.391          50.000    20837754.406 8  85327160.134 8     -1045.240          50.000  
G04  20335658.648 8 106864605.614 8       715.652          51.000    20335659.055 8  83271139.674 8       557.651          51.000  
G01  22950430.742 8 120605304.553 8     -3319.227          48.000    22950429.992 8  93978164.274 8     -2586.414          48.000  
R17  20394094.117 8 109132554.014 8     -3258.984          50.000    20394096.531 8  84880851.331 8     -2534.766          49.000  
R02  19830849.062 6 105820827.782 6     -1705.609          38.000    19830853.703 5  82305073.929 5     -1326.585          35.000  
R03  20243497.992 4 108364653.625 4      1604.480          28.000    20243511.000 4  84283657.472 4      1247.923          24.000  
R11  22912786.422 5 122438587.693 5       486.031          31.000    22912790.148 5  95230024.410 5       378.030          33.000  
E05  23808551.797 8 125114779.365 8      1077.984          51.000    23808554.531 8  95867208.973 8       825.974          51.000  
E03  27562880.875 7 144843961.041 7      2600.133          43.000    27562885.625 6 110984291.295 6      1992.424          40.000  
E36  24146762.695 8 126892097.710 8     -2089.641          51.000    24146765.320 8  97229012.374 8     -1601.157          51.000  
E09  22175389.547 8 116532542.633 8     -1438.375          51.000    22175392.070 8  89291182.005 8     -1102.189          51.000  
C19  22917987.977 5 119339973.974 5      1801.898          31.000                                                                  
C29  23062778.359 8 120093935.153 8     -2209.176          51.000                                                                  
C20  22042398.305 8 114780636.400 8      -672.051          51.000                                                                  
> 2020 05 11 22 08 30.0000000  0 16      -0.000000000000
G09  21881626.203 8 114988809.475 8      2739.270          51.000    21881627.828 8  89601655.259 8      2134.496          51.000  
G17  22388540.383 6 117652553.741 6     -1473.941          40.000    22388538.867 6  91677311.992 6     -1148.529          40.000  
G03  20845446.359 8 109543557.316 8     -1354.934          50.000    20845447.172 8  85358660.216 8     -1055.793          50.000  
G04  20331632.094 8 106843444.571 8       694.023          51.000    20331632.531 8  83254650.556 8       540.798          51.000  
G01  22969411.242 7 120705049.526 7     -3331.570          45.000    22969409.977 7  94055887.607 7     -2596.033          46.000  
G19  22184078.062 5 116578123.794 5      -475.914          35.000                                                                  
R18  19807980.523 6 105735948.657 6       713.348          36.000    19807981.992 5  82239076.113 5       554.829          30.000  
R17  20412427.602 8 109230660.153 8     -3282.555          49.000    20412430.523 8  84957156.137 8     -2553.099          48.000  
R02  19840477.812 6 105872209.054 6     -1720.719          37.000    19840481.281 5  82345037.148 5     -1338.340          30.000  
R11  22910129.062 4 122424419.202 4       457.434          28.000    22910139.078 5  95219004.521 5       355.782          30.000  
E05  23802431.914 8 125082619.472 8      1064.824          51.000    23802434.844 8  95842567.000 8       815.908          51.000  
E03  27548055.984 7 144766057.834 7      2592.148          42.000    27548062.062 6 110924599.242 6      1986.142          40.000  
E36  24158731.406 8 126954991.799 8     -2104.559          51.000    24158734.039 8  97277203.909 8     -1612.600          51.000  
E09  22183628.758 8 116575839.501 8     -1449.305          51.000    22183631.203 8  89324357.523 8     -1110.489          51.000  
C29  23075552.312 8 120160448.489 8     -2226.215          51.000                                                                  
C20  22046302.219 8 114800963.549 8      -684.234          51.000                                                                  
> 2020 05 11 22 09  0.0000000  0 16      -0.000000000000
G09  21866022.562 8 114906812.037 8      2727.543          50.000    21866024.586 8  89537761.165 8      2125.359          50.000  
G17  22397002.422 6 117697022.367 6     -1490.203          38.000    22396997.453 6  91711962.839 6     -1161.198          38.000  
G03  20853208.516 8 109584348.084 8     -1364.348          50.000    20853209.680 8  85390445.238 8     -1063.125          50.000  
G04  20327720.836 8 106822890.273 8       676.562          51.000    20327721.258 8  83238634.224 8       527.192          51.000  
G01  22988454.227 7 120805126.432 7     -3340.047          44.000    22988454.047 7  94133869.595 7     -2602.635          44.000  
G19  22186858.086 5 116592724.464 5      -497.355          33.000                                                                  
R18  19804048.078 5 105714968.035 5       686.176          32.000    19804053.305 4  82222757.751 4       533.689          29.000  
R17  20430884.891 8 109329430.894 8     -3301.953          49.000    20430888.258 7  85033977.861 7     -2568.186          47.000  
R02  19850181.930 6 105923994.764 6     -1731.258          36.000    19850179.375 4  82385311.82824     -1346.534          28.000  
E05  23796380.203 8 125050816.162 8      1055.688          51.000    23796383.242 8  95818198.267 8       808.910          51.000  
E03  27533268.711 7 144688352.477 7      2588.285          42.000    27533275.398 6 110865058.745 6      1983.349          41.000  
E36  24170778.281 8 127018295.552 8     -2115.418          51.000    24170780.789 8  97325709.343 8     -1620.834          51.000  
E09  22191922.609 8 116619423.275 8     -1456.059          51.000    22191924.688 8  89357752.882 8     -1115.637          51.000  
C19  22897348.438 5 119232527.225 5      1784.469          30.000                                                                  
C29  23088415.594 8 120227429.778 8     -2239.051          50.000                                                                  
C20  22050268.227 8 114821615.740 8      -692.367          51.000                                                                  
> 2020 05 11 22 09 30.0000000  0 16      -0.000000000000
G09  21850480.188 8 114825137.629 8      2717.520          50.000    21850481.875 8  89474118.761 8      2117.548          50.000  
G17  22405552.547 6 117741958.524 6     -1505.207          38.000    22405545.633 6  91746978.017 6     -1172.892          39.000  
G03  20861019.305 8 109625393.886 8     -1372.004          50.000    20861020.625 8  85422428.971 8     -1069.094          50.000  
G04  20323904.000 8 106802832.385 8       660.637          51.000    20323904.570 8  83223004.718 8       514.785          51.000  
G01  23007539.062 7 120905423.267 7     -3346.309          44.000    23007540.914 7  94212022.945 7     -2607.514          44.000  
G19  22189753.836 5 116607947.614 5      -517.441          31.000                                                                  
R18  19800268.750 5 105694785.465 5       660.258          35.000    19800271.797 4  82207060.318 4       513.537          26.000  
R17  20449444.672 8 109428750.719 8     -3319.457          49.000    20449447.961 7  85111226.623 7     -2581.803          45.000  
R02  19859940.148 5 105976071.187 5     -1741.062          32.000    19859946.805 5  82425827.669 5     -1354.160          31.000  
R03  20216906.102 5 108222291.304 5      1562.504          31.000                                                                  
E05  23790375.602 8 125019259.106 8      1048.148          51.000    23790378.680 8  95794018.202 8       803.115          51.000  
E03  27518498.188 7 144610735.203 7      2586.199          42.000    27518504.664 6 110805585.755 6      1981.613          41.000  
E36  24182881.680 8 127081897.760 8     -2124.629          51.000    24182884.188 8  97374443.468 8     -1627.957          51.000  
E09  22200249.859 8 116663182.640 8     -1461.188          51.000    22200251.430 8  89391282.780 8     -1119.600          51.000  
C29  23101346.852 8 120294767.820 8     -2250.230          49.000                                                                  
C20  22054275.281 8 114842483.135 8      -698.766          51.000                                                                  
> 2020 05 11 22 10  0.0000000  0 16      -0.000000000000
G09  21835012.492 8 114743854.826 8      2705.496          51.000    21835013.297 8  89410781.531 8      2108.179          51.000  
G17  22414205.133 6 117787427.395 6     -1521.676          41.000    22414198.039 6  91782408.330 6     -1185.722          40.000  
G03  20868891.312 8 109666761.456 8     -1381.582          49.000    20868892.555 8  85454663.437 8     -1076.558          49.000  
G04  20320194.344 8 106783337.963 8       643.230          51.000    20320194.836 8  83207814.284 8       501.219          51.000  
G01  23026678.656 7 121006005.575 7     -3354.867          45.000    23026682.062 7  94290398.725 7     -2614.183          44.000  
R18  19796649.805 6 105675470.771 6       632.133          37.000                                                                  
R17  20468119.445 8 109528684.056 8     -3338.578          50.000    20468122.016 7  85188952.536 7     -2596.676          44.000  
R02  19869766.398 6 106028504.426 6     -1751.062          36.000    19869770.211 5  82466609.162 5     -1361.938          30.000  
R03  20208200.336 5 108175685.157 5      1548.988          32.000                                                                  
E05  23784430.633 8 124988015.347 8      1038.891          51.000    23784433.570 8  95770078.180 8       796.019          51.000  
E03  27503757.555 7 144533273.750 7      2582.270          44.000    27503763.008 6 110746232.200 6      1978.626          41.000  
E36  24195053.953 8 127145864.679 8     -2135.637          51.000    24195056.773 8  97423457.078 8     -1636.407          51.000  
E09  22208623.070 8 116707183.737 8     -1468.109          51.000    22208624.203 8  89424997.912 8     -1124.865          51.000  
C19  22876857.383 5 119125794.944 5      1771.938          33.000                                                                  
C29  23114359.547 8 120362527.236 8     -2262.957          50.000                                                                  
C20  22058336.398 8 114863631.739 8      -707.004          51.000                                                                  
> 2020 05 11 22 10 30.0000000  0 16      -0.000000000000
G09  21819596.234 8 114662841.852 8      2694.492          51.000    21819596.195 8  89347654.556 8      2099.608          51.000  
G17  22422935.633 7 117833303.719 7     -1537.273          42.000    22422928.031 7  91818156.105 7     -1197.876          42.000  
G03  20876801.055 8 109708327.318 8     -1390.105          48.000    20876802.117 8  85487052.420 8     -1083.199          48.000  
G04  20316568.445 8 106764283.810 8       626.461          51.000    20316568.672 8  83192966.892 8       488.155          51.000  
G01  23045849.492 7 121106748.376 7     -3362.039          47.000    23045853.500 7  94368899.581 7     -2619.771          47.000  
R18  19793169.148 4 105656900.194 4       605.543          28.000    19793171.922 4  82177598.97624       470.981          27.000  
R17  20486885.172 8 109629102.160 8     -3356.625          51.000    20486887.188 7  85267055.489 7     -2610.709          45.000  
R02  19879636.766 5 106081168.317 5     -1760.887          34.000    19879635.953 5  82507569.847 5     -1369.582          31.000  
R03  20199553.766 6 108129388.597 6      1536.820          37.000                                                                  
E05  23778521.648 8 124956961.582 8      1030.660          51.000    23778524.164 8  95746283.735 8       789.667          51.000  
E03  27489023.617 7 144455845.565 7      2579.012          45.000    27489027.773 7 110686904.151 7      1975.801          42.000  
E36  24207270.969 8 127210072.149 8     -2145.578          48.000    24207275.148 8  97472655.045 8     -1644.141          51.000  
E09  22217018.641 8 116751302.354 8     -1473.941          51.000    22217019.516 8  89458803.110 8     -1129.426          51.000  
C19  22866664.766 5 119072713.311 5      1766.047          32.000                                                                  
C29  23127429.672 8 120430584.045 8     -2274.746          50.000                                                                  
C20  22062428.320 8 114884938.985 8      -714.180          51.000                                                                  
> 2020 05 11 22 11  0.0000000  0 16      -0.000000000000
G09  21804241.648 8 114582151.801 8      2683.594          51.000    21804241.383 8  89284779.202 8      2091.113          51.000  
G17  22431753.305 6 117879637.425 6     -1552.934          41.000    22431746.164 6  91854260.286 6     -1210.078          40.000  
G03  20884758.312 8 109750142.765 8     -1398.641          48.000    20884759.000 8  85519635.880 8     -1089.850          48.000  
G04  20313036.141 8 106745721.452 8       609.883          51.000    20313036.438 8  83178502.725 8       475.233          51.000  
G01  23065060.625 7 121207701.729 7     -3369.285          47.000    23065064.477 7  94447564.505 7     -2625.418          47.000  
G19  22199168.750 5 116657424.622 5      -580.613          31.000                                                                  
R18  19789839.508 5 105639115.07525       578.258          30.000    19789841.125 4  82163766.72124       449.756          28.000  
R17  20505750.703 8 109730053.866 8     -3374.609          51.000    20505752.648 7  85345573.458 7     -2624.697          46.000  
R02  19889558.094 4 106134112.867 4     -1769.543          29.000    19889558.836 5  82548749.018 5     -1376.302          33.000  
R03  20190975.609 5 108083454.059 5      1524.398          32.000                                                                  
E05  23772658.336 8 124926149.367 8      1022.289          51.000    23772660.477 8  95722674.363 8       783.358          51.000  
E03  27474306.141 7 144378502.805 7      2576.031          46.000    27474309.430 7 110627641.535 7      1973.768          43.000  
E36  24219542.734 7 127274570.892 7     -2155.547          46.000    24219549.062 8  97522076.197 8     -1651.633          51.000  
E09  22225446.180 8 116795589.168 8     -1479.742          51.000    22225446.930 8  89492737.166 8     -1133.808          51.000  
C29  23140566.125 8 120498987.534 8     -2286.590          50.000                                                                  
C20  22066560.469 8 114906455.536 8      -721.477          51.000                                                                  
> 2020 05 11 22 11 30.0000000  0 15      -0.000000000000
G09  21788965.742 8 114501875.187 8      2669.398          51.000    21788965.969 8  89222226.013 8      2080.054          50.000  
G17  22440674.273 6 117926515.305 6     -1571.078          38.000    22440668.180 6  91890788.480 6     -1224.217          39.000  
G03  20892779.922 7 109792296.555 7     -1410.344          47.000    20892780.289 7  85552482.988 7     -1098.969          47.000  
G04  20309614.414 8 106727739.865 8       590.125          51.000    20309614.398 8  83164491.109 8       459.841          51.000  
G01  23084328.594 8 121308953.048 8     -3379.570          48.000    23084331.266 7  94526461.631 7     -2633.432          47.000  
G19  22202558.031 5 116675217.038 5      -604.570          33.000                                                                  
R17  20524732.320 8 109831626.523 8     -3395.617          51.000    20524734.250 7  85424574.393 7     -2641.039          47.000  
R02  19899550.180 6 106187422.098 6     -1783.059          36.000    19899549.766 5  82590215.728 5     -1386.827          35.000  
E05  23766857.922 8 124895667.649 8      1011.020          51.000    23766859.648 8  95699318.242 8       774.681          51.000  
E03  27459622.031 7 144301335.157 7      2569.871          46.000    27459625.320 7 110568513.119 7      1969.075          44.000  
E36  24231887.750 7 127339449.083 7     -2168.445          47.000    24231895.031 8  97571788.087 8     -1661.507          51.000  
E09  22233922.398 8 116840132.257 8     -1488.562          51.000    22233923.039 8  89526867.587 8     -1140.564          51.000  
C19  22846399.742 5 118967202.043 5      1752.109          32.000                                                                  
C29  23153785.320 8 120567824.032 8     -2301.227          50.000                                                                  
C20  22070749.453 8 114928269.117 8      -731.621          51.000                                                                  
> 2020 05 11 22 12  0.0000000  0 16      -0.000000000000
G09  21773749.828 7 114421917.120 7      2662.590          47.000    21773750.766 7  89159921.036 7      2074.746          47.000  
G17  22449678.492 5 117973839.609 5     -1582.086          34.000    22449674.875 5  91927664.599 5     -1232.795          34.000  
G03  20900847.562 7 109834692.054 7     -1414.504          47.000    20900847.938 7  85585518.433 7     -1102.214          47.000  
G04  20306284.867 8 106710242.645 8       577.867          51.000    20306284.250 8  83150856.913 8       450.286          51.000  
G01  23103634.625 8 121410404.332 8     -3382.219          48.000    23103637.062 8  94605514.536 8     -2635.496          48.000  
R18  19783664.547 5 105606150.968 5       525.672          33.000    19783663.883 5  82138113.815 5       408.862          30.000  
R17  20543810.977 8 109933718.126 8     -3408.910          51.000    20543812.875 7  85503978.952 7     -2651.375          47.000  
R02  19909592.922 6 106241006.451 6     -1787.879          38.000    19909592.352 6  82631892.339 6     -1390.576          37.000  
R11  22895555.500 6 122346492.087 6       287.969          37.000    22895558.633 4  95158414.772 4       223.979          28.000  
E05  23761102.094 8 124865420.022 8      1007.145          51.000    23761103.367 8  95676141.485 8       771.697          51.000  
E03  27444952.883 7 144224246.922 7      2571.016          46.000    27444956.859 7 110509445.524 7      1970.027          46.000  
E36  24244287.648 8 127404609.436 8     -2173.977          50.000    24244294.820 8  97621716.162 8     -1665.733          51.000  
E09  22242428.805 8 116884834.299 8     -1489.949          51.000    22242429.359 8  89561119.796 8     -1141.605          51.000  
C19  22836315.453 4 118914700.814 4      1749.824          29.000                                                                  
C29  23167068.562 8 120636996.098 8     -2308.703          49.000                                                                  
C20  22074976.875 8 114950283.769 8      -734.449          51.000                                                                  
> 2020 05 11 22 12 30.0000000  0 17      -0.000000000000
G09  21758592.586 7 114342272.616 7      2647.586          44.000    21758595.094 7  89097860.346 7      2063.052          44.000  
G17  22458765.305 4 118021607.32524     -1602.000          28.000    22458764.797 4  91964886.42324     -1248.318          26.000  
G03  20908959.961 8 109877322.477 8     -1426.773          48.000    20908960.633 8  85618736.949 8     -1111.772          48.000  
G04  20303046.297 8 106693223.196 8       557.383          51.000    20303045.406 8  83137595.019 8       434.324          51.000  
G01  23122976.953 8 121512047.480 8     -3393.289          48.000    23122979.695 8  94684716.957 8     -2644.122          48.000  
R18  19780801.047 6 105590851.242 6       494.656          38.000    19780800.234 5  82126213.940 5       384.733          31.000  
R17  20562984.477 8 110036318.820 8     -3430.379          51.000    20562986.234 7  85583779.471 7     -2668.073          47.000  
R02  19919684.172 5 106294852.489 5     -1801.336          35.000    19919684.469 6  82673772.524 6     -1401.039          39.000  
R03  20165695.688 4 107948171.08524      1485.355          29.000    20165685.625 4  83959639.15024      1155.277          28.000  
R11  22894020.969 6 122338291.652 6       259.867          36.000    22894024.203 5  95152036.622 5       202.119          30.000  
E05  23755389.195 8 124835399.913 8       994.887          51.000    23755390.242 8  95653139.070 8       762.313          51.000  
E03  27430297.336 7 144147232.168 7      2563.883          45.000    27430302.375 7 110450434.211 7      1964.433          46.000  
E36  24256740.438 8 127470044.556 8     -2187.793          51.000    24256746.961 8  97671854.783 8     -1676.389          51.000  
E09  22250963.969 8 116929687.879 8     -1499.609          51.000    22250964.805 8  89595488.128 8     -1149.124          51.000  
C19  22826266.273 5 118862378.351 5      1739.324          34.000                                                                  
C29  23180414.672 8 120706495.447 8     -2324.000          49.000                                                                  
C20  22079241.688 8 114972492.627 8      -745.395          51.000                                                                  
> 2020 05 11 22 13  0.0000000  0 16      -0.000000000000
G09  21743509.086 7 114263010.013 7      2636.133          47.000    21743512.156 8  89036097.282 8      2054.130          48.000  
G03  20917129.719 7 109920254.531 7     -1435.688          46.000    20917130.391 7  85652190.508 7     -1118.718          46.000  
G04  20299911.172 8 106676748.432 8       540.449          51.000    20299910.508 8  83124757.558 8       421.129          51.000  
G01  23142367.664 7 121613947.893 7     -3400.652          46.000    23142371.273 7  94764119.858 7     -2649.860          46.000  
G31  23842139.250 5 125291287.38025     -1913.500          32.000                                                                  
R18  19778098.188 6 105576409.269 6       467.660          37.000    19778093.086 4  82114981.333 4       363.739          29.000  
R17  20582264.461 8 110139493.117 8     -3448.262          51.000    20582266.586 7  85664026.134 7     -2681.985          46.000  
R02  19929835.031 5 106349026.368 5     -1810.699          33.000    19929838.500 6  82715907.887 6     -1408.313          39.000  
