     3.02           OBSERVATION DATA    M (MIXED)           RINEX VERSION / TYPE
SAVERINEX           SC600               20200517 145931 LCL PGM / RUN BY / DATE
       G = GPS       R = GLONASS       C = COMPASS          COMMENT
       S = SBAS      J = QZSS          E = GALILEO          COMMENT
BEAN                                                        MARKER NAME
1                                                           MARKER NUMBER
GEODETIC                                                    MARKER TYPE
Unige DICCA         GTER                                    OBSERVER / AGENCY
SC60291900056       SC600               2.12(191202)        REC # / TYPE / VERS
                    HEMA45          NONE                    ANT # / TYPE
  4509407.8091   693652.4678  4442337.6214                  APPROX POSITION XYZ
        0.0000        0.0000        0.0000                  ANTENNA: DELTA H/E/N
G    8 C1C L1C D1C S1C C2Y L2Y D2Y S2Y                      SYS / # / OBS TYPES
R    8 C1C L1C D1C S1C C2P L2P D2P S2P                      SYS / # / OBS TYPES
C    8 C1I L1I D1I S1I C7I L7I D7I S7I                      SYS / # / OBS TYPES
E    8 C1C L1C D1C S1C C7Q L7Q D7Q S7Q                      SYS / # / OBS TYPES
DBHZ                                                        COMMENT
     30.000                                                 INTERVAL
  2020    05    17    12    00    0.0000000     GPS         TIME OF FIRST OBS
  2020    05    17    12    59   30.0000000     GPS         TIME OF LAST OBS
     0                                                      RCV CLOCK OFFS APPL
G L1C  0.00000                                              SYS / PHASE SHIFT
G L2Y  0.00000                                              SYS / PHASE SHIFT
R L1C  0.00000                                              SYS / PHASE SHIFT
R L2P  0.25000                                              SYS / PHASE SHIFT
C L1I  0.00000                                              SYS / PHASE SHIFT
C L7I  0.00000                                              SYS / PHASE SHIFT
E L1C  0.50000                                              SYS / PHASE SHIFT
E L7Q -0.25000                                              SYS / PHASE SHIFT
 14 R02 -4 R03  5 R04  6 R05  1 R09 -2 R10 -5 R13 -2 R14 -7 GLONASS SLOT / FRQ #
    R15  0 R16 -1 R17  4 R18 -3 R19  3 R20  2               GLONASS SLOT / FRQ #
 C1C   71.950 C2C   71.950 C2P   71.950                     GLONASS COD/PHS/BIS
    18                                                      LEAP SECONDS
*** Above antenna height is from mark to ANTENNA BOTTOM.    COMMENT
    17     4        0.0000        ANT MEASURE TYPE/HEIGT    COMMENT
    0.0000    0.0000    0.0458    0.0405    0.0000          COMMENT
                    BASE STATION                            COMMENT
                                                            END OF HEADER
> 2020 05 17 12 00  0.0000000  0 15        .000000000000
G18  21224708.734 7 111536644.076 7      2383.719          47.000    21224712.336 7  86911631.036 7      1857.443          47.000
G21  21446588.586 7 112702622.314 7      2113.301          47.000    21446588.016 7  87820226.113 7      1646.728          47.000
G25  22418305.898 6 117808977.133 6     -2819.992          37.000    22418309.969 6  91799198.070 6     -2197.393          37.000
G29  20820977.484 8 109414966.157 8     -1596.203          51.000    20820976.703 8  85258431.088 8     -1243.795          51.000
G31  21262036.391 8 111732750.027 8      -954.664          48.000    21262034.086 8  87064468.518 8      -743.894          48.000
R16  19810059.211 7 105821788.061 7     -2201.910          44.000    19810064.016 7  82305835.828 7     -1712.597          46.000
R18  20229090.844 6 107984343.757 6     -2671.168          36.000    20229091.477 6  83987768.040 6     -2077.578          37.000
R19  19377955.680 6 103659018.564 6       967.941          39.000    19377956.742 7  80623670.472 7       752.843          45.000
C05                                                                  39643604.773 6 159628367.890 6        17.087          37.000
C23  25931075.492 5 135029905.521 5     -3403.457          34.000
C27  22311735.094 8 116183155.581 8      1723.309          51.000
C28  22011162.312 8 114617976.699 8     -1236.898          51.000
E11  22808470.992 8 119859340.770 8      1369.996          50.000    22808468.312 8  91840263.249 8      1049.698          50.000
E12  22565423.531 7 118582098.795 7     -1551.500          46.000    22565422.773 7  90861637.056 7     -1188.887          46.000
E24  22432577.672 8 117883979.362 8     -1576.449          51.000    22432591.359 8  90326717.793 8     -1207.932          51.000
> 2020 05 17 12 00 30.0000000  0 15        .000000000000
G18  21211142.852 8 111465354.232 8      2368.914          48.000    21211145.688 7  86856080.524 7      1845.907          47.000
G21  21434564.328 7 112639437.876 7      2099.090          47.000    21434564.258 7  87770991.483 7      1635.657          46.000
G25  22434424.875 6 117893686.442 6     -2827.469          37.000    22434430.430 6  91865205.322 6     -2203.222          36.000
G29  20830116.523 8 109462992.293 8     -1605.531          51.000    20830115.922 8  85295854.040 8     -1251.063          51.000
G31  21267538.242 8 111761662.881 8      -972.824          48.000    21267535.852 8  87086998.000 8      -758.045          48.000
R16  19822480.781 7 105888143.926 7     -2221.949          43.000    19822486.156 7  82357445.963 7     -1728.183          46.000
R18  20244139.359 6 108064674.365 6     -2684.219          36.000    20244141.766 6  84050247.375 6     -2087.726          38.000
R19  19372586.031 6 103630293.957 6       947.059          39.000    19372587.227 7  80601329.117 7       736.604          45.000
C05                                                                  39643475.695 6 159627848.030 6        17.386          37.000
C23  25950693.445 5 135132053.454 5     -3405.852          33.000
C27  22301835.727 8 116131609.513 8      1713.121          51.000
C28  22018316.461 8 114655231.145 8     -1246.758          51.000
E11  22800683.055 8 119818414.533 8      1358.656          50.000    22800680.789 8  91808904.197 8      1041.048          49.000
E12  22574307.570 7 118628784.546 7     -1560.984          46.000    22574307.094 7  90897409.244 7     -1196.073          46.000
E24  22441603.148 8 117931408.559 8     -1585.418          51.000    22441616.695 8  90363059.605 8     -1214.846          51.000
> 2020 05 17 12 01  0.0000000  0 15        .000000000000
G18  21197666.641 7 111394535.341 7      2352.797          47.000    21197668.414 7  86800896.979 7      1833.348          45.000
G21  21422625.602 8 112576700.687 8      2083.680          50.000    21422625.391 7  87722105.367 7      1623.650          43.000
G25  22450592.773 6 117978649.360 6     -2836.531          38.000    22450598.359 6  91931410.209 6     -2210.287          38.000
G29  20839313.320 8 109511321.935 8     -1616.125          51.000    20839312.797 8  85333513.473 8     -1259.318          51.000
G31  21273148.227 8 111791143.465 8      -992.148          49.000    21273145.992 8  87109969.867 8      -773.103          49.000
R16  19835020.688 7 105955129.687 7     -2243.285          44.000    19835025.789 7  82409546.022 7     -1744.777          46.000
R18  20259264.188 6 108145415.770 6     -2698.527          38.000    20259267.586 6  84113046.276 6     -2098.855          37.000
R19  19367338.633 6 103602224.958 6       924.848          38.000    19367339.766 7  80579497.676 7       719.326          44.000
C05                                                                  39643348.766 6 159627336.573 6        16.900          37.000
C23  25970328.477 5 135234296.969 5     -3409.664          33.000
C27  22291999.680 8 116080393.300 8      1701.711          51.000
C28  22025531.406 8 114692801.088 8     -1257.586          51.000
E11  22792964.320 8 119777853.255 8      1345.781          51.000    22792962.719 8  91777824.801 8      1031.216          50.000
E12  22583249.719 8 118675775.804 8     -1571.508          48.000    22583249.445 7  90933415.520 7     -1204.103          47.000
E24  22450684.062 8 117979129.924 8     -1595.629          51.000    22450697.664 8  90399625.275 8     -1222.631          51.000
> 2020 05 17 12 01 30.0000000  0 15        .000000000000
G18  21184278.648 7 111324180.280 7      2337.473          47.000    21184279.500 7  86746074.875 7      1821.407          44.000
G21  21410771.031 8 112514403.139 8      2069.273          51.000    21410770.219 7  87673561.860 7      1612.424          43.000
G25  22466807.852 6 118063855.765 6     -2844.328          39.000    22466811.016 6  91997804.816 6     -2216.360          39.000
G29  20848565.867 8 109559944.410 8     -1625.543          51.000    20848565.328 8  85371401.102 8     -1266.657          51.000
G31  21278864.258 8 111821181.297 8     -1010.484          50.000    21278862.508 8  87133375.947 8      -787.390          50.000
R16  19847676.875 7 106022734.737 7     -2263.836          46.000    19847681.312 7  82462127.726 7     -1760.761          46.000
R18  20274465.133 6 108226555.864 6     -2711.727          36.000    20274465.992 6  84176155.137 6     -2109.124          36.000
R19  19362212.000 6 103574801.640 6       903.605          39.000    19362213.281 7  80558168.422 7       702.804          45.000
C05                                                                  39643222.078 6 159626826.512 6        16.957          36.000
C23  25989980.016 5 135336625.147 5     -3412.516          34.000
C27  22282225.250 8 116029498.163 8      1691.152          50.000
C28  22032805.070 8 114730676.167 8     -1267.555          51.000
E11  22785313.477 8 119737648.087 8      1334.336          51.000    22785312.219 8  91747018.254 8      1022.374          49.000
E12  22592247.977 8 118723061.989 8     -1581.070          48.000    22592247.781 7  90969647.777 7     -1211.481          47.000
E24  22459818.766 8 118027134.173 8     -1604.836          51.000    22459832.836 8  90436407.716 8     -1229.635          51.000
> 2020 05 17 12 02  0.0000000  0 14        .000000000000
G18  21170979.336 7 111254291.226 7      2319.562          47.000    21170979.766 7  86691615.912 7      1807.451          45.000
G21  21399000.547 8 112452546.764 8      2052.375          51.000    21398998.773 7  87625362.112 7      1599.253          43.000
G25  22483068.680 6 118149305.187 6     -2854.641          36.000    22483069.477 5  92064388.652 5     -2224.398          35.000
G29  20857873.969 8 109608858.639 8     -1637.441          51.000    20857873.414 8  85409516.058 8     -1275.928          51.000
G31  21284686.133 8 111851775.408 8     -1031.180          49.000    21284684.953 8  87157215.498 8      -803.517          49.000
R16  19860448.984 8 106090957.545 8     -2286.590          48.000    19860452.500 7  82515189.885 7     -1778.462          44.000
R18  20289739.094 5 108308090.884 5     -2726.477          35.000    20289741.812 6  84239571.284 6     -2120.590          38.000
R19  19357206.352 6 103548024.222 6       879.832          40.000    19357207.930 7  80537341.556 7       684.314          45.000
C05                                                                  39643095.875 6 159626317.978 6        15.354          36.000
C27  22272512.203 8 115978924.638 8      1678.262          49.000
C28  22040137.031 8 114768855.238 8     -1279.824          51.000
E11  22777730.453 8 119697799.558 8      1320.305          50.000    22777729.312 8  91716484.973 8      1011.680          50.000
E12  22601302.094 8 118770641.839 8     -1592.973          48.000    22601301.828 7  91006105.059 7     -1220.589          47.000
E24  22469007.023 8 118075421.326 8     -1616.531          49.000    22469022.000 8  90473406.952 8     -1238.557          51.000
> 2020 05 17 12 02 30.0000000  0 14        .000000000000
G18  21157776.344 8 111184907.612 8      2306.004          49.000    21157776.531 7  86637550.794 7      1796.886          46.000
G21  21387321.281 8 112391170.392 8      2039.676          50.000    21387318.555 7  87577536.408 7      1589.361          44.000
G25  22499382.406 6 118235034.006 6     -2860.523          40.000    22499382.469 6  92131190.257 6     -2228.979          40.000
G29  20867244.516 8 109658100.677 8     -1645.102          51.000    20867243.898 8  85447886.453 8     -1281.897          51.000
G31  21290620.797 8 111882962.535 8     -1047.680          48.000    21290619.758 8  87181517.145 8      -816.374          48.000
R16  19873343.664 8 106159834.600 8     -2305.039          50.000    19873345.844 7  82568760.878 7     -1792.808          42.000
R18  20305093.555 5 108390055.992 5     -2737.695          32.000    20305099.219 6  84303321.940 6     -2129.316          36.000
R19  19352328.562 6 103521930.172 6       860.441          40.000    19352330.008 7  80517046.183 7       669.232          45.000
C05                                                                  39642977.055 6 159625839.709 6        16.652          36.000
C27  22262868.266 8 115928710.048 8      1669.500          50.000
C28  22047534.070 8 114807374.009 8     -1287.879          51.000
E11  22770222.141 8 119658345.409 8      1310.230          49.000    22770221.391 8  91686253.895 8      1003.979          50.000
E12  22610419.000 8 118818551.346 8     -1600.668          49.000    22610418.602 7  91042814.941 7     -1226.483          47.000
E24  22478255.352 7 118124028.674 7     -1623.949          45.000    22478271.781 8  90510651.530 8     -1244.169          51.000
> 2020 05 17 12 03  0.0000000  0 14        .000000000000
G18  21144654.086 8 111115947.744 8      2290.145          50.000    21144654.078 7  86583815.846 7      1784.528          46.000
G21  21375717.445 8 112330191.933 8      2024.562          50.000    21375714.891 7  87530020.768 7      1577.584          45.000
G25  22515733.383 6 118320957.608 6     -2868.816          39.000    22515734.594 6  92198143.683 6     -2235.444          38.000
G29  20876661.297 8 109707585.568 8     -1654.934          51.000    20876660.438 8  85486446.084 8     -1289.559          51.000
G31  21296651.969 8 111914657.965 8     -1066.316          48.000    21296650.891 8  87206214.863 8      -830.896          48.000
R16  19886344.375 8 106229279.188 8     -2325.688          50.000    19886345.188 6  82622773.276 6     -1808.871          41.000
R18  20320512.586 6 108472362.387 6     -2750.574          37.000    20320516.984 5  84367338.018 5     -2139.339          32.000
R19  19347562.430 6 103496434.047 6       838.551          41.000    19347563.688 7  80497215.868 7       652.206          45.000
C05  39642850.477 5 206430724.339 5        21.008          34.000    39642849.836 6 159625327.537 6        16.701          37.000
C27  22253278.578 8 115878771.674 8      1658.613          51.000
C28  22054980.031 8 114846148.150 8     -1298.156          51.000
E11  22762773.289 8 119619202.197 8      1298.227          50.000    22762772.828 8  91656261.049 8       994.721          50.000
E12  22619582.430 8 118866705.394 8     -1610.598          50.000    22619582.312 8  91079712.181 8     -1234.073          48.000
E24  22487548.758 7 118172872.274 7     -1633.410          45.000    22487566.508 8  90548077.174 8     -1251.580          51.000
> 2020 05 17 12 03 30.0000000  0 15        .000000000000
G18  21131618.438 8 111047443.351 8      2274.422          51.000    21131618.219 7  86530435.796 7      1772.277          46.000
G21  21364195.156 8 112269642.562 8      2009.656          50.000    21364193.391 7  87482839.482 7      1565.969          45.000
G25  22532126.500 6 118407105.031 6     -2877.219          39.000    22532128.906 6  92265271.467 6     -2241.992          38.000
G29  20886129.547 8 109757341.565 8     -1664.418          51.000    20886128.539 8  85525216.977 8     -1296.949          51.000
G31  21302785.359 8 111946890.128 8     -1084.711          49.000    21302784.453 8  87231330.815 8      -845.229          49.000
R16  19899456.484 8 106299320.113 8     -2346.113          49.000    19899457.047 7  82677249.482 7     -1824.758          43.000
R18  20336000.414 5 108555037.361 5     -2763.465          32.000    20336003.414 5  84431640.673 5     -2149.359          34.000
R19  19342913.961 6 103471565.502 6       817.180          40.000    19342914.438 7  80477873.687 7       635.584          45.000
C05  39642720.523 5 206430048.737 5        21.184          34.000    39642720.070 6 159624804.348 6        16.338          36.000
C23  26068742.695 5 135746778.850 5     -3423.301          32.000
C27  22243748.344 8 115829139.255 8      1647.973          51.000
C28  22062480.680 8 114885205.839 8     -1308.059          51.000
E11  22755389.562 8 119580399.957 8      1286.453          49.000    22755389.148 8  91626529.464 8       985.703          49.000
E12  22628797.664 8 118915132.227 8     -1620.156          50.000    22628797.977 8  91116818.459 8     -1241.451          48.000
E24  22496893.914 8 118221981.791 8     -1642.984          48.000    22496911.742 8  90585706.565 8     -1258.814          51.000
> 2020 05 17 12 04  0.0000000  0 15        .000000000000
G18  21118680.070 8 110979449.666 8      2259.066          51.000    21118679.438 7  86477453.695 7      1760.311          47.000
G21  21352764.805 8 112209576.286 8      1995.285          49.000    21352763.539 7  87436034.591 7      1554.768          46.000
G25  22548572.492 6 118493528.339 6     -2884.129          37.000    22548575.484 6  92332614.288 6     -2247.373          38.000
G29  20895659.211 8 109807420.763 8     -1673.559          51.000    20895658.242 8  85564239.720 8     -1304.072          51.000
G31  21309030.875 8 111979711.284 8     -1102.730          49.000    21309030.352 8  87256905.711 8      -859.274          49.000
R16  19912689.508 7 106370009.574 7     -2366.012          47.000    19912690.625 7  82732230.137 7     -1840.231          44.000
R18  20351566.766 6 108638043.407 6     -2775.922          37.000    20351571.391 5  84496269.464 5     -2159.053          34.000
R19  19338392.531 6 103447378.286 6       795.844          41.000    19338392.898 7  80459061.436 7       618.990          46.000
C05  39642597.961 5 206429409.694 5        21.500          34.000    39642597.469 6 159624310.987 6        16.689          36.000
C23  26088472.898 5 135849518.110 5     -3425.844          34.000
C27  22234286.945 8 115779865.898 8      1637.574          51.000
C28  22070045.672 8 114924598.528 8     -1317.598          51.000
E11  22748080.672 8 119541992.298 8      1274.594          48.000    22748080.062 8  91597100.221 8       976.682          49.000
E12  22638074.789 8 118963883.740 8     -1629.367          49.000    22638074.891 8  91154173.509 8     -1248.458          48.000
E24  22506300.695 8 118271410.340 8     -1651.891          50.000    22506317.609 8  90623580.379 8     -1265.710          51.000
> 2020 05 17 12 04 30.0000000  0 15        .000000000000
G18  21105830.680 8 110911923.550 8      2242.871          51.000    21105829.727 7  86424835.939 7      1747.692          47.000
G21  21341418.031 8 112149949.664 8      1980.012          48.000    21341417.031 7  87389572.282 7      1542.866          46.000
G25  22565062.117 6 118580181.801 6     -2892.391          37.000    22565065.180 6  92400136.422 6     -2253.814          37.000
G29  20905241.500 8 109857776.501 8     -1683.340          51.000    20905240.758 8  85603477.948 8     -1311.693          51.000
G31  21315379.906 8 112013075.396 8     -1121.266          49.000    21315380.055 8  87282903.685 8      -873.717          49.000
R16  19926034.859 7 106441300.279 7     -2386.602          47.000    19926036.742 7  82787678.443 7     -1856.246          44.000
R18  20367202.719 5 108721507.664 5     -2788.633          35.000    20367206.148 5  84561185.971 5     -2168.940          35.000
R19  19333989.633 6 103423826.231 6       774.082          40.000    19333990.461 7  80440743.167 7       602.064          46.000
C05  39642474.180 5 206428765.564 5        21.426          35.000    39642473.883 6 159623813.920 6        16.423          37.000
C23  26108214.695 5 135952324.077 5     -3427.578          34.000
C27  22224885.227 8 115730907.171 8      1626.477          51.000
C28  22077665.914 8 114964280.199 8     -1327.652          51.000
E11  22740838.180 8 119503934.323 8      1262.574          48.000    22740837.141 8  91567938.918 8       967.514          48.000
E12  22647404.867 8 119012913.403 8     -1639.117          49.000    22647404.516 8  91191741.700 8     -1256.010          48.000
E24  22515759.641 8 118321112.683 8     -1661.516          51.000    22515775.383 8  90661663.950 8     -1273.100          51.000
> 2020 05 17 12 05  0.0000000  0 15        .000000000000
G18  21093073.141 8 110844881.111 8      2226.398          51.000    21093071.789 7  86372595.088 7      1734.856          47.000
G21  21330157.805 8 112090778.437 8      1964.629          48.000    21330157.070 7  87343464.815 7      1530.880          46.000
G25  22581597.477 6 118667078.641 6     -2900.758          36.000    22581601.023 6  92467848.214 6     -2260.331          36.000
G29  20914878.812 8 109908421.513 8     -1693.184          51.000    20914878.328 8  85642941.580 8     -1319.364          51.000
G31  21321834.805 8 112046995.287 8     -1140.055          49.000    21321835.805 8  87309334.765 8      -888.354          49.000
R16  19939495.586 8 106513204.754 8     -2407.309          48.000    19939497.617 7  82843604.148 7     -1872.351          44.000
R18  20382909.938 5 108805353.125 5     -2801.789          35.000    20382913.500 6  84626399.145 6     -2179.169          36.000
R19  19329708.102 6 103400923.237 6       752.289          41.000    19329709.109 7  80422929.709 7       585.114          45.000
C05  39642351.859 5 206428128.501 5        20.660          35.000    39642351.719 6 159623322.063 6        15.918          36.000
C23  26127970.305 5 136055209.173 5     -3430.141          32.000
C27  22215546.172 8 115682277.359 8      1615.289          51.000
C28  22085344.227 8 115004263.589 8     -1338.125          51.000
E11  22733665.234 8 119466240.549 8      1250.293          49.000    22733663.836 8  91539056.679 8       957.996          48.000
E12  22656790.250 8 119062233.979 8     -1649.141          50.000    22656789.883 7  91229532.775 7     -1263.612          47.000
E24  22525273.258 8 118371102.786 8     -1671.379          51.000    22525287.664 8  90699968.006 8     -1280.679          51.000
> 2020 05 17 12 05 30.0000000  0 15        .000000000000
G18  21080408.047 8 110778324.748 8      2210.555          51.000    21080406.156 7  86320732.992 7      1722.510          47.000
G21  21318984.531 8 112032064.218 8      1949.559          48.000    21318984.258 7  87297713.449 7      1519.137          46.000
G25  22598179.750 6 118754218.437 6     -2908.668          40.000    22598182.656 6  92535749.312 6     -2266.495          40.000
G29  20924571.055 8 109959355.151 8     -1702.504          51.000    20924570.766 8  85682630.127 8     -1326.626          51.000
G31  21328395.258 8 112081470.581 8     -1158.359          49.000    21328396.664 8  87336198.622 8      -902.618          49.000
R16  19953070.875 8 106585721.741 8     -2427.266          48.000    19953072.984 7  82900006.231 7     -1887.876          43.000
R18  20398688.117 5 108889576.795 5     -2812.848          32.000    20398692.422 6  84691906.429 6     -2187.770          37.000
R19  19325548.359 6 103378669.206 6       731.109          40.000    19325548.750 7  80405621.031 7       568.644          45.000
C05  39642231.320 5 206427500.924 5        20.320          35.000    39642231.344 6 159622836.751 6        16.251          37.000
C23  26147738.992 5 136158153.161 5     -3432.559          30.000
C27  22206270.617 8 115633977.162 8      1604.617          51.000
C28  22093080.484 8 115044547.787 8     -1347.746          51.000
E11  22726561.789 8 119428911.723 8      1238.090          49.000    22726560.320 8  91510454.070 8       948.783          49.000
E12  22666230.836 8 119111844.462 8     -1658.375          50.000    22666230.547 8  91267545.994 8     -1270.712          48.000
E24  22534841.469 8 118421380.918 8     -1680.578          51.000    22534854.727 8  90738492.757 8     -1287.731          51.000
> 2020 05 17 12 06  0.0000000  0 15        .000000000000
G18  21067833.500 8 110712244.476 8      2195.438          51.000    21067831.211 7  86269241.895 7      1710.731          47.000
G21  21307896.727 8 111973796.626 8      1935.496          49.000    21307896.344 7  87252310.137 7      1508.179          46.000
G25  22614806.359 6 118841588.331 6     -2915.520          41.000    22614808.219 6  92603829.725 6     -2271.833          41.000
G29  20934315.664 8 110010563.925 8     -1710.758          51.000    20934315.477 8  85722533.063 8     -1333.058          51.000
G31  21335058.828 8 112116488.120 8     -1175.535          48.000    21335059.586 8  87363485.004 8      -916.001          48.000
R16  19966757.961 7 106658837.863 7     -2446.438          47.000    19966760.336 7  82956874.272 7     -1902.788          42.000
R18  20414530.250 5 108974160.366 5     -2824.680          31.000    20414533.133 5  84757678.113 5     -2196.973          35.000
R19  19321506.719 6 103357051.502 6       710.941          38.000    19321507.336 7  80388807.279 7       552.954          45.000
C05                                                                  39642110.219 6 159622348.988 6        16.885          37.000
C23  26167522.758 5 136261161.347 5     -3434.719          30.000
C27  22197056.109 8 115585995.031 8      1594.742          51.000
C28  22100871.805 8 115085119.730 8     -1356.516          51.000
E11  22719525.484 8 119391936.084 8      1227.301          49.000    22719524.148 8  91482122.119 8       940.522          49.000
E12  22675723.984 8 119161731.561 8     -1666.828          50.000    22675723.789 8  91305771.158 8     -1277.174          48.000
E24  22544461.867 8 118471935.031 8     -1689.059          51.000    22544474.727 8  90777228.970 8     -1294.181          51.000
> 2020 05 17 12 06 30.0000000  0 15        .000000000000
G18  21055345.656 8 110646620.593 8      2179.699          51.000    21055343.461 8  86218106.442 8      1698.470          48.000
G21  21296890.367 8 111915955.187 8      1920.824          51.000    21296889.203 7  87207238.922 7      1496.746          46.000
G25  22631472.250 6 118929165.868 6     -2922.754          40.000    22631473.719 6  92672071.875 6     -2277.471          40.000
G29  20944108.375 8 110062025.130 8     -1719.641          51.000    20944108.156 8  85762632.706 8     -1339.980          51.000
G31  21341821.180 7 112152025.246 7     -1193.352          47.000    21341820.688 8  87391176.237 8      -929.887          48.000
R16  19980552.656 7 106732528.879 7     -2465.965          45.000    19980555.367 6  83014189.449 6     -1917.976          41.000
R18  20430443.203 5 109059084.874 5     -2836.688          35.000    20430444.484 6  84823730.391 6     -2206.316          36.000
R19  19317579.781 6 103336047.566 6       689.945          38.000    19317580.633 7  80372470.848 7       536.624          45.000
C05  39641984.188 5 206426213.772 5        21.844          35.000    39641984.320 6 159621842.208 6        17.166          37.000
C23  26187318.344 5 136364230.790 5     -3436.367          32.000
C27  22187898.430 8 115538309.795 8      1584.480          51.000
C28  22108713.828 8 115125956.590 8     -1365.680          51.000
E11  22712552.555 8 119355292.319 8      1215.984          50.000    22712550.906 8  91454044.444 8       931.710          49.000
E12  22685265.297 8 119211872.184 8     -1675.723          50.000    22685265.328 8  91344190.581 8     -1283.944          48.000
E24  22554130.711 8 118522743.283 8     -1697.941          51.000    22554143.406 8  90816159.931 8     -1301.023          51.000
> 2020 05 17 12 07  0.0000000  0 14        .000000000000
G18  21042951.336 8 110581488.344 8      2162.934          51.000    21042949.312 8  86167354.074 8      1685.403          48.000
G21  21285971.789 8 111858574.946 8      1905.062          51.000    21285969.805 7  87162527.094 7      1484.467          46.000
G25  22648183.305 6 119016983.577 6     -2931.047          39.000    22648184.766 6  92740501.225 6     -2283.936          39.000
G29  20953955.336 8 110113770.758 8     -1729.508          51.000    20953954.812 8  85802953.969 8     -1347.668          51.000
G31  21348688.602 8 112188113.825 8     -1212.086          49.000    21348687.016 8  87419297.176 8      -944.483          49.000
R16  19994460.734 7 106806827.332 7     -2486.395          42.000    19994464.078 6  83071977.100 6     -1933.862          41.000
R18  20446421.047 5 109144377.735 5     -2849.281          33.000    20446428.602 6  84890069.368 6     -2216.099          39.000
R19  19313773.625 6 103315690.882 6       668.195          39.000    19313775.109 7  80356637.875 7       519.707          46.000
C05                                                                  39641860.352 6 159621342.076 6        16.335          37.000
C27  22178804.328 8 115490954.798 8      1573.113          51.000
C28  22116613.031 8 115167090.215 8     -1375.980          51.000
E11  22705649.211 8 119319014.164 8      1203.086          49.000    22705646.953 8  91426246.901 8       921.842          49.000
E12  22694861.109 8 119262298.329 8     -1685.555          50.000    22694861.055 7  91382828.786 7     -1291.526          47.000
E24  22563854.172 8 118573838.916 8     -1707.895          51.000    22563867.039 8  90855311.095 8     -1308.664          51.000
> 2020 05 17 12 07 30.0000000  0 14        .000000000000
G18  21030651.570 8 110516853.261 8      2146.441          51.000    21030650.008 8  86116989.078 8      1672.552          49.000
G21  21275141.523 8 111801659.992 8      1889.594          51.000    21275139.039 7  87118177.807 7      1472.411          45.000
G25  22664940.133 6 119105044.177 6     -2939.301          39.000    22664941.938 6  92809119.830 6     -2290.367          39.000
G29  20963856.891 8 110165803.046 8     -1738.930          51.000    20963856.117 8  85843498.584 8     -1355.010          51.000
G31  21355661.602 8 112224756.479 8     -1230.355          50.000    21355659.945 8  87447849.861 8      -958.719          50.000
R16  20008482.680 7 106881734.737 7     -2506.676          42.000    20008486.477 6  83130238.431 6     -1949.637          41.000
R18  20462469.391 6 109230039.465 6     -2861.250          38.000    20462478.859 6  84956695.156 6     -2225.417          37.000
R19  19310089.531 6 103295984.352 6       646.133          39.000    19310090.969 7  80341310.579 7       502.548          45.000
C05  39641738.227 5 206424933.426 5        21.070          34.000    39641738.656 6 159620851.357 6        16.504          37.000
C27  22169774.836 8 115443933.836 8      1561.945          51.000
C28  22124569.703 8 115208522.846 8     -1385.820          51.000
E11  22698815.625 8 119283105.357 8      1190.926          48.000    22698813.586 8  91398732.374 8       912.668          49.000
E12  22704511.836 8 119313012.169 8     -1695.012          49.000    22704511.281 7  91421687.431 7     -1298.703          47.000
E24  22573632.750 8 118625225.337 8     -1717.527          51.000    22573646.055 8  90894685.073 8     -1315.989          51.000
> 2020 05 17 12 08  0.0000000  0 13        .000000000000
G18  21018443.719 8 110452701.843 8      2130.102          51.000    21018442.828 8  86067000.962 8      1659.819          49.000
G21  21264396.906 8 111745196.715 8      1874.438          51.000    21264394.297 7  87074180.470 7      1460.604          44.000
G25  22681740.383 6 119193331.279 6     -2946.715          41.000    22681742.461 7  92877914.913 7     -2296.141          42.000
G29  20973809.750 8 110218105.344 8     -1748.008          51.000    20973808.953 8  85884253.606 8     -1362.084          51.000
G31  21362737.008 8 112261936.640 8     -1248.430          51.000    21362736.258 8  87476821.385 8      -972.802          51.000
R16  20022616.508 7 106957233.847 7     -2526.711          46.000    20022620.047 7  83188959.941 7     -1965.220          42.000
R19  19306523.922 6 103276911.744 6       625.160          40.000    19306525.242 7  80326476.322 7       486.236          45.000
C05  39641615.742 5 206424295.902 5        21.141          34.000    39641616.375 6 159620358.380 6        16.710          37.000
C27  22160806.609 8 115397231.895 8      1551.254          51.000
C28  22132580.531 8 115250237.897 8     -1395.285          51.000
E11  22692049.500 8 119247550.742 8      1179.316          49.000    22692048.055 8  91371489.243 8       903.671          50.000
E12  22714214.000 8 119363996.919 8     -1704.098          50.000    22714213.242 7  91460753.660 7     -1305.695          47.000
E24  22583463.633 8 118676886.980 8     -1726.707          51.000    22583477.203 8  90934269.936 8     -1323.046          51.000
> 2020 05 17 12 08 30.0000000  0 14        .000000000000
G18  21006329.797 8 110389044.591 8      2114.855          50.000    21006329.531 8  86017397.907 8      1647.939          49.000
G21  21253739.781 8 111689194.987 8      1860.234          50.000    21253737.531 7  87030542.794 7      1449.533          45.000
G25  22698585.367 6 119281852.747 6     -2953.543          38.000    22698586.312 6  92946892.644 6     -2301.462          38.000
G29  20983815.352 8 110270685.068 8     -1755.984          51.000    20983814.695 8  85925224.809 8     -1368.300          51.000
G31  21369916.164 8 112299661.860 8     -1265.371          51.000    21369916.336 8  87506217.642 8      -986.003          51.000
R16  20036862.906 7 107033331.528 7     -2545.320          47.000    20036866.039 7  83248146.986 7     -1979.694          43.000
R18  20494768.000 6 109402438.655 6     -2883.859          36.000    20494767.711 5  85090796.051 5     -2243.005          34.000
R19  19303078.922 6 103258481.411 6       604.910          41.000    19303079.984 7  80312141.620 7       470.483          45.000
C05  39641494.297 5 206423663.159 5        21.691          34.000    39641494.797 6 159619869.869 6        17.148          37.000
C27  22151901.211 8 115350857.775 8      1541.496          51.000
C28  22140647.016 8 115292242.646 8     -1403.746          51.000
E11  22685352.680 8 119212359.350 8      1168.078          48.000    22685351.742 8  91344524.402 8       895.048          51.000
E12  22723969.031 8 119415259.828 8     -1712.180          49.000    22723968.414 7  91500033.009 7     -1311.939          47.000
E24  22593348.500 8 118728832.321 8     -1735.043          51.000    22593362.172 8  90974072.181 8     -1329.422          51.000
> 2020 05 17 12 09  0.0000000  0 15        .000000000000
G18  20994302.719 8 110325843.437 8      2098.520          50.000    20994302.891 8  85968150.252 8      1635.210          50.000
G21  21243163.047 8 111633616.159 8      1845.074          50.000    21243161.508 7  86987234.634 7      1437.723          45.000
G25  22715466.789 6 119370567.725 6     -2960.977          37.000    22715468.094 6  93016021.104 6     -2307.258          37.000
G29  20993865.875 8 110323500.925 8     -1765.137          51.000    20993865.273 8  85966380.015 8     -1375.431          51.000
G31  21377191.086 8 112337890.816 8     -1283.344          51.000    21377191.711 8  87536006.440 8     -1000.008          51.000
R16  20051213.406 7 107109985.630 7     -2564.969          47.000    20051216.086 7  83307766.796 7     -1994.979          42.000
R18  20511035.148 6 109489117.615 6     -2895.160          36.000    20511011.641 5  85158212.917 5     -2251.794          35.000
R19  19299746.195 6 103240651.896 6       583.551          41.000    19299747.102 7  80298274.232 7       453.873          45.000
C05  39641366.398 5 206422996.609 5        22.625          35.000    39641366.695 6 159619355.237 6        17.244          37.000
C23  26286475.070 5 136880572.278 5     -3446.371          31.000
C27  22143051.148 8 115304772.191 8      1530.824          51.000
C28  22148761.273 8 115334496.247 8     -1413.102          51.000
E11  22678717.227 7 119177491.335 7      1156.238          47.000    22678717.008 8  91317807.362 8       886.030          51.000
E12  22733769.250 8 119466759.548 8     -1721.188          49.000    22733768.594 7  91539493.827 7     -1318.799          47.000
E24  22603279.695 8 118781021.253 8     -1744.305          51.000    22603293.078 8  91014061.072 8     -1336.506          51.000
> 2020 05 17 12 09 30.0000000  0 14        .000000000000
G18  20982386.844 8 110263225.981 8      2081.316          51.000    20982387.227 8  85919357.428 8      1621.805          50.000
G21  21232691.102 8 111578586.911 8      1828.938          50.000    21232690.000 7  86944354.711 7      1425.146          47.000
G25  22732409.023 6 119459601.168 6     -2969.262          40.000    22732411.711 6  93085397.729 6     -2313.710          40.000
G29  21003985.070 8 110376677.453 8     -1774.777          51.000    21003984.281 8  86007816.264 8     -1382.943          51.000
G31  21384585.352 8 112376747.850 8     -1301.883          50.000    21384585.742 8  87566284.635 8     -1014.454          51.000
R16  20065691.398 7 107187321.873 7     -2585.461          46.000    20065693.836 6  83367917.158 6     -2010.917          41.000
R19  19296549.297 6 103223550.596 6       561.871          40.000    19296550.281 7  80284973.214 7       437.011          45.000
C05  39641255.961 5 206422422.020 5        20.984          35.000    39641256.211 6 159618910.911 6        16.248          36.000
C23  26306353.203 5 136984082.134 5     -3447.375          33.000
C27  22134280.117 8 115259099.948 8      1519.277          51.000
C28  22156947.156 8 115377121.982 8     -1423.340          51.000
E11  22672167.266 7 119143072.697 7      1143.727          47.000    22672167.820 8  91291434.665 8       876.320          51.000
E12  22743638.070 8 119518620.392 8     -1730.949          48.000    22743637.344 7  91579231.347 7     -1326.264          47.000
E24  22613281.047 8 118833579.311 8     -1754.363          51.000    22613293.930 8  91054332.779 8     -1344.210          50.000
> 2020 05 17 12 10  0.0000000  0 15        .000000000000
G18  20970552.172 8 110201035.020 8      2064.098          50.000    20970552.594 8  85870896.933 8      1608.388          49.000
G21  21222294.023 8 111523949.630 8      1812.891          50.000    21222292.859 8  86901780.226 8      1412.642          48.000
G25  22749382.492 7 119548793.097 7     -2977.344          42.000    22749386.109 6  93154897.973 6     -2320.008          41.000
G29  21014142.344 8 110430054.313 8     -1784.355          51.000    21014141.344 8  86049408.609 8     -1390.410          51.000
G31  21392068.711 8 112416072.850 8     -1320.332          51.000    21392067.883 8  87596927.469 8     -1028.833          51.000
R16  20080266.250 7 107265176.961 7     -2605.512          45.000    20080268.383 6  83428471.081 6     -2026.506          41.000
R18  20543691.055 4 109663619.308 4     -2919.680          29.000    20543684.984 4  85293893.737 4     -2270.871          29.000
R19  19293458.125 6 103207015.125 6       540.035          40.000    19293459.297 7  80272112.297 7       420.027          44.000
C05  39641132.750 5 206421779.912 5        20.344          34.000    39641133.039 6 159618414.141 6        15.861          36.000
C23  26326227.977 4 137087577.153 4     -3451.230          28.000
C27  22125557.602 8 115213683.739 8      1507.949          50.000
C28  22165174.172 8 115419961.049 8     -1433.266          51.000
E11  22665673.195 8 119108944.778 8      1130.828          48.000    22665673.727 8  91265284.697 8       866.413          50.000
E12  22753544.867 8 119570682.026 8     -1740.453          48.000    22753544.430 7  91619122.725 7     -1333.642          47.000
E24  22623322.445 8 118886347.305 8     -1764.234          51.000    22623334.188 8  91094765.351 8     -1351.810          50.000
> 2020 05 17 12 10 30.0000000  0 13        .000000000000
G18  20958811.656 8 110139338.882 8      2048.426          49.000    20958812.336 8  85822822.020 8      1596.176          49.000
G21  21211984.570 8 111469772.069 8      1798.438          51.000    21211983.250 8  86859563.951 8      1401.380          48.000
G25  22766398.453 6 119638209.198 6     -2984.258          41.000    22766402.641 6  93224572.820 6     -2325.396          41.000
G29  21024350.141 8 110483696.584 8     -1792.402          51.000    21024349.133 8  86091207.771 8     -1396.677          51.000
G31  21399653.531 8 112455931.081 8     -1337.223          51.000    21399651.172 8  87627985.818 8     -1041.992          51.000
R16  20094950.344 7 107343616.222 7     -2624.301          46.000    20094952.508 7  83489479.371 7     -2041.123          43.000
R19  19290485.227 6 103191112.026 6       519.977          40.000    19290486.281 7  80259743.248 7       404.429          44.000
C05  39641009.516 5 206421138.262 5        21.879          34.000    39641009.828 6 159617917.972 6        16.930          37.000
C27  22116896.758 8 115168589.652 8      1498.016          50.000
C28  22173454.484 8 115463078.021 8     -1441.652          51.000
E11  22659247.164 8 119075174.219 8      1119.984          48.000    22659247.430 8  91239408.539 8       858.155          50.000
E12  22763502.344 8 119623009.516 8     -1748.426          48.000    22763502.117 7  91659217.807 7     -1339.724          47.000
E24  22633416.500 8 118939391.531 8     -1772.461          51.000    22633427.219 8  91135409.577 8     -1358.134          50.000
> 2020 05 17 12 11  0.0000000  0 15        .000000000000
G18  20947169.789 8 110078161.902 8      2031.312          49.000    20947171.008 8  85775151.657 8      1582.841          48.000
G21  21201767.047 8 111416077.959 8      1782.434          51.000    21201765.875 8  86817724.397 8      1388.909          48.000
G25  22783461.062 6 119727871.055 6     -2992.109          40.000    22783465.289 6  93294439.175 6     -2331.517          41.000
G29  21034612.594 8 110537625.918 8     -1801.676          51.000    21034611.664 8  86133230.613 8     -1403.903          51.000
G31  21407343.625 8 112496343.543 8     -1355.535          51.000    21407340.570 8  87659476.017 8     -1056.261          51.000
R16  20109747.805 7 107422661.115 7     -2644.152          47.000    20109750.125 7  83550958.728 7     -2056.563          44.000
R18  20576639.219 6 109839458.349 6     -2941.227          37.000    20576631.773 5  85430690.828 5     -2287.621          31.000
R19  19287634.875 6 103175864.155 6       498.242          41.000    19287635.594 7  80247883.807 7       387.522          45.000
C05  39640890.461 5 206420518.664 5        20.941          34.000    39640891.023 6 159617438.828 6        16.347          37.000
C27  22108302.766 8 115123840.249 8      1486.609          51.000
C28  22181792.250 8 115506493.975 8     -1451.512          51.000
E11  22652893.320 8 119041783.695 8      1107.547          48.000    22652893.477 8  91213823.598 8       848.655          50.000
E12  22773514.562 7 119675624.009 7     -1757.859          47.000    22773514.227 7  91699532.822 7     -1346.952          47.000
E24  22643567.141 8 118992734.364 8     -1782.363          51.000    22643577.711 8  91176282.617 8     -1365.704          50.000
E25  23708508.586 6 124589054.129 6       935.453          38.000
> 2020 05 17 12 11 30.0000000  0 15        .000000000000
G18  20935614.961 8 110017441.950 8      2014.340          49.000    20935616.641 8  85727837.446 8      1569.615          49.000
G21  21191629.477 8 111362804.436 8      1766.789          51.000    21191628.625 8  86776212.567 8      1376.719          49.000
G25  22800557.430 6 119817713.892 6     -2999.852          40.000    22800562.320 6  93364446.533 6     -2337.547          39.000
G29  21044917.242 8 110591776.798 8     -1810.746          51.000    21044916.492 8  86175426.105 8     -1410.971          51.000
G31  21415126.922 8 112537245.021 8     -1373.473          51.000    21415124.008 8  87691347.288 8     -1070.238          51.000
R16  20124645.812 7 107502244.506 7     -2663.766          47.000    20124648.578 7  83612856.883 7     -2071.821          44.000
R18  20593207.234 5 109927823.130 5     -2951.793          34.000    20593179.391 4  85499419.168 4     -2295.848          26.000
R19  19284894.273 6 103161205.106 6       476.891          40.000    19284895.539 7  80236482.345 7       370.915          45.000
C05  39640763.398 5 206419856.729 5        20.449          34.000    39640764.391 6 159616927.756 6        15.773          37.000
C27  22099763.234 8 115079372.377 8      1475.559          51.000
C28  22190175.062 8 115550144.270 8     -1460.852          51.000
E11  22646599.820 8 119008709.580 8      1095.059          49.000    22646599.391 8  91188481.111 8       839.026          50.000
E12  22783569.000 7 119728460.186 7     -1766.945          47.000    22783568.445 7  91740017.690 7     -1353.824          47.000
E24  22653762.258 8 119046311.647 8     -1791.746          51.000    22653773.289 8  91217335.301 8     -1372.983          51.000
E25  23703188.758 6 124561102.701 6       925.789          36.000    23703189.719 5  95442910.570 5       709.326          35.000
> 2020 05 17 12 12  0.0000000  0 15        .000000000000
G18  20924164.617 8 109957269.754 8      1997.145          50.000    20924165.969 8  85680950.018 8      1556.217          48.000
G21  21181589.242 8 111310041.722 8      1750.793          51.000    21181588.109 8  86735098.768 8      1364.254          48.000
G25  22817705.328 7 119907825.739 7     -3007.488          42.000    22817710.094 7  93434663.555 7     -2343.497          43.000
G29  21055280.766 8 110646237.309 8     -1819.922          51.000    21055280.148 8  86217862.852 8     -1418.121          51.000
G31  21423020.172 8 112578723.940 8     -1391.680          51.000    21423017.992 8  87723668.525 8     -1084.426          51.000
R16  20139661.273 8 107582454.393 8     -2683.418          48.000    20139664.281 7  83675242.312 7     -2087.103          45.000
R18  20609833.898 4 110016563.095 4     -2962.781          28.000
R19  19282280.438 6 103147224.641 6       455.191          40.000    19282282.305 7  80225608.648 7       354.038          45.000
C05  39640645.367 5 206419242.697 5        20.078          35.000    39640646.359 6 159616452.920 6        15.514          36.000
C27  22091294.641 8 115035274.426 8      1464.328          51.000
C28  22198619.469 8 115594115.761 8     -1470.500          51.000
E11  22640383.688 8 118976040.997 8      1082.723          50.000    22640382.180 8  91163449.337 8       829.601          49.000
E12  22793682.234 7 119781605.576 7     -1776.164          47.000    22793681.781 7  91780739.477 7     -1360.882          46.000
E24  22664018.938 8 119100212.095 8     -1801.523          51.000    22664030.805 8  91258635.619 8     -1380.376          51.000
E25  23697933.586 6 124533491.377 6       915.340          36.000    23697938.789 5  95421753.818 5       701.337          35.000
> 2020 05 17 12 12 30.0000000  0 15        .000000000000
G18  20912817.195 8 109897637.662 8      1983.207          50.000    20912817.898 7  85634483.465 7      1545.356          47.000
G21  21171644.805 8 111257781.611 8      1738.113          51.000    21171643.125 7  86694376.599 7      1354.374          47.000
G25  22834902.680 7 119998196.263 7     -3011.996          42.000    22834907.141 7  93505082.177 7     -2347.007          42.000
G29  21065701.172 8 110700996.747 8     -1825.695          51.000    21065700.516 8  86260532.535 8     -1422.620          51.000
G31  21431021.148 8 112620768.698 8     -1406.398          51.000    21431019.734 8  87756430.677 8     -1095.895          51.000
R16  20154792.148 8 107663280.099 8     -2699.766          48.000    20154795.023 7  83738106.723 7     -2099.818          44.000
R18  20626524.633 5 110105706.989 5     -2971.641          34.000
R19  19279791.859 6 103133912.658 6       437.047          39.000    19279793.727 7  80215254.892 7       339.925          45.000
C05  39640534.672 5 206418666.420 5        23.207          35.000    39640535.625 6 159616007.292 6        18.123          36.000
C27  22082895.195 8 114991537.286 8      1456.395          51.000
C28  22207123.414 8 115638397.876 8     -1476.785          51.000
E11  22634242.820 8 118943768.693 8      1073.875          50.000    22634240.703 8  91138721.215 8       822.866          48.000
E12  22803852.219 7 119835049.435 7     -1781.832          47.000    22803852.305 7  91821689.963 7     -1365.321          46.000
E24  22674335.500 8 119154426.109 8     -1807.883          51.000    22674348.125 8  91300176.235 8     -1385.231          51.000
E25  23692742.898 6 124506212.000 6       908.297          37.000    23692746.688 5  95400851.411 5       696.144          34.000
> 2020 05 17 12 13  0.0000000  0 14        .000000000000
G18  20901550.742 8 109838431.122 8      1958.496          50.000    20901550.805 7  85588348.523 7      1526.101          47.000
G21  21161773.867 8 111205908.933 8      1714.633          50.000    21161772.188 8  86653956.336 8      1336.078          49.000
G25  22852126.766 6 120088708.388 6     -3027.453          40.000    22852130.367 6  93575611.068 6     -2359.057          39.000
G29  21076156.055 8 110755937.399 8     -1842.355          51.000    21076155.305 8  86303343.429 8     -1435.602          51.000
G31  21439107.516 8 112663261.872 8     -1431.945          51.000    21439106.461 8  87789542.229 8     -1115.802          51.000
R16  20170015.398 7 107744600.876 7     -2726.965          47.000    20170018.117 7  83801356.170 7     -2120.976          43.000
R19  19277405.797 6 103121150.068 6       407.707          38.000    19277408.055 7  80205328.437 7       317.105          46.000
C05  39640409.242 5 206418012.814 5        14.859          34.000    39640409.984 5 159615501.852 5        11.632          35.000
C27  22074543.289 8 114948045.913 8      1437.672          51.000
C28  22215664.617 8 115682874.106 8     -1493.691          51.000
E11  22628154.898 8 118911776.612 8      1053.676          50.000    22628152.750 8  91114207.828 8       807.308          48.000
E12  22814056.562 7 119888674.021 7     -1798.387          46.000    22814057.180 7  91862778.943 7     -1378.134          45.000
E24  22684689.523 8 119208837.239 8     -1824.922          51.000    22684702.844 8  91341867.860 8     -1398.347          51.000
E25  23687593.633 6 124479149.486 6       890.324          39.000    23687595.492 5  95380115.214 5       682.457          35.000
> 2020 05 17 12 13 30.0000000  0 15        .000000000000
G18  20890396.602 8 109779814.604 8      1948.016          50.000    20890396.297 7  85542673.332 7      1517.934          47.000
G21  21152007.414 8 111154587.458 8      1705.438          48.000    21152006.312 8  86613965.585 8      1328.912          48.000
G25  22869408.000 6 120179523.902 6     -3028.371          38.000    22869405.758 5  93646376.101 5     -2359.776          35.000
G29  21086676.125 8 110811220.559 8     -1844.508          51.000    21086675.141 8  86346421.196 8     -1437.282          51.000
G31  21447309.828 8 112706364.571 8     -1442.922          51.000    21447308.492 8  87823128.722 8     -1124.355          51.000
R16  20185361.953 7 107826580.121 7     -2739.516          47.000    20185364.516 7  83865117.762 7     -2130.737          43.000
R18  20660064.977 5 110284731.222 5     -2994.617          31.000
R19  19275153.156 6 103109101.412 6       393.609          39.000    19275155.859 7  80195957.252 7       306.141          46.000
C05  39640300.070 5 206417444.233 5        21.102          35.000    39640300.586 5 159615062.397 5        16.704          35.000
C27  22066270.141 8 114904961.725 8      1433.301          51.000
C28  22224273.797 8 115727704.440 8     -1496.324          51.000
E11  22622151.078 8 118880227.634 8      1048.129          50.000    22622148.641 7  91090033.938 7       803.001          47.000
E12  22824326.000 7 119942640.734 7     -1800.723          46.000    22824326.609 7  91904130.047 7     -1379.748          45.000
E24  22695111.961 8 119263607.972 8     -1827.750          51.000    22695125.992 8  91383835.012 8     -1400.520          51.000
E25  23682516.914 6 124452467.918 6       886.977          39.000    23682518.422 6  95359670.879 6       679.877          36.000
> 2020 05 17 12 14  0.0000000  0 14        .000000000000
G18  20879323.406 8 109721622.104 8      1926.137          51.000    20879323.000 8  85497328.540 8      1500.889          48.000
G21  21142313.797 7 111103650.720 7      1684.934          47.000    21142313.422 7  86574274.612 7      1312.935          47.000
G25  22886714.578 6 120270474.082 6     -3040.785          37.000    22886713.906 5  93717246.327 5     -2369.443          35.000
G29  21097229.297 8 110866677.544 8     -1857.875          51.000    21097228.039 8  86389634.415 8     -1447.698          51.000
G31  21455595.703 8 112749907.988 8     -1465.297          51.000    21455593.953 8  87857058.617 8     -1141.793          51.000
R16  20200799.328 7 107909045.539 7     -2763.578          45.000    20200802.109 7  83929257.505 7     -2149.450          43.000
R19  19273002.289 6 103097595.041 6       367.984          40.000    19273004.867 7  80187007.854 7       286.207          45.000
C05  39640174.875 5 206416792.537 5        16.191          35.000    39640175.406 5 159614558.488 5        12.856          35.000
C27  22058043.359 8 114862118.775 8      1417.676          51.000
C28  22232918.695 8 115772721.412 8     -1510.074          51.000
E11  22616199.711 8 118848954.169 8      1031.637          50.000    22616196.859 8  91066071.149 8       790.400          48.000
E12  22834628.500 7 119996780.426 7     -1814.008          46.000    22834628.641 7  91945613.687 7     -1389.903          44.000
E24  22705570.922 8 119318570.357 8     -1841.773          51.000    22705585.852 8  91425948.996 8     -1411.223          51.000
E25  23677481.008 6 124426000.747 6       872.195          39.000    23677482.023 6  95339390.874 6       668.177          37.000
> 2020 05 17 12 14 30.0000000  0 15        .000000000000
G18  20868362.406 8 109664019.556 8      1914.328          50.000    20868361.836 7  85452443.460 7      1491.687          47.000
G21  21132725.047 7 111053263.852 7      1674.449          47.000    21132724.891 7  86535012.085 7      1304.763          47.000
G25  22904077.828 5 120361722.366 5     -3042.562          35.000    22904081.047 5  93788348.894 5     -2370.828          35.000
G29  21107846.625 8 110922471.495 8     -1861.301          51.000    21107845.305 8  86433110.211 8     -1450.364          51.000
G31  21463996.148 8 112794054.981 8     -1477.516          50.000    21463994.734 8  87891458.825 8     -1151.314          50.000
R16  20216357.828 7 107992161.892 7     -2777.336          42.000    20216361.766 7  83993903.562 7     -2160.150          44.000
R18  20693854.547 5 110465102.482 5     -3014.844          31.000
R19  19270984.094 6 103086797.419 6       352.273          40.000    19270986.312 7  80178609.710 7       273.990          46.000
C05  39640065.352 5 206416221.678 5        21.965          35.000    39640065.750 5 159614117.567 5        16.710          35.000
C27  22049893.875 8 114819679.966 8      1411.941          51.000
C28  22241630.305 8 115818086.536 8     -1513.957          51.000
E11  22610332.258 8 118818120.692 8      1024.480          51.000    22610329.445 8  91042445.504 8       784.938          49.000
E12  22844994.977 7 120051255.982 7     -1817.324          45.000    22844994.891 7  91987354.703 7     -1392.465          44.000
E24  22716097.711 8 119373888.412 8     -1845.734          51.000    22716113.008 8  91468335.526 8     -1414.255          51.000
E25  23672517.070 6 124399913.604 6       867.254          39.000    23672517.602 6  95319401.997 6       664.385          38.000
> 2020 05 17 12 15  0.0000000  0 15        .000000000000
G18  20857485.664 8 109606861.995 8      1895.410          48.000    20857484.773 7  85407905.139 7      1476.943          46.000
G21  21123213.836 8 111003281.187 8      1656.816          50.000    21123213.008 7  86496064.567 7      1291.026          47.000
G25  22921470.734 5 120453121.232 5     -3051.809          34.000    22921474.672 5  93859568.900 5     -2378.030          35.000
G29  21118499.797 8 110978454.352 8     -1871.730          51.000    21118498.500 8  86476733.207 8     -1458.491          51.000
G31  21472483.336 8 112838657.249 8     -1496.773          50.000    21472482.531 8  87926213.809 8     -1166.317          50.000
R16  20232010.133 7 108075778.043 7     -2798.074          43.000    20232015.414 7  84058938.346 7     -2176.280          44.000
R18  20710827.281 5 110555810.120 5     -3026.195          31.000    20710802.000 4  85987770.106 4     -2353.717          28.000
R19  19269070.305 6 103076558.248 6       329.391          41.000    19269072.141 7  80170645.927 7       256.193          45.000
C05  39639943.547 5 206415587.529 5        19.285          34.000    39639943.672 5 159613625.870 5        15.435          35.000
C27  22041793.781 8 114777500.209 8      1399.230          51.000
C28  22250380.859 8 115863653.235 8     -1524.688          51.000
E11  22604520.656 8 118787580.687 8      1010.633          50.000    22604518.125 8  91019044.732 8       774.330          49.000
E12  22855397.125 7 120105919.387 7     -1827.703          46.000    22855397.148 7  92029239.648 7     -1400.376          43.000
E24  22726664.312 8 119429415.290 8     -1856.855          51.000    22726679.922 8  91510882.054 8     -1422.785          51.000
E25  23667597.008 6 124374061.065 6       855.422          38.000    23667598.391 6  95299592.900 6       655.345          39.000
> 2020 05 17 12 15 30.0000000  0 15        .000000000000
G18  20846711.633 8 109550245.324 8      1878.699          49.000    20846710.375 7  85363788.260 7      1463.921          45.000
G21  21113798.227 8 110953798.195 8      1641.555          51.000    21113795.875 7  86457506.405 7      1279.134          46.000
G25  22938910.812 6 120544763.963 6     -3058.152          36.000    22938914.648 6  93930978.910 6     -2382.973          37.000
G29  21129206.477 8 111034718.988 8     -1879.656          51.000    21129205.492 8  86520575.762 8     -1464.670          51.000
G31  21481074.992 8 112883807.520 8     -1513.590          50.000    21481074.922 8  87961395.831 8     -1179.421          50.000
R16  20247774.594 7 108159987.777 7     -2816.227          44.000    20247780.227 7  84124434.797 7     -2190.398          44.000
R18  20727860.727 5 110646751.960 5     -3036.113          32.000    20727842.242 4  86058502.474 4     -2361.428          28.000
R19  19267278.578 6 103066972.581 6       309.246          40.000    19267279.922 7  80163190.393 7       240.525          45.000
C05  39639827.281 5 206414982.409 5        20.113          35.000    39639827.180 6 159613157.191 6        15.692          36.000
C27  22033761.148 8 114735672.965 8      1388.855          51.000
C28  22259188.023 8 115909513.557 8     -1533.055          51.000
E11  22598782.719 8 118757428.463 8       999.219          50.000    22598780.320 8  90995941.088 8       765.719          49.000
E12  22865852.664 7 120160863.441 7     -1835.703          47.000    22865852.703 7  92071339.618 7     -1406.587          43.000
E24  22737288.641 8 119485244.892 8     -1865.547          51.000    22737304.070 8  91553660.543 8     -1429.472          51.000
