     3.04           OBSERVATION DATA    M (MIXED)           RINEX VERSION / TYPE
Convert 2.6.2       NovAtel             20200518 125255 UTC PGM / RUN BY / DATE 
Rinex Version 3.04 Observation File                         COMMENT             
                                                            MARKER NAME         
                                                            MARKER NUMBER       
                                                            MARKER TYPE         
                                                            OBSERVER / AGENCY   
                    NovAtel GPSCard                         REC # / TYPE / VERS 
                                                            ANT # / TYPE        
        0.0000        0.0000        0.0000                  APPROX POSITION XYZ 
        0.0000        0.0000        0.0000                  ANTENNA: DELTA H/E/N
G    8 C1C L1C D1C S1C C2W L2W D2W S2W                      SYS / # / OBS TYPES 
R    8 C1C L1C D1C S1C C2P L2P D2P S2P                      SYS / # / OBS TYPES 
E    8 C1C L1C D1C S1C C7Q L7Q D7Q S7Q                      SYS / # / OBS TYPES 
C    8 C2I L2I D2I S2I C7I L7I D7I S7I                      SYS / # / OBS TYPES 
DBHZ                                                        SIGNAL STRENGTH UNIT
    30.000                                                  INTERVAL            
  2020    05    18    06    00    0.0000000     GPS         TIME OF FIRST OBS   
  2020    05    18    06    59   30.0000000     GPS         TIME OF LAST OBS    
G L1C  0.00000  09 G15 G13 G17 G19 G12 G28 G24 G20 G25      SYS / PHASE SHIFT   
G L2W  0.00000  09 G15 G13 G17 G19 G12 G28 G24 G20 G25      SYS / PHASE SHIFT   
R L1C  0.00000  07 R04 R14 R05 R23 R15 R24 R17              SYS / PHASE SHIFT   
R L2P  0.25000  07 R04 R14 R05 R15 R23 R24 R17              SYS / PHASE SHIFT   
E L1C  0.50000  04 E27 E21 E30 E07                          SYS / PHASE SHIFT   
E L7Q -0.25000  04 E27 E21 E07 E30                          SYS / PHASE SHIFT   
C L2I  0.00000  06 C26 C05 C14 C24 C25 C12                  SYS / PHASE SHIFT   
C L7I  0.00000  02 C14 C12                                  SYS / PHASE SHIFT   
  7 R04  6 R14 -7 R05  1 R23  3 R15  0 R24  2 R17  4        GLONASS SLOT / FRQ #
 C1C  -71.950 C2C  -71.950 C2P  -71.950                     GLONASS COD/PHS/BIS 
     0     0     0     0GPS                                 LEAP SECONDS        
                                                            END OF HEADER       
> 2020 05 18 06 00  0.0000000  0 17      -0.000000000000
G15  20678973.516 8 108668721.358 8     -1520.320          50.000    20678972.688 8  84676927.307 8     -1184.666          50.000  
G13  21608771.469 8 113554835.601 8     -2696.703          51.000    21608770.508 7  88484260.231 7     -2101.328          46.000  
G17  22401707.219 6 117721778.318 6       323.902          36.000    22401706.570 5  91731250.244 5       252.388          35.000  
G19  22339026.281 6 117392377.769 6      2270.043          40.000    22339023.469 5  91474562.918 5      1768.862          35.000  
G12  23024524.820 6 120994733.575 6      3478.609          38.000    23024522.430 6  94281592.957 6      2710.605          38.000  
R04  21074914.484 7 112854819.271 7     -3717.262          46.000    21074917.086 7  87775970.292 7     -2891.204          43.000  
R14  20300863.047 6 108214687.602 6     -2085.645          40.000    20300866.352 6  84166946.992 6     -1622.168          38.000  
R05  19833938.961 5 106023441.404 5        89.129          30.000    19833942.266 4  82462640.941 4        69.329          26.000  
R23  22465601.219 6 120175323.862 6       229.031          36.000                                                                  
E27  23240893.719 8 122131730.521 8      -452.859          51.000    23240896.156 8  93581498.402 8      -346.990          51.000  
E21  25192602.648 8 132387990.758 8      1896.141          48.000    25192608.266 8 101440175.541 8      1452.900          50.000  
E30  25005544.438 5 131405012.459 5     -2407.727          35.000                                                                  
E07  26492821.836 6 139220686.329 6     -2989.961          39.000                                                                  
C26  22749192.898 6 118460990.410 6     -1883.695          41.000                                                                  
C05  39776458.656 5 207126457.89125        24.691          34.000                                                                  
C14  23393954.188 8 121818475.151 8     -2461.855          48.000    23393953.969 8  94197756.588 8     -1903.721          51.000  
C24  21978040.016 7 114445374.168 7       449.852          46.000                                                                  
> 2020 05 18 06 00 30.0000000  0 18      -0.000000000000
G15  20687668.008 8 108714413.157 8     -1536.816          51.000    20687667.297 8  84712531.287 8     -1197.520          51.000  
G13  21624167.508 7 113635746.658 7     -2708.230          47.000    21624167.625 7  88547307.804 7     -2110.310          47.000  
G17  22399874.773 5 117712169.136 5       306.121          34.000    22399875.086 5  91723762.466 5       238.530          33.000  
G19  22326077.352 6 117324334.769 6      2254.945          39.000    22326076.672 6  91421542.387 6      1757.101          38.000  
G12  23004653.742 6 120890308.607 6      3471.422          40.000    23004649.258 6  94200222.838 6      2705.002          40.000  
R15  19873937.164 5 106199908.58525      1078.758          32.000                                                                  
R04  21095747.516 7 112966383.804 7     -3731.660          45.000    21095750.617 7  87862742.684 7     -2902.406          43.000  
R14  20312591.234 6 108277205.147 6     -2093.188          38.000    20312595.305 6  84215571.694 6     -1628.038          37.000  
R23  22464359.094 6 120168680.464 6       203.203          37.000                                                                  
E27  23243468.336 8 122145259.650 8      -460.164          51.000    23243470.359 8  93591864.874 8      -352.569          51.000  
E21  25181762.609 8 132331028.649 8      1890.270          48.000    25181768.453 8 101396529.217 8      1448.452          49.000  
E30  25019261.328 5 131477104.109 5     -2408.066          31.000                                                                  
E07                                                                  26509871.430 6 106744262.983 6     -2293.737          38.000  
C25  25146671.922 5 130945310.69025      2489.859          30.000                                                                  
C26  22760023.500 6 118517393.450 6     -1887.559          38.000                                                                  
C05  39776284.461 5 207125550.64825        25.449          34.000                                                                  
C14  23408134.711 7 121892315.798 7     -2471.711          47.000    23408135.172 8  94254854.852 8     -1911.326          51.000  
C24  21975440.266 7 114431830.546 7       442.340          45.000                                                                  
> 2020 05 18 06 01  0.0000000  0 17      -0.000000000000
G15  20696487.273 8 108760758.724 8     -1547.527          51.000    20696486.680 8  84748644.703 8     -1205.866          51.000  
G13  21639658.906 7 113717161.301 7     -2713.863          45.000    21639660.570 7  88610747.744 7     -2114.699          45.000  
G17  22398176.266 4 117703209.95524       294.566          27.000    22398178.375 4  91716814.88224       229.532          24.000  
G19  22313245.867 6 117256906.195 6      2245.676          37.000    22313246.031 6  91369000.573 6      1749.881          37.000  
G12  22984854.125 6 120786257.352 6      3470.527          39.000    22984848.766 6  94119143.920 6      2704.308          39.000  
R04  21116691.367 7 113078542.177 7     -3740.098          44.000    21116694.242 7  87949976.903 7     -2908.969          42.000  
R14  20324391.898 6 108340113.780 6     -2095.086          38.000    20324397.227 6  84264500.607 6     -1629.512          36.000  
R05  19833208.898 5 106019459.489 5        41.012          33.000                                                                  
R23  22463289.844 4 120162969.372 4       184.070          29.000                                                                  
E27  23246115.156 8 122159169.288 8      -461.695          51.000    23246117.297 8  93602522.902 8      -353.761          51.000  
E21  25170987.508 8 132274405.645 8      1890.043          48.000    25170992.758 8 101353142.741 8      1448.269          48.000  
E07  26526961.383 5 139400117.698 5     -2991.410          33.000    26526977.141 6 106813117.019 6     -2292.292          41.000  
C25  25132338.422 5 130870656.213 5      2492.688          31.000                                                                  
C26  22770908.969 6 118574080.675 6     -1886.055          41.000                                                                  
C05  39776136.008 5 207124777.509 5        31.969          34.000                                                                  
C14  23422402.570 7 121966612.273 7     -2475.953          46.000    23422403.758 8  94312305.601 8     -1914.531          51.000  
C24  21972913.695 7 114418671.440 7       440.508          44.000                                                                  
> 2020 05 18 06 01 30.0000000  0 15      -0.000000000000
G15  20705369.273 8 108807433.962 8     -1570.172          51.000    20705369.000 8  84785015.004 8     -1223.511          51.000  
G28  23388236.734 5 122906011.90125     -2992.391          31.000    23388217.578 4  95770841.23424     -2331.734          27.000  
G13  21655185.070 7 113798754.884 7     -2731.617          46.000    21655187.844 7  88674327.155 7     -2128.533          46.000  
G19  22300470.828 6 117189771.713 6      2224.094          41.000    22300470.227 6  91316687.962 6      1733.064          39.000  
G12  22965064.438 6 120682258.207 6      3456.605          38.000    22965059.992 6  94038105.657 6      2693.460          39.000  
R04  21137683.750 7 113190960.972 7     -3760.684          44.000    21137686.812 7  88037413.699 7     -2924.977          43.000  
R14  20336204.750 6 108403083.840 6     -2108.762          39.000    20336209.547 5  84313477.243 5     -1640.151          35.000  
R05  19833057.938 5 106018645.676 5         6.992          34.000                                                                  
E27  23248772.484 8 122173135.263 8      -475.430          51.000    23248775.102 8  93613224.106 8      -364.293          51.000  
E21  25160215.836 8 132217798.539 8      1877.625          50.000    25160220.008 8 101309768.463 8      1438.682          48.000  
E07  26544053.609 6 139489921.654 6     -3001.523          37.000    26544065.688 7 106881927.871 7     -2299.843          43.000  
C26  22781788.367 6 118630731.085 6     -1896.656          40.000                                                                  
C05  39775951.570 5 207123817.174 5        25.848          34.000                                                                  
C14  23436696.125 7 122041042.093 7     -2492.031          46.000    23436697.305 8  94369859.483 8     -1927.076          51.000  
C24  21970399.289 7 114405576.304 7       426.508          44.000                                                                  
> 2020 05 18 06 02  0.0000000  0 18      -0.000000000000
G15  20714370.883 8 108854738.618 8     -1587.133          51.000    20714370.688 8  84821875.726 8     -1236.730          51.000  
G28  23405322.250 5 122995797.66925     -2996.094          34.000                                                                  
G24  20926958.984 5 109971940.458 5      1723.312          33.000    20926952.391 5  85692369.747 5      1342.850          32.000  
G13  21670802.836 7 113880826.769 7     -2743.418          46.000    21670805.594 7  88738279.267 7     -2137.729          46.000  
G19  22287809.977 7 117123234.856 7      2208.074          42.000    22287808.609 6  91264841.092 6      1720.581          36.000  
G12  22945342.477 6 120578613.684 6      3448.664          36.000    22945338.578 6  93957343.809 6      2687.275          36.000  
R15  19856002.344 5 106104121.586 5      1042.645          32.000    19856005.812 5  82525395.612 5       810.949          32.000  
R04  21158781.148 7 113303942.753 7     -3775.188          46.000    21158785.484 7  88125288.416 7     -2936.258          44.000  
R14  20348086.836 6 108466418.835 6     -2117.059          38.000    20348089.734 5  84362737.706 5     -1646.608          35.000  
R05  19833083.141 5 106018786.908 5       -20.312          30.000                                                                  
R23  22461549.297 5 120153726.962 5       124.473          34.000                                                                  
E27  23251497.898 8 122187457.693 8      -482.996          51.000    23251500.586 8  93624198.422 8      -370.073          51.000  
E21  25149504.719 8 132161508.364 8      1871.324          51.000    25149507.117 7 101266637.032 7      1433.977          47.000  
E07  26561192.016 6 139579968.749 6     -3005.180          40.000    26561200.273 7 106950924.989 7     -2302.830          44.000  
C26  22792717.281 5 118687642.398 5     -1901.156          34.000                                                                  
C05  39775788.547 5 207122968.334 5        26.723          34.000                                                                  
C14  23451072.219 7 122115901.354 7     -2502.309          46.000    23451072.766 8  94427745.395 8     -1934.839          50.000  
C24  21967954.047 7 114392843.124 7       418.590          44.000                                                                  
> 2020 05 18 06 02 30.0000000  0 18      -0.000000000000
G15  20723486.305 8 108902640.627 8     -1600.672          51.000    20723485.828 8  84859201.928 8     -1247.280          51.000  
G28  23422445.883 5 123085774.922 5     -2996.285          34.000                                                                  
G13  21686505.781 8 113963344.697 8     -2752.105          48.000    21686507.609 7  88802578.919 7     -2144.501          44.000  
G19  22275257.672 7 117057267.652 7      2195.641          44.000    22275255.086 5  91213438.210 5      1710.889          35.000  
G12  22925683.125 5 120475295.037 5      3444.438          35.000    22925677.625 6  93876835.812 6      2683.981          36.000  
R15  19850186.836 6 106073066.439 6      1033.379          36.000    19850188.359 4  82501241.641 4       803.736          28.000  
R04  21179978.352 8 113417452.121 8     -3786.152          48.000    21179982.953 7  88213573.441 7     -2944.786          46.000  
R14  20360031.312 6 108530085.892 6     -2121.598          40.000    20360032.133 5  84412256.500 5     -1650.132          35.000  
R05  19833280.852 5 106019851.943 5       -44.691          35.000                                                                  
R23  22460936.508 5 120150411.158 5       101.895          35.000                                                                  
E27  23254285.375 8 122202104.893 8      -487.609          51.000    23254287.781 8  93635421.589 8      -373.644          51.000  
E21  25138848.156 8 132105504.399 8      1868.070          51.000    25138848.641 7 101223724.915 7      1431.412          47.000  
E07  26578370.000 6 139670226.670 6     -3005.941          41.000    26578375.477 7 107020083.620 7     -2303.330          45.000  
C25  25089380.492 5 130647039.871 5      2480.641          35.000                                                                  
C26  22803689.422 6 118744783.389 6     -1902.727          36.000                                                                  
C05  39775641.117 5 207122200.453 5        29.789          34.000                                                                  
C14  23465524.188 7 122191157.249 7     -2509.152          47.000    23465524.016 8  94485937.988 8     -1940.209          50.000  
C24  21965571.625 7 114380441.128 7       413.750          42.000                                                                  
> 2020 05 18 06 03  0.0000000  0 19      -0.000000000000
G15  20732653.672 8 108950815.092 8     -1621.773          51.000    20732652.805 8  84896740.417 8     -1263.723          51.000  
G28  23439545.781 5 123175642.533 5     -3004.918          32.000                                                                  
G24  20907354.820 4 109868910.082 4      1704.207          28.000    20907350.289 4  85612103.076 4      1327.954          28.000  
G13  21702231.969 8 114045983.673 8     -2768.191          50.000    21702232.484 7  88866972.879 7     -2157.033          44.000  
G19  22262752.656 7 116991549.307 7      2174.926          43.000    22262748.812 5  91162229.128 5      1694.748          35.000  
G12  22906033.664 5 120372016.357 5      3432.227          34.000    22906015.172 5  93796354.076 5      2674.469          34.000  
R15  19844400.789 5 106042150.577 5      1016.898          35.000    19844403.656 4  82477196.040 4       790.921          29.000  
R04  21201212.797 8 113531155.271 8     -3805.055          49.000    21201216.617 7  88302009.157 7     -2959.491          46.000  
R14  20371975.922 6 108593754.763 6     -2134.000          39.000    20371976.266 5  84461776.753 5     -1659.775          34.000  
R05  19833590.430 6 106021511.918 6       -77.062          38.000    19833594.711 4  82461196.998 4       -59.938          29.000  
R23  22460420.977 5 120147646.349 5        71.695          34.000                                                                  
E27  23257072.734 8 122216752.314 8      -499.762          51.000    23257075.164 8  93646644.938 8      -382.920          51.000  
E21  25128184.164 8 132049463.074 8      1857.191          50.000    25128184.102 7 101180784.175 7      1423.017          47.000  
E07  26595525.055 6 139760370.340 6     -3014.445          41.000    26595529.047 7 107089154.718 7     -2309.795          44.000  
C25  25075083.961 5 130572557.399 5      2474.207          32.000                                                                  
C26  22814645.297 6 118801832.717 6     -1911.305          37.000                                                                  
C05  39775447.648 5 207121193.21225        25.906          35.000                                                                  
C14  23479990.398 7 122266486.881 7     -2523.492          47.000    23479989.328 8  94544187.592 8     -1951.424          49.000  
C24  21963191.164 7 114368049.425 7       401.500          43.000                                                                  
> 2020 05 18 06 03 30.0000000  0 20      -0.000000000000
G15  20741954.734 8 108999691.241 8     -1639.496          51.000    20741953.227 8  84934825.667 8     -1277.533          51.000  
G28  23456694.805 5 123265755.29725     -3008.320          32.000                                                                  
G24  20897650.711 5 109817868.089 5      1694.129          34.000    20897648.430 5  85572367.620 5      1320.107          32.000  
G13  21718063.023 8 114129172.393 8     -2780.719          51.000    21718062.234 7  88931795.216 7     -2166.798          44.000  
G20  23358172.250 5 122748022.89325     -1012.168          30.000                                                                  
G19  22250376.516 6 116926512.778 6      2158.160          36.000    22250373.016 5  91111551.363 5      1681.684          34.000  
G12  22886454.734 6 120269137.619 6      3423.402          36.000    22886436.672 6  93716188.958 6      2667.590          36.000  
R15  19838722.492 5 106011811.225 5      1002.078          30.000                                                                  
R04  21222564.969 8 113645486.501 8     -3820.066          50.000    21222567.789 7  88390933.390 7     -2971.167          47.000  
R14  20384001.391 6 108657860.857 6     -2142.594          38.000    20384002.836 5  84511637.038 5     -1666.462          34.000  
R05  19834094.539 6 106024204.500 6      -105.945          37.000    19834096.930 5  82463297.238 5       -82.402          30.000  
R23  22460087.336 5 120145871.657 5        44.652          31.000    22460090.906 4  93446845.194 4        34.733          27.000  
E27  23259941.820 8 122231829.339 8      -508.277          51.000    23259944.312 8  93658197.458 8      -389.445          51.000  
E21  25117594.609 8 131993814.699 8      1849.895          49.000    25117595.094 8 101138144.523 8      1417.384          48.000  
E30  25101807.461 5 131910887.506 5     -2417.836          31.000    25101807.773 5 101074551.237 5     -1853.251          32.000  
E07  26612739.203 6 139850828.529 6     -3019.125          41.000    26612742.883 7 107158466.808 7     -2313.291          43.000  
C26  22825665.062 6 118859216.230 6     -1916.957          36.000                                                                  
C05  39775290.031 5 207120371.585 5        26.125          34.000                                                                  
C14  23494552.438 8 122342314.390 8     -2534.383          48.000    23494550.742 8  94602822.191 8     -1959.761          50.000  
C24  21960895.008 7 114356094.125 7       392.590          44.000                                                                  
> 2020 05 18 06 04  0.0000000  0 18      -0.000000000000
G15  20751360.195 8 109049116.494 8     -1652.496          51.000    20751358.492 8  84973338.821 8     -1287.660          51.000  
G13  21733969.641 8 114212758.164 8     -2788.648          51.000    21733968.156 7  88996926.933 7     -2172.977          46.000  
G17  22390132.617 5 117660940.12325       179.504          33.000    22390129.750 5  91683819.34325       139.876          32.000  
G19  22238094.688 5 116861935.92025      2145.508          31.000    22238097.031 5  91061277.22725      1671.825          32.000  
G12  22866931.797 6 120166545.735 6      3419.305          38.000    22866913.000 6  93636247.370 6      2664.397          37.000  
R15  19833124.023 5 105981894.204 5       993.992          32.000                                                                  
R04  21244004.211 8 113760288.132 8     -3830.297          48.000    21244006.633 7  88480223.526 7     -2979.120          46.000  
R14  20396080.109 7 108722249.086 7     -2146.770          42.000    20396084.008 5  84561716.764 5     -1669.710          34.000  
R05  19834763.703 7 106027776.528 7      -129.383          42.000    19834762.781 5  82466075.403 5      -100.631          31.000  
R23  22459909.172 5 120144934.178 5        21.312          30.000    22459917.094 4  93446115.968 4        16.573          27.000  
E27  23262863.914 8 122247184.289 8      -512.246          51.000    23262866.141 8  93669962.926 8      -392.524          51.000  
E21  25107050.797 8 131938408.509 8      1847.016          48.000    25107052.359 8 101095690.428 8      1415.351          48.000  
E30  25115610.688 5 131983416.628 5     -2415.953          33.000                                                                  
E07  26629983.492 6 139941448.968 6     -3019.082          40.000    26629987.867 7 107227903.224 7     -2313.372          42.000  
C26  22836720.242 6 118916783.739 6     -1917.941          38.000                                                                  
C05  39775139.422 5 207119587.531 5        29.445          34.000                                                                  
C14  23509181.195 8 122418488.068 8     -2540.707          50.000    23509179.117 8  94661724.471 8     -1964.672          50.000  
C24  21958654.125 7 114344425.525 7       388.215          45.000                                                                  
> 2020 05 18 06 04 30.0000000  0 19      -0.000000000000
G15  20760843.375 8 109098951.425 8     -1668.797          51.000    20760842.102 8  85012171.187 8     -1300.365          51.000  
G13  21749925.281 8 114296601.216 8     -2799.938          51.000    21749923.555 7  89062259.139 7     -2181.773          47.000  
G17  22389157.828 5 117655832.175 5       161.406          35.000    22389159.375 6  91679839.120 6       125.771          36.000  
G19  22225905.383 6 116797830.810 6      2129.070          40.000    22225898.164 5  91011343.014 5      1659.026          32.000  
G12  22847437.031 6 120064103.840 6      3411.484          39.000    22847417.359 6  93556422.515 6      2658.297          39.000  
R15  19827578.891 6 105952258.343 6       982.305          37.000    19827588.695 4  82407280.664 4       764.018          27.000  
R04  21265502.719 7 113875414.840 7     -3843.934          47.000    21265505.609 7  88569766.496 7     -2989.727          46.000  
R14  20408185.992 6 108786777.221 6     -2154.285          40.000    20408190.766 5  84611905.360 5     -1675.555          32.000  
R05  19835571.391 6 106032087.299 6      -156.770          41.000    19835572.375 5  82469428.170 5      -121.935          34.000  
R23  22459863.562 5 120144734.704 5        -4.523          34.000    22459873.148 4  93445950.056 4        -3.521          26.000  
E27  23265812.242 8 122262677.758 8      -519.637          51.000    23265814.266 8  93681834.540 8      -398.163          51.000  
E21  25096526.586 7 131883106.063 7      1840.727          47.000    25096529.359 8 101053315.840 8      1410.452          48.000  
E30  25129416.711 6 132055963.689 6     -2417.016          36.000    25129413.977 5 101185735.666 5     -1851.572          31.000  
E07  26647232.039 6 140032091.702 6     -3022.805          41.000    26647237.148 6 107297356.675 6     -2316.104          39.000  
C25  25032390.914 5 130350228.443 5      2467.098          31.000                                                                  
C26  22847784.500 6 118974397.427 6     -1922.203          39.000                                                                  
C05  39774969.656 5 207118703.71125        30.277          34.000                                                                  
C14  23523849.648 8 122494868.503 8     -2550.355          50.000    23523847.258 8  94720786.614 8     -1971.994          51.000  
C24  21956441.758 7 114332906.168 7       380.625          45.000                                                                  
> 2020 05 18 06 05  0.0000000  0 18      -0.000000000000
G15  20770427.664 8 109149317.673 8     -1688.902          51.000    20770426.734 8  85051417.590 8     -1316.028          51.000  
G13  21765952.602 8 114380822.697 8     -2814.836          51.000    21765950.562 7  89127886.257 7     -2193.382          46.000  
G17  22388296.117 6 117651307.620 6       139.383          36.000    22388297.172 6  91676313.512 6       108.610          37.000  
G19  22213807.211 7 116734249.641 7      2109.426          42.000    22213800.047 5  90961799.313 5      1643.712          33.000  
G12  22827979.164 5 119961848.432 5      3400.066          34.000    22827976.492 6  93476763.613 6      2649.403          36.000  
R04  21287084.719 8 113990987.807 8     -3861.012          49.000    21287087.250 7  88659656.555 7     -3003.010          46.000  
R14  20420341.203 6 108851568.490 6     -2165.531          41.000    20420348.430 5  84662298.561 5     -1684.302          32.000  
R05  19836539.938 6 106037261.984 6      -188.414          39.000    19836542.070 5  82473452.886 5      -146.541          35.000  
R23  22459974.234 5 120145315.205 5       -34.387          30.000    22459975.750 4  93446363.456 4       -26.754          26.000  
E27  23268810.039 8 122278431.756 8      -530.648          51.000    23268812.102 8  93693905.781 8      -406.646          51.000  
E21  25086045.109 7 131828030.305 7      1830.906          46.000    25086049.344 7 101011114.920 7      1402.861          47.000  
E30  25143225.461 6 132128533.848 6     -2421.434          36.000    25143222.578 5 101241338.351 5     -1855.155          31.000  
E07  26664508.211 6 140122878.118 6     -3029.922          41.000                                                                  
C25  25018196.375 5 130276315.826 5      2460.316          30.000                                                                  
C26  22858881.172 6 119032178.503 6     -1930.426          36.000                                                                  
C05  39774804.031 5 207117841.532 5        27.469          35.000                                                                  
C14  23538580.625 8 122571575.125 8     -2563.508          51.000    23538577.625 8  94780100.977 8     -1982.237          50.000  
C24  21954281.219 7 114321657.624 7       369.426          45.000                                                                  
> 2020 05 18 06 05 30.0000000  0 18      -0.000000000000
G15  20780143.227 8 109200373.768 8     -1701.852          51.000    20780142.570 8  85091201.553 8     -1326.119          51.000  
G13  21782081.531 8 114465580.958 8     -2822.730          51.000    21782080.047 7  89193931.632 7     -2199.531          46.000  
G17  22387576.188 5 117647527.084 5       124.867          34.000    22387577.219 5  91673367.582 5        97.299          34.000  
G19  22201838.734 6 116671354.795 6      2096.414          40.000    22201831.570 6  90912790.341 6      1633.570          38.000  
G12  22808621.414 6 119860117.119 6      3395.355          36.000    22808618.617 6  93397492.430 6      2645.729          36.000  
R15  19816748.250 5 105894219.591 5       957.148          34.000                                                                  
R04  21308780.836 8 114107166.073 8     -3870.980          50.000    21308782.594 7  88750017.372 7     -3010.763          46.000  
R14  20432575.375 6 108916783.381 6     -2169.438          40.000    20432586.141 4  84713021.234 4     -1687.338          28.000  
R05  19837700.312 6 106043462.783 6      -212.188          39.000    19837703.570 6  82478275.724 6      -165.032          37.000  
R23  22460261.930 4 120146804.48324       -56.102          29.000                                                                  
E27  23271887.742 8 122294605.359 8      -534.621          51.000    23271889.836 8  93706298.526 8      -409.621          51.000  
E21  25075636.969 7 131773341.195 7      1828.012          45.000    25075642.977 7 100969210.264 7      1400.658          47.000  
E30  25157076.016 5 132201331.133 5     -2418.777          34.000                                                                  
E07  26681841.859 7 140213966.740 7     -3029.867          42.000                                                                  
C26  22870038.906 6 119090284.760 6     -1930.918          38.000                                                                  
C05  39774673.047 5 207117159.44225        30.691          34.000                                                                  
C14  23553404.203 8 122648764.242 8     -2569.621          50.000    23553400.398 8  94839788.424 8     -1986.970          49.000  
C24  21952203.133 7 114310838.118 7       364.738          44.000                                                                  
> 2020 05 18 06 06  0.0000000  0 21      -0.000000000000
G15  20789898.883 8 109251641.517 8     -1719.539          51.000    20789898.750 8  85131150.438 8     -1339.904          51.000  
G28  23542784.992 4 123718153.87224     -3023.148          28.000                                                                  
G13  21798221.352 8 114550397.685 8     -2835.242          51.000    21798220.688 7  89260022.584 7     -2209.280          46.000  
G17  22386911.875 5 117643941.823 5       105.504          34.000    22386914.617 6  91670618.120 6        82.205          36.000  
G20  23388190.453 5 122905769.44525     -1091.797          30.000                                                                  
G19  22189908.914 6 116608671.926 6      2079.062          38.000    22189903.562 6  90863946.601 6      1620.046          36.000  
G12  22789257.891 6 119758346.637 6      3386.141          40.000    22789251.391 6  93318190.785 6      2638.552          40.000  
R15  19811405.734 5 105865639.625 5       944.133          31.000                                                                  
R04  21330498.961 8 114223459.319 8     -3885.418          51.000    21330500.125 7  88840467.621 7     -3021.992          47.000  
R14  20444797.148 6 108981936.251 6     -2177.887          39.000                                                                  
R05  19838959.992 5 106050204.984 5      -240.648          32.000    19838966.008 6  82483519.652 6      -187.171          36.000  
R23  22460649.750 5 120148869.800 5       -84.414          34.000                                                                  
E27  23274954.438 8 122310720.672 8      -543.176          51.000    23274956.414 8  93718646.612 8      -416.200          51.000  
E21  25065212.328 7 131718561.750 7      1820.523          45.000    25065219.266 7 100927236.378 7      1394.893          47.000  
E30  25170875.688 5 132273795.794 5     -2421.469          34.000    25170877.898 5 101352684.913 5     -1855.382          31.000  
E07  26699142.188 7 140304879.061 7     -3034.355          42.000    26699146.312 5 107506380.077 5     -2324.844          35.000  
C25  24989858.109 5 130128738.957 5      2457.719          31.000                                                                  
C26  22881169.078 6 119148243.060 6     -1936.266          39.000                                                                  
C05  39774485.773 5 207116184.05925        30.844          34.000                                                                  
C14  23568228.891 8 122725960.936 8     -2580.309          49.000    23568225.266 8  94899481.730 8     -1995.223          51.000  
C24  21950117.102 7 114299974.777 7       356.043          46.000                                                                  
> 2020 05 18 06 06 30.0000000  0 19      -0.000000000000
G15  20799768.969 8 109303511.178 8     -1737.867          50.000    20799769.312 8  85171568.349 8     -1354.183          50.000  
G13  21814446.312 8 114635662.863 8     -2848.543          51.000    21814446.320 7  89326462.966 7     -2219.645          45.000  
G17  22386367.172 6 117641169.61026        85.398          36.000    22386364.555 6  91668437.76326        66.544          36.000  
G20  23394482.102 5 122938824.76825     -1109.461          33.000                                                                  
G19  22178094.766 6 116546595.693 6      2060.281          37.000    22178092.484 6  90815575.442 6      1605.414          36.000  
G12  22769959.594 7 119656930.206 7      3375.582          42.000    22769953.398 7  93239165.100 7      2630.327          42.000  
R04  21352311.961 8 114340262.804 8     -3900.777          51.000    21352312.875 7  88931314.723 7     -3033.938          47.000  
R14  20457082.141 6 109047423.104 6     -2187.301          40.000                                                                  
R05  19840396.805 5 106057886.486 5      -270.859          32.000    19840402.094 5  82489494.141 5      -210.662          34.000  
R23  22461206.719 5 120151834.084 5      -112.789          33.000                                                                  
E27  23278084.430 8 122327168.520 8      -552.691          51.000    23278086.289 8  93731249.500 8      -423.494          51.000  
E21  25054846.156 7 131664083.734 7      1811.957          46.000    25054852.953 7 100885493.455 7      1388.437          47.000  
E30  25184710.156 5 132346543.397 5     -2424.484          33.000    25184713.078 5 101408389.863 5     -1857.618          34.000  
E07  26716483.625 7 140396005.320 7     -3039.996          43.000    26716486.172 6 107576204.095 6     -2329.325          40.000  
C25  24975715.859 4 130055085.058 4      2452.418          28.000                                                                  
C26  22892345.656 6 119206440.816 6     -1942.855          38.000                                                                  
C05  39774316.781 5 207115303.734 5        28.543          34.000                                                                  
C14  23583128.797 8 122803551.081 8     -2591.789          48.000    23583126.438 8  94959479.296 8     -2004.103          51.000  
C24  21948097.086 7 114289455.530 7       345.918          46.000                                                                  
> 2020 05 18 06 07  0.0000000  0 16      -0.000000000000
G15  20809731.789 8 109355867.591 8     -1755.078          49.000    20809732.320 8  85212365.561 8     -1367.594          49.000  
G13  21830734.695 8 114721260.660 8     -2860.641          51.000    21830734.789 7  89393162.491 7     -2229.071          44.000  
G19  22166376.484 6 116485014.365 6      2042.742          38.000    22166373.344 5  90767589.944 5      1591.751          32.000  
G12  22750706.211 7 119555755.855 7      3366.500          42.000    22750702.727 7  93160328.008 7      2623.250          42.000  
R04  21374197.055 8 114457456.087 8     -3914.762          51.000    21374198.273 7  89022465.016 7     -3044.815          47.000  
R14  20469408.453 6 109113126.801 6     -2195.859          40.000    20469416.156 4  84865745.87624     -1707.891          25.000  
R05  19841986.148 5 106066391.442 5      -298.828          35.000    19841992.445 5  82496109.072 5      -232.419          32.000  
R23  22461907.773 4 120155674.576 4      -139.762          29.000                                                                  
E27  23281255.773 8 122343834.047 8      -560.988          51.000    23281257.711 8  93744019.179 8      -429.830          51.000  
E21  25044515.922 7 131609793.208 7      1804.668          47.000    25044521.891 7 100843894.201 7      1382.861          47.000  
E30  25198550.930 5 132419273.304 5     -2425.512          33.000    25198548.742 5 101464104.169 5     -1858.636          34.000  
E07  26733843.812 7 140487230.078 7     -3044.352          43.000    26733846.367 7 107646103.555 7     -2332.692          43.000  
C26  22903545.844 6 119264764.718 6     -1948.102          39.000                                                                  
C05  39774144.539 5 207114407.455 5        28.359          34.000                                                                  
C14  23598082.133 7 122881419.464 7     -2602.102          47.000    23598081.211 8  95019692.050 8     -2012.083          51.000  
C24  21946120.719 7 114279167.192 7       337.199          44.000                                                                  
> 2020 05 18 06 07 30.0000000  0 18      -0.000000000000
G15  20819807.688 8 109408816.846 8     -1774.633          50.000    20819808.188 8  85253624.742 8     -1382.831          50.000  
G13  21847106.695 8 114807297.245 8     -2875.004          50.000    21847106.359 7  89460203.903 7     -2240.267          43.000  
G19  22154773.148 7 116424038.336 7      2022.559          43.000    22154769.297 5  90720076.149 5      1576.020          32.000  
G12  22731518.297 6 119454932.595 6      3355.371          37.000    22731518.586 6  93081764.493 6      2614.579          37.000  
R15  19795849.727 4 105782553.043 4       900.656          28.000                                                                  
R04  21396174.141 8 114575144.769 8     -3931.012          50.000    21396176.070 7  89114000.621 7     -3057.454          47.000  
R14  20481795.336 6 109179154.646 6     -2206.246          41.000    20481802.078 4  84917118.897 4     -1715.966          26.000  
R05  19843750.180 6 106075829.610 6      -330.164          36.000    19843757.320 5  82503449.770 5      -256.797          31.000  
R23  22462775.914 5 120160314.834 5      -169.438          34.000                                                                  
E27  23284488.914 8 122360824.079 8      -571.652          51.000    23284490.906 8  93757037.510 8      -438.029          51.000  
E21  25034241.664 7 131555797.878 7      1795.004          47.000    25034246.250 7 100802521.170 7      1375.387          46.000  
E30  25212416.891 5 132492136.357 5     -2430.289          33.000    25212408.961 5 101519919.782 5     -1862.293          32.000  
E07  26751242.766 7 140578659.556 7     -3050.906          43.000    26751245.234 7 107716159.879 7     -2337.820          45.000  
C25  24947500.805 5 129908185.287 5      2442.109          31.000                                                                  
C26  22914791.773 6 119323320.653 6     -1955.535          40.000                                                                  
C05  39773989.383 5 207113599.342 5        25.723          34.000                                                                  
C14  23613108.836 7 122959670.522 7     -2614.406          46.000    23613109.219 8  95080200.749 8     -2021.818          51.000  
C24  21944209.391 7 114269216.296 7       326.066          44.000                                                                  
> 2020 05 18 06 08  0.0000000  0 17      -0.000000000000
G15  20829958.469 8 109462158.107 8     -1785.793          50.000    20829958.578 8  85295189.361 8     -1391.527          50.000  
G13  21863524.180 8 114893571.282 8     -2881.016          51.000    21863522.844 7  89527430.370 7     -2244.951          43.000  
G19  22143247.891 7 116363470.632 7      2011.098          43.000    22143243.453 5  90672880.587 5      1567.093          32.000  
G12  22712359.953 6 119354262.715 6      3351.750          36.000    22712362.039 6  93003320.382 6      2611.748          36.000  
R04  21418204.961 8 114693121.212 8     -3938.496          48.000    21418207.680 7  89205760.028 7     -3063.275          46.000  
R14  20494204.312 6 109245302.557 6     -2208.133          38.000    20494212.711 4  84968561.293 4     -1717.437          28.000  
R05  19845653.188 7 106085996.937 7      -352.254          43.000    19845659.211 5  82511357.685 5      -273.972          35.000  
R23  22463774.320 5 120165645.017 5      -190.457          31.000                                                                  
E27  23287745.719 8 122377937.975 8      -573.758          51.000    23287747.562 8  93770150.735 8      -439.618          51.000  
E21  25023985.125 8 131501898.011 8      1793.816          48.000    25023988.305 7 100761221.295 7      1374.531          46.000  
E30                                                                  25226258.164 5 101575682.930 5     -1858.827          34.000  
E07  26768642.148 7 140670092.534 7     -3048.988          43.000    26768644.680 7 107786218.871 7     -2336.218          46.000  
C25  24933429.078 5 129834825.343 5      2444.602          35.000                                                                  
C26  22926044.102 6 119381910.210 6     -1954.863          40.000                                                                  
C05  39773813.336 5 207112683.01725        30.805          34.000                                                                  
C14  23628170.547 7 123038104.075 7     -2618.488          45.000    23628172.023 8  95140850.550 8     -2024.933          51.000  
C24  21942325.516 7 114259404.677 7       323.676          45.000                                                                  
> 2020 05 18 06 08 30.0000000  0 18      -0.000000000000
G15  20840194.062 8 109515944.403 8     -1801.715          51.000    20840193.891 8  85337100.747 8     -1403.934          51.000  
G13  21879997.164 8 114980135.724 8     -2891.773          51.000    21879995.469 7  89594883.153 7     -2253.331          44.000  
G19  22131811.211 7 116303368.455 7      1994.098          43.000    22131804.680 5  90626047.814 5      1553.849          30.000  
G12  22693242.406 6 119253802.066 6      3344.004          40.000    22693244.422 6  92925039.311 6      2605.718          40.000  
R15  19785807.500 5 105728937.494 5       882.012          31.000                                                                  
R04  21440299.516 7 114811437.151 7     -3951.070          46.000    21440302.711 7  89297783.489 7     -3073.058          45.000  
R14  20506646.094 5 109311624.393 5     -2215.453          34.000    20506656.742 5  85020144.958 5     -1723.134          30.000  
R05  19847703.766 7 106096949.019 7      -379.570          42.000    19847708.312 5  82519875.953 5      -295.221          35.000  
R23  22464911.328 5 120171720.568 5      -215.992          32.000                                                                  
E27  23291036.133 8 122395229.399 8      -580.820          51.000    23291037.977 8  93783400.001 8      -445.032          51.000  
E21  25013757.133 8 131448148.217 8      1787.711          48.000    25013758.906 7 100720036.381 7      1369.799          46.000  
E30                                                                  25240104.812 5 101631434.750 5     -1859.390          34.000  
E07  26786052.016 6 140761582.042 6     -3052.133          41.000    26786054.750 7 107856321.203 7     -2338.559          46.000  
C25  24919359.422 5 129761515.214 5      2441.141          32.000                                                                  
C26  22937312.641 6 119440586.868 6     -1959.000          39.000                                                                  
C05  39773626.719 5 207111710.990 5        31.746          34.000                                                                  
C14  23643277.773 7 123116771.844 7     -2627.566          47.000    23643279.484 8  95201681.441 8     -2031.777          51.000  
C24  21940478.500 7 114249786.192 7       315.879          44.000                                                                  
> 2020 05 18 06 09  0.0000000  0 18      -0.000000000000
G15  20850550.023 8 109570363.182 8     -1830.602          51.000    20850549.562 8  85379504.968 8     -1426.443          51.000  
G28  23646713.797 4 124264322.52224     -3053.871          29.000                                                                  
G13  21896560.836 8 115067177.688 8     -2915.355          51.000    21896559.562 7  89662708.045 7     -2271.706          46.000  
G17  22385278.758 5 117635393.120 5       -17.707          35.000    22385254.875 5  91663962.201 5       -13.798          33.000  
G19  22120498.859 6 116243923.119 6      1964.301          38.000    22120491.922 6  90579726.767 6      1530.627          37.000  
G12  22674201.062 6 119153741.300 6      3322.730          41.000    22674203.484 6  92847069.915 6      2589.145          40.000  
R15  19780916.125 4 105702782.634 4       856.824          28.000                                                                  
R04  21462492.000 7 114930280.440 7     -3976.336          44.000    21462495.820 7  89390217.156 7     -3092.706          44.000  
R05  19849936.547 6 106108877.613 6      -420.082          39.000    19849939.172 5  82529153.767 5      -326.731          35.000  
R23  22466222.898 6 120178734.015 6      -255.371          40.000                                                                  
E27  23294395.938 8 122412886.288 8      -600.711          51.000    23294397.961 8  93796929.297 8      -460.276          51.000  
E21  25003593.547 8 131394737.350 8      1768.609          49.000    25003594.875 7 100679111.173 7      1355.166          46.000  
E30  25253987.133 5 132710596.782 5     -2440.402          31.000    25253982.492 5 101687319.224 5     -1869.770          31.000  
E07  26803508.266 6 140853315.467 6     -3067.715          41.000    26803511.266 7 107926610.426 7     -2350.717          46.000  
C26  22948634.297 6 119499537.078 6     -1975.574          38.000                                                                  
C05  39773465.602 5 207110872.34125        20.184          34.000                                                                  
C14  23658466.234 8 123195858.711 8     -2649.156          49.000    23658467.172 8  95262836.396 8     -2048.542          51.000  
C24  21938703.867 7 114240547.695 7       295.520          44.000                                                                  
> 2020 05 18 06 09 30.0000000  0 17      -0.000000000000
G15  20860993.984 8 109625244.787 8     -1837.922          51.000    20860992.953 8  85422269.837 8     -1432.147          51.000  
G28  23664101.211 5 124355690.69525     -3047.812          31.000    23664101.789 4  96900540.05924     -2374.919          28.000  
G13  21913183.070 8 115154527.681 8     -2917.754          51.000    21913182.367 7  89730772.940 7     -2273.578          47.000  
G19  22109278.836 6 116184968.836 6      1956.027          37.000    22109274.844 6  90533788.405 6      1524.178          36.000  
G12  22655204.117 6 119053914.008 6      3322.621          41.000    22655206.977 6  92769282.461 6      2589.059          40.000  
R04  21484748.977 7 115049475.898 7     -3979.852          43.000    21484754.781 7  89482924.741 7     -3095.441          43.000  
R14  20531702.164 5 109445142.490 5     -2233.773          30.000    20531708.703 5  85123999.264 5     -1737.386          31.000  
R05  19852319.383 6 106121611.473 6      -438.855          41.000    19852320.516 5  82539057.923 5      -341.332          35.000  
R23  22467678.055 5 120186514.157 5      -272.852          34.000                                                                  
E27  23297793.297 8 122430739.765 8      -599.137          51.000    23297795.367 8  93810609.222 8      -459.094          51.000  
E21  24993462.656 8 131341497.375 8      1771.059          48.000    24993463.820 7 100638316.906 7      1357.064          46.000  
E07  26820978.727 7 140945123.282 7     -3062.211          42.000    26820982.016 7 107996956.670 7     -2346.448          46.000  
C25  24891297.992 5 129615509.424 5      2431.680          31.000                                                                  
C26  22959976.703 5 119558593.872 5     -1970.832          34.000                                                                  
C05  39773297.969 5 207109999.22025        28.527          34.000                                                                  
C14  23673703.055 8 123275195.958 8     -2649.602          51.000    23673702.867 8  95324184.935 8     -2048.777          51.000  
C24  21936970.781 7 114231522.495 7       296.449          46.000                                                                  
> 2020 05 18 06 10  0.0000000  0 16      -0.000000000000
G15  20871548.297 8 109680707.745 8     -1863.480          51.000    20871546.781 8  85465487.698 8     -1452.063          51.000  
G28  23681522.352 5 124447244.824 5     -3060.129          33.000    23681520.172 3  96971865.491 3     -2384.517          22.000  
G13  21929886.398 8 115242303.747 8     -2937.996          50.000    21929886.211 7  89799169.853 7     -2289.348          47.000  
G19  22098176.516 6 116126628.872 6      1929.375          38.000    22098174.742 6  90488328.623 6      1503.403          37.000  
G12  22636275.391 7 118954441.555 7      3304.918          43.000    22636277.297 7  92691771.420 7      2575.259          42.000  
R04  21507094.922 7 115169141.570 7     -4001.777          45.000    21507101.812 7  89575998.003 7     -3112.497          42.000  
R14  20544302.242 5 109512352.367 5     -2250.637          30.000    20544309.336 5  85176272.295 5     -1750.493          31.000  
R05  19854875.984 6 106135271.923 6      -476.188          41.000    19854876.422 5  82549682.725 5      -370.371          35.000  
E27  23301250.773 8 122448908.745 8      -615.875          51.000    23301252.680 8  93824530.893 8      -471.934          51.000  
E21  24983387.312 8 131288548.082 8      1755.105          49.000    24983387.594 7 100597745.368 7      1344.780          46.000  
E07  26838485.906 7 141037123.858 7     -3074.914          43.000    26838489.398 7 108067450.592 7     -2356.089          45.000  
C25  24877310.570 5 129542696.787 5      2419.102          33.000                                                                  
C26  22971359.719 5 119617875.516 5     -1984.566          31.000                                                                  
C05  39773146.484 5 207109210.037 5        19.914          34.000                                                                  
C14  23689010.289 8 123354899.860 8     -2667.926          51.000    23689009.164 8  95385816.989 8     -2062.962          51.000  
C24  21935301.945 7 114222829.087 7       279.344          46.000                                                                  
> 2020 05 18 06 10 30.0000000  0 15      -0.000000000000
G15  20882181.984 8 109736589.643 8     -1868.871          51.000    20882180.508 8  85509031.991 8     -1456.267          51.000  
G13  21946639.469 8 115330343.362 8     -2938.145          48.000    21946639.977 7  89867772.169 7     -2289.461          46.000  
G19  22087160.828 6 116068744.402 6      1922.363          37.000    22087161.258 6  90443223.761 6      1497.940          37.000  
G12  22617384.406 7 118855164.777 7      3306.785          46.000    22617384.492 7  92614412.874 7      2576.719          46.000  
R04  21529498.719 7 115289109.347 7     -4003.082          46.000    21529504.438 6  89669306.184 6     -3113.512          40.000  
R14  20556940.008 5 109579642.397 5     -2246.648          34.000    20556941.812 5  85228644.833 5     -1747.394          32.000  
R05  19857573.938 6 106149695.196 6      -492.750          40.000    19857572.805 5  82560900.840 5      -383.250          32.000  
E27  23304737.477 8 122467231.545 8      -612.531          51.000    23304739.258 8  93838570.433 8      -469.330          51.000  
E21  24973336.805 8 131235728.655 8      1759.320          48.000    24973335.781 7 100557273.373 7      1348.075          45.000  
E30  25295659.391 6 132929563.644 6     -2432.688          37.000                                                                  
E07  26855998.914 7 141129154.879 7     -3067.523          42.000    26856002.414 7 108137967.820 7     -2350.298          43.000  
C25  24863334.141 5 129469914.710 5      2426.309          30.000                                                                  
C05  39772980.828 5 207108348.18225        30.789          34.000                                                                  
C14  23704356.398 8 123434808.859 8     -2666.199          51.000    23704354.875 8  95447607.626 8     -2061.678          51.000  
C24  21933665.797 7 114214307.921 7       281.898          46.000                                                                  
> 2020 05 18 06 11  0.0000000  0 14      -0.000000000000
G15  20892907.375 8 109792952.993 8     -1886.637          51.000    20892905.992 8  85552951.462 8     -1470.107          51.000  
G13  21963453.516 7 115418708.634 7     -2950.617          46.000    21963455.406 7  89936628.248 7     -2299.180          46.000  
G19  22076244.516 6 116011381.025 6      1903.582          38.000    22076245.656 6  90398525.002 6      1483.305          38.000  
G12  22598543.062 8 118756149.126 8      3296.227          49.000    22598541.047 8  92537257.892 8      2568.492          49.000  
R04  21551971.000 7 115409440.001 7     -4016.875          47.000    21551974.008 6  89762896.593 6     -3124.240          39.000  
R14  20569613.805 6 109647188.701 6     -2254.652          37.000    20569613.812 5  85281180.805 5     -1753.619          35.000  
R05  19860426.750 6 106164945.534 6      -521.766          41.000    19860425.688 5  82572762.247 5      -405.815          35.000  
E27  23308265.500 8 122485771.038 8      -621.379          51.000    23308267.281 8  93852776.014 8      -476.092          51.000  
E21  24963322.617 7 131183102.942 7      1751.191          46.000    24963320.773 7 100516949.815 7      1341.763          45.000  
E30  25309560.000 6 133002611.862 6     -2435.039          39.000                                                                  
E07  26873529.562 7 141221278.588 7     -3072.070          42.000    26873533.195 7 108208556.092 7     -2353.917          42.000  
C05  39772812.852 5 207107473.24025        29.695          34.000                                                                  
C14  23719752.734 8 123514983.856 8     -2676.711          49.000    23719751.188 8  95509603.960 8     -2069.797          50.000  
C24  21932074.352 7 114206021.964 7       272.488          46.000                                                                  
> 2020 05 18 06 11 30.0000000  0 17      -0.000000000000
G15  20903697.336 8 109849656.391 8     -1896.469          49.000    20903696.195 8  85597135.914 8     -1477.768          49.000  
G13  21980303.484 8 115507257.765 8     -2955.445          49.000    21980305.398 7  90005627.583 7     -2302.945          45.000  
G19  22065401.992 6 115954402.277 6      1892.285          38.000    22065403.102 6  90354126.023 6      1474.514          37.000  
G12  22579724.953 8 118657256.333 8      3293.691          50.000    22579721.555 8  92460198.600 8      2566.514          50.000  
R15  19757464.242 4 105577451.692 4       811.277          29.000    19757459.562 4  82115824.81924       630.994          25.000  
R04  21574483.750 7 115529986.927 7     -4022.434          44.000    21574484.383 6  89856655.216 6     -3128.563          40.000  
R14  20582298.055 6 109714801.894 6     -2255.598          36.000    20582297.930 6  85333768.706 6     -1754.360          36.000  
R05  19863407.117 6 106180880.066 6      -543.344          39.000    19863407.297 5  82585155.786 5      -422.601          34.000  
R23  22474982.953 5 120225536.067 5      -372.707          33.000                                                                  
E27  23311808.031 8 122504386.383 8      -622.496          51.000    23311809.930 8  93867039.718 8      -476.996          51.000  
E21  24953317.484 7 131130530.984 7      1750.773          43.000    24953316.445 7 100476667.413 7      1341.479          45.000  
E30  25323439.633 6 133075544.033 6     -2429.883          38.000                                                                  
E07  26891050.961 6 141313353.553 6     -3069.105          41.000    26891054.719 6 108279107.005 6     -2351.684          40.000  
C25  24835424.094 4 129324584.722 4      2425.363          28.000                                                                  
C05  39772615.859 5 207106446.517 5        36.055          34.000                                                                  
C14  23735172.477 7 123595283.727 7     -2679.215          47.000    23735170.664 8  95571696.887 8     -2071.975          48.000  
C24  21930501.664 7 114197832.257 7       270.750          47.000                                                                  
> 2020 05 18 06 12  0.0000000  0 16      -0.000000000000
