     3.02           OBSERVATION DATA    M (MIXED)           RINEX VERSION / TYPE
SAVERINEX           SC600               20200515 065930 LCL PGM / RUN BY / DATE
       G = GPS       R = GLONASS       C = COMPASS          COMMENT
       S = SBAS      J = QZSS          E = GALILEO          COMMENT
BEAN                                                        MARKER NAME
1                                                           MARKER NUMBER
GEODETIC                                                    MARKER TYPE
Unige DICCA         GTER                                    OBSERVER / AGENCY
SC60291900056       SC600               2.12(191202)        REC # / TYPE / VERS
                    HEMA45          NONE                    ANT # / TYPE
  4509407.8091   693652.4678  4442337.6214                  APPROX POSITION XYZ
        0.0000        0.0000        0.0000                  ANTENNA: DELTA H/E/N
G    8 C1C L1C D1C S1C C2Y L2Y D2Y S2Y                      SYS / # / OBS TYPES
R    8 C1C L1C D1C S1C C2P L2P D2P S2P                      SYS / # / OBS TYPES
C    8 C1I L1I D1I S1I C7I L7I D7I S7I                      SYS / # / OBS TYPES
E    8 C1C L1C D1C S1C C7Q L7Q D7Q S7Q                      SYS / # / OBS TYPES
DBHZ                                                        COMMENT
     30.000                                                 INTERVAL
  2020    05    15    04    00    0.0000000     GPS         TIME OF FIRST OBS
  2020    05    15    04    59   30.0000000     GPS         TIME OF LAST OBS
     0                                                      RCV CLOCK OFFS APPL
G L1C  0.00000                                              SYS / PHASE SHIFT
G L2Y  0.00000                                              SYS / PHASE SHIFT
R L1C  0.00000                                              SYS / PHASE SHIFT
R L2P  0.25000                                              SYS / PHASE SHIFT
C L1I  0.00000                                              SYS / PHASE SHIFT
C L7I  0.00000                                              SYS / PHASE SHIFT
E L1C  0.50000                                              SYS / PHASE SHIFT
E L7Q -0.25000                                              SYS / PHASE SHIFT
 14 R01  1 R05  1 R06 -4 R07  5 R08  6 R09 -2 R10 -7 R11  0 GLONASS SLOT / FRQ #
    R12 -1 R16 -1 R19  3 R20  2 R21  4 R22 -3               GLONASS SLOT / FRQ #
 C1C   71.950 C2C   71.950 C2P   71.950                     GLONASS COD/PHS/BIS
    18                                                      LEAP SECONDS
*** Above antenna height is from mark to ANTENNA BOTTOM.    COMMENT
    17     4        0.0000        ANT MEASURE TYPE/HEIGT    COMMENT
    0.0000    0.0000    0.0458    0.0405    0.0000          COMMENT
                    BASE STATION                            COMMENT
                                                            END OF HEADER
> 2020 05 15 04 00  0.0000000  0 14        .000000000000
G05  21787645.898 8 114494834.337 8     -2675.223          51.000    21787643.977 8  89216761.793 8     -2084.589          51.000
G13  20387251.461 5 107135730.399 5      1032.129          34.000    20387248.633 5  83482366.857 5       804.268          33.000
G28  20911598.211 8 109891216.727 8       470.652          49.000    20911597.023 7  85629531.164 7       366.742          46.000
R07  23224658.602 6 124323399.549 6     -4111.152          40.000    23224666.906 5  96696012.268 5     -3197.566          32.000
R08  19661338.531 7 105285585.615 7     -1822.535          45.000    19661343.320 8  81888795.041 8     -1417.527          48.000
R10  19761651.336 6 105340705.989 6     -2092.363          40.000
R11  20044955.742 8 107114152.457 8      2219.195          51.000    20044958.555 7  83311017.395 7      1726.044          47.000
C05  39801101.789 6 207254780.472 6        16.254          36.000    39801100.180 6 160262525.413 6        12.263          40.000
C23  22078995.883 8 114971204.943 8     -1008.938          51.000
C25  25359364.242 5 132052863.423 5     -2912.805          30.000
E02  23878535.938 8 125482619.180 8     -1062.949          51.000    23878536.461 8  96149006.997 8      -814.483          48.000
E03  27624653.203 6 145168501.267 6     -2707.863          37.000    27624657.180 7 111233003.351 7     -2074.922          45.000
E08  21868865.516 8 114921648.880 8     -1201.371          51.000    21868864.398 8  88056868.747 8      -920.597          51.000
E30  22819832.352 8 119919003.138 8      1767.066          51.000    22819835.492 8  91886022.621 8      1354.001          51.000
> 2020 05 15 04 00 30.0000000  0 14        .000000000000
G05  21803016.719 8 114575605.526 8     -2699.113          51.000    21803013.406 8  89279700.323 8     -2103.205          51.000
G13  20381454.344 5 107105267.861 5      1009.785          32.000    20381451.289 4  83458635.812 4       786.849          28.000
G28  20909024.484 8 109877690.340 8       441.234          50.000    20909023.367 7  85618991.142 7       343.819          45.000
G30  21569909.492 5 113350657.076 5     -2134.957          31.000    21569908.953 4  88325176.745 4     -1663.600          29.000
R07  23247775.031 6 124447158.579 6     -4128.785          37.000    23247784.047 5  96792269.283 5     -3211.274          30.000
R08  19671669.805 8 105340906.906 8     -1854.875          48.000    19671674.211 8  81931822.712 8     -1442.681          49.000
R10  19773534.836 6 105404052.041 6     -2119.980          41.000
R11  20032608.312 8 107048172.781 8      2190.020          51.000    20032610.391 7  83259699.924 7      1703.352          47.000
C05  39801069.086 6 207254610.125 6         5.625          36.000    39801067.445 6 160262393.643 6         4.449          40.000
C23  22084900.531 8 115001952.335 8     -1030.512          51.000
E02  23884697.305 8 125514996.965 8     -1085.188          51.000    23884697.398 7  96173815.930 7      -831.501          47.000
E03  27640181.586 6 145250107.162 6     -2722.188          38.000    27640187.445 7 111295532.500 7     -2085.787          45.000
E08  21875812.023 8 114958152.696 8     -1221.777          51.000    21875810.484 8  88084839.188 8      -936.200          51.000
E30  22809835.984 8 119866472.584 8      1745.289          51.000    22809838.984 8  91845771.937 8      1337.338          51.000
> 2020 05 15 04 01  0.0000000  0 12        .000000000000
G05  21818433.430 8 114656618.533 8     -2704.934          51.000    21818429.414 8  89342827.276 8     -2107.744          51.000
G28  20906528.062 8 109864570.097 8       430.102          51.000    20906526.352 7  85608767.589 7       335.144          45.000
R07  23270897.805 5 124570968.144 5     -4127.777          30.000    23270907.617 5  96888565.729 5     -3210.487          30.000
R08  19682092.219 8 105396711.814 8     -1868.691          50.000    19682095.609 8  81975226.502 8     -1453.427          49.000
R10  19785482.461 6 105467740.797 6     -2129.148          39.000
R11  20020335.078 8 106982589.465 8      2178.887          51.000    20020336.852 7  83208690.690 7      1694.687          47.000
C05  39801006.469 6 207254285.195 6        12.941          36.000    39801004.906 6 160262141.623 6        10.013          40.000
C23  22090839.367 8 115032876.474 8     -1034.188          51.000
E02  23890895.180 8 125547566.353 8     -1089.262          51.000    23890894.922 7  96198771.695 7      -834.659          47.000
E03  27655700.609 6 145331662.670 6     -2717.922          40.000    27655707.055 7 111358023.084 7     -2082.692          44.000
E08  21882784.531 8 114994793.157 8     -1224.055          51.000    21882783.016 8  88112914.320 8      -937.945          51.000
E30  22799874.273 8 119814120.846 8      1741.605          51.000    22799876.586 8  91805658.263 8      1334.522          51.000
> 2020 05 15 04 01 30.0000000  0 14        .000000000000
G05  21833917.047 8 114737984.639 8     -2719.668          51.000    21833913.055 8  89406229.380 8     -2119.222          51.000
G13  20369994.438 5 107045032.574 5       992.418          34.000    20369990.391 5  83411703.867 5       773.313          30.000
G28  20904130.727 8 109851970.544 8       409.672          51.000    20904128.406 7  85598949.771 7       319.225          46.000
G30  21594309.578 5 113478859.596 5     -2145.219          33.000    21594308.555 5  88425079.293 5     -1671.599          34.000
R07  23294046.008 5 124694863.965 5     -4136.762          32.000    23294059.609 5  96984937.910 5     -3217.478          32.000
R08  19692626.328 8 105453115.676 8     -1891.812          50.000    19692628.633 8  82019096.163 8     -1471.413          49.000
R10  19797515.555 6 105531884.580 6     -2147.410          41.000
R11  20008158.008 8 106917519.115 8      2158.766          51.000    20008160.133 7  83158080.393 7      1679.037          47.000
C05  39800935.727 6 207253916.636 6        11.172          36.000    39800934.086 6 160261856.597 6         8.896          40.000
C23  22096833.344 8 115064089.008 8     -1046.863          51.000
E02  23897150.906 8 125580440.087 8     -1102.496          51.000    23897150.578 7  96223960.652 7      -844.728          46.000
E03  27671232.055 6 145413281.243 6     -2723.191          41.000    27671238.344 7 111420561.979 7     -2086.544          44.000
E08  21889804.531 8 115031684.252 8     -1235.512          51.000    21889803.117 8  88141181.482 8      -946.646          51.000
E30  22789968.609 8 119762062.455 8      1728.785          51.000    22789969.906 8  91765769.373 8      1324.624          51.000
> 2020 05 15 04 02  0.0000000  0 14        .000000000000
G05  21849480.859 8 114819773.836 8     -2732.180          50.000    21849477.508 8  89469961.182 8     -2128.971          50.000
G13  20364368.195 6 107015458.936 6       980.582          37.000    20364364.031 5  83388664.468 5       764.087          35.000
G28  20901846.258 8 109839964.425 8       391.441          51.000    20901844.023 7  85589594.382 7       305.019          47.000
G30  21606577.641 5 113543328.058 5     -2152.664          34.000    21606578.234 5  88475314.467 5     -1677.401          33.000
R07  23317252.984 6 124819073.751 6     -4143.484          38.000    23317263.727 5  97081545.523 5     -3222.710          34.000
R08  19703285.531 8 105510191.470 8     -1912.609          50.000    19703287.227 8  82063488.429 8     -1487.585          48.000
R10  19809647.562 7 105596553.863 7     -2163.418          42.000
R11  19996091.422 8 106853036.937 8      2140.699          51.000    19996093.453 8  83107927.560 8      1664.988          48.000
C05  39800870.641 6 207253577.556 6        12.215          36.000    39800868.984 6 160261594.393 6         9.198          40.000
C23  22102895.805 8 115095660.750 8     -1057.359          51.000
E02  23903478.148 8 125613689.746 8     -1113.453          51.000    23903477.781 7  96249437.655 7      -853.061          46.000
E03  27686789.102 6 145495034.925 6     -2726.309          41.000    27686794.953 7 111483204.370 7     -2088.876          44.000
E08  21896886.164 8 115068898.818 8     -1244.766          51.000    21896884.758 8  88169696.499 8      -953.752          51.000
E30  22780132.531 8 119710370.842 8      1718.043          51.000    22780133.055 8  91726161.525 8      1316.393          51.000
> 2020 05 15 04 02 30.0000000  0 14        .000000000000
G05  21865116.211 8 114901941.309 8     -2745.395          49.000    21865114.203 8  89533987.783 8     -2139.268          49.000
G13  20358805.859 6 106986227.377 6       968.301          39.000    20358799.523 5  83365886.614 5       754.520          35.000
G28  20899666.500 8 109828509.056 8       372.477          51.000    20899664.195 7  85580668.132 7       290.241          46.000
G30  21618886.617 5 113608014.325 5     -2159.793          34.000    21618888.766 5  88525719.352 5     -1682.956          35.000
R07  23340499.055 6 124943473.104 6     -4150.105          40.000    23340503.141 5  97178300.476 5     -3227.866          32.000
R08  19714061.266 8 105567894.324 8     -1934.066          48.000    19714062.961 7  82108368.414 7     -1504.274          47.000
R10  19821869.219 7 105661701.643 7     -2179.652          42.000
R11  19984126.633 8 106789100.158 8      2121.789          51.000    19984128.555 8  83058198.974 8      1650.283          48.000
C05  39800803.070 6 207253225.618 6        11.414          36.000    39800801.438 6 160261322.207 6         9.140          40.000
C23  22109019.516 8 115127548.003 8     -1068.469          51.000
E02  23909868.562 8 125647271.237 8     -1125.156          51.000    23909867.898 7  96275168.922 7      -862.112          45.000
E03  27702363.430 7 145576880.145 7     -2730.027          42.000    27702368.625 7 111545916.944 7     -2091.758          43.000
E08  21904021.477 8 115106394.011 8     -1254.762          51.000    21904020.141 8  88198426.547 8      -961.420          51.000
E30  22770357.945 8 119659003.774 8      1706.586          51.000    22770358.141 8  91686802.357 8      1307.647          51.000
> 2020 05 15 04 03  0.0000000  0 15        .000000000000
G05  21880816.641 8 114984452.040 8     -2754.066          50.000    21880816.422 8  89598281.889 8     -2146.026          49.000
G13  20353302.234 6 106957307.421 6       960.770          38.000    20353296.328 5  83343351.622 5       748.655          35.000
G28  20897585.414 8 109817572.426 8       357.840          51.000    20897583.094 7  85572146.093 7       278.836          47.000
G30  21631231.031 6 113672885.095 6     -2163.547          36.000    21631233.367 6  88576268.059 6     -1685.878          36.000
R07  23363771.180 6 125068026.841 6     -4152.285          40.000    23363768.969 4  97275175.560 4     -3229.555          28.000
R08  19724947.211 7 105626190.878 7     -1951.043          47.000    19724949.461 7  82153710.158 7     -1517.481          47.000
R09  22629413.867 5 120839741.558 5     -3842.387          33.000    22629415.930 6  93986441.465 6     -2988.526          36.000
R10  19834174.297 7 105727292.838 7     -2191.766          42.000
R11  19972257.703 8 106725677.485 8      2107.535          51.000    19972259.531 7  83008870.241 7      1639.191          47.000
C05  39800726.883 6 207252828.931 6        16.250          36.000    39800725.289 6 160261015.475 6        12.146          40.000
C23  22115197.367 8 115159717.812 8     -1075.078          51.000
E02  23916315.711 8 125681151.292 8     -1132.320          51.000    23916314.523 7  96301128.980 7      -867.640          45.000
E03  27717949.203 6 145658784.378 6     -2729.148          40.000    27717953.781 7 111608674.744 7     -2091.043          44.000
E08  21911204.180 8 115144137.883 8     -1260.336          51.000    21911202.820 8  88227347.160 8      -965.721          51.000
E30  22760638.852 8 119607929.843 8      1699.520          51.000    22760639.141 8  91647667.802 8      1302.238          50.000
> 2020 05 15 04 03 30.0000000  0 16        .000000000000
G05  21896596.352 8 115067376.759 8     -2771.926          51.000    21896597.273 8  89662898.571 8     -2159.939          51.000
G07  24219025.633 5 127271840.737 5     -2858.531          30.000    24219026.977 5  99172865.169 5     -2227.427          32.000
G13  20347871.953 6 106928773.156 6       943.613          39.000    20347867.266 5  83321117.137 5       735.280          35.000
G28  20895616.922 8 109807227.727 8       334.055          51.000    20895615.016 8  85564085.303 8       260.305          48.000
G30  21643624.656 5 113738011.947 5     -2175.508          32.000    21643626.469 5  88627016.328 5     -1695.195          30.000
R07  23387083.023 6 125192806.921 6     -4164.020          39.000    23387077.469 4  97372220.685 4     -3238.685          29.000
R08  19735957.664 8 105685154.022 8     -1977.406          48.000    19735960.695 7  82199570.330 7     -1537.983          46.000
R09  22651031.422 6 120955174.217 6     -3851.141          37.000    22651031.891 5  94076222.426 5     -2995.332          34.000
R10  19846575.719 7 105793398.281 7     -2212.898          42.000
R11  19960499.062 8 106662843.856 8      2083.672          51.000    19960500.414 7  82959999.636 7      1620.634          47.000
C05  39800656.031 6 207252460.034 6        10.953          36.000    39800654.469 6 160260730.175 6         8.500          40.000
C23  22121442.953 8 115192241.186 8     -1090.879          51.000
E02  23922833.312 8 125715401.678 8     -1148.688          51.000    23922832.242 7  96327372.780 7      -880.169          45.000
E03  27733559.836 6 145740819.824 6     -2737.496          40.000    27733564.227 7 111671533.072 7     -2097.601          44.000
E08  21918447.914 8 115182203.384 8     -1275.074          51.000    21918446.688 8  88256514.215 8      -977.002          51.000
E30  22750989.484 8 119557222.628 8      1683.285          51.000    22750990.031 8  91608814.247 8      1289.787          50.000
> 2020 05 15 04 04  0.0000000  0 15        .000000000000
G05  21912451.805 8 115150696.367 8     -2783.781          51.000    21912453.023 8  89727822.953 8     -2169.180          51.000
G13  20342512.359 6 106900608.976 6       932.762          40.000    20342507.930 5  83299171.048 5       726.830          33.000
G28  20893757.867 8 109797458.380 8       316.223          51.000    20893756.469 8  85556472.850 8       246.407          48.000
G30  21656063.516 5 113803377.327 5     -2182.570          35.000    21656064.297 5  88677950.351 5     -1700.707          33.000
R07  23410433.016 6 125317793.981 6     -4169.426          38.000    23410427.805 5  97469432.702 5     -3242.896          34.000
R08  19747089.688 8 105744766.100 8     -1997.691          49.000    19747092.703 7  82245935.237 7     -1553.760          46.000
R09  22672670.977 6 121070726.308 6     -3853.633          37.000    22672671.219 5  94166096.282 5     -2997.270          33.000
R10  19859070.109 7 105859997.196 7     -2227.961          42.000
R11  19948847.758 8 106600583.320 8      2066.012          51.000    19948849.672 8  82911574.811 8      1606.898          48.000
C05  39800587.312 6 207252102.449 6        11.656          36.000    39800585.812 6 160260453.658 6         9.101          40.000
C23  22127753.305 8 115225100.435 8     -1100.637          51.000
E02  23929417.969 8 125750004.601 8     -1159.098          51.000    23929417.617 7  96353886.700 7      -888.128          44.000
E03  27749192.453 6 145822969.319 6     -2740.117          38.000    27749196.984 7 111734478.783 7     -2099.534          44.000
E08  21925749.484 8 115220574.016 8     -1283.938          51.000    21925748.422 8  88285915.085 8      -983.826          51.000
E30  22741406.828 8 119506866.197 8      1672.805          51.000    22741407.672 8  91570229.467 8      1281.822          50.000
> 2020 05 15 04 04 30.0000000  0 15        .000000000000
G05  21928379.117 8 115234392.460 8     -2795.586          51.000    21928380.016 8  89793040.688 8     -2178.379          51.000
G13  20337220.461 6 106872800.395 6       921.668          40.000    20337216.648 6  83277502.019 6       718.183          39.000
G28  20892005.336 8 109788248.792 8       298.148          51.000    20892004.125 8  85549296.532 8       232.323          48.000
G30  21668544.406 6 113868963.962 6     -2189.387          38.000    21668544.398 6  88729056.811 6     -1706.013          38.000
R07  23433818.578 6 125442969.423 6     -4175.035          38.000    23433813.727 5  97566791.235 5     -3247.253          34.000
R08  19758339.695 8 105805010.262 8     -2018.141          49.000    19758342.469 7  82292791.759 7     -1569.668          46.000
R09  22694329.141 6 121186378.845 6     -3856.258          37.000    22694330.344 5  94256048.256 5     -2999.315          33.000
R10  19871652.883 6 105927071.532 6     -2243.035          40.000
R11  19937300.648 8 106538880.838 8      2047.891          51.000    19937303.680 8  82863584.014 8      1592.804          49.000
C05  39800517.805 6 207251740.618 6        12.184          36.000    39800516.281 6 160260173.824 6         9.581          40.000
C23  22134124.820 8 115258278.762 8     -1110.754          51.000
E02  23936066.508 8 125784943.092 8     -1169.703          50.000    23936066.367 7  96380657.762 7      -896.230          44.000
E03  27764843.594 6 145905216.454 6     -2742.613          39.000    27764848.680 7 111797499.270 7     -2101.552          45.000
E08  21933106.000 8 115259234.057 8     -1293.000          51.000    21933105.391 8  88315537.710 8      -990.719          51.000
E30  22731887.820 8 119456845.395 8      1662.301          51.000    22731889.023 8  91531901.847 8      1273.693          51.000
> 2020 05 15 04 05  0.0000000  0 15        .000000000000
G05  21944377.914 8 115318464.386 8     -2808.781          51.000    21944378.180 8  89858551.259 8     -2188.661          51.000
G13  20331997.211 7 106845351.390 7       908.816          42.000    20331994.172 6  83256113.141 6       708.169          39.000
G28  20890359.602 8 109779601.503 8       278.719          50.000    20890358.500 8  85542558.384 8       217.183          49.000
G30  21681067.438 6 113934773.215 6     -2197.453          39.000    21681067.258 6  88780336.719 6     -1712.301          39.000
R07  23457239.281 6 125568333.320 6     -4181.867          38.000    23457234.273 5  97664296.397 5     -3252.563          32.000
R08  19769708.438 7 105865887.549 7     -2039.953          47.000    19769710.617 7  82340140.719 7     -1586.630          46.000
R09  22716005.352 6 121302131.961 6     -3860.141          36.000    22716007.914 5  94346078.386 5     -3002.335          35.000
R10  19884325.562 6 105994620.475 6     -2259.574          40.000
R11  19925858.547 8 106477739.999 8      2028.469          51.000    19925862.391 8  82816030.049 8      1577.698          49.000
C05  39800447.992 6 207251376.112 6        12.023          36.000    39800446.508 6 160259892.734 6         9.536          40.000
C23  22140557.812 8 115291777.402 8     -1121.969          51.000
E02  23942779.242 8 125820218.480 8     -1181.512          50.000    23942779.047 7  96407686.941 7      -905.233          45.000
E03  27780514.344 6 145987563.078 6     -2746.328          39.000    27780519.445 7 111860596.042 7     -2104.461          45.000
E08  21940518.164 8 115298186.127 8     -1303.285          51.000    21940517.969 8  88345384.090 8      -998.591          51.000
E30  22722432.945 8 119407163.368 8      1650.398          49.000    22722434.641 8  91493833.815 8      1264.561          51.000
> 2020 05 15 04 05 30.0000000  0 15        .000000000000
G05  21960448.672 8 115402914.768 8     -2821.031          51.000    21960448.078 8  89924356.716 8     -2198.209          51.000
G13  20326843.461 7 106818267.127 7       897.012          42.000    20326840.461 6  83235008.521 6       698.970          37.000
G28  20888821.852 8 109771521.121 8       260.215          50.000    20888821.062 8  85536261.975 8       202.765          49.000
G30  21693633.172 5 114000807.963 5     -2204.848          35.000    21693632.945 5  88831792.428 5     -1718.060          35.000
R07  23480694.062 6 125693887.437 6     -4187.848          37.000    23480689.867 4  97761949.539 4     -3257.215          28.000
R08  19781196.305 7 105927401.319 7     -2060.777          47.000    19781197.531 7  82387984.766 7     -1602.827          46.000
R09  22737700.867 6 121417986.957 6     -3862.977          38.000    22737704.344 6  94436187.757 6     -3004.540          37.000
R10  19897086.570 6 106062644.889 6     -2275.145          40.000
R11  19914523.367 8 106417165.994 8      2010.008          51.000    19914526.805 8  82768916.938 8      1563.339          48.000
C05  39800378.734 6 207251016.277 6        12.309          36.000    39800377.234 6 160259613.688 6         9.463          40.000
C23  22147052.984 8 115325599.334 8     -1132.438          51.000
E02  23949556.625 8 125855833.785 8     -1192.602          50.000    23949556.656 7  96434976.590 7      -913.776          45.000
E03  27796204.719 6 146070012.827 6     -2749.879          40.000    27796209.578 7 111923771.758 7     -2106.927          44.000
E08  21947986.875 8 115337434.499 8     -1312.941          51.000    21947986.586 8  88375457.519 8     -1006.029          51.000
E30  22713043.633 8 119357824.962 8      1639.121          49.000    22713045.570 8  91456029.077 8      1255.944          51.000
> 2020 05 15 04 06  0.0000000  0 16        .000000000000
G05  21976587.867 8 115487724.896 8     -2836.094          51.000    21976586.188 8  89990442.485 8     -2209.943          51.000
G13  20321756.125 7 106791533.029 7       882.086          44.000    20321753.172 6  83214176.759 6       687.340          37.000
G15  21619548.312 5 113611492.655 5      2460.605          30.000
G28  20887388.734 8 109763990.802 8       238.734          50.000    20887388.039 8  85530394.182 8       186.027          48.000
G30  21706238.000 5 114067051.162 5     -2214.672          35.000    21706237.438 5  88883410.413 5     -1725.727          35.000
R07  23504179.859 6 125819612.926 6     -4196.625          36.000    23504180.945 4  97859781.711 4     -3264.042          24.000
R08  19792799.930 8 105989534.057 8     -2084.492          48.000    19792800.070 7  82436310.262 7     -1621.272          46.000
R09  22759412.555 5 121533925.148 5     -3869.469          34.000    22759416.336 6  94526361.860 6     -3009.584          37.000
R10  19909933.320 6 106131125.928 6     -2293.461          39.000
R11  19903291.680 8 106357143.502 8      1988.367          51.000    19903293.695 7  82722232.779 7      1546.508          47.000
C05  39800306.891 6 207250642.170 6         9.145          36.000    39800305.398 6 160259324.387 6         7.325          40.000
C23  22153607.078 8 115359727.411 8     -1145.750          51.000
E02  23956395.438 8 125891771.689 8     -1206.465          49.000    23956395.359 7  96462513.420 7      -924.428          46.000
E03  27811911.828 6 146152548.991 6     -2755.770          40.000    27811915.953 7 111987013.723 7     -2111.674          43.000
E08  21955508.977 8 115376963.115 8     -1325.344          51.000    21955508.555 8  88405745.681 8     -1015.559          51.000
E30  22703717.125 8 119308814.728 8      1624.996          49.000    22703719.039 8  91418475.754 8      1245.190          51.000
> 2020 05 15 04 06 30.0000000  0 15        .000000000000
G05  21992801.477 8 115572927.672 8     -2845.199          49.000    21992799.312 8  90056834.235 8     -2217.038          49.000
G13  20316742.469 7 106765185.757 7       873.293          44.000    20316739.664 6  83193646.413 6       680.485          37.000
G28  20886067.211 8 109757046.811 8       223.059          51.000    20886066.359 8  85524983.270 8       173.812          48.000
G30  21718889.586 5 114133537.008 5     -2218.758          34.000    21718889.281 5  88935217.589 5     -1728.896          35.000
R07  23527703.312 5 125945543.526 5     -4199.707          35.000    23527706.742 5  97957731.199 5     -3266.439          30.000
R08  19804525.133 8 106052320.936 8     -2102.398          49.000    19804524.586 7  82485144.477 7     -1635.199          46.000
R09  22781145.977 5 121649979.986 5     -3869.004          34.000    22781149.852 6  94616626.655 6     -3009.228          37.000
R10  19922871.453 6 106200095.669 6     -2305.695          38.000
R11  19892170.133 8 106297709.466 8      1972.754          51.000    19892170.969 8  82676006.317 8      1534.364          48.000
C05  39800239.328 6 207250290.261 6        13.371          36.000    39800237.852 6 160259052.286 6         9.799          40.000
C23  22160226.508 8 115394195.753 8     -1153.160          51.000
E02  23963302.156 8 125928066.695 8     -1214.262          48.000    23963302.023 7  96490323.877 7      -930.492          46.000
E03  27827641.922 6 146235206.643 6     -2755.832          41.000    27827644.852 6 112050348.744 6     -2111.647          41.000
E08  21963091.133 8 115416807.735 8     -1331.969          51.000    21963090.797 8  88436275.975 8     -1020.605          51.000
E30  22694460.117 8 119260168.929 8      1616.957          50.000    22694462.133 8  91381201.662 8      1238.940          51.000
> 2020 05 15 04 07  0.0000000  0 15        .000000000000
G05  22009082.047 7 115658485.326 7     -2858.367          47.000    22009080.352 8  90123502.527 8     -2227.299          48.000
G13  20311795.617 7 106739190.911 7       860.254          43.000    20311793.141 6  83173390.690 6       670.328          38.000
G28  20884850.656 8 109750653.311 8       203.426          50.000    20884849.625 8  85520001.320 8       158.514          49.000
G30  21731580.547 6 114200228.743 6     -2226.777          38.000    21731580.430 6  88987185.184 6     -1735.148          37.000
R07  23551258.211 5 126071640.251 5     -4206.680          33.000    23551261.273 5  98055806.432 5     -3271.862          32.000
R08  19816365.266 8 106115724.328 8     -2124.172          50.000    19816364.570 7  82534458.179 7     -1652.134          46.000
R09  22802894.141 5 121766112.678 5     -3873.332          31.000    22802898.039 5  94706952.019 5     -3012.595          35.000
R10  19935894.539 6 106269515.629 6     -2321.879          40.000
R11  19881151.922 8 106238828.633 8      1952.930          51.000    19881152.289 8  82630210.113 8      1518.945          48.000
C05  39800169.234 6 207249924.394 6        11.750          36.000    39800167.797 6 160258770.099 6         9.255          40.000
C23  22166904.219 8 115428967.838 8     -1164.645          51.000
E02  23970269.641 8 125964681.961 8     -1226.145          49.000    23970269.852 7  96518379.722 7      -939.564          46.000
E03  27843388.086 6 146317949.532 6     -2759.871          41.000    27843388.188 6 112113749.088 6     -2114.808          37.000
E08  21970726.430 8 115456932.779 8     -1342.574          51.000    21970726.516 8  88467021.127 8     -1028.729          51.000
E30  22685266.000 8 119211852.539 8      1604.602          51.000    22685268.203 8  91344179.978 8      1229.524          51.000
> 2020 05 15 04 07 30.0000000  0 14        .000000000000
G05  22025434.820 7 115744425.085 7     -2869.559          46.000    22025434.375 7  90190468.585 7     -2236.020          46.000
G13  20306921.719 7 106713580.121 7       848.914          43.000    20306919.820 6  83153434.238 6       661.495          39.000
G28  20883744.477 8 109744840.157 8       185.664          50.000    20883743.492 8  85515471.595 8       144.673          49.000
G30  21744316.344 6 114267155.458 6     -2233.227          39.000    21744316.289 6  89039335.861 6     -1740.173          38.000
R08  19828325.969 8 106179774.043 8     -2144.156          49.000    19828325.453 7  82584274.598 7     -1667.677          47.000
R09  22824662.344 5 121882422.386 5     -3874.730          30.000    22824666.219 5  94797359.874 5     -3013.679          33.000
R10  19949007.164 6 106339413.062 6     -2336.180          39.000
R11  19870242.797 8 106180532.259 8      1934.898          51.000    19870243.141 8  82584868.469 8      1504.921          49.000
C05  39800102.375 6 207249577.466 6        13.164          36.000    39800100.953 6 160258501.059 6         9.968          40.000
C23  22173645.859 8 115464072.338 8     -1174.227          51.000
E02  23977303.680 8 126001646.491 8     -1236.465          49.000    23977304.016 7  96546703.174 7      -947.316          47.000
E03  27859155.477 7 146400807.210 7     -2762.336          42.000    27859150.445 5 112177237.276 5     -2116.329          33.000
E08  21978421.039 8 115497368.458 8     -1351.477          51.000    21978421.148 8  88498004.299 8     -1035.523          51.000
E30  22676140.594 8 119163896.289 8      1594.043          51.000    22676142.969 8  91307434.264 8      1221.430          51.000
> 2020 05 15 04 08  0.0000000  0 13        .000000000000
G05  22041866.102 7 115830776.585 7     -2881.910          47.000    22041866.891 7  90257755.482 7     -2245.644          47.000
G13  20302127.320 7 106688386.595 7       836.223          44.000    20302126.312 6  83133802.916 6       651.602          38.000
G28  20882754.930 8 109739639.724 8       166.371          50.000    20882753.867 8  85511419.302 8       129.640          49.000
G30  21757102.898 6 114334347.979 6     -2240.930          39.000    21757103.211 6  89091693.658 6     -1746.179          38.000
R08  19840413.469 8 106244501.280 8     -2165.535          50.000    19840413.188 8  82634617.988 8     -1684.305          48.000
R10  19962214.117 6 106409817.362 6     -2351.707          37.000
R11  19859448.664 8 106122854.282 8      1915.742          51.000    19859449.922 8  82540007.816 8      1490.022          49.000
C05                                                                  39800043.547 6 160258269.825 6         9.590          40.000
C23  22180457.188 8 115499539.832 8     -1184.992          51.000
E02  23984410.172 8 126038991.121 8     -1247.914          48.000    23984410.453 7  96575317.878 7      -956.098          47.000
E03  27874950.289 7 146483811.004 7     -2765.891          43.000    27874941.820 5 112240837.418 5     -2119.424          33.000
E08  21986181.188 8 115538146.863 8     -1361.742          51.000    21986180.914 8  88529250.094 8     -1043.392          51.000
E30  22667090.055 8 119116332.881 8      1582.102          51.000    22667092.391 8  91270989.576 8      1212.299          51.000
> 2020 05 15 04 08 30.0000000  0 15        .000000000000
G05  22058348.117 8 115917391.357 8     -2896.500          48.000    22058349.352 8  90325247.527 8     -2257.013          48.000
G13  20297384.836 7 106663465.685 7       821.254          43.000    20297384.477 6  83114384.021 6       639.938          40.000
G15  21549931.953 5 113245656.143 5      2412.395          32.000
G28  20881853.898 8 109734906.167 8       144.965          48.000    20881853.164 8  85507730.827 8       112.963          48.000
G30  21769912.312 6 114401659.112 6     -2250.457          38.000    21769913.383 6  89144143.859 6     -1753.603          38.000
R08  19852599.742 8 106309756.213 8     -2189.043          49.000    19852599.633 8  82685371.833 8     -1702.589          49.000
R09  22868235.547 4 122115100.962 4     -3884.109          29.000    22868232.055 4  94978396.986 4     -3020.974          26.000
R10  19975488.516 6 106480577.675 6     -2369.570          37.000
R11  19848741.953 8 106065646.675 8      1893.906          50.000    19848744.391 8  82495512.995 8      1473.038          48.000
C05  39799969.195 6 207248883.855 6         9.496          36.000    39799967.758 6 160257964.656 6         7.642          40.000
C23  22187310.148 8 115535224.499 8     -1198.031          51.000
E02  23991560.930 7 126076568.689 7     -1261.367          47.000    23991561.188 7  96604111.092 7      -966.544          47.000
E03  27890745.180 7 146566814.491 7     -2771.727          43.000    27890739.305 6 112304437.401 6     -2123.901          37.000
E08  21993978.820 8 115579122.148 8     -1374.125          51.000    21993978.328 8  88560646.737 8     -1052.871          51.000
E30  22658086.438 8 119069016.983 8      1568.043          51.000    22658088.625 8  91234734.567 8      1201.478          51.000
> 2020 05 15 04 09  0.0000000  0 14        .000000000000
G05  22074891.445 8 116004325.935 8     -2902.344          49.000    22074892.531 8  90392988.762 8     -2261.567          49.000
G13  20292705.828 7 106638877.782 7       814.930          44.000    20292705.203 6  83095224.634 6       635.013          39.000
G28  20881052.953 8 109730698.589 8       132.297          48.000    20881052.438 8  85504452.180 8       103.088          48.000
G30  21782755.367 5 114469146.959 5     -2251.660          35.000    21782756.523 5  89196731.740 5     -1754.543          34.000
R08  19864895.391 8 106375597.375 8     -2203.598          50.000    19864895.562 8  82736581.623 8     -1713.909          49.000
R09  22890042.828 5 122231517.203 5     -3880.180          33.000    22890044.711 4  95068966.622 4     -3017.914          29.000
R10  19988840.438 6 106551750.489 6     -2378.430          40.000
R11  19838135.227 8 106008970.691 8      1881.141          51.000    19838137.695 7  82451431.704 7      1463.112          47.000
C05  39799886.367 5 207248452.351 5        15.758          35.000    39799884.945 6 160257630.986 6        12.158          40.000
C23  22194215.703 8 115571183.761 8     -1202.316          51.000
E02  23998767.039 7 126114437.190 7     -1266.324          47.000    23998767.297 7  96633127.214 7      -970.315          47.000
E03  27906551.469 7 146649876.144 7     -2768.832          43.000    27906550.609 6 112368081.933 6     -2121.632          41.000
E08  22001824.859 8 115620353.523 8     -1377.820          51.000    22001824.422 8  88592239.591 8     -1055.750          51.000
E30  22649141.172 8 119022008.314 8      1562.656          51.000    22649143.055 8  91198714.974 8      1197.363          51.000
> 2020 05 15 04 09 30.0000000  0 14        .000000000000
G05  22091507.469 8 116091641.446 8     -2916.695          50.000    22091507.969 8  90461026.823 8     -2272.750          50.000
G13  20288102.477 7 106614687.504 7       799.656          45.000    20288101.289 7  83076375.045 7       623.109          42.000
G28  20880364.234 8 109727079.948 8       111.051          48.000    20880363.672 7  85501632.434 7        86.533          47.000
G30  21795643.641 6 114536873.731 6     -2261.027          36.000    21795645.414 6  89249505.822 6     -1761.839          36.000
R08  19877312.398 8 106442088.748 8     -2227.086          51.000    19877312.461 8  82788297.138 8     -1732.178          48.000
R09  22911862.820 5 122348024.158 5     -3885.055          34.000    22911863.414 4  95159583.169 4     -3021.706          29.000
R10  20002281.516 6 106623397.549 6     -2396.324          38.000
R11  19827640.398 8 105952891.445 8      1859.430          50.000    19827643.000 8  82407814.558 8      1446.226          48.000
C05  39799808.539 6 207248046.968 6        13.289          36.000    39799807.062 6 160257317.508 6        10.324          40.000
C23  22201185.922 8 115607479.257 8     -1215.281          51.000
E02  24006040.391 8 126152658.844 8     -1279.816          48.000    24006040.969 8  96662413.922 8      -980.645          48.000
E03  27922380.750 6 146733058.888 6     -2774.859          41.000    27922384.000 7 112431819.278 7     -2126.002          43.000
E08  22009731.742 8 115661904.421 8     -1390.227          51.000    22009731.109 8  88624077.273 8     -1065.277          51.000
E30  22640266.477 8 118975370.937 8      1548.445          51.000    22640268.156 8  91162979.858 8      1186.504          51.000
> 2020 05 15 04 10  0.0000000  0 13        .000000000000
G05  22108189.961 8 116179305.946 8     -2928.863          50.000    22108189.609 8  90529336.806 8     -2282.231          50.000
G13  20283569.547 7 106590866.865 7       787.039          45.000    20283568.203 7  83057813.496 7       613.277          42.000
G28  20879782.172 8 109724021.035 8        91.664          48.000    20879781.625 8  85499248.839 8        71.427          48.000
G30  21808571.211 6 114604808.907 6     -2268.910          38.000    21808573.594 6  89302442.333 6     -1767.982          36.000
R08  19889844.938 8 106509199.120 8     -2248.297          51.000    19889844.992 8  82840494.074 8     -1748.675          48.000
R09  22933696.773 5 122464603.249 5     -3888.652          34.000    22933696.172 5  95250255.827 5     -3024.507          30.000
R10  20015804.898 6 106695485.313 6     -2411.609          39.000
R11  19817251.961 8 105897379.714 8      1840.027          50.000    19817255.492 8  82364638.756 8      1431.132          50.000
C05  39799730.156 6 207247638.704 6        12.586          36.000    39799728.703 6 160257001.810 6         9.868          40.000
C23  22208214.969 8 115644080.728 8     -1226.043          51.000
E02  24013375.094 7 126191203.048 7     -1291.082          46.000    24013376.094 8  96691947.801 8      -989.271          48.000
E08  22017693.875 8 115703745.548 8     -1400.484          51.000    22017693.023 8  88656137.325 8     -1073.068          51.000
E30  22631456.805 8 118929076.006 8      1536.527          51.000    22631458.367 8  91127507.119 8      1177.342          51.000
> 2020 05 15 04 10 30.0000000  0 13        .000000000000
G05  22124943.117 8 116267341.492 8     -2939.926          50.000    22124941.719 8  90597935.905 8     -2290.851          51.000
G13  20279112.023 7 106567441.769 7       774.922          46.000    20279110.523 6  83039560.170 6       603.832          41.000
G28  20879311.617 8 109721546.039 8        73.559          49.000    20879310.367 8  85497320.243 8        57.318          49.000
G30  21821543.031 5 114672976.109 5     -2275.973          35.000    21821545.812 5  89355559.611 5     -1773.491          35.000
R08  19902496.898 8 106576952.003 8     -2268.309          50.000    19902497.648 8  82893190.706 8     -1764.243          48.000
R09  22955547.078 5 122581277.372 5     -3890.355          34.000    22955546.086 5  95341002.371 5     -3025.835          32.000
R10  20029415.445 6 106768036.119 6     -2425.355          41.000
R11  19806974.977 8 105842461.639 8      1821.477          51.000    19806978.742 8  82321924.690 8      1416.704          49.000
C05  39799655.820 6 207247252.138 6        13.285          36.000    39799654.438 6 160256702.876 6        10.270          40.000
C23  22215307.133 8 115681011.419 8     -1235.746          51.000
E02  24020775.578 7 126230093.303 7     -1301.215          46.000    24020776.648 8  96721746.841 8      -997.071          48.000
E08  22025715.828 8 115745901.609 8     -1409.605          51.000    22025714.711 8  88688438.674 8     -1080.123          51.000
E30  22622717.375 8 118883148.852 8      1525.539          51.000    22622718.570 8  91092316.172 8      1168.943          51.000
> 2020 05 15 04 11  0.0000000  0 13        .000000000000
G05  22141763.281 8 116355729.438 8     -2951.676          51.000    22141761.086 8  90666809.610 8     -2300.007          51.000
G13  20274726.828 7 106544397.251 7       762.164          46.000    20274725.250 7  83021603.395 7       593.891          43.000
G28  20878949.148 8 109719639.444 8        54.551          50.000    20878947.508 8  85495834.584 8        42.510          48.000
G30  21834555.516 5 114741358.066 5     -2282.773          35.000    21834558.953 5  89408844.299 5     -1778.775          35.000
R08  19915265.680 8 106645329.936 8     -2289.223          48.000    19915266.594 7  82946373.498 7     -1780.510          47.000
R09  22977409.977 5 122698027.583 5     -3892.906          32.000    22977410.258 5  95431808.102 5     -3027.816          31.000
R10  20043108.648 6 106841030.641 6     -2439.934          40.000
R11  19796806.305 8 105788121.753 8      1802.098          51.000    19796809.531 8  82279660.320 8      1401.632          48.000
C05  39799582.773 6 207246871.629 6        12.730          36.000    39799581.336 6 160256408.605 6        10.043          40.000
C23  22222459.273 8 115718254.215 8     -1246.207          51.000
E02  24028238.961 7 126269312.459 7     -1312.340          47.000    24028239.523 8  96751797.855 8     -1005.595          48.000
E08  22033794.539 8 115788356.645 8     -1419.727          51.000    22033793.234 8  88720969.105 8     -1087.896          51.000
E30  22614045.172 8 118837574.007 8      1513.699          51.000    22614045.930 8  91057395.170 8      1159.871          51.000
> 2020 05 15 04 11 30.0000000  0 12        .000000000000
G05  22158641.414 8 116444422.713 8     -2959.859          51.000    22158639.008 8  90735921.232 8     -2306.384          51.000
G13  20270405.914 7 106521690.119 7       752.930          45.000    20270404.398 7  83003909.530 7       586.698          44.000
G28  20878686.164 8 109718256.128 8        39.035          50.000    20878684.508 8  85494756.678 8        30.417          48.000
R08  19928142.125 7 106714285.754 7     -2306.531          44.000    19928143.453 7  83000005.797 7     -1793.969          47.000
R09  22999278.750 5 122814806.117 5     -3891.863          33.000    22999278.891 5  95522635.789 5     -3027.008          30.000
R10  20056876.625 6 106914420.649 6     -2451.152          41.000
R11  19786737.227 8 105734314.969 8      1786.305          51.000    19786739.469 8  82237810.605 8      1389.348          48.000
C05  39799502.414 6 207246452.976 6        16.277          36.000    39799500.938 6 160256084.901 6        12.273          40.000
C23  22229662.617 8 115755763.815 8     -1253.105          51.000
E02  24035756.148 7 126308814.607 7     -1319.773          45.000    24035756.719 8  96782065.732 8     -1011.291          48.000
E08  22041921.484 8 115831066.035 8     -1426.199          51.000    22041920.539 8  88753694.436 8     -1092.733          51.000
E30  22605431.609 8 118792307.422 8      1505.422          51.000    22605432.141 8  91022710.366 8      1153.508          51.000
> 2020 05 15 04 12  0.0000000  0 12        .000000000000
G05  22175589.719 8 116533486.453 8     -2974.324          51.000    22175587.805 8  90805321.545 8     -2317.655          50.000
G13  20266162.141 7 106499389.347 7       737.270          45.000    20266160.844 7  82986532.289 7       574.496          43.000
G28  20878535.539 8 109717463.577 8        17.312          50.000    20878533.617 8  85494139.114 8        13.490          48.000
R08  19941138.375 7 106783887.493 7     -2330.105          44.000    19941141.000 7  83054140.543 7     -1812.304          47.000
R09  23021165.547 5 122931679.510 5     -3896.793          32.000    23021164.344 4  95613537.258 4     -3030.839          26.000
R10  20070730.594 6 106988271.738 6     -2468.219          38.000
R11  19776780.883 8 105681111.268 8      1764.148          51.000    19776783.016 8  82196429.964 8      1372.118          49.000
C05  39799427.609 5 207246063.591 5        12.859          35.000    39799426.195 6 160255783.760 6        10.188          40.000
C23  22236929.867 8 115793606.160 8     -1266.145          51.000
E02  24043339.688 7 126348666.350 7     -1333.441          46.000    24043340.867 8  96812601.490 8     -1021.686          49.000
E08  22050109.414 8 115874097.614 8     -1438.945          49.000    22050109.414 8  88786666.689 8     -1102.598          51.000
E30  22596889.555 8 118747417.418 8      1490.836          51.000    22596890.133 8  90988314.120 8      1142.314          51.000
> 2020 05 15 04 12 30.0000000  0 11        .000000000000
G05  22192629.578 8 116623034.374 8     -2988.750          49.000    22192628.695 8  90875099.148 8     -2328.896          49.000
G13  20262017.969 7 106477612.519 7       721.320          45.000    20262016.836 7  82969563.328 7       562.068          44.000
G28  20878519.258 8 109717378.050 8        -4.707          51.000    20878517.047 7  85494072.479 7        -3.668          47.000
R08  19954278.359 8 106854252.274 8     -2353.836          48.000    19954280.984 7  83108868.724 7     -1830.761          46.000
R10  20084693.039 6 107062698.978 6     -2486.301          41.000
R11  19766959.797 8 105628629.622 8      1741.688          51.000    19766962.242 8  82155610.901 8      1354.646          50.000
C05  39799380.648 6 207245818.844 6         9.648          36.000    39799379.188 6 160255594.499 6         7.500          40.000
C23  22244282.625 8 115831895.349 8     -1279.562          51.000
E02  24051011.633 7 126388982.895 7     -1347.426          46.000    24051013.148 8  96843493.380 8     -1032.482          48.000
E08  22058380.773 8 115917567.778 8     -1452.023          50.000    22058382.008 8  88819975.010 8     -1112.634          51.000
E30  22588441.188 8 118703020.923 8      1475.918          51.000    22588441.953 8  90954296.018 8      1130.862          51.000
> 2020 05 15 04 13  0.0000000  0 12        .000000000000
G05  22209699.641 8 116712741.422 8     -2996.316          50.000    22209699.320 8  90945000.776 8     -2334.792          50.000
G13  20257912.562 7 106456038.633 7       712.426          46.000    20257911.430 7  82952752.496 7       555.137          44.000
G28  20878576.250 8 109717677.027 8       -19.809          51.000    20878573.516 7  85494305.440 7       -15.435          46.000
R01  19336336.750 6 103363800.187 6      1054.754          36.000    19336338.492 5  80394077.405 5       820.364          32.000
R08  19967499.555 8 106925049.974 8     -2370.605          49.000    19967501.758 7  83163933.556 7     -1843.804          43.000
R10  20098701.867 6 107137372.033 6     -2496.641          39.000
R11  19757212.078 8 105576542.759 8      1726.297          51.000    19757215.703 8  82115098.893 8      1342.675          50.000
C05  39799300.094 5 207245399.655 5        13.453          35.000    39799298.648 6 160255270.341 6        10.367          40.000
C23  22251659.656 8 115870310.898 8     -1286.016          51.000
E02  24058710.516 7 126429440.769 7     -1354.293          44.000    24058711.609 8  96874493.544 8     -1037.690          49.000
E08  22066675.047 8 115961154.377 8     -1458.227          51.000    22066677.055 8  88853372.522 8     -1117.321          51.000
E30  22580025.430 8 118658796.254 8      1467.934          51.000    22580026.383 8  90920409.573 8      1124.774          51.000
> 2020 05 15 04 13 30.0000000  0 13        .000000000000
G05  22226814.148 8 116802678.801 8     -3007.336          51.000    22226813.258 8  91015081.834 8     -2343.379          51.000
G13  20253860.070 7 106434742.255 7       699.477          47.000    20253859.008 7  82936157.904 7       545.047          44.000
G28  20878720.219 8 109718433.314 8       -38.652          50.000    20878717.289 7  85494894.768 7       -30.119          47.000
R01  19330457.938 6 103332379.224 6      1032.020          36.000    19330462.523 5  80369638.887 5       802.679          33.000
R08  19980815.586 8 106996353.631 8     -2390.965          50.000    19980816.516 6  83219391.858 6     -1859.642          41.000
R09  23086886.453 5 123282662.914 5     -3902.621          33.000    23086887.273 4  95886536.969 4     -3035.378          26.000
R10  20112769.719 6 107212362.231 6     -2510.715          37.000
R11  19747552.547 8 105524925.716 8      1706.930          51.000    19747556.672 8  82074952.300 8      1327.612          50.000
C05  39799200.000 6 207244877.568 6        13.398          36.000    39799198.617 6 160254867.372 6        10.472          40.000
C23  22259075.000 8 115908923.994 8     -1296.102          51.000
E02  24066449.945 7 126470111.739 7     -1364.941          43.000    24066450.641 8  96905657.006 8     -1045.768          49.000
E08  22075006.070 8 116004930.364 8     -1467.938          51.000    22075008.000 8  88886915.152 8     -1124.819          51.000
E30  22571656.242 8 118614816.936 8      1456.277          51.000    22571657.531 8  90886711.126 8      1115.846          51.000
> 2020 05 15 04 14  0.0000000  0 13        .000000000000
G05  22244021.914 8 116893104.367 8     -3020.086          51.000    22244019.523 8  91085543.268 8     -2353.314          51.000
G13  20249910.281 7 106413985.258 7       685.117          46.000    20249909.195 7  82919983.608 7       533.858          45.000
G28  20879000.742 8 109719907.431 8       -58.828          50.000    20878997.719 7  85496043.437 7       -45.837          47.000
R01  19324738.484 6 103301808.771 6      1007.191          39.000    19324743.531 5  80345861.864 5       783.374          33.000
R08  19994275.875 8 107068427.858 8     -2412.934          49.000    19994275.836 7  83275449.480 7     -1876.729          43.000
R09  23108821.227 4 123399795.425 4     -3905.508          29.000    23108821.336 4  95977633.967 4     -3037.620          26.000
R10  20126946.438 6 107287930.735 6     -2526.801          39.000
R11  19738031.422 8 105474044.442 8      1686.031          51.000    19738035.242 8  82035377.991 8      1311.358          51.000
C05  39799130.039 6 207244512.940 6        11.809          36.000    39799128.656 6 160254585.415 6         9.189          40.000
C23  22266577.625 8 115947991.804 8     -1307.645          51.000
E02  24074279.133 7 126511255.382 7     -1376.949          44.000    24074280.148 8  96937182.643 8     -1055.062          49.000
E08  22083422.961 8 116049156.514 8     -1479.383          51.000    22083424.195 8  88920802.708 8     -1133.538          51.000
E30  22563383.211 8 118571344.250 8      1442.930          51.000    22563385.180 8  90853400.870 8      1105.645          51.000
> 2020 05 15 04 14 30.0000000  0 13        .000000000000
G05  22261282.977 8 116983809.918 8     -3028.910          51.000    22261279.570 8  91156222.876 8     -2360.193          51.000
G13  20246024.172 7 106393563.235 7       674.250          47.000    20246023.008 7  82904070.334 7       525.390          45.000
G28  20879378.547 8 109721893.436 8       -75.469          49.000    20879375.602 7  85497590.978 7       -58.810          47.000
R01  19319139.961 6 103271882.024 6       985.996          39.000    19319145.078 5  80322585.499 5       766.886          34.000
R08  20007840.188 8 107141060.962 8     -2431.270          48.000    20007840.219 7  83331941.872 7     -1890.987          46.000
R09  23130758.594 5 123516950.969 5     -3905.332          31.000    23130757.883 4  96068740.107 4     -3037.487          26.000
R10  20141191.648 5 107363865.978 5     -2538.059          34.000
R11  19728608.875 8 105423690.197 8      1668.859          51.000    19728612.586 8  81996213.597 8      1298.002          50.000
C05  39799050.969 6 207244102.322 6        13.961          36.000    39799049.648 6 160254267.112 6        10.753          40.000
C23  22274128.094 8 115987309.396 8     -1315.480          51.000
E02  24082158.945 7 126552664.895 7     -1385.316          43.000    24082160.203 8  96968911.973 8     -1061.467          49.000
E08  22091886.180 8 116093627.234 8     -1487.086          51.000    22091886.773 8  88954877.663 8     -1139.438          51.000
E30  22555167.516 8 118528173.097 8      1433.465          51.000    22555170.156 8  90820321.673 8      1098.324          51.000
> 2020 05 15 04 15  0.0000000  0 13        .000000000000
G05  22278635.703 8 117074997.759 8     -3038.074          51.000    22278632.219 8  91227278.321 8     -2367.331          51.000
G13  20242240.938 7 106373682.056 7       663.219          47.000    20242239.719 7  82888578.487 7       516.794          45.000
G28  20879892.492 8 109724595.777 8       -92.484          48.000    20879890.070 7  85499696.723 7       -72.066          47.000
R01  19313701.266 6 103242809.629 6       964.527          40.000    19313706.664 5  80299973.623 5       750.188          35.000
R08  20021547.125 7 107214460.414 7     -2449.664          47.000    20021547.438 8  83389030.373 8     -1905.294          48.000
R10  20155543.812 6 107440373.014 6     -2550.398          36.000
R11  19719324.031 8 105374071.812 8      1651.340          51.000    19719326.992 8  81957621.522 8      1284.375          49.000
R12  23249746.273 6 124195965.574 6      3830.246          36.000    23249749.195 5  96596874.226 5      2979.077          34.000
C05  39799001.906 6 207243845.744 6        15.777          36.000    39799000.539 6 160254069.459 6        11.907          40.000
C23  22281765.281 8 116027078.462 8     -1323.738          51.000
E02  24090128.102 7 126594543.769 7     -1394.262          43.000    24090129.250 8  97001000.952 8     -1068.336          49.000
E08  22100434.453 8 116138547.244 8     -1495.297          51.000    22100434.883 8  88989296.866 8     -1145.738          51.000
E30  22547048.492 8 118485508.744 8      1423.203          51.000    22547051.336 8  90787630.803 8      1090.521          51.000
> 2020 05 15 04 15 30.0000000  0 13        .000000000000
G05  22296012.812 8 117166314.662 8     -3050.992          51.000    22296009.828 8  91298434.345 8     -2377.397          51.000
G13  20238494.234 8 106353992.515 8       648.125          48.000    20238492.664 7  82873235.973 7       505.032          45.000
G28  20880476.164 8 109727663.889 8      -113.234          49.000    20880473.781 7  85502087.454 7       -88.238          47.000
R01  19308356.305 6 103214237.621 6       939.051          40.000    19308361.305 5  80277750.915 5       730.373          35.000
R08  20035330.102 8 107288267.604 8     -2472.031          49.000    20035330.797 8  83446435.980 8     -1922.691          49.000
R10  20169936.219 5 107517092.888 5     -2566.324          34.000
R11  19710110.266 8 105324833.575 8      1629.852          51.000    19710112.078 8  81919325.118 8      1267.662          49.000
R12  23228257.211 6 124081185.415 6      3820.387          37.000    23228262.180 6  96507600.694 6      2971.409          37.000
C05  39798916.172 6 207243400.140 6        13.160          36.000    39798914.789 6 160253724.121 6        10.065          40.000
C23  22289422.312 8 116066950.704 8     -1335.625          51.000
E02  24098119.727 7 126636540.444 7     -1406.672          43.000    24098120.820 8  97033180.202 8     -1077.917          50.000
E08  22109001.141 8 116183566.222 8     -1507.172          51.000    22109001.695 8  89023791.903 8     -1154.840          51.000
E30  22538959.516 8 118443001.370 8      1409.410          51.000    22538962.383 8  90755060.212 8      1079.941          51.000
> 2020 05 15 04 16  0.0000000  0 13        .000000000000
G05  22313461.188 8 117258007.269 8     -3060.902          50.000    22313458.922 8  91369883.136 8     -2385.119          50.000
G13  20234831.648 8 106334745.396 8       635.852          48.000    20234829.938 7  82858238.227 7       495.469          46.000
G28  20881177.008 8 109731346.668 8      -131.312          49.000    20881174.398 7  85504957.120 7      -102.321          47.000
R01  19303152.781 6 103186421.835 6       916.281          40.000    19303157.094 5  80256116.408 5       712.660          35.000
R08  20049236.938 8 107362735.391 8     -2491.480          51.000    20049237.312 8  83504355.382 8     -1937.815          48.000
R10  20184415.414 6 107594275.176 6     -2578.949          37.000
R11  19701014.750 8 105276229.634 8      1611.359          51.000    19701015.766 8  81881522.083 8      1253.283          49.000
R12  23206819.531 5 123966686.615 5      3813.730          32.000    23206828.500 6  96418546.019 6      2966.232          38.000
C05  39798841.211 6 207243009.699 6        13.703          36.000    39798839.836 6 160253422.166 6        10.587          40.000
C23  22297146.414 8 116107171.851 8     -1344.762          51.000
E02  24106180.953 7 126678902.935 7     -1416.441          43.000    24106182.266 8  97065639.745 8     -1085.391          50.000
E08  22117633.742 8 116228933.343 8     -1516.301          51.000    22117634.461 8  89058553.710 8     -1161.901          51.000
E30  22530948.062 8 118400900.659 8      1398.230          51.000    22530950.844 8  90722801.225 8      1071.353          51.000
> 2020 05 15 04 16 30.0000000  0 13        .000000000000
G05  22330968.820 8 117350011.560 8     -3071.504          49.000    22330967.281 8  91441574.781 8     -2393.380          49.000
G13  20231241.609 8 106315880.122 8       622.918          48.000    20231240.031 7  82843537.997 7       485.388          46.000
G28  20881982.945 8 109735581.844 8      -149.980          49.000    20881980.477 8  85508257.267 8      -116.865          48.000
R01  19298079.438 6 103159302.091 6       892.840          41.000    19298083.180 5  80235023.265 5       694.428          35.000
R08  20063254.703 8 107437798.585 8     -2511.469          51.000    20063254.617 7  83562737.846 7     -1953.365          47.000
