     3.02           OBSERVATION DATA    M (MIXED)           RINEX VERSION / TYPE
SAVERINEX           SC600               20200509 095930 LCL PGM / RUN BY / DATE
       G = GPS       R = GLONASS       C = COMPASS          COMMENT
       S = SBAS      J = QZSS          E = GALILEO          COMMENT
BEAN                                                        MARKER NAME
1                                                           MARKER NUMBER
GEODETIC                                                    MARKER TYPE
Unige DICCA         GTER                                    OBSERVER / AGENCY
SC60291900056       SC600               2.12(191226)        REC # / TYPE / VERS
                    HEMA45          NONE                    ANT # / TYPE
  4509407.8091   693652.4678  4442337.6214                  APPROX POSITION XYZ
        0.0000        0.0000        0.0000                  ANTENNA: DELTA H/E/N
G    8 C1C L1C D1C S1C C2Y L2Y D2Y S2Y                      SYS / # / OBS TYPES
R    8 C1C L1C D1C S1C C2P L2P D2P S2P                      SYS / # / OBS TYPES
C    4 C1I L1I D1I S1I                                      SYS / # / OBS TYPES
E    8 C1C L1C D1C S1C C7Q L7Q D7Q S7Q                      SYS / # / OBS TYPES
DBHZ                                                        COMMENT
     30.000                                                 INTERVAL
  2020    05    09    07    00    0.0000000     GPS         TIME OF FIRST OBS
  2020    05    09    07    59   30.0000000     GPS         TIME OF LAST OBS
     0                                                      RCV CLOCK OFFS APPL
G L1C  0.00000                                              SYS / PHASE SHIFT
G L2Y  0.00000                                              SYS / PHASE SHIFT
R L1C  0.00000                                              SYS / PHASE SHIFT
R L2P  0.25000                                              SYS / PHASE SHIFT
C L1I  0.00000                                              SYS / PHASE SHIFT
E L1C  0.50000                                              SYS / PHASE SHIFT
E L7Q -0.25000                                              SYS / PHASE SHIFT
 13 R01  1 R02 -4 R03  5 R04  6 R10 -5 R12 -1 R13 -2 R14 -7 GLONASS SLOT / FRQ #
    R15  0 R17  4 R21  4 R22 -3 R23  3                      GLONASS SLOT / FRQ #
 C1C   71.950 C2C   71.950 C2P   71.950                     GLONASS COD/PHS/BIS
    18                                                      LEAP SECONDS
*** Above antenna height is from mark to ANTENNA BOTTOM.    COMMENT
    17     4        0.0000        ANT MEASURE TYPE/HEIGT    COMMENT
    0.0000    0.0000    0.0458    0.0405    0.0000          COMMENT
                    BASE STATION                            COMMENT
                                                            END OF HEADER
> 2020 05 09 07 00  0.0000000  0 16        .000000000000
G12  22144680.539 8 116371078.966 8      3054.922          50.000    22144677.695 8  90678749.302 8      2380.462          50.000
G13  22386834.922 8 117643585.640 8     -3202.504          51.000    22386834.820 7  91670303.352 7     -2495.461          45.000
G15  21182098.883 8 111312674.151 8     -2266.555          49.000    21182098.094 8  86737151.696 8     -1766.147          49.000
G19  21841798.445 6 114779406.978 6      1440.379          37.000    21841799.000 5  89438515.377 5      1122.373          35.000
G28  24144254.508 5 126878901.530 5     -3108.277          35.000    24144251.477 4  98866673.134 4     -2422.034          26.000
R03  22036632.953 6 117963805.186 6     -4229.805          37.000    22036628.773 5  91749614.243 5     -3289.845          30.000
R04  20000472.930 6 107101620.455 6     -1113.133          39.000    20000478.844 6  83301276.310 6      -865.773          38.000
R15  22622597.383 5 120888277.811 5      2911.301          33.000    22622597.883 4  94024249.421 4      2264.345          29.000
R22  23010290.047 5 122830476.434 5     -1619.848          35.000    23010290.289 5  95534811.840 5     -1259.882          30.000
C23  22054662.773 8 114844442.296 8      -641.324          51.000
C25  24910638.461 5 129716219.171 5     -2465.785          32.000
E02  23280108.656 8 122337781.888 8       186.641          51.000    23280109.945 8  93739404.378 8       143.010          51.000
E03  25714348.352 8 135129810.630 8     -2813.406          49.000    25714353.727 8 103541024.236 8     -2155.694          51.000
E08  22034490.016 8 115792027.198 8      -509.535          51.000    22034492.031 8  88723768.327 8      -390.444          51.000
E25                                                                  25206998.203 5 101498137.578 5     -1527.990          33.000
E30  24793234.812 6 130289345.907 6      2162.301          39.000    24793240.688 7  99832103.782 7      1656.696          44.000
> 2020 05 09 07 00 30.0000000  0 15        .000000000000
G12  22127282.906 8 116279654.140 8      3042.230          50.000    22127280.617 8  90607509.200 8      2370.569          51.000
G13  22405157.570 8 117739873.009 8     -3214.594          50.000    22405157.359 7  91745332.426 7     -2504.878          45.000
G15  21195093.961 8 111380964.069 8     -2283.867          50.000    21195093.703 8  86790364.633 8     -1779.637          50.000
G19  21833645.156 7 114736558.800 7      1418.309          43.000    21833645.398 5  89405127.216 5      1105.172          35.000
G28  24162017.719 5 126972241.365 5     -3112.277          34.000
R03  22060371.523 6 118090904.338 6     -4241.703          38.000    22060378.414 4  91848496.265 4     -3299.093          28.000
R04  20006798.180 6 107135493.223 6     -1142.469          40.000    20006804.164 6  83327621.738 6      -888.590          39.000
R15  22606277.969 5 120801083.085 5      2903.371          32.000
R24  23524464.930 7 125795883.047 7      3969.953          42.000    23524467.031 5  97841250.633 5      3087.741          34.000
C23  22058391.883 8 114863861.759 8      -651.246          51.000
E02  23279078.719 8 122332369.404 8       176.406          51.000    23279080.039 8  93735257.148 8       135.201          51.000
E03  25730440.242 8 135214372.402 8     -2821.941          50.000    25730446.750 8 103605818.314 8     -2162.300          51.000
E08  22037452.047 8 115807590.871 8      -525.805          51.000    22037453.695 8  88735693.731 8      -402.892          51.000
E25                                                                  25218406.977 5 101544077.855 5     -1532.566          33.000
E30  24780919.688 6 130224623.166 6      2154.473          37.000    24780924.805 7  99782510.985 7      1651.258          43.000
> 2020 05 09 07 01  0.0000000  0 17        .000000000000
G12  22109935.695 8 116188494.226 8      3035.859          51.000    22109933.398 8  90536475.485 8      2365.605          51.000
G13  22423526.352 8 117836401.919 8     -3220.094          51.000    22423525.922 7  91820549.702 7     -2509.164          44.000
G15  21208165.211 8 111449653.551 8     -2294.590          49.000    21208165.422 8  86843888.909 8     -1787.995          50.000
G19  21825595.734 7 114694254.627 7      1402.723          43.000    21825593.820 5  89372162.806 5      1093.031          32.000
G24  20549905.594 5 107990496.042 5      1288.691          35.000    20549898.750 5  84148408.209 5      1004.178          33.000
G28  24179779.773 5 127065576.871 5     -3109.598          35.000
R03  22084155.312 6 118218232.047 6     -4246.316          39.000    22084167.859 5  91947529.068 5     -3302.687          32.000
R04  20013267.008 7 107170127.501 7     -1165.602          43.000    20013272.062 6  83354559.480 6      -906.582          39.000
R15  22589983.812 5 120714017.385 5      2901.996          33.000    22589999.008 5  93888737.943 5      2257.111          30.000
R24  23502194.664 7 125676792.437 7      3970.203          44.000    23502194.117 5  97748624.679 5      3087.942          32.000
C23  22062155.383 8 114883460.105 8      -654.656          51.000
C25  24939062.383 4 129864244.693 4     -2469.418          29.000
E02  23278084.555 8 122327145.496 8       172.703          51.000    23278086.117 8  93731254.417 8       132.325          51.000
E03  25746558.711 8 135299072.284 8     -2823.988          51.000    25746565.359 8 103670718.212 8     -2163.781          51.000
E08  22040484.484 8 115823525.390 8      -535.668          51.000    22040485.961 8  88747903.286 8      -410.420          51.000
E25                                                                  25229824.633 5 101590054.821 5     -1531.519          33.000
E30  24768623.641 6 130160004.776 6      2154.227          37.000    24768628.844 7  99732998.246 7      1650.366          43.000
> 2020 05 09 07 01 30.0000000  0 17        .000000000000
G12  22092645.383 8 116097633.088 8      3028.195          51.000    22092642.766 8  90465674.610 8      2359.633          51.000
G13  22441947.180 8 117933203.018 8     -3226.723          50.000    22441946.602 7  91895979.118 7     -2514.329          44.000
G15  21221318.367 8 111518773.353 8     -2306.738          51.000    21221318.906 8  86897748.487 8     -1797.458          51.000
G17  22445538.836 5 117952083.722 5      -597.727          33.000    22445543.961 4  91910736.926 4      -465.755          29.000
G19  21817656.148 7 114652528.922 7      1385.438          42.000    21817655.664 5  89339649.412 5      1079.565          35.000
G28  24197540.391 5 127158907.356 5     -3107.473          31.000
R03  22107987.648 6 118345817.088 6     -4252.531          38.000    22107999.898 5  92046761.938 5     -3307.524          34.000
R04  20019883.664 6 107205555.112 6     -1189.430          41.000    20019887.070 6  83382114.273 6      -925.112          39.000
R15  22573719.602 4 120627114.214 4      2899.445          29.000    22573740.406 5  93821146.437 5      2255.115          32.000
R24  23479943.281 7 125557806.816 7      3968.816          42.000    23479941.391 5  97656080.386 5      3086.857          30.000
C23  22065959.625 8 114903269.195 8      -659.367          51.000
C25  24953298.008 5 129938384.149 5     -2467.680          30.000
E02  23277132.508 8 122322142.091 8       167.625          51.000    23277134.305 8  93727420.649 8       128.407          51.000
E03  25762709.477 8 135383941.286 8     -2827.191          51.000    25762715.797 8 103735747.695 8     -2166.337          51.000
E08  22043593.703 8 115839863.124 8      -546.762          51.000    22043594.953 8  88760421.811 8      -418.989          51.000
E25  25241254.852 6 132643679.984 6     -1999.355          37.000    25241257.922 5 101636085.751 5     -1532.222          34.000
E30  24756352.375 6 130095523.533 6      2151.621          37.000    24756359.133 7  99683590.602 7      1648.720          43.000
> 2020 05 09 07 02  0.0000000  0 14        .000000000000
G12  22075431.328 8 116007171.904 8      3012.293          51.000    22075427.930 8  90395185.396 8      2347.241          51.000
G13  22460438.047 8 118030374.030 8     -3241.586          49.000    22460437.703 7  91971696.770 7     -2525.911          43.000
G15  21234572.156 8 111588421.248 8     -2326.816          51.000    21234572.625 8  86952019.570 8     -1813.104          51.000
G19  21809845.836 6 114611483.485 6      1360.660          40.000    21809845.297 6  89307666.018 6      1060.252          37.000
R03  22131887.953 6 118473757.031 6     -4266.891          39.000    22131896.539 6  92146270.763 6     -3318.696          36.000
R04  20026667.156 7 107241875.954 7     -1221.938          42.000    20026669.891 6  83410363.800 6      -950.393          41.000
R15  22557504.531 5 120540463.128 5      2887.430          31.000    22557521.992 5  93753741.340 5      2245.782          33.000
R24  23457730.742 6 125439031.980 6      3959.312          40.000    23457731.281 5  97563700.008 5      3079.465          32.000
C23  22069823.438 8 114923387.489 8      -672.195          51.000
E02  23276241.297 8 122317458.346 8       154.352          51.000    23276243.180 8  93723831.796 8       118.260          51.000
E03  25778911.109 8 135469077.618 8     -2838.789          51.000    25778916.914 8 103800982.002 8     -2175.188          51.000
E08  22046798.562 8 115856703.703 8      -566.203          51.000    22046799.789 8  88773325.614 8      -433.844          51.000
E25  25252725.805 6 132703941.808 6     -2008.469          37.000    25252725.539 5 101682260.362 5     -1538.840          34.000
E30  24744126.430 6 130031279.349 6      2140.871          39.000    24744133.414 7  99634364.558 7      1640.495          43.000
> 2020 05 09 07 02 30.0000000  0 14        .000000000000
G12  22058264.609 8 115916958.948 8      3002.000          51.000    22058261.461 8  90324889.603 8      2339.221          51.000
G13  22478969.023 7 118127760.037 7     -3250.707          46.000    22478969.242 6  92047581.998 6     -2533.018          41.000
G15  21247896.992 8 111658442.235 8     -2341.156          51.000    21247897.070 8  87006581.344 8     -1824.281          51.000
G19  21802135.844 6 114570967.036 6      1340.727          39.000    21802133.516 5  89276094.723 5      1044.719          33.000
R03  22155825.445 6 118601891.510 6     -4275.160          39.000    22155830.844 5  92245930.876 5     -3325.125          34.000
R04  20033587.727 7 107278932.258 7     -1248.375          43.000    20033590.352 7  83439185.336 7      -970.958          42.000
R15  22541313.617 5 120453932.854 5      2881.270          34.000    22541327.273 5  93686440.051 5      2240.990          32.000
R24  23435527.883 6 125320316.731 6      3955.371          38.000    23435532.047 5  97471365.918 5      3076.400          34.000
C23  22073717.422 8 114943662.961 8      -679.398          51.000
E02  23275381.508 8 122312940.519 8       146.988          51.000    23275383.344 8  93720370.074 8       112.660          51.000
E03  25795134.023 8 135554326.615 8     -2844.367          51.000    25795139.234 8 103866302.638 8     -2179.420          51.000
E08  22050069.984 8 115873893.830 8      -579.660          51.000    22050070.984 8  88786497.254 8      -444.149          51.000
E25  25264201.883 6 132764228.011 6     -2010.645          37.000    25264197.891 5 101728453.641 5     -1540.363          34.000
E30  24731917.438 6 129967119.197 6      2136.180          38.000    24731923.586 7  99585202.856 7      1637.082          44.000
> 2020 05 09 07 03  0.0000000  0 17        .000000000000
G12  22041153.648 8 115827038.843 8      2995.645          51.000    22041151.320 8  90254822.008 8      2334.268          51.000
G13  22497548.609 7 118225401.960 7     -3255.703          46.000    22497549.156 6  92123666.616 6     -2536.912          41.000
G15  21261300.742 8 111728877.479 8     -2351.469          51.000    21261300.195 8  87061465.890 8     -1832.313          51.000
G17  22456329.875 5 118008818.952 5      -654.215          35.000
G19  21794534.398 6 114531024.576 6      1325.438          36.000    21794532.922 5  89244970.620 5      1032.799          32.000
G20  23712824.461 5 124611730.066 5     -1693.359          32.000
R03  22179806.062 6 118730260.217 6     -4279.539          40.000    22179810.555 5  92345773.214 5     -3328.530          32.000
R04  20040653.969 7 107316766.090 7     -1270.797          45.000    20040655.719 7  83468611.674 7      -988.398          42.000
R15  22525152.234 5 120367555.280 5      2879.836          35.000
R22  23067414.695 5 123135346.770 5     -1761.816          34.000    23067422.906 4  95771998.999 4     -1370.296          28.000
R24  23413345.766 6 125201709.121 6      3954.703          38.000    23413352.477 5  97379115.524 5      3075.880          35.000
C23  22077649.539 8 114964137.813 8      -682.574          51.000
E02  23274561.422 8 122308630.997 8       143.539          51.000    23274563.258 8  93717067.971 8       109.990          51.000
E03  25811386.008 8 135639729.753 8     -2845.984          51.000    25811390.703 8 103931741.384 8     -2180.656          51.000
E08  22053416.000 8 115891476.337 8      -589.277          51.000    22053416.484 8  88799969.561 8      -451.518          51.000
E25  25275689.344 6 132824580.898 6     -2009.465          36.000    25275683.234 5 101774698.014 5     -1539.938          34.000
E30  24719733.406 6 129903086.115 6      2135.688          41.000    24719737.227 7  99536138.534 7      1636.427          43.000
> 2020 05 09 07 03 30.0000000  0 17        .000000000000
G12  22024111.344 8 115737480.433 8      2978.398          51.000    22024109.906 8  90185036.268 8      2320.830          51.000
G13  22516190.477 7 118323365.582 7     -3271.703          47.000    22516189.992 6  92200001.833 6     -2549.382          40.000
G15  21274795.797 8 111799792.558 8     -2372.766          51.000    21274794.711 8  87116724.329 8     -1848.911          51.000
G17  22460147.203 5 118028871.750 5      -679.328          35.000    22460178.703 6  91970586.221 6      -529.344          36.000
G19  21787054.398 5 114491725.276 5      1298.215          34.000    21787055.227 5  89214347.755 5      1011.596          35.000
G28  24268693.836 4 127532846.363 4     -3121.230          29.000
R03  22203841.977 6 118858927.725 6     -4294.637          41.000    22203847.109 4  92445848.007 4     -3340.270          29.000
R04  20047877.094 7 107355444.812 7     -1304.188          44.000    20047878.758 6  83498695.102 6     -1014.368          41.000
R22  23077418.594 5 123188745.408 5     -1792.953          35.000    23077421.938 4  95813506.656 4     -1394.519          26.000
R24  23391199.023 5 125083282.310 5      3943.879          35.000    23391206.320 5  97287005.807 5      3067.461          35.000
C23  22081632.602 8 114984878.703 8      -696.691          51.000
C25  25010405.008 5 130235743.285 5     -2483.777          31.000
E02  23273793.875 8 122304596.770 8       129.004          51.000    23273795.867 8  93713976.800 8        98.814          51.000
E03  25827679.531 8 135725353.092 8     -2858.676          51.000    25827684.102 8 103997348.862 8     -2190.399          51.000
E08  22056849.320 8 115909518.655 8      -610.016          51.000    22056849.406 8  88813794.190 8      -467.427          51.000
E25  25287201.000 6 132885066.982 6     -2019.348          37.000    25287194.141 5 101821044.515 5     -1547.361          33.000
E30  24707587.117 6 129839247.757 6      2123.637          39.000    24707587.461 7  99487223.437 7      1627.343          43.000
> 2020 05 09 07 04  0.0000000  0 15        .000000000000
G12  22007125.312 8 115648219.526 8      2965.926          50.000    22007124.234 8  90115482.345 8      2311.114          50.000
G13  22534880.891 7 118421583.468 7     -3282.645          47.000    22534880.594 7  92276535.167 7     -2557.905          44.000
G15  21288369.188 8 111871120.022 8     -2388.895          51.000    21288368.227 8  87172304.113 8     -1861.476          51.000
G19  21779686.141 6 114453005.551 6      1276.617          41.000    21779687.719 6  89184176.581 6       994.764          37.000
R03  22227920.102 6 118987823.235 6     -4304.898          39.000    22227926.828 5  92546100.127 5     -3348.254          31.000
R04  20055245.070 7 107394899.931 7     -1332.453          44.000    20055245.844 6  83529382.435 6     -1036.355          40.000
R22  23087548.258 5 123242817.341 5     -1818.816          32.000    23087549.570 5  95855600.809 5     -1414.629          30.000
R24  23369075.320 5 124964974.486 5      3937.180          35.000    23369082.047 5  97194988.709 5      3062.257          32.000
C23  22085654.070 8 115005820.423 8      -705.734          51.000
C25  25024712.594 5 130310226.121 5     -2486.484          30.000
E02  23273065.992 8 122300771.751 8       119.586          51.000    23273068.148 8  93711045.939 8        91.622          51.000
E03  25844001.852 8 135811129.552 8     -2866.176          50.000    25844006.570 8 104063073.673 8     -2196.191          51.000
E08  22060357.461 8 115927955.110 8      -625.582          51.000    22060357.625 8  88827920.812 8      -479.357          51.000
E25                                                                  25298717.391 5 101867442.384 5     -1550.896          32.000
E30  24695465.289 6 129775538.779 6      2117.152          38.000    24695462.867 7  99438407.515 7      1622.138          42.000
> 2020 05 09 07 04 30.0000000  0 17        .000000000000
G12  21990208.094 8 115559321.144 8      2954.750          49.000    21990207.633 8  90046210.905 8      2302.403          49.000
G13  22553631.648 8 118520117.469 8     -3292.090          49.000    22553632.227 7  92353314.844 7     -2565.265          44.000
G15  21302032.625 8 111942921.524 8     -2403.707          51.000    21302032.156 8  87228253.316 8     -1873.018          51.000
G17  22468094.367 6 118070617.053 6      -718.027          40.000    22468091.055 6  92003077.766 6      -559.505          39.000
G19  21772441.000 6 114414930.830 6      1255.750          39.000    21772441.781 5  89154507.915 5       978.500          35.000
R03  22252051.344 6 119117007.168 6     -4313.477          37.000    22252058.492 5  92646576.579 5     -3354.920          30.000
R04  20062769.445 7 107435194.234 7     -1359.461          44.000    20062770.062 6  83560722.422 6     -1057.359          41.000
R15  22476880.930 5 120109658.677 5      2853.188          32.000    22476891.648 4  93418637.508 4      2219.137          26.000
R22  23097818.750 5 123297694.936 5     -1842.797          30.000    23097818.289 5  95898217.613 5     -1433.283          31.000
R24  23346986.578 6 124846854.731 6      3931.828          36.000    23346992.773 5  97103117.888 5      3058.092          30.000
C23  22089726.188 8 115027025.626 8      -713.582          51.000
C25  25039042.125 5 130384814.620 5     -2489.977          34.000
E02  23272389.938 8 122297218.946 8       111.488          51.000    23272391.773 8  93708323.659 8        85.429          51.000
E03  25860364.719 8 135897121.264 8     -2872.367          48.000    25860369.938 8 104128963.409 8     -2200.866          51.000
E08  22063952.523 8 115946849.095 8      -639.848          51.000    22063953.062 8  88842398.014 8      -490.306          51.000
E25  25310268.219 5 133006356.021 5     -2027.273          32.000    25310264.531 5 101913947.690 5     -1553.569          31.000
E30  24683378.992 6 129712022.917 6      2111.621          39.000    24683375.219 7  99389739.596 7      1617.846          42.000
> 2020 05 09 07 05  0.0000000  0 15        .000000000000
G12  21973345.711 8 115470708.701 8      2949.441          50.000    21973345.555 8  89977162.253 8      2298.266          50.000
G13  22572427.578 8 118618887.523 8     -3295.652          51.000    22572428.406 7  92430278.477 7     -2568.041          46.000
G15  21315770.789 8 112015117.198 8     -2412.453          50.000    21315770.836 8  87284509.681 8     -1879.834          50.000
G17  22472223.242 5 118092306.886 5      -731.430          32.000    22472221.398 5  92019978.892 5      -569.939          31.000
G19  21765304.125 6 114377424.831 6      1241.281          40.000    21765303.883 5  89125282.478 5       967.232          32.000
R04  20070434.977 7 107476246.458 7     -1380.309          43.000    20070436.000 6  83592651.905 6     -1073.573          41.000
R15  22460865.445 5 120024018.166 5      2852.707          35.000
R24  23324919.625 6 124728848.178 6      3932.363          40.000    23324925.586 5  97011335.047 5      3058.505          30.000
C23  22093834.078 8 115048416.750 8      -715.621          51.000
C25  25053374.906 6 130459430.968 6     -2487.129          38.000
E02  23271750.938 8 122293859.775 8       109.355          51.000    23271752.117 8  93705749.743 8        83.786          51.000
E03  25876753.000 7 135983248.663 7     -2872.531          46.000    25876758.797 8 104194957.130 8     -2201.072          49.000
E08  22067619.766 8 115966122.440 8      -648.215          51.000    22067620.648 8  88857165.886 8      -496.636          51.000
E25                                                                  25321820.633 5 101960478.046 5     -1551.516          31.000
E30  24671313.742 6 129648622.475 6      2111.934          39.000    24671310.797 7  99341160.009 7      1618.220          42.000
> 2020 05 09 07 05 30.0000000  0 16        .000000000000
G12  21956561.836 8 115382508.704 8      2937.594          50.000    21956562.039 8  89908435.016 8      2289.034          50.000
G13  22591292.133 8 118718016.906 8     -3305.914          51.000    22591292.891 7  92507522.126 7     -2576.037          47.000
G15  21329606.922 7 112087830.244 7     -2428.055          47.000    21329607.719 7  87341169.191 7     -1891.991          47.000
G17  22476471.258 6 118114635.209 6      -750.594          40.000    22476472.977 6  92037377.673 6      -584.878          37.000
G19  21758299.344 6 114340614.575 6      1219.828          38.000    21758300.516 5  89096599.307 5       950.518          33.000
G28  24339967.844 5 127907393.671 5     -3121.754          31.000
R04  20078265.430 7 107518182.475 7     -1407.965          43.000    20078266.531 6  83625268.799 6     -1095.087          40.000
R15  22444894.562 6 119938649.666 6      2845.602          36.000    22444893.336 4  93285666.050 4      2213.246          28.000
R24  23302898.047 6 124611086.752 6      3925.547          40.000    23302905.211 5  96919742.780 5      3053.200          32.000
C23  22098001.359 8 115070117.396 8      -724.148          51.000
C25  25067734.234 6 130534198.828 6     -2490.477          37.000
E02  23271172.438 8 122290818.752 8       100.582          51.000    23271173.367 8  93703419.616 8        77.024          51.000
E03  25893190.000 7 136069635.301 7     -2879.492          44.000    25893196.789 7 104261149.482 7     -2206.358          47.000
E08  22071382.969 8 115985900.038 8      -663.195          51.000    22071384.133 8  88872320.142 8      -508.166          51.000
E25  25333410.758 5 133127972.152 5     -2028.902          31.000    25333410.781 4 102007146.724 4     -1554.883          28.000
E30  24659294.352 7 129585462.506 7      2105.758          44.000    24659292.742 7  99292764.669 7      1613.572          42.000
> 2020 05 09 07 06  0.0000000  0 16        .000000000000
G12  21939813.906 8 115294498.355 8      2924.465          49.000    21939814.133 8  89839855.540 8      2278.804          49.000
G13  22610182.078 8 118817279.638 8     -3316.934          51.000    22610182.562 8  92584869.693 8     -2584.624          48.000
G15  21343498.359 7 112160834.490 7     -2444.199          47.000    21343499.688 7  87398055.628 7     -1904.568          47.000
G17  22480799.336 5 118137377.434 5      -770.984          32.000    22480797.289 5  92055098.810 5      -600.761          33.000
G19  21751384.688 6 114304277.434 6      1197.551          38.000    21751384.773 5  89068284.744 5       933.156          33.000
G28  24357792.445 5 128001062.551 5     -3123.871          31.000
R03  22324706.461 5 119505913.039 5     -4335.012          35.000
R04  20086218.930 7 107560771.695 7     -1436.625          43.000    20086219.836 6  83658393.717 6     -1117.375          41.000
R15  22428908.148 5 119853352.847 5      2837.082          31.000    22428928.648 4  93219299.857 4      2206.616          28.000
R24  23280880.156 6 124493346.825 6      3918.145          40.000    23280887.797 5  96828167.224 5      3047.446          34.000
C23  22102185.367 8 115091905.129 8      -733.539          51.000
C25  25082078.562 5 130608895.647 5     -2494.465          32.000
E02  23270611.539 8 122287871.098 8        90.750          51.000    23270612.531 8  93701161.035 8        69.575          51.000
E03  25909634.016 7 136156055.503 7     -2887.031          45.000    25909640.492 7 104327367.538 7     -2212.180          44.000
E08  22075199.562 8 116005957.513 8      -679.172          51.000    22075200.977 8  88887688.836 8      -520.389          51.000
E30  24647279.328 7 129522318.934 7      2098.633          45.000    24647278.430 7  99244381.941 7      1608.076          42.000
> 2020 05 09 07 06 30.0000000  0 14        .000000000000
G12  21923146.438 8 115206910.085 8      2908.156          50.000    21923146.203 8  89771604.960 8      2266.096          50.000
G13  22629140.625 8 118916904.798 8     -3331.371          51.000    22629140.953 7  92662499.684 7     -2595.874          47.000
G15  21357489.281 8 112234358.964 8     -2463.938          48.000    21357490.906 8  87455347.464 8     -1919.951          48.000
G17  22485249.219 6 118160763.810 6      -795.375          36.000    22485246.516 6  92073322.034 6      -619.773          36.000
G19  21744605.273 6 114268646.603 6      1171.316          39.000    21744604.203 5  89040520.346 5       912.714          35.000
R03  22349014.375 6 119636052.382 6     -4348.395          36.000    22349025.977 4  93050237.653 4     -3382.091          29.000
R04  20094336.930 6 107604247.598 6     -1468.738          41.000    20094338.852 6  83692208.289 6     -1142.352          41.000
R24  23258911.289 6 124375867.858 6      3907.141          39.000    23258918.133 5  96736794.727 5      3038.890          35.000
C23  22106430.047 8 115114008.656 8      -746.492          51.000
E02  23270112.344 8 122285247.360 8        77.641          51.000    23270113.055 8  93699150.631 8        59.509          51.000
E03  25926129.578 8 136242738.894 8     -2898.328          48.000    25926133.945 7 104393787.206 7     -2220.620          43.000
E08  22079113.586 8 116026525.719 8      -698.551          51.000    22079115.109 8  88903448.881 8      -535.235          51.000
E25  25356610.797 5 133249891.741 5     -2041.965          34.000
E30  24635311.680 7 129459422.974 7      2088.027          44.000    24635310.531 6  99196188.961 6      1599.929          41.000
> 2020 05 09 07 07  0.0000000  0 16        .000000000000
G12  21906545.320 8 115119669.658 8      2907.844          50.000    21906544.227 8  89703625.432 8      2265.852          50.000
G13  22648152.773 8 119016814.497 8     -3329.410          48.000    22648153.328 7  92740351.389 7     -2594.349          47.000
G15  21371564.930 8 112308326.205 8     -2467.191          49.000    21371566.398 8  87512984.286 8     -1922.487          49.000
G17  22489807.570 6 118184717.663 6      -802.621          38.000    22489806.617 6  92091987.357 6      -625.422          37.000
G19  21737945.359 6 114233647.410 6      1161.926          37.000    21737944.906 5  89013248.265 5       905.394          35.000
R03  22373370.352 6 119766437.048 6     -4344.332          38.000    22373387.578 4  93151647.943 4     -3378.925          29.000
R04  20102605.312 7 107648531.140 7     -1483.715          42.000    20102608.039 6  83726651.040 6     -1154.000          40.000
R15  22397121.523 6 119683430.375 6      2830.734          36.000
R24  23236977.852 6 124258577.577 6      3912.156          40.000    23236983.250 6  96645569.054 6      3042.791          36.000
C23  22110720.758 8 115136352.490 8      -743.211          51.000
C25  25110837.789 5 130758713.733 5     -2492.844          30.000
E02  23269660.148 8 122282871.085 8        80.844          51.000    23269660.531 8  93697329.839 8        61.918          51.000
E03  25942661.375 8 136329608.074 8     -2893.062          50.000    25942663.242 7 104460349.236 7     -2216.882          43.000
E08  22083110.180 8 116047528.600 8      -701.566          51.000    22083112.094 8  88919541.974 8      -537.582          51.000
E25  25368247.148 6 133311035.703 6     -2033.895          37.000
E30  24623376.930 7 129396698.889 7      2093.664          43.000    24623374.648 6  99148127.731 6      1604.230          41.000
> 2020 05 09 07 07 30.0000000  0 16        .000000000000
G12  21889995.656 8 115032700.719 8      2892.113          49.000    21889994.594 8  89635857.468 8      2253.595          49.000
G13  22667203.234 7 119116929.579 7     -3343.066          44.000    22667204.734 7  92818363.101 7     -2604.990          44.000
G15  21385709.742 8 112382656.467 8     -2485.984          50.000    21385710.914 8  87570903.941 8     -1937.131          50.000
G17  22494458.930 6 118209160.896 6      -825.176          36.000    22494457.758 6  92111034.018 6      -642.994          36.000
G19  21731391.406 6 114199204.363 6      1136.344          36.000    21731390.227 5  88986409.535 5       885.469          32.000
R03  22397758.680 6 119896984.202 6     -4356.566          39.000    22397771.500 4  93253184.592 4     -3388.441          28.000
R04  20111011.547 7 107693541.215 7     -1514.797          45.000    20111012.914 6  83761658.818 6     -1178.178          40.000
R15  22381264.062 5 119598702.415 5      2820.547          33.000    22381268.523 4  93021216.587 4      2193.753          25.000
R24  23215065.109 6 124141401.503 6      3901.512          41.000    23215069.945 6  96554432.187 6      3034.512          37.000
C23  22115042.844 8 115158859.631 8      -755.266          51.000
C25  25125226.297 5 130833654.581 5     -2500.574          30.000
E02  23269240.086 8 122280664.276 8        68.496          51.000    23269240.680 8  93695638.911 8        52.487          51.000
E03  25959213.742 8 136416584.086 8     -2903.285          50.000    25959213.281 7 104526993.100 7     -2224.466          43.000
E08  22087174.930 8 116068888.477 8      -720.215          51.000    22087176.898 8  88935908.613 8      -551.844          51.000
E25  25379886.516 5 133372203.456 5     -2041.926          30.000
E30  24611459.766 6 129334069.500 6      2083.828          41.000    24611455.953 6  99100139.028 6      1596.628          41.000
> 2020 05 09 07 08  0.0000000  0 15        .000000000000
G12  21873510.906 7 114946074.980 7      2882.684          46.000    21873510.047 7  89568356.846 7      2246.244          46.000
G13  22686304.789 6 119217318.130 6     -3349.996          38.000    22686307.531 6  92896587.947 6     -2610.384          39.000
G15  21399936.609 8 112457418.038 8     -2498.207          50.000    21399937.648 8  87629159.680 8     -1946.655          50.000
G17  22499216.641 4 118234163.002 4      -841.027          28.000    22499215.805 4  92130516.169 4      -655.337          24.000
G19  21724956.172 6 114165389.690 6      1117.543          37.000    21724957.531 5  88960060.326 5       870.794          34.000
R03  22422189.867 6 120027761.008 6     -4361.969          40.000    22422197.227 4  93354899.853 4     -3392.645          27.000
R04  20119566.883 7 107739347.392 7     -1539.262          46.000    20119567.016 6  83797285.847 6     -1197.204          41.000
R15  22365442.711 4 119514143.754 4      2815.617          29.000
R24  23193187.531 7 124024415.781 7      3897.230          42.000    23193192.625 6  96463443.334 6      3031.179          37.000
C23  22119409.750 8 115181599.400 8      -760.895          51.000
C25  25139637.695 5 130908671.222 5     -2500.348          32.000
E02  23268865.820 8 122278696.601 8        62.598          51.000    23268866.617 8  93694131.224 8        47.964          51.000
E03  25975799.445 8 136503735.655 8     -2906.941          50.000    25975797.383 7 104593771.513 7     -2227.373          43.000
E08  22091321.086 8 116090675.331 8      -732.363          51.000    22091322.688 8  88952602.438 8      -561.144          51.000
E30  24599572.109 6 129271605.207 6      2080.461          40.000    24599569.375 7  99052276.740 7      1594.224          42.000
> 2020 05 09 07 08 30.0000000  0 15        .000000000000
G12  21857104.148 8 114859857.882 8      2866.605          48.000    21857103.094 7  89501174.649 7      2233.716          47.000
G13  22705469.594 6 119318042.424 6     -3363.297          38.000    22705473.844 6  92975074.437 6     -2620.748          38.000
G15  21414257.320 8 112532673.089 8     -2517.234          49.000    21414258.578 8  87687799.957 8     -1961.481          49.000
G17  22504092.703 5 118259805.009 5      -864.961          35.000    22504091.703 5  92150483.054 5      -673.992          35.000
G19  21718652.883 4 114132291.041 4      1092.281          29.000    21718656.375 5  88934251.976 5       851.134          30.000
R03  22446675.641 6 120158828.684 6     -4374.195          40.000    22446680.938 4  93456841.318 4     -3402.155          28.000
R04  20128281.539 7 107786012.903 7     -1570.426          45.000    20128282.148 7  83833581.249 7     -1221.442          43.000
R15  22349678.211 5 119429854.892 5      2804.312          30.000
R24  23171358.773 7 123907690.182 7      3885.730          42.000    23171364.422 6  96372656.768 6      3022.235          37.000
C23  22123833.555 8 115204634.895 8      -773.270          51.000
C25  25154076.891 4 130983871.562 4     -2507.676          29.000
E02  23268549.156 8 122277031.494 8        49.941          51.000    23268549.969 8  93692855.355 8        38.279          51.000
E03  25992430.320 8 136591125.235 8     -2917.605          49.000    25992427.625 7 104660732.287 7     -2235.466          45.000
E08  22095560.477 8 116112952.904 8      -751.234          51.000    22095561.898 8  88969672.253 8      -575.597          51.000
E30  24587726.805 6 129209370.046 6      2070.191          41.000    24587727.086 7  99004590.046 7      1586.445          42.000
> 2020 05 09 07 09  0.0000000  0 14        .000000000000
G12  21840750.031 8 114773914.484 8      2859.727          49.000    21840748.531 8  89434205.806 8      2228.361          48.000
G13  22724674.453 7 119418964.341 7     -3367.738          43.000    22724678.008 6  93053714.882 6     -2624.212          40.000
G15  21428645.664 8 112608283.496 8     -2526.738          50.000    21428647.031 8  87746717.130 8     -1968.887          50.000
G17  22509060.797 6 118285914.058 6      -879.141          37.000    22509058.453 6  92170827.647 6      -685.048          36.000
G19  21712454.781 5 114099721.307 5      1075.285          34.000    21712461.625 5  88908897.371 5       837.888          33.000
R03  22471187.961 6 120290044.398 6     -4376.805          38.000    22471193.680 4  93558897.945 4     -3404.181          27.000
R04  20137130.453 7 107833396.763 7     -1591.984          47.000    20137132.008 7  83870435.386 7     -1238.207          45.000
R24  23149554.398 7 123791090.756 7      3883.820          43.000    23149559.523 6  96281968.339 6      3020.749          37.000
C23  22128288.312 8 115227831.009 8      -776.371          51.000
C25  25168510.984 5 131059028.504 5     -2507.004          30.000
E02  23268263.750 8 122275532.254 8        46.754          51.000    23268264.719 8  93691706.577 8        35.851          51.000
E03  26009079.867 7 136678615.132 7     -2918.465          47.000    26009077.641 7 104727769.962 7     -2236.199          46.000
E08  22099867.430 8 116135584.813 8      -760.805          51.000    22099868.688 8  88987013.577 8      -582.936          51.000
E30  24575899.602 6 129147227.976 6      2069.445          40.000    24575902.039 7  98956974.702 7      1585.673          43.000
> 2020 05 09 07 09 30.0000000  0 13        .000000000000
G12  21824458.242 8 114688299.086 8      2848.062          50.000    21824456.805 8  89367492.543 8      2219.269          49.000
G13  22743927.406 7 119520134.971 7     -3376.844          46.000    22743929.734 6  93132549.068 6     -2631.310          38.000
G15  21443111.523 8 112684300.073 8     -2540.996          51.000    21443112.539 8  87805950.826 8     -1979.997          51.000
G17  22514130.891 5 118312560.257 5      -897.230          33.000    22514130.031 5  92191590.849 5      -699.144          33.000
G19  21706376.141 6 114067773.029 6      1054.477          37.000
R03  22495737.617 6 120421457.869 6     -4383.871          37.000    22495743.945 5  93661108.403 5     -3409.678          30.000
R04  20146123.516 8 107881550.774 8     -1618.281          48.000    20146125.109 7  83907888.516 7     -1258.663          44.000
R24  23127784.844 7 123674675.879 7      3877.156          44.000    23127788.812 6  96191423.541 6      3015.572          37.000
C23  22132783.828 8 115251239.883 8      -784.168          51.000
E02  23268019.852 8 122274251.242 8        38.723          51.000    23268020.938 8  93690725.016 8        29.686          51.000
E03  26025757.539 7 136766256.795 7     -2924.160          44.000    26025757.031 7 104794923.919 7     -2240.665          47.000
E08  22104251.961 8 116158623.694 8      -775.047          51.000    22104252.820 8  89004666.732 8      -593.870          51.000
E30  24564100.273 6 129085232.016 6      2063.973          38.000    24564104.914 7  98909471.392 7      1581.300          42.000
> 2020 05 09 07 10  0.0000000  0 16        .000000000000
G12  21808233.516 8 114603036.749 8      2835.062          49.000    21808232.492 8  89301054.371 8      2209.140          48.000
G13  22763231.703 7 119621575.600 7     -3386.859          47.000    22763232.648 6  93211593.611 6     -2639.117          37.000
G15  21457658.820 8 112760744.179 8     -2556.293          51.000    21457659.398 8  87865517.646 8     -1991.917          51.000
G17  22519307.258 5 118339759.060 5      -917.398          34.000    22519307.062 5  92212798.312 5      -714.856          33.000
G19  21700419.188 6 114036463.114 6      1031.855          37.000
R03  22520327.688 5 120553088.915 5     -4392.480          34.000    22520334.828 5  93763488.046 5     -3416.377          30.000
R04  20155263.672 8 107930496.531 8     -1645.766          48.000    20155265.148 7  83945957.448 7     -1280.040          43.000
R14  19639813.906 4 104691248.254 4       338.555          28.000    19639824.352 5  81426573.834 5       263.320          30.000
R15  22302528.867 5 119177951.924 5      2787.770          32.000    22302532.500 4  92693980.852 4      2168.259          28.000
R24  23106054.648 7 123558474.106 7      3868.637          44.000    23106057.336 6  96101044.496 6      3008.943          36.000
C23  22137324.508 8 115274884.435 8      -793.125          51.000
E02  23267821.914 8 122273211.312 8        29.582          51.000    23267822.984 8  93689928.185 8        22.661          51.000
E03  26042466.375 6 136854071.994 6     -2931.059          41.000    26042469.656 8 104862210.912 8     -2245.927          48.000
E08  22108718.266 8 116182092.695 8      -790.512          51.000    22108718.766 8  89022649.458 8      -605.687          51.000
E25  25438382.789 5 133679603.925 5     -2056.129          34.000
E30  24552333.531 5 129023405.869 5      2056.879          35.000    24552339.297 7  98862098.050 7      1576.206          43.000
> 2020 05 09 07 10 30.0000000  0 16        .000000000000
G12  21792070.031 8 114518097.969 8      2825.047          49.000    21792069.188 8  89234868.274 8      2201.335          49.000
G13  22782581.109 8 119723253.680 8     -3394.070          48.000    22782581.227 6  93290823.214 6     -2644.730          38.000
G15  21472281.094 8 112837583.292 8     -2568.727          51.000    21472281.297 8  87925392.245 8     -2001.608          51.000
G17  22524584.609 6 118367493.447 6      -934.316          37.000    22524583.461 5  92234409.398 5      -728.042          35.000
G19  21694578.109 6 114005763.040 6      1012.488          38.000    21694588.195 3  88835709.036 3       788.961          20.000
R03  22544952.742 5 120684902.074 5     -4397.684          33.000    22544959.062 4  93866009.360 4     -3420.418          26.000
R04  20164545.648 8 107980201.000 8     -1670.227          48.000    20164545.781 6  83984616.439 6     -1299.065          41.000
R15  22286888.766 4 119094376.099 4      2783.004          29.000    22286890.859 4  92628968.010 4      2164.559          28.000
R22  23231374.102 4 124010651.569 4     -2120.086          29.000
R24  23084358.945 7 123442458.815 7      3863.184          44.000    23084360.984 6  96010810.442 6      3004.701          36.000
C23  22141904.562 8 115298734.080 8      -799.242          51.000
E02  23267663.820 8 122272381.280 8        23.340          51.000    23267664.961 8  93689292.183 8        17.911          51.000
E03  26059200.734 6 136942028.663 6     -2935.070          40.000    26059208.938 8 104929606.313 8     -2248.968          48.000
E08  22113260.352 8 116205960.884 8      -803.117          51.000    22113260.555 8  89040938.043 8      -615.364          51.000
E25  25450116.625 5 133741265.446 5     -2058.305          32.000
E30  24540594.320 6 128961718.919 6      2053.074          37.000    24540601.297 7  98814831.424 7      1573.072          43.000
> 2020 05 09 07 11  0.0000000  0 13        .000000000000
G12  21775974.141 8 114433513.821 8      2814.195          50.000    21775972.594 8  89168958.594 8      2192.883          50.000
G13  22801980.852 8 119825197.314 8     -3401.930          48.000    22801980.867 6  93370259.778 6     -2650.854          40.000
G15  21486983.852 8 112914845.600 8     -2581.832          51.000    21486983.570 8  87985596.599 8     -2011.817          51.000
G17  22529968.008 6 118395784.707 6      -951.480          36.000    22529966.344 6  92256454.600 6      -741.413          36.000
R03  22569617.469 5 120816923.784 5     -4404.164          33.000    22569621.820 4  93968692.882 4     -3425.470          27.000
R04  20173973.969 7 108030691.917 7     -1695.410          47.000    20173973.828 7  84023887.075 7     -1318.655          42.000
R24  23062704.430 7 123326665.245 7      3856.664          44.000    23062706.836 6  95920748.859 6      2999.631          37.000
C23  22146529.602 8 115322818.239 8      -806.117          51.000
E02  23267551.297 8 122271790.551 8        16.312          51.000    23267552.500 8  93688839.542 8        12.541          51.000
E03  26075969.594 7 137030155.290 7     -2939.715          42.000    26075979.922 8 104997131.952 8     -2252.557          48.000
E08  22117883.859 8 116230257.894 8      -816.445          51.000    22117883.820 8  89059555.225 8      -625.597          51.000
E25  25461874.008 5 133803049.083 5     -2059.934          33.000
E30  24528888.484 6 128900201.321 6      2048.344          37.000    24528896.148 7  98767694.509 7      1569.495          44.000
> 2020 05 09 07 11 30.0000000  0 14        .000000000000
G12  21759932.078 8 114349212.760 8      2804.176          51.000    21759930.008 8  89103269.514 8      2185.075          51.000
G13  22821416.727 8 119927331.358 8     -3408.707          50.000    22821417.203 7  93449844.713 7     -2656.135          42.000
G15  21501752.664 8 112992455.538 8     -2593.934          51.000    21501751.984 8  88046071.851 8     -2021.250          51.000
G17  22535443.086 6 118424559.578 6      -968.383          37.000    22535443.688 6  92278876.469 6      -754.590          36.000
G19  21683260.305 6 113946301.711 6       972.438          36.000
R04  20183534.852 7 108081892.832 7     -1719.676          47.000    20183536.141 7  84063710.007 7     -1337.529          45.000
R15  22255699.070 5 118927692.578 5      2773.223          33.000    22255694.297 4  92499309.736 4      2156.954          28.000
R24  23041078.297 7 123211023.621 7      3851.020          45.000    23041081.008 6  95830805.428 6      2995.237          38.000
C23  22151185.688 8 115347064.364 8      -812.000          51.000
C25  25240832.234 5 131435627.201 5     -2514.496          31.000
E02  23267470.336 8 122271365.565 8        10.344          51.000    23267471.516 8  93688513.892 8         7.968          51.000
E03  26092758.359 7 137118377.366 7     -2943.199          44.000    26092768.812 8 105064730.662 8     -2255.343          48.000
E08  22122574.617 8 116254910.462 8      -828.770          51.000    22122574.828 8  89078444.848 8      -634.983          51.000
E30  24517200.883 6 128838780.090 6      2044.512          39.000    24517209.984 7  98720631.528 7      1566.697          44.000
> 2020 05 09 07 12  0.0000000  0 11        .000000000000
G12  21743977.523 8 114265371.117 8      2788.352          51.000    21743976.148 8  89037938.380 8      2172.741          51.000
G13  22840921.789 8 120029828.821 8     -3421.242          51.000    22840922.250 7  93529712.838 7     -2665.903          43.000
G15  21516619.867 8 113070585.804 8     -2611.746          50.000    21516619.625 8  88106952.538 8     -2035.130          50.000
G19  21677779.102 5 113917483.281 5       946.617          34.000
R04  20193260.820 7 108133979.414 7     -1749.664          47.000    20193264.656 7  84104221.787 7     -1360.850          45.000
R24  23019514.773 7 123095716.269 7      3839.230          45.000    23019517.617 6  95741122.010 6      2986.071          38.000
C23  22155906.148 8 115371645.304 8      -823.742          51.000
E02  23267454.016 8 122271280.499 8        -1.566          51.000    23267455.094 8  93688448.711 8        -1.242          51.000
E03  26109598.633 7 137206868.043 7     -2952.949          45.000    26109608.297 7 105132535.175 7     -2262.530          47.000
E08  22127365.906 8 116280092.941 8      -846.973          51.000    22127366.781 8  89097740.512 8      -648.994          51.000
E30  24505564.539 6 128777630.164 6      2034.973          38.000    24505574.312 7  98673776.383 7      1559.316          43.000
> 2020 05 09 07 12 30.0000000  0 14        .000000000000
G12  21728059.000 8 114181717.924 8      2781.988          51.000    21728058.344 8  88972754.085 8      2167.783          51.000
G13  22860443.703 8 120132416.125 8     -3424.402          50.000    22860444.062 7  93609650.967 7     -2668.369          43.000
G15  21531534.031 8 113148962.541 8     -2619.961          51.000    21531534.406 8  88168025.287 8     -2041.528          51.000
G17  22546716.633 6 118483807.565 6     -1003.594          37.000    22546712.344 5  92325025.861 5      -782.018          35.000
G19  21672400.867 6 113889214.249 6       931.254          39.000    21672397.820 5  88744841.292 5       725.655          35.000
R04  20203101.242 8 108186672.327 8     -1769.906          48.000    20203105.195 7  84145205.179 7     -1376.594          45.000
R15  22224655.148 4 118761816.579 4      2761.777          28.000
R24  22997962.867 7 122980471.314 7      3837.027          46.000    22997966.211 6  95651487.097 6      2984.358          40.000
C23  22160639.242 8 115396291.275 8      -825.910          51.000
C25  25269856.180 5 131586772.028 5     -2518.461          31.000
E02  23267450.602 8 122271262.779 8        -3.844          51.000    23267451.641 8  93688435.131 8        -3.002          51.000
E03  26126438.156 7 137295353.834 7     -2952.855          44.000    26126446.453 7 105200335.929 7     -2262.410          46.000
E08  22132206.445 8 116305532.993 8      -855.691          51.000    22132207.898 8  89117233.539 8      -655.636          51.000
E30  24493928.164 5 128716479.639 5      2035.289          35.000    24493938.016 6  98626920.840 6      1559.205          41.000
> 2020 05 09 07 13  0.0000000  0 15        .000000000000
G12  21712238.359 8 114098579.360 8      2770.281          51.000    21712237.781 8  88907970.793 8      2158.661          51.000
G13  22880043.852 8 120235415.677 8     -3432.605          50.000    22880044.445 7  93689910.331 7     -2674.761          45.000
G15  21546556.914 8 113227908.598 8     -2633.363          51.000    21546557.609 8  88229541.690 8     -2051.971          51.000
G17  22552526.258 6 118514331.849 6     -1021.398          37.000    22552525.305 6  92348810.898 6      -795.892          37.000
G19  21667174.859 5 113861747.218 5       909.023          35.000    21667169.352 5  88723438.407 5       708.333          35.000
G24  20391648.523 5 107158836.027 5      1024.289          32.000
R03  22668624.047 5 121346882.898 5     -4425.371          31.000    22668609.133 4  94380877.288 4     -3441.958          27.000
R04  20213116.250 8 108240299.919 8     -1795.391          48.000    20213119.406 7  84186915.536 7     -1396.415          44.000
R24  22976486.211 8 122865623.850 8      3829.406          48.000    22976489.391 6  95562161.311 6      2978.430          40.000
C23  22165446.727 8 115421324.007 8      -833.410          51.000
C25  25284396.156 4 131662500.574 4     -2520.176          28.000
E02  23267521.898 8 122271636.797 8       -11.316          51.000    23267522.836 8  93688721.705 8        -8.608          51.000
E03  26143338.312 7 137384158.055 7     -2957.711          42.000    26143344.852 7 105268380.676 7     -2266.277          44.000
E08  22137158.266 8 116331555.190 8      -869.438          51.000    22137159.531 8  89137172.625 8      -666.189          51.000
E30  24482353.305 6 128655632.558 6      2029.961          37.000    24482360.141 6  98580313.784 6      1555.434          37.000
> 2020 05 09 07 13 30.0000000  0 16        .000000000000
G12  21696456.102 8 114015643.439 8      2760.574          50.000    21696455.523 8  88843345.413 8      2151.097          50.000
G13  22899662.648 8 120338512.080 8     -3438.773          51.000    22899663.234 7  93770245.186 7     -2679.564          43.000
G15  21561628.234 8 113307108.477 8     -2644.812          51.000    21561629.070 8  88291255.882 8     -2060.893          51.000
G19  21662040.875 5 113834769.359 5       890.730          35.000    21662035.250 5  88702416.743 5       694.076          35.000
G24  20385837.719 5 107128304.792 5      1013.305          32.000    20385833.641 5  83476573.649 5       789.585          32.000
R03  22693444.883 5 121479737.686 5     -4430.508          32.000    22693427.586 4  94484208.643 4     -3445.957          28.000
R04  20223245.422 8 108294540.519 8     -1818.859          49.000    20223248.508 7  84229102.652 7     -1414.668          44.000
R15  22193750.828 5 118596605.366 5      2750.137          34.000
R22  23305167.812 5 124404559.366 5     -2251.102          33.000
R24  22955025.508 8 122750859.623 8      3823.469          49.000    22955028.180 6  95472900.322 6      2973.812          40.000
C23  22170268.766 8 115446432.678 8      -838.770          51.000
E02  23267608.047 8 122272088.522 8       -16.867          51.000    23267608.758 8  93689067.832 8       -12.909          51.000
E03  26160239.570 6 137472965.755 6     -2960.680          41.000    26160243.781 7 105336428.054 7     -2268.597          42.000
E08  22142161.297 8 116357845.709 8      -881.324          51.000    22142161.914 8  89157317.302 8      -675.282          51.000
E25  25520825.492 5 134112860.736 5     -2069.270          32.000
E30  24470780.438 6 128594819.630 6      2026.234          36.000    24470784.047 5  98533715.387 5      1552.566          34.000
> 2020 05 09 07 14  0.0000000  0 17        .000000000000
G12  21680755.836 8 113933139.125 8      2743.102          49.000    21680755.352 8  88779056.336 8      2137.482          49.000
G13  22919342.789 8 120441931.312 8     -3452.539          50.000    22919343.352 7  93850831.583 7     -2690.290          43.000
G15  21576790.812 8 113386787.626 8     -2663.824          51.000    21576791.453 8  88353343.521 8     -2075.707          51.000
G19  21657044.219 5 113808510.003 5       863.664          34.000    21657038.617 5  88681954.955 5       672.988          32.000
G24  20380106.883 5 107098182.896 5       997.434          31.000    20380107.211 5  83453120.528 5       777.221          31.000
G25  24343358.633 6 127925195.886 6      3551.402          36.000
R03  22718287.766 5 121612782.388 5     -4441.133          31.000    22718296.766 5  94587735.460 5     -3454.220          31.000
R04  20233532.484 8 108349623.587 8     -1850.027          50.000    20233535.398 7  84271945.041 7     -1438.910          45.000
R14  19626606.805 5 104620872.432 5       244.863          31.000
R22  23317908.133 5 124472574.858 5     -2279.691          32.000
R24  22933624.305 8 122636414.965 8      3809.645          48.000    22933626.266 6  95383887.910 6      2963.060          39.000
C23  22175148.578 8 115471842.609 8      -851.891          51.000
E02  23267752.062 8 122272845.065 8       -30.086          51.000    23267752.500 8  93689647.529 8       -23.086          51.000
E03  26177185.297 6 137562003.068 6     -2971.391          36.000    26177185.180 6 105404651.357 6     -2276.849          39.000
E08  22147258.750 8 116384631.856 8      -900.949          51.000    22147258.820 8  89177841.722 8      -690.350          51.000
E25  25532672.141 5 134175103.313 5     -2077.391          34.000
E30  24459255.703 5 128534243.723 5      2015.301          34.000    24459253.250 5  98487299.977 5      1543.871          33.000
> 2020 05 09 07 14 30.0000000  0 15        .000000000000
G12  21665120.914 8 113850978.072 8      2733.945          49.000    21665120.750 8  88715034.734 8      2130.347          49.000
G13  22939067.109 8 120545581.619 8     -3457.824          49.000    22939067.453 7  93931598.031 7     -2694.408          43.000
G15  21592027.109 8 113466854.419 8     -2674.395          51.000    21592027.562 8  88415733.217 8     -2083.944          51.000
G25  24323090.570 6 127818674.575 6      3549.012          36.000    24323078.281 5  99598926.169 5      2765.473          33.000
R03  22743186.453 5 121746049.996 5     -4443.543          33.000    22743188.805 5  94691387.989 5     -3456.092          32.000
R04  20243959.102 8 108405455.301 8     -1872.461          50.000    20243961.984 7  84315369.705 7     -1456.359          45.000
R22  23330774.391 4 124541250.033 4     -2299.410          29.000
R24  22912266.422 8 122522203.326 8      3804.152          48.000    22912268.156 6  95295056.722 6      2958.788          39.000
C23  22180069.148 8 115497464.735 8      -856.570          51.000
C25  25328047.664 5 131889789.786 5     -2528.098          30.000
E02  23267937.031 8 122273816.203 8       -34.887          51.000    23267937.125 8  93690391.651 8       -26.752          51.000
E03                                                                  26194151.672 6 105472980.675 6     -2278.698          37.000
E08  22152433.461 8 116411823.558 8      -912.102          51.000    22152433.273 8  89198676.902 8      -698.877          51.000
E25  25544529.891 5 134237410.631 5     -2077.684          33.000
E30  24447759.578 6 128473817.022 6      2012.922          39.000    24447753.891 5  98440999.059 5      1542.372          33.000
> 2020 05 09 07 15  0.0000000  0 15        .000000000000
G12  21649532.133 8 113769058.861 8      2737.887          49.000    21649531.766 8  88651201.577 8      2133.418          49.000
G13  22958815.258 7 120649358.431 7     -3450.188          47.000    22958815.258 7  94012463.046 7     -2688.458          42.000
G15  21607317.039 8 113547204.086 8     -2671.883          50.000    21607317.383 8  88478343.333 8     -2081.987          50.000
G17  22576729.242 6 118641464.367 6     -1079.309          36.000
G19  21647388.297 5 113757798.164 5       838.887          34.000
G25  24302828.039 6 127712185.582 6      3560.383          38.000    24302814.609 5  99515947.769 5      2774.330          34.000
R04  20254505.039 8 108461928.424 8     -1881.617          50.000    20254507.625 7  84359293.217 7     -1463.480          45.000
R24  22890933.273 8 122408124.903 8      3811.789          48.000    22890935.812 6  95206329.168 6      2964.728          40.000
C23  22185010.852 8 115523197.216 8      -848.469          51.000
C25  25342610.367 5 131965585.507 5     -2514.504          32.000
C28  25544765.328 6 133018296.057 6      3258.449          37.000
E02  23268143.180 8 122274898.855 8       -26.746          51.000    23268143.258 8  93691221.216 8       -20.497          51.000
E03                                                                  26211126.047 6 105541336.250 6     -2270.348          36.000
E08  22157665.758 8 116439317.895 8      -910.285          51.000    22157665.430 8  89219743.984 8      -697.515          51.000
