     3.02           OBSERVATION DATA    M (MIXED)           RINEX VERSION / TYPE
SAVERINEX           SC600               20200517 185931 LCL PGM / RUN BY / DATE
       G = GPS       R = GLONASS       C = COMPASS          COMMENT
       S = SBAS      J = QZSS          E = GALILEO          COMMENT
BEAN                                                        MARKER NAME
1                                                           MARKER NUMBER
GEODETIC                                                    MARKER TYPE
Unige DICCA         GTER                                    OBSERVER / AGENCY
SC60291900056       SC600               2.12(191202)        REC # / TYPE / VERS
                    HEMA45          NONE                    ANT # / TYPE
  4509407.8091   693652.4678  4442337.6214                  APPROX POSITION XYZ
        0.0000        0.0000        0.0000                  ANTENNA: DELTA H/E/N
G    8 C1C L1C D1C S1C C2Y L2Y D2Y S2Y                      SYS / # / OBS TYPES
R    8 C1C L1C D1C S1C C2P L2P D2P S2P                      SYS / # / OBS TYPES
C    8 C1I L1I D1I S1I C7I L7I D7I S7I                      SYS / # / OBS TYPES
E    8 C1C L1C D1C S1C C7Q L7Q D7Q S7Q                      SYS / # / OBS TYPES
DBHZ                                                        COMMENT
     30.000                                                 INTERVAL
  2020    05    17    16    00    0.0000000     GPS         TIME OF FIRST OBS
  2020    05    17    16    59   30.0000000     GPS         TIME OF LAST OBS
     0                                                      RCV CLOCK OFFS APPL
G L1C  0.00000                                              SYS / PHASE SHIFT
G L2Y  0.00000                                              SYS / PHASE SHIFT
R L1C  0.00000                                              SYS / PHASE SHIFT
R L2P  0.25000                                              SYS / PHASE SHIFT
C L1I  0.00000                                              SYS / PHASE SHIFT
C L7I  0.00000                                              SYS / PHASE SHIFT
E L1C  0.50000                                              SYS / PHASE SHIFT
E L7Q -0.25000                                              SYS / PHASE SHIFT
 12 R03  5 R04  6 R05  1 R06 -4 R09 -2 R10 -5 R11  0 R16 -1 GLONASS SLOT / FRQ #
    R18 -3 R19  3 R20  2 R21  4                             GLONASS SLOT / FRQ #
 C1C   71.950 C2C   71.950 C2P   71.950                     GLONASS COD/PHS/BIS
    18                                                      LEAP SECONDS
*** Above antenna height is from mark to ANTENNA BOTTOM.    COMMENT
    17     4        0.0000        ANT MEASURE TYPE/HEIGT    COMMENT
    0.0000    0.0000    0.0458    0.0405    0.0000          COMMENT
                    BASE STATION                            COMMENT
                                                            END OF HEADER
> 2020 05 17 16 00  0.0000000  0 17        .000000000000
G10  20930896.125 8 109992576.146 8       228.250          51.000    20930898.953 8  85708546.784 8       177.857          51.000
G16  21866850.758 8 114911061.733 8     -2834.480          50.000    21866848.500 7  89541066.255 7     -2208.689          42.000
G20  21686067.414 5 113961041.552 5     -2064.039          35.000
G21  24137030.641 5 126840913.677 5     -2552.160          33.000
G26  24016802.023 5 126209153.534 5     -3681.070          32.000    24016810.172 5  98344804.978 5     -2868.366          32.000
G27  20284317.273 8 106594797.860 8       151.012          51.000    20284317.977 8  83060893.502 8       117.671          51.000
R04  22745776.500 4 121802569.509 4     -2941.672          28.000
R05  20563059.039 7 109921487.606 7       696.605          42.000    20563068.750 6  85494432.244 6       541.804          38.000
R06  22199680.273 6 118461728.516 6      4163.766          40.000
R10  23396019.500 5 124713948.160 5     -4229.910          30.000
R11  21350632.008 5 114091318.695 5     -1664.637          34.000
C05  39629720.086 5 206362351.478 5       -11.566          35.000
C20  25727150.508 6 133968029.275 6      3461.688          36.000
C30  21556792.195 8 112251876.580 8       235.926          51.000
E02  25035750.609 8 131563774.064 8     -2092.621          49.000    25035753.898 8 100808599.096 8     -1603.476          51.000
E09  24304286.438 6 127719881.515 6      2280.938          36.000
E36  23267798.461 8 122273110.963 8      -249.422          51.000    23267800.875 8  93689810.425 8      -191.118          51.000
> 2020 05 17 16 00 30.0000000  0 16        .000000000000
G10  20929654.789 8 109986053.829 8       203.449          51.000    20929657.820 8  85703464.457 8       158.532          51.000
G16  21883075.508 8 114996322.613 8     -2852.785          49.000    21883074.266 7  89607503.280 7     -2222.953          43.000
G21  24151608.016 5 126917524.722 5     -2557.922          34.000
G26  24037828.109 5 126319651.449 5     -3688.930          34.000    24037834.820 5  98430907.090 5     -2874.491          33.000
G27  20283502.125 8 106590513.743 8       131.402          51.000    20283502.789 8  83057555.231 8       102.391          51.000
R04  22762312.625 5 121891159.273 5     -2967.078          31.000
R05  20559236.562 5 109901042.532 5       663.578          34.000    20559245.086 5  85478530.565 5       516.122          35.000
R06  22176303.367 6 118336983.585 6      4149.629          38.000
R11  21360057.703 5 114141678.507 5     -1694.734          31.000    21360063.148 4  88776878.492 4     -1318.136          29.000
C05  39629794.867 5 206362740.269 5       -17.066          35.000
C20  25707216.453 6 133864232.666 6      3454.457          37.000
C27  23668151.297 5 123246248.985 5     -2173.828          34.000
C30  21555464.734 8 112244963.655 8       221.793          51.000
E02  25047735.430 8 131626754.035 8     -2108.992          50.000    25047739.672 8 100856856.455 8     -1615.966          51.000
E09  24291296.727 6 127651618.617 6      2266.910          36.000
E36  23269244.789 8 122280712.202 8      -260.266          51.000    23269247.461 8  93695634.749 8      -199.391          51.000
> 2020 05 17 16 01  0.0000000  0 15        .000000000000
G10  20928529.078 8 109980139.086 8       189.078          51.000    20928532.062 8  85698855.554 8       147.334          51.000
G16  21899379.336 8 115081999.046 8     -2860.793          50.000    21899378.852 7  89674264.129 7     -2229.189          45.000
G21  24166195.141 5 126994184.684 5     -2554.336          33.000
G26  24058873.852 5 126430249.393 5     -3686.582          33.000    24058878.438 5  98517087.178 5     -2872.670          32.000
G27  20282773.000 8 106586681.948 8       122.031          51.000    20282773.648 8  83054569.420 8        95.089          51.000
R04  22778970.258 5 121980343.409 5     -2981.141          34.000
R05  20555574.203 6 109881454.679 6       640.410          39.000    20555579.883 5  85463295.603 5       498.094          35.000
R06  22152979.055 5 118212528.774 5      4144.844          31.000
R11  21369625.969 5 114192789.050 5     -1714.133          34.000    21369622.133 4  88816631.215 4     -1333.205          26.000
C05  39629876.359 5 206363165.713 5       -12.992          35.000
C20  25687299.633 6 133760521.276 6      3457.824          37.000
C30  21554192.945 8 112238340.703 8       217.914          51.000
E02  25059788.508 8 131690090.863 8     -2115.230          50.000    25059793.070 8 100905387.251 8     -1620.776          51.000
E09  24278361.344 5 127583635.180 5      2263.715          35.000
E36  23270727.852 8 122288506.518 8      -261.078          51.000    23270730.914 8  93701607.017 8      -199.999          51.000
> 2020 05 17 16 01 30.0000000  0 15        .000000000000
G10  20927506.141 8 109974763.757 8       170.137          51.000    20927509.109 8  85694666.994 8       132.574          51.000
G16  21915748.938 8 115168020.287 8     -2873.180          50.000    21915748.578 7  89741293.647 7     -2238.841          45.000
G21  24180780.320 5 127070824.763 5     -2554.254          30.000
G26  24079925.414 5 126540876.742 5     -3687.734          35.000    24079928.773 5  98603290.239 5     -2873.562          35.000
G27  20282117.133 8 106583235.242 8       108.574          51.000    20282117.766 8  83051883.666 8        84.603          51.000
R04  22795725.516 6 122070055.781 6     -2999.109          36.000
R05  20552061.734 5 109862544.696 5       613.633          34.000    20552060.539 5  85448650.361 5       477.270          32.000
R06  22129694.359 5 118088299.781 5      4136.750          35.000
C05  39629951.781 5 206363557.773 5       -12.652          35.000
C20  25667387.148 6 133656829.998 6      3455.773          39.000
C27  23693220.578 6 123376755.282 6     -2179.824          37.000
C30  21552964.039 8 112231940.873 8       209.504          51.000
E02  25071896.508 8 131753714.786 8     -2125.633          50.000    25071900.484 8 100954138.030 8     -1628.726          51.000
E09  24265466.688 5 127515887.201 5      2255.250          33.000
E36  23272234.695 8 122296425.654 8      -266.133          51.000    23272238.133 8  93707674.916 8      -203.923          51.000
> 2020 05 17 16 02  0.0000000  0 15        .000000000000
G10  20926592.344 8 109969961.650 8       150.551          51.000    20926595.133 8  85690925.097 8       117.312          51.000
G16  21932190.250 8 115254417.853 8     -2886.254          51.000    21932189.523 7  89808616.400 7     -2249.029          46.000
G21  24195368.398 5 127147513.071 5     -2556.199          31.000
G26  24100988.414 5 126651565.055 5     -3691.195          34.000    24100992.555 5  98689540.749 5     -2876.265          35.000
G27  20281541.148 8 106580208.362 8        93.875          51.000    20281541.805 8  83049525.046 8        73.146          51.000
R04  22812584.328 6 122160327.093 6     -3018.191          37.000    22812577.516 4  95013586.578 4     -2347.482          27.000
R05  20548702.859 6 109844570.645 6       585.590          36.000    20548697.719 5  85434670.428 5       455.453          30.000
R06  22106462.555 6 117964335.029 6      4127.680          40.000
C05  39630027.625 5 206363951.649 5       -13.078          35.000
C20  25647485.312 6 133553194.537 6      3453.637          37.000
C27  23705797.906 5 123442243.899 5     -2184.812          30.000
C30  21551784.617 8 112225798.295 8       200.418          51.000
E02  25084064.508 8 131817658.158 8     -2136.898          48.000    25084067.555 8 101003133.563 8     -1637.322          51.000
E09  24252620.125 5 127448373.289 5      2246.492          33.000    24252612.203 5  97655218.445 5      1721.389          32.000
E36  23273771.719 8 122304503.347 8      -272.035          51.000    23273775.445 8  93713864.307 8      -208.413          51.000
> 2020 05 17 16 02 30.0000000  0 14        .000000000000
G10  20925782.367 8 109965704.656 8       131.430          51.000    20925784.742 8  85687607.956 8       102.413          51.000
G16  21948697.289 8 115341161.510 8     -2898.613          50.000    21948696.227 7  89876208.822 7     -2258.660          46.000
G21  24209951.992 5 127224172.654 5     -2555.762          32.000
G26  24122057.367 6 126762283.769 6     -3692.559          36.000    24122061.859 5  98775814.924 5     -2877.318          35.000
G27  20281039.852 8 106577574.124 8        79.770          51.000    20281040.602 8  83047472.397 8        62.158          51.000
R04  22829540.820 5 122251125.395 5     -3036.457          31.000    22829533.047 4  95084207.418 4     -2361.689          27.000
R05  20545484.805 6 109827393.562 6       557.809          39.000    20545488.641 5  85421310.680 5       433.854          30.000
R06  22083277.109 7 117840610.051 7      4118.957          42.000
C05  39630098.367 5 206364321.133 5       -13.238          35.000
C20  25627588.430 5 133449589.481 5      3451.754          34.000
C27  23718394.391 5 123507886.901 5     -2190.789          32.000
C30  21550649.430 8 112219885.842 8       191.820          51.000
E02  25096286.461 7 131881891.265 7     -2147.180          45.000    25096289.375 8 101052351.146 8     -1645.316          50.000
E36  23275333.648 8 122312711.445 8      -277.188          51.000    23275337.445 8  93720153.620 8      -212.343          51.000
> 2020 05 17 16 03  0.0000000  0 14        .000000000000
G10  20925092.711 8 109962079.862 8       112.414          51.000    20925094.711 8  85684783.465 8        87.595          51.000
G16  21965285.750 8 115428335.410 8     -2910.703          48.000    21965284.828 7  89944136.508 7     -2268.080          45.000
G21  24224547.891 5 127300882.906 5     -2556.375          30.000
G26  24143148.672 6 126873117.622 6     -3694.113          37.000    24143151.320 6  98862178.869 6     -2878.530          37.000
G27  20280630.016 8 106575420.625 8        65.926          51.000    20280630.734 8  83045794.340 8        51.371          51.000
R05  20542436.602 6 109811103.580 6       530.145          36.000    20542439.117 5  85408633.546 5       412.335          30.000
R06  22060154.477 7 117717218.591 7      4109.527          44.000
R11  21409191.258 5 114404199.292 5     -1809.598          32.000
C05  39630180.773 5 206364750.259 5       -13.047          35.000
C20  25607713.758 5 133346103.480 5      3449.703          31.000
C27  23731032.148 4 123573716.424 4     -2196.277          28.000
C30  21549575.102 8 112214290.565 8       183.305          51.000
E02  25108579.383 7 131946499.840 7     -2157.770          45.000    25108583.320 8 101101856.438 8     -1653.341          51.000
E36  23276936.945 8 122321137.037 8      -282.367          51.000    23276940.781 8  93726609.589 8      -216.365          51.000
> 2020 05 17 16 03 30.0000000  0 13        .000000000000
G10  20924509.758 8 109959015.824 8        92.074          51.000    20924511.516 8  85682395.922 8        71.746          51.000
G16  21981941.758 7 115515866.308 7     -2924.438          47.000    21981941.352 7  90012342.391 7     -2278.782          44.000
G26  24164247.961 5 126983992.866 5     -3697.133          34.000    24164248.969 5  98948575.101 5     -2880.883          34.000
G27  20280298.273 8 106573677.333 8        50.535          51.000    20280298.828 8  83044435.943 8        39.378          51.000
R04  22863772.805 5 122434494.096 5     -3074.273          32.000    22863774.320 4  95226803.503 4     -2391.108          27.000
R05  20539541.273 6 109795629.156 6       501.613          40.000    20539544.531 4  85396597.887 4       390.135          28.000
R06  22037081.641 7 117594092.778 7      4099.109          43.000
C05  39630261.164 5 206365168.396 5       -14.312          35.000
C20  25587850.617 4 133242649.072 4      3446.281          29.000
C30  21548547.961 8 112208942.361 8       173.441          51.000
E02  25120931.742 8 132011410.920 8     -2169.301          49.000    25120935.734 8 101151593.501 8     -1662.251          51.000
E09  24214363.172 5 127247336.144 5      2220.027          32.000    24214360.562 5  97501195.983 5      1701.078          33.000
E36  23278567.945 8 122329708.673 8      -288.781          51.000    23278571.898 8  93733177.464 8      -221.283          51.000
> 2020 05 17 16 04  0.0000000  0 13        .000000000000
G10  20924035.164 8 109956521.312 8        75.336          51.000    20924036.547 8  85680452.180 8        58.703          51.000
G16  21998666.898 7 115603760.682 7     -2934.105          46.000    21998666.984 7  90080831.507 7     -2286.319          44.000
G26  24185356.211 5 127094916.076 5     -3696.453          35.000    24185358.016 6  99035008.593 6     -2880.359          36.000
G27  20280046.336 8 106572354.137 8        38.648          51.000    20280046.828 8  83043404.883 8        30.116          51.000
R04  22881042.273 5 122526981.216 5     -3089.828          31.000    22881047.070 4  95298737.885 4     -2403.203          28.000
R05  20536800.906 6 109780980.039 6       476.438          37.000    20536803.227 5  85385195.064 5       370.569          35.000
R06  22014061.000 7 117471245.887 7      4091.891          43.000
C05  39630341.328 5 206365586.503 5       -12.012          35.000
C20  25568001.570 4 133139292.141 4      3446.152          29.000
C30  21547570.016 8 112203850.729 8       167.082          51.000
E02  25133343.867 8 132076631.951 8     -2177.461          51.000    25133347.508 8 101201568.026 8     -1668.462          51.000
E09  24201710.070 5 127180847.557 5      2213.227          35.000    24201703.727 5  97450237.148 5      1696.295          31.000
E36  23280228.438 8 122338435.175 8      -291.816          51.000    23280232.375 8  93739863.998 8      -223.561          51.000
> 2020 05 17 16 04 30.0000000  0 15        .000000000000
G10  20923640.195 8 109954445.298 8        56.203          51.000    20923641.125 8  85678834.525 8        43.798          51.000
G16  22015432.742 8 115691865.319 8     -2946.312          48.000    22015432.508 7  90149484.445 7     -2295.828          43.000
G20  21795519.383 6 114536203.608 6     -2193.238          39.000
G26  24206444.883 5 127205733.825 5     -3698.020          33.000    24206445.758 5  99121359.998 5     -2881.577          33.000
G27  20279845.695 8 106571300.969 8        24.574          51.000    20279846.359 8  83042584.229 8        19.149          51.000
R04  22898389.969 5 122619852.293 5     -3108.711          30.000    22898390.766 4  95370970.923 4     -2417.886          29.000
R05  20534186.211 6 109767004.137 6       448.988          36.000    20534192.344 5  85374324.939 5       349.216          34.000
R06  21991063.703 6 117348528.895 6      4082.223          40.000
C05  39630392.789 5 206365854.191 5       -11.668          35.000
C27  23769113.750 4 123772025.160 4     -2210.922          29.000
C30  21546612.836 8 112198866.781 8       158.414          51.000
E02  25145786.062 8 132142010.335 8     -2187.805          51.000    25145789.305 8 101251663.123 8     -1676.400          51.000
E09  24189075.336 5 127114447.901 5      2204.973          31.000    24189065.922 5  97399343.750 5      1689.788          30.000
E11  25175697.789 5 132299184.553 5     -2038.965          33.000
E36  23281889.797 8 122347165.544 8      -297.047          51.000    23281893.477 8  93746553.510 8      -227.616          51.000
> 2020 05 17 16 05  0.0000000  0 14        .000000000000
G10  20923386.047 8 109953109.480 8        35.902          51.000    20923387.109 8  85677793.660 8        27.976          51.000
G16  22032299.875 8 115780499.503 8     -2959.645          50.000    22032298.922 7  90218549.983 7     -2306.220          43.000
G20  21808090.359 6 114602269.617 6     -2207.973          36.000
G26  24227573.680 5 127316765.670 5     -3700.852          33.000    24227573.656 5  99207878.245 5     -2883.774          32.000
G27  20279757.742 8 106570840.566 8         9.094          51.000    20279758.805 8  83042225.457 8         7.086          51.000
R05  20531760.203 6 109754029.510 6       419.527          36.000    20531763.781 6  85364233.392 6       326.296          36.000
R06  21968152.023 6 117226273.616 6      4071.195          41.000
R11  21450833.469 5 114626764.851 5     -1901.395          35.000    21450835.852 4  89154135.325 4     -1478.865          29.000
C05  39630476.562 5 206366290.526 5       -13.625          34.000
C27  23781882.133 5 123838493.409 5     -2216.902          31.000
C30  21545737.922 8 112194310.119 8       148.453          51.000
E02  25158318.664 8 132207866.406 8     -2199.473          50.000    25158321.461 8 101302124.245 8     -1685.316          51.000
E09                                                                  24176527.500 5  97348829.824 5      1682.329          32.000
E36  23283613.320 8 122356221.615 8      -303.656          51.000    23283616.539 8  93753492.579 8      -232.696          51.000
> 2020 05 17 16 05 30.0000000  0 14        .000000000000
G10  20923274.008 8 109952520.957 8        10.375          51.000    20923275.086 8  85677335.088 8         8.084          51.000
G16  22049268.602 8 115869667.886 8     -2977.895          50.000    22049267.281 7  90288031.794 7     -2320.437          44.000
G26  24248743.797 5 127428016.473 5     -3708.945          34.000    24248742.750 5  99294567.058 5     -2890.096          34.000
G27  20279784.305 8 106570981.067 8       -11.500          51.000    20279785.617 8  83042334.930 8        -8.964          51.000
R05  20529521.758 6 109742064.175 6       385.348          36.000    20529525.969 6  85354927.051 6       299.709          38.000
R06  21945329.898 7 117104491.405 7      4054.734          42.000
R11  21461612.406 5 114684365.175 5     -1930.867          33.000    21461619.070 4  89198961.666 4     -1501.792          27.000
C05  39630594.094 5 206366901.789 5       -19.992          35.000
C20  25508542.555 5 132829692.195 5      3431.465          32.000
C27  23794714.023 5 123905302.876 5     -2229.914          30.000
C30  21544946.758 8 112190188.629 8       133.273          51.000
E02  25170942.711 8 132274205.804 8     -2216.133          49.000    25170945.078 8 101352955.717 8     -1698.121          51.000
E09  24164053.523 5 126982953.296 5      2179.754          33.000    24164064.836 4  97298674.811 4      1669.986          28.000
E36  23285400.172 8 122365610.580 8      -315.309          51.000    23285403.000 8  93760686.719 8      -241.597          51.000
> 2020 05 17 16 06  0.0000000  0 12        .000000000000
G10  20923233.844 8 109952310.484 8        -2.805          51.000    20923235.000 8  85677171.111 8        -2.185          51.000
G16  22066267.805 8 115958999.163 8     -2983.980          48.000    22066267.016 7  90357640.561 7     -2325.180          45.000
G26  24269885.203 5 127539114.830 5     -3704.309          31.000    24269884.586 4  99381137.146 4     -2886.474          29.000
G27  20279855.227 8 106571354.274 8       -19.809          51.000    20279856.633 8  83042625.739 8       -15.435          51.000
R06  21922527.898 7 116982812.492 7      4050.695          44.000
R11  21472478.273 5 114742455.681 5     -1948.324          32.000    21472497.039 4  89244161.170 4     -1515.366          27.000
C05  39630675.117 5 206367324.404 5       -14.805          34.000
C20  25488736.664 6 132726596.935 6      3434.738          36.000
C27  23807530.961 4 123972063.547 4     -2229.090          29.000
C30  21544169.000 8 112186137.287 8       130.352          51.000
E02  25183588.125 8 132340657.999 8     -2220.496          51.000    25183590.148 8 101403873.581 8     -1701.413          51.000
E36  23287180.062 8 122374963.365 8      -314.641          51.000    23287182.633 8  93767853.131 8      -241.076          51.000
> 2020 05 17 16 06 30.0000000  0 15        .000000000000
G10  20923309.336 8 109952707.231 8       -24.059          51.000    20923310.539 8  85677480.283 8       -18.747          51.000
G16  22083340.727 7 116048720.387 7     -2998.035          46.000    22083341.172 7  90427553.212 7     -2336.128          46.000
G20  21846282.352 6 114803016.059 6     -2252.387          36.000
G26  24291040.781 5 127650287.779 5     -3707.668          31.000    24291040.562 5  99467765.228 5     -2889.098          30.000
G27  20280014.250 8 106572190.446 8       -36.441          51.000    20280015.789 8  83043277.275 8       -28.396          51.000
R05  20525461.164 5 109720352.138 5       333.672          35.000    20525450.609 6  85338016.248 6       259.510          41.000
R06  21899789.586 7 116861473.571 7      4038.082          44.000
R21  20211998.805 5 108158448.522 5      1500.992          32.000
C05  39630763.508 5 206367784.832 5       -16.855          34.000
C20  25468956.195 6 132623613.433 6      3430.363          37.000
C27  23820395.820 6 124039034.528 6     -2236.590          36.000
C30  21543448.320 8 112182384.033 8       119.398          51.000
E02  25196298.711 8 132407450.698 8     -2232.773          51.000    25196300.258 8 101455052.353 8     -1710.883          51.000
E09  24139202.219 5 126852376.377 5      2165.754          34.000    24139213.914 5  97198600.766 5      1659.698          32.000
E36  23288996.719 8 122384509.240 8      -322.113          51.000    23288999.078 8  93775167.507 8      -246.847          51.000
> 2020 05 17 16 07  0.0000000  0 14        .000000000000
G10  20923483.938 8 109953625.172 8       -38.605          51.000    20923485.031 8  85678195.583 8       -30.082          51.000
G16  22100470.969 7 116138743.122 7     -3005.094          47.000    22100472.547 7  90497700.815 7     -2341.631          47.000
G20  21859163.562 5 114870704.708 5     -2261.531          35.000
G26  24312194.000 5 127761447.098 5     -3704.426          34.000    24312193.258 3  99554382.817 3     -2886.559          21.000
G27  20280245.203 8 106573404.616 8       -46.145          51.000    20280246.766 8  83044223.369 8       -35.957          51.000
R05  20523634.281 5 109710673.822 5       309.652          33.000    20523637.680 6  85330488.628 6       240.850          41.000
R06  21877099.688 7 116740392.845 7      4032.223          44.000
R11  21494609.188 5 114860635.995 5     -1991.117          35.000
C20  25449183.469 6 132520659.045 6      3431.828          39.000
C27  23833280.406 6 124106114.724 6     -2237.520          37.000
C30  21542768.602 8 112178844.557 8       114.980          51.000
E02  25209057.508 8 132474496.570 8     -2238.473          51.000    25209058.961 8 101506425.115 8     -1715.121          51.000
E09  24126846.711 5 126787451.723 5      2161.438          33.000    24126858.984 6  97148853.364 6      1655.852          38.000
E36  23290833.711 8 122394162.419 8      -322.938          51.000    23290836.000 8  93782564.099 8      -247.422          51.000
> 2020 05 17 16 07 30.0000000  0 13        .000000000000
G10  20923742.633 8 109954984.827 8       -57.488          51.000    20923743.672 8  85679255.063 8       -44.796          51.000
G16  22117643.648 8 116228985.609 8     -3016.688          50.000    22117645.367 7  90568019.654 7     -2350.666          47.000
G26  24333334.359 5 127872539.130 5     -3705.484          32.000
G27  20280533.211 8 106574918.410 8       -60.262          51.000    20280534.711 8  83045402.923 8       -46.957          51.000
R05  20521950.102 6 109701698.192 6       282.477          36.000    20521960.172 7  85323507.517 7       219.707          42.000
R06  21854443.461 7 116619494.340 7      4021.902          44.000
R11  21505843.062 6 114920621.585 6     -2013.238          36.000
C20  25429402.398 6 132417657.554 6      3429.523          39.000
C27  23846167.430 6 124173225.683 6     -2242.281          36.000
C30  21542114.914 8 112175440.991 8       106.367          51.000
E02  25221848.227 8 132541714.711 8     -2248.355          50.000    25221850.406 8 101557929.913 8     -1722.769          51.000
E09  24114517.359 6 126722668.415 6      2152.613          37.000    24114529.273 6  97099214.238 6      1649.067          38.000
E36  23292675.953 8 122403843.606 8      -328.105          51.000    23292678.266 8  93789982.158 8      -251.388          51.000
> 2020 05 17 16 08  0.0000000  0 12        .000000000000
G10  20924141.992 8 109957084.319 8      -100.961          51.000    20924143.570 8  85680891.067 8       -78.671          51.000
G16  22134914.953 8 116319743.961 8     -3052.574          51.000    22134916.094 7  90638740.436 7     -2378.629          46.000
G27  20280935.266 8 106577031.080 8       -99.008          51.000    20280936.859 8  83047049.150 8       -77.149          51.000
R05  20520457.633 6 109693729.553 6       229.875          40.000    20520468.547 7  85317309.654 7       178.786          42.000
R06  21831879.188 7 116499085.120 7      3986.441          45.000
C05  39630986.453 5 206368945.792 5       -36.355          35.000
C20  25409670.445 6 132314907.155 6      3402.172          38.000
C27  23859117.703 6 124240663.004 6     -2271.766          36.000
C30  21541544.188 8 112172469.764 8        73.281          51.000
E02  25234727.867 8 132609401.996 8     -2282.734          50.000    25234730.758 8 101609794.186 8     -1749.114          51.000
E09  24102272.469 5 126658326.918 5      2118.824          35.000    24102283.203 6  97049913.575 6      1623.449          38.000
E36  23294580.133 8 122413851.225 8      -357.723          51.000    23294582.680 8  93797650.333 8      -274.081          51.000
> 2020 05 17 16 08 30.0000000  0 14        .000000000000
G10  20924671.133 8 109959865.542 8       -81.012          51.000    20924672.828 8  85683058.257 8       -63.126          51.000
G16  22152273.023 8 116410957.978 8     -3024.980          51.000    22152273.266 7  90709816.261 7     -2357.128          46.000
G20  21898283.555 5 115076250.291 5     -2287.551          34.000
G27  20281440.508 8 106579685.620 8       -74.473          51.000    20281442.172 8  83049117.594 8       -58.034          51.000
R05  20519144.125 6 109686709.461 6       241.730          38.000    20519156.133 6  85311849.658 6       188.010          40.000
R06  21809397.008 7 116379111.193 7      4015.039          46.000
R11  21528750.984 5 115043116.845 5     -2043.648          35.000
C05  39631096.195 5 206369517.521 5         1.969          35.000
C20  25389976.062 6 132212352.748 6      3437.816          37.000
C27  23872119.648 5 124308369.279 5     -2237.781          30.000
C30  21541045.648 8 112169874.173 8       103.125          51.000
E02  25247686.086 8 132677498.926 8     -2253.602          51.000    25247688.805 8 101661972.339 8     -1726.834          50.000
E09  24090101.773 5 126594339.299 5      2148.621          34.000    24090112.164 6  97000908.618 6      1646.238          40.000
E36  23296535.430 8 122424127.334 8      -323.891          51.000    23296538.227 8  93805524.240 8      -248.224          51.000
> 2020 05 17 16 09  0.0000000  0 15        .000000000000
G10  20925226.555 8 109962784.988 8      -112.941          51.000    20925228.195 8  85685333.157 8       -88.006          51.000
G16  22169613.789 8 116502082.002 8     -3049.371          51.000    22169613.273 7  90780821.936 7     -2376.133          45.000
G21  24399801.141 5 128221815.119 5     -2556.828          31.000
G26  24396840.141 5 128206267.052 5     -3707.117          31.000
G27  20281945.750 8 106582339.646 8      -101.879          51.000    20281947.133 8  83051185.657 8       -79.386          51.000
R04  23059154.570 5 123480687.768 5     -3262.164          35.000    23059160.727 4  96040583.393 4     -2537.239          27.000
R05  20517904.141 5 109680086.455 5       200.789          35.000    20517917.484 6  85306698.234 6       156.163          39.000
R06  21786893.289 7 116259025.430 7      3991.152          45.000
R11  21540330.617 5 115104961.606 5     -2078.527          35.000
C05  39631124.453 5 206369663.426 5       -10.977          35.000
C20  25370216.711 6 132109458.552 6      3422.121          36.000
C30  21540516.039 8 112167116.698 8        81.336          51.000
E02  25260619.211 8 132745460.783 8     -2276.379          51.000    25260621.281 8 101714046.972 8     -1744.244          51.000
E09  24077901.695 6 126530228.211 6      2126.422          36.000    24077911.641 6  96951784.629 6      1629.411          39.000
E36  23298438.523 8 122434128.791 8      -342.090          51.000    23298441.508 8  93813187.692 8      -262.106          51.000
> 2020 05 17 16 09 30.0000000  0 13        .000000000000
G10  20925958.695 8 109966632.880 8      -135.465          51.000    20925960.875 8  85688331.518 8      -105.557          51.000
G16  22187087.188 8 116593904.178 8     -3064.105          51.000    22187086.219 7  90852371.630 7     -2387.618          45.000
G21  24414433.000 4 128298707.516 4     -2560.844          29.000
G27  20282601.469 8 106585784.530 8      -119.812          51.000    20282602.578 8  83053869.978 8       -93.360          51.000
R04  23077507.914 5 123578978.602 5     -3282.531          33.000    23077516.414 4  96117031.869 4     -2553.080          27.000
R05  20516905.422 6 109674580.522 6       169.227          39.000    20516901.930 6  85302468.274 6       131.612          36.000
R06  21764518.812 6 116139634.878 6      3976.375          41.000
C05  39631221.500 5 206370168.906 5       -14.191          35.000
C20  25350542.992 5 132007010.160 5      3415.586          34.000
C30  21540105.883 8 112164981.342 8        68.969          51.000
E02  25273676.945 8 132814076.433 8     -2289.867          51.000    25273678.664 8 101766622.568 8     -1754.568          50.000
E09  24065823.836 6 126466754.387 6      2113.488          40.000    24065832.031 6  96903148.837 6      1619.369          37.000
E36  23300439.852 8 122444646.085 8      -350.949          51.000    23300442.930 8  93821246.398 8      -268.936          51.000
> 2020 05 17 16 10  0.0000000  0 13        .000000000000
G10  20926781.328 8 109970955.609 8      -152.953          51.000    20926783.578 8  85691699.884 8      -119.184          51.000
G16  22204606.453 8 116685968.556 8     -3073.988          50.000    22204605.195 7  90924110.052 7     -2395.316          45.000
G21  24429048.945 5 128375509.980 5     -2559.422          32.000
G27  20283321.602 8 106589567.888 8      -132.844          51.000    20283322.594 8  83056818.049 8      -103.515          51.000
R04  23095936.352 5 123677672.975 5     -3297.301          30.000    23095947.961 4  96193803.182 4     -2564.570          25.000
R05  20516031.805 5 109669899.941 5       142.723          33.000    20516028.016 5  85298827.580 5       110.994          35.000
R06  21742187.625 5 116020484.410 5      3966.598          35.000
C05  39631301.312 5 206370585.215 5       -13.805          35.000
C20  25330868.656 5 131904561.052 5      3413.824          33.000
C30  21539729.141 8 112163019.714 8        61.473          51.000
E02  25286772.367 8 132882891.035 8     -2298.289          51.000    25286774.125 8 101819350.621 8     -1760.994          51.000
E09  24053781.727 6 126403466.445 6      2105.383          39.000    24053786.812 6  96854655.516 6      1613.281          37.000
E36  23302453.156 8 122455225.995 8      -354.824          51.000    23302456.258 8  93829353.082 8      -271.890          51.000
> 2020 05 17 16 10 30.0000000  0 13        .000000000000
G10  20927712.945 8 109975851.395 8      -173.012          51.000    20927715.039 8  85695514.781 8      -134.814          51.000
G16  22222189.711 8 116778371.255 8     -3085.969          48.000    22222188.461 7  90996112.109 7     -2404.651          44.000
G21  24443665.742 5 128452321.161 5     -2560.477          32.000
G27  20284124.969 8 106593789.026 8      -148.305          51.000    20284125.984 8  83060107.242 8      -115.562          51.000
R05  20515310.992 6 109666062.529 6       113.613          40.000    20515310.539 5  85295837.447 5        88.360          35.000
R06  21719920.914 6 115901678.012 6      3953.824          37.000
R11  21575954.984 5 115295374.935 5     -2148.090          34.000    21575956.195 4  89674183.975 4     -1670.737          27.000
C05  39631382.602 5 206371008.016 5       -14.797          34.000
C27  23924268.977 5 124580076.050 5     -2276.047          33.000
C30  21539404.734 8 112161330.146 8        51.555          51.000
E02  25299923.656 8 132952001.513 8     -2308.828          51.000    25299925.586 8 101872305.388 8     -1769.051          50.000
E09  24041793.453 6 126340464.844 6      2094.848          39.000    24041796.344 6  96806381.648 6      1605.329          39.000
E36  23304497.078 8 122465967.062 8      -361.043          51.000    23304500.156 8  93837583.243 8      -276.631          51.000
> 2020 05 17 16 11  0.0000000  0 12        .000000000000
G10  20928800.148 8 109981564.463 8      -194.961          51.000    20928802.422 8  85699966.536 8      -151.918          51.000
G16  22239883.078 7 116871354.304 7     -3099.859          47.000    22239882.227 7  91068566.417 7     -2415.475          45.000
G27  20285058.312 8 106598693.399 8      -165.691          51.000    20285059.359 8  83063928.829 8      -129.110          51.000
R05  20514797.914 5 109663314.171 5        83.566          31.000    20514794.188 6  85293699.706 6        64.999          36.000
R06  21697768.461 6 115783469.088 6      3939.520          40.000
R11  21588119.898 6 115360384.169 6     -2172.770          38.000
C05  39631511.805 5 206371680.894 5       -17.703          35.000
C27  23937433.391 5 124648658.945 5     -2283.688          35.000
C30  21539179.281 8 112160155.738 8        39.605          51.000
E02  25313177.234 8 133021650.878 8     -2321.285          51.000    25313179.258 8 101925673.070 8     -1778.647          50.000
E09  24029906.539 6 126277996.243 6      2082.660          40.000    24029907.531 6  96758516.138 6      1595.894          40.000
E36  23306618.227 8 122477113.898 8      -368.977          51.000    23306621.242 8  93846124.317 8      -282.758          51.000
> 2020 05 17 16 11 30.0000000  0 12        .000000000000
G10  20929939.656 8 109987552.786 8      -207.750          51.000    20929942.039 8  85704632.776 8      -161.883          51.000
G16  22257583.406 7 116964373.900 7     -3104.809          47.000    22257583.016 7  91141049.193 7     -2419.331          45.000
G27  20286018.695 8 106603740.152 8      -174.078          51.000    20286019.586 8  83067861.374 8      -135.645          51.000
R05  20514377.969 6 109661106.181 6        61.035          40.000    20514380.680 6  85291982.406 6        47.466          37.000
R06  21675626.438 7 115665311.663 7      3934.141          42.000
R11  21600356.109 5 115425746.838 5     -2188.730          30.000    21600377.430 3  89775605.917 3     -1702.349          23.000
C05  39631586.047 5 206372067.297 5       -11.672          35.000
C27  23950577.320 5 124717109.826 5     -2283.621          34.000
C30  21538949.797 8 112158960.470 8        36.727          51.000
E02  25326429.625 8 133091295.886 8     -2324.895          51.000    25326432.070 8 101979037.397 8     -1781.380          50.000
E09  24018017.734 6 126215520.977 6      2079.195          39.000    24018017.852 6  96710645.481 6      1593.099          39.000
E36  23308713.508 8 122488124.917 8      -368.289          51.000    23308716.562 8  93854561.313 8      -282.213          51.000
> 2020 05 17 16 12  0.0000000  0 12        .000000000000
G10  20931185.695 8 109994100.827 8      -218.055          51.000    20931187.969 8  85709735.147 8      -169.913          51.000
G16  22275344.898 7 117057712.223 7     -3107.184          47.000    22275344.562 7  91213780.344 7     -2421.182          43.000
G27  20287060.492 8 106609215.003 8      -180.223          51.000    20287061.195 8  83072127.498 8      -140.433          51.000
R05  20514118.594 5 109659722.429 5        41.410          35.000    20514120.492 6  85290901.904 6        32.211          37.000
R06  21653549.312 7 115547499.839 7      3930.727          44.000
R11  21612718.148 6 115491821.923 6     -2201.129          36.000
C05  39631659.453 5 206372449.685 5        -3.180          35.000    39631662.242 5 159580280.031 5        -2.453          35.000
C27  23963752.570 4 124785711.023 4     -2279.109          28.000
C30  21538770.680 8 112158027.315 8        36.129          51.000
E02  25339735.008 8 133161219.742 8     -2325.875          50.000    25339737.914 8 102032615.385 8     -1782.194          50.000
E09  24006181.484 6 126153325.748 6      2078.047          37.000    24006182.539 6  96662989.451 6      1592.371          40.000
E36  23310837.141 8 122499284.954 8      -364.973          51.000    23310840.453 8  93863112.505 8      -279.636          51.000
> 2020 05 17 16 12 30.0000000  0 15        .000000000000
G10  20932533.336 8 110001182.522 8      -247.824          51.000    20932535.594 8  85715253.362 8      -193.110          51.000
G16  22293162.062 8 117151341.426 8     -3128.805          48.000    22293161.797 7  91286738.129 7     -2438.030          44.000
G20  22005866.328 5 115641607.840 5     -2408.367          30.000
G21  24502150.438 4 128759672.782 4     -2561.344          29.000
G27  20288178.992 8 106615093.007 8      -205.512          51.000    20288179.812 8  83076707.776 8      -160.139          51.000
R04  23189485.117 5 124178564.679 5     -3378.629          32.000
R06  21631533.227 7 115430012.101 7      3907.910          46.000
R11  21625170.250 6 115558435.323 6     -2233.512          38.000    21625180.320 4  89878734.303 4     -1737.170          28.000
C05  39631727.266 5 206372802.950 5       -14.234          35.000    39631729.844 5 159580552.203 5       -10.919          35.000
C20  25232801.375 5 131393799.271 5      3396.988          33.000
C27  23976950.531 4 124854271.900 4     -2295.434          27.000
C30  21538637.211 8 112157331.563 8        16.336          51.000
E02  25353088.445 8 133231395.168 8     -2346.277          49.000    25353091.305 8 102086386.154 8     -1797.734          49.000
E09  23994394.477 6 126091387.014 6      2057.320          39.000    23994397.320 6  96615529.932 6      1576.640          40.000
E36  23312984.203 8 122510568.434 8      -381.082          51.000    23312987.992 8  93871758.286 8      -291.986          51.000
> 2020 05 17 16 13  0.0000000  0 14        .000000000000
G10  20934011.125 8 110008948.556 8      -267.352          51.000    20934013.391 8  85721304.824 8      -208.326          51.000
G16  22311063.023 8 117245409.879 8     -3140.027          49.000    22311062.836 7  91360038.186 7     -2446.778          44.000
G21  24516780.586 5 128836550.813 5     -2562.090          32.000
G27  20289403.086 8 106621526.215 8      -220.938          51.000    20289404.258 8  83081720.665 8      -172.159          51.000
R04  23208466.531 5 124280214.247 5     -3395.234          34.000    23208468.125 4  96662447.056 4     -2640.744          26.000
R05  20514085.086 5 109659534.882 5       -25.344          32.000    20514087.227 6  85290760.092 6       -19.709          38.000
R06  21609607.359 7 115313006.431 7      3894.961          46.000
R11  21637769.211 5 115625809.464 5     -2256.191          32.000    21637792.281 5  89931136.441 5     -1754.812          31.000
C05  39631818.266 5 206373276.862 5       -15.004          35.000    39631820.727 5 159580917.655 5       -11.617          35.000
C20  25213250.711 5 131291992.040 5      3392.496          33.000
C30  21538578.125 8 112157023.770 8         6.594          51.000
E02  25366518.430 8 133301971.706 8     -2356.371          49.000    25366521.008 8 102140464.276 8     -1805.480          49.000
E09  23982684.586 6 126029857.777 6      2046.977          36.000    23982689.758 6  96568384.224 6      1568.436          40.000
E36  23315183.602 8 122522126.546 8      -387.074          51.000    23315187.703 8  93880614.500 8      -296.553          51.000
> 2020 05 17 16 13 30.0000000  0 14        .000000000000
G10  20935585.797 8 110017223.304 8      -285.480          51.000    20935587.844 8  85727752.676 8      -222.452          51.000
G16  22329013.930 8 117339740.028 8     -3149.898          51.000    22329013.617 7  91433542.165 7     -2454.466          44.000
G21  24531400.930 5 128913377.794 5     -2561.262          34.000
G27  20290699.586 8 106628340.148 8      -234.633          51.000    20290701.070 8  83087030.224 8      -182.831          51.000
R04  23227524.406 5 124382278.784 5     -3410.105          32.000    23227527.031 4  96741827.541 4     -2652.304          26.000
R05  20514301.289 5 109660701.039 5       -53.184          31.000    20514303.906 6  85291667.146 6       -41.365          37.000
R06  21587738.969 7 115196309.822 7      3883.469          45.000
R21  20098668.672 5 107551999.995 5      1383.047          32.000    20098664.328 4  83651561.943 4      1075.703          28.000
C05  39631899.188 5 206373698.096 5       -14.500          35.000    39631901.516 5 159581243.376 5       -11.149          35.000
C20  25193708.508 5 131190237.014 5      3389.602          33.000
C30  21538560.367 8 112156930.975 8        -1.801          51.000
E02  25379991.461 8 133372772.544 8     -2365.094          49.000    25379993.805 8 102194714.258 8     -1812.146          49.000
E09  23971019.055 5 125968564.860 5      2038.062          33.000    23971026.898 6  96521419.568 6      1561.402          41.000
E36  23317402.047 8 122533784.111 8      -391.422          51.000    23317406.055 8  93889546.928 8      -299.954          51.000
> 2020 05 17 16 14  0.0000000  0 13        .000000000000
G10  20937275.648 8 110026103.452 8      -305.676          51.000    20937277.648 8  85734672.285 8      -238.189          51.000
G16  22347032.703 8 117434426.753 8     -3161.695          50.000    22347032.312 7  91507323.994 7     -2463.659          44.000
G21  24546030.219 5 128990250.408 5     -2563.203          33.000
G27  20292087.172 8 106635632.785 8      -250.676          51.000    20292088.703 8  83092712.812 8      -195.332          51.000
R05  20514683.289 6 109662746.951 6       -82.508          39.000    20514688.461 6  85293258.477 6       -64.176          39.000
R06  21565947.461 7 115080024.769 7      3869.805          45.000
C05  39631988.516 5 206374163.121 5       -15.711          35.000    39631990.773 5 159581602.977 5       -12.375          35.000
C20  25174196.648 5 131088633.029 5      3384.992          33.000
C27  24016796.211 5 125061756.387 5     -2313.340          32.000
C30  21538602.656 8 112157150.227 8       -12.051          51.000
E02  25393526.016 8 133443893.181 8     -2375.488          49.000    25393527.727 8 102249209.293 8     -1820.182          50.000
E09  23959417.812 5 125907591.389 5      2026.516          35.000    23959427.078 6  96474711.901 6      1553.219          40.000
E36  23319657.992 8 122545638.408 8      -397.953          51.000    23319661.688 8  93898630.083 8      -304.856          51.000
> 2020 05 17 16 14 30.0000000  0 12        .000000000000
G10  20939078.641 8 110035578.176 8      -339.641          51.000    20939080.539 8  85742055.199 8      -264.655          51.000
G16  22365116.664 8 117529456.993 8     -3187.297          49.000    22365116.250 7  91581373.492 7     -2483.611          45.000
G27  20293564.070 8 106643394.539 8      -280.492          51.000    20293565.367 8  83098760.948 8      -218.562          51.000
R05  20515229.781 6 109665662.047 6      -125.859          41.000    20515234.352 6  85295525.856 6       -97.888          38.000
R06  21544231.938 7 114964145.462 7      3841.664          45.000
R11  21676297.508 6 115831589.939 6     -2334.883          37.000    21676317.234 5  90091277.120 5     -1816.017          31.000
C05  39632084.359 5 206374661.935 5       -30.789          35.000    39632086.508 5 159581988.180 5       -23.856          35.000
C20  25154711.984 5 130987172.224 5      3365.543          34.000
C30  21538702.883 8 112157672.047 8       -36.211          51.000
E02  25407119.227 8 133515321.730 8     -2399.926          48.000    25407120.641 8 102303940.239 8     -1838.925          50.000
E09  23947880.922 6 125846961.050 6      2001.551          38.000    23947889.992 6  96428254.853 6      1533.799          40.000
E36  23321949.430 8 122557679.160 8      -418.324          51.000    23321952.969 8  93907856.119 8      -320.537          51.000
> 2020 05 17 16 15  0.0000000  0 15        .000000000000
G10  20940965.133 8 110045491.654 8      -338.887          51.000    20940967.070 8  85749779.995 8      -264.068          51.000
G16  22383235.602 7 117624672.809 7     -3178.023          47.000    22383235.500 7  91655567.622 7     -2476.385          45.000
G27  20295100.789 8 106651470.916 8      -275.719          51.000    20295102.008 8  83105054.224 8      -214.849          51.000
G32  24666145.617 7 129621467.436 7      3013.094          43.000    24666147.906 7 101003753.567 7      2347.868          43.000
R05  20515908.703 6 109669288.713 6      -134.000          40.000    20515911.328 6  85298346.525 6      -104.222          38.000
R06  21522563.680 7 114848518.986 7      3848.711          44.000
R11  21689351.078 4 115901378.189 4     -2335.594          29.000    21689369.539 5  90145556.957 5     -1816.570          33.000
C05                                                                  39632159.227 5 159582280.660 5        -9.385          35.000
C20  25135225.055 5 130885703.079 5      3381.520          34.000
C27  24043497.812 5 125200792.028 5     -2318.688          35.000
C30  21538831.602 8 112158343.219 8       -26.031          50.000
E02  25420740.789 8 133586901.217 8     -2389.523          49.000    25420742.281 8 102358786.836 8     -1831.017          51.000
E09  23936377.500 6 125786504.343 6      2011.070          38.000    23936386.477 7  96381930.888 7      1540.923          42.000
E11  25422532.172 5 133596268.410 5     -2073.406          35.000
E36  23324246.750 8 122569751.090 8      -404.086          51.000    23324250.344 8  93917106.036 8      -309.576          51.000
> 2020 05 17 16 15 30.0000000  0 15        .000000000000
G10  20943023.367 8 110056307.477 8      -361.742          51.000    20943025.477 8  85758207.927 8      -281.874          51.000
G16  22401477.289 7 117720536.208 7     -3192.426          46.000    22401478.055 7  91730266.360 7     -2487.605          44.000
G27  20296785.922 8 106660326.756 8      -294.289          51.000    20296787.352 8  83111954.868 8      -229.316          51.000
G32  24649018.711 7 129531465.028 7      3007.371          43.000    24649020.070 7 100933621.939 7      2343.409          42.000
R05  20516809.461 6 109674098.857 6      -165.887          40.000    20516812.875 6  85302087.813 6      -129.023          36.000
R06  21501032.094 7 114733621.120 7      3831.777          44.000
R11  21702598.086 5 115972071.180 5     -2359.992          33.000    21702606.508 5  90200542.542 5     -1835.549          30.000
C05  39632295.016 5 206375760.357 5       -15.984          35.000    39632297.273 5 159582837.159 5       -12.321          35.000
C20  25115824.336 5 130784687.995 5      3373.406          35.000
C27  24056937.789 5 125270802.883 5     -2327.762          30.000
C30  21539077.297 8 112159624.378 8       -39.113          50.000
E02  25434479.258 8 133659094.106 8     -2402.727          50.000    25434480.719 8 102414103.436 8     -1841.062          51.000
E09  23924995.641 6 125726687.239 6      1996.918          37.000    23925004.961 6  96336097.102 6      1530.175          41.000
E11                                                                  25434446.648 5 102413976.203 5     -1592.802          33.000
E36  23326638.336 8 122582318.384 8      -413.285          51.000    23326642.023 8  93926735.527 8      -316.679          51.000
> 2020 05 17 16 16  0.0000000  0 14        .000000000000
G10  20945125.242 8 110067352.368 8      -379.211          51.000    20945127.375 8  85766814.350 8      -295.489          51.000
G16  22419713.578 7 117816371.774 7     -3201.316          46.000    22419715.352 7  91804943.389 7     -2494.532          44.000
G27  20298491.672 8 106669290.081 8      -307.758          51.000    20298493.234 8  83118939.269 8      -239.811          51.000
G32  24631836.703 7 129441172.421 7      3007.398          43.000    24631838.539 7 100863264.207 7      2343.433          43.000
R05  20517803.180 7 109679408.217 7      -192.578          42.000    20517805.070 5  85306217.325 5      -149.786          32.000
R06  21479509.703 7 114618773.298 7      3820.195          43.000
R11  21715893.812 6 116043107.566 6     -2379.922          39.000
C05  39632370.438 5 206376151.631 5       -14.832          35.000    39632372.672 5 159583140.401 5       -11.614          35.000
C20  25096382.914 5 130683462.719 5      3370.895          35.000
C30  21539312.375 8 112160849.639 8       -47.070          50.000
E02  25448206.125 8 133731226.022 8     -2410.523          51.000    25448207.820 8 102469373.302 8     -1847.004          51.000
E09  23913607.898 6 125666839.187 6      1988.266          36.000    23913617.742 6  96290239.488 6      1523.665          38.000
E11                                                                  25446302.656 5 102461721.340 5     -1593.213          30.000
E36  23328996.180 8 122594708.405 8      -417.098          51.000    23328999.906 8  93936229.172 8      -319.645          51.000
> 2020 05 17 16 16 30.0000000  0 13        .000000000000
G10  20947343.289 8 110079008.234 8      -398.996          51.000    20947345.414 8  85775896.857 8      -310.906          51.000
G16  22438017.266 7 117912559.676 7     -3212.293          47.000    22438019.031 7  91879894.973 7     -2503.085          43.000
G27  20300290.781 8 106678744.113 8      -323.438          51.000    20300292.320 8  83126306.023 8      -252.029          51.000
G32  24614672.945 7 129350975.251 7      3004.590          45.000    24614676.250 7 100792980.813 7      2341.242          44.000
R05  20518963.016 5 109685605.830 5      -222.098          35.000    20518966.188 4  85311037.788 4      -172.727          27.000
R06  21458069.641 7 114504368.297 7      3805.867          43.000
R11  21729312.359 6 116114809.794 6     -2401.266          38.000    21729334.266 5  90311589.723 5     -1867.648          31.000
C05  39632455.867 5 206376597.475 5       -16.719          35.000    39632458.141 6 159583484.106 6       -12.402          36.000
C20  25076975.289 5 130582408.756 5      3365.836          35.000
C30  21539609.688 8 112162398.708 8       -57.320          49.000
E02  25461993.609 8 133803677.781 8     -2420.645          51.000    25461995.562 8 102524888.237 8     -1854.783          51.000
E09  23902286.961 6 125607344.511 6      1976.770          37.000    23902297.234 4  96244645.523 4      1515.458          29.000
E36  23331393.070 8 122607303.707 8      -423.508          51.000    23331396.703 8  93945880.113 8      -324.497          51.000
> 2020 05 17 16 17  0.0000000  0 13        .000000000000
G10  20949666.328 8 110091215.689 8      -416.188          51.000    20949668.375 8  85785409.180 8      -324.302          51.000
G16  22456376.648 7 118009038.845 7     -3220.816          47.000    22456377.828 7  91955073.522 7     -2509.730          43.000
G27  20302172.281 8 106688630.811 8      -336.898          51.000    20302173.438 8  83134009.929 8      -262.518          51.000
G32  24597516.914 7 129260817.844 7      3004.371          45.000    24597521.344 7 100722728.367 7      2341.068          45.000
R05  20520277.211 7 109692632.011 7      -248.145          42.000
R06  21436702.336 7 114390351.055 7      3794.156          44.000
R11  21742844.672 6 116187114.275 6     -2420.316          38.000    21742865.969 5  90367826.546 5     -1882.465          32.000
C05  39632540.453 5 206377037.184 5       -15.070          35.000    39632542.672 6 159583824.921 6       -11.288          36.000
C20  25057590.242 5 130481470.210 5      3362.715          35.000
C30  21539958.117 8 112164214.100 8       -65.062          49.000
E02  25475830.016 8 133876388.953 8     -2428.129          50.000    25475832.219 8 102580601.961 8     -1860.526          51.000
E09  23891021.734 5 125548146.370 5      1967.465          34.000
E36  23333817.766 8 122620045.582 8      -427.348          51.000    23333821.289 8  93955643.372 8      -327.439          51.000
> 2020 05 17 16 17 30.0000000  0 13        .000000000000
G10  20952096.242 8 110103984.771 8      -434.848          51.000    20952098.383 8  85795359.124 8      -338.842          51.000
G16  22474793.211 8 118105817.036 8     -3230.797          48.000    22474793.922 7  92030485.076 7     -2517.507          43.000
G27  20304138.266 8 106698961.456 8      -351.672          51.000    20304138.742 8  83142059.775 8      -274.030          51.000
G32  24580370.812 7 129170713.979 7      3002.609          44.000    24580376.102 7 100652517.639 7      2339.699          44.000
R05  20521748.898 5 109700497.247 5      -275.938          33.000    20521759.781 5  85322625.661 5      -214.615          30.000
R06  21415410.242 7 114276736.878 7      3780.391          43.000
R11  21756491.539 6 116260028.256 6     -2440.211          37.000    21756505.742 5  90424537.479 5     -1897.939          33.000
C05  39632626.188 5 206377483.557 5       -15.047          35.000    39632628.336 6 159584170.094 6       -11.424          36.000
C20  25038229.844 5 130380660.051 5      3358.426          34.000
C30  21540360.039 8 112166307.033 8       -74.312          49.000
E02  25489716.273 7 133949368.461 7     -2436.871          47.000    25489719.805 8 102636521.299 8     -1867.225          51.000
E09  23879814.734 5 125489273.007 5      1958.234          32.000
E36  23336272.383 8 122632944.734 8      -432.477          51.000    23336275.672 8  93965527.137 8      -331.345          51.000
> 2020 05 17 16 18  0.0000000  0 13        .000000000000
G10  20954635.227 8 110117327.132 8      -453.789          51.000    20954637.172 8  85805755.782 8      -353.602          51.000
G16  22493268.672 8 118202903.711 8     -3240.820          49.000    22493268.773 7  92106136.980 7     -2525.318          42.000
G27  20306191.172 8 106709749.151 8      -366.750          51.000    20306191.273 8  83150465.755 8      -285.779          51.000
G32  24563237.578 7 129080679.154 7      3000.449          44.000    24563243.430 7 100582360.691 7      2338.015          43.000
R06  21394197.172 7 114163542.684 7      3766.508          43.000
R11  21770252.516 6 116333560.900 6     -2460.746          36.000    21770262.242 5  90481729.550 5     -1913.917          30.000
C05  39632715.492 5 206377948.958 5       -15.539          35.000    39632717.586 6 159584529.204 6       -11.850          36.000
C20  25018897.078 5 130279992.946 5      3353.598          32.000
C27  24124322.219 5 125621670.650 5     -2352.016          30.000
C30  21540817.789 8 112168690.464 8       -83.867          49.000
E02  25503655.219 8 134022626.963 8     -2446.090          48.000    25503660.461 8 102692654.429 8     -1874.342          51.000
E09  23868669.953 5 125430705.967 5      1947.207          35.000
E36  23338759.281 8 122646013.566 8      -438.062          51.000    23338762.242 8  93975540.914 8      -335.670          51.000
> 2020 05 17 16 18 30.0000000  0 12        .000000000000
G10  20957287.797 8 110131266.365 8      -483.953          51.000    20957289.578 8  85816617.518 8      -377.106          51.000
G16  22511807.008 8 118300320.807 8     -3262.184          49.000    22511806.180 6  92182046.367 6     -2541.961          41.000
G27  20308335.734 8 106721018.741 8      -393.129          51.000    20308335.930 8  83159247.228 8      -306.334          51.000
G32  24546122.508 7 128990740.697 7      2986.914          42.000    24546128.742 7 100512278.822 7      2327.469          43.000
R06  21373068.539 7 114050797.533 7      3741.023          44.000
R11  21784117.477 5 116407726.040 5     -2492.797          33.000    21784138.625 5  90539393.072 5     -1938.842          30.000
C05  39632812.820 5 206378455.581 5       -26.469          35.000    39632814.914 6 159584920.998 6       -20.658          36.000
C20  24999598.578 5 130179495.227 5      3337.594          30.000
C30  21541336.164 8 112171389.072 8      -104.512          50.000
E02  25517652.742 8 134096186.983 8     -2466.305          49.000    25517658.219 8 102749018.596 8     -1889.787          51.000
E09  23857592.305 6 125372489.245 6      1925.250          36.000
E36  23341283.086 8 122659276.354 8      -454.598          51.000    23341285.844 8  93985703.308 8      -348.331          51.000
> 2020 05 17 16 19  0.0000000  0 11        .000000000000
G10  20960044.664 8 110145753.838 8      -488.137          51.000    20960046.484 8  85827906.474 8      -380.366          51.000
