     3.02           OBSERVATION DATA    M (MIXED)           RINEX VERSION / TYPE
SAVERINEX           SC600               20200515 095931 LCL PGM / RUN BY / DATE
       G = GPS       R = GLONASS       C = COMPASS          COMMENT
       S = SBAS      J = QZSS          E = GALILEO          COMMENT
BEAN                                                        MARKER NAME
1                                                           MARKER NUMBER
GEODETIC                                                    MARKER TYPE
Unige DICCA         GTER                                    OBSERVER / AGENCY
SC60291900056       SC600               2.12(191202)        REC # / TYPE / VERS
                    HEMA45          NONE                    ANT # / TYPE
  4509407.8091   693652.4678  4442337.6214                  APPROX POSITION XYZ
        0.0000        0.0000        0.0000                  ANTENNA: DELTA H/E/N
G    8 C1C L1C D1C S1C C2Y L2Y D2Y S2Y                      SYS / # / OBS TYPES
R    8 C1C L1C D1C S1C C2P L2P D2P S2P                      SYS / # / OBS TYPES
C    4 C1I L1I D1I S1I                                      SYS / # / OBS TYPES
E    8 C1C L1C D1C S1C C7Q L7Q D7Q S7Q                      SYS / # / OBS TYPES
DBHZ                                                        COMMENT
     30.000                                                 INTERVAL
  2020    05    15    07    00    0.0000000     GPS         TIME OF FIRST OBS
  2020    05    15    07    59   30.0000000     GPS         TIME OF LAST OBS
     0                                                      RCV CLOCK OFFS APPL
G L1C  0.00000                                              SYS / PHASE SHIFT
G L2Y  0.00000                                              SYS / PHASE SHIFT
R L1C  0.00000                                              SYS / PHASE SHIFT
R L2P  0.25000                                              SYS / PHASE SHIFT
C L1I  0.00000                                              SYS / PHASE SHIFT
E L1C  0.50000                                              SYS / PHASE SHIFT
E L7Q -0.25000                                              SYS / PHASE SHIFT
 13 R01  1 R02 -4 R03  5 R07  5 R08  6 R09 -2 R10 -5 R11  0 GLONASS SLOT / FRQ #
    R12 -1 R19  3 R20  2 R21  4 R22 -3                      GLONASS SLOT / FRQ #
 C1C   71.950 C2C   71.950 C2P   71.950                     GLONASS COD/PHS/BIS
    18                                                      LEAP SECONDS
*** Above antenna height is from mark to ANTENNA BOTTOM.    COMMENT
    17     4        0.0000        ANT MEASURE TYPE/HEIGT    COMMENT
    0.0000    0.0000    0.0458    0.0405    0.0000          COMMENT
                    BASE STATION                            COMMENT
                                                            END OF HEADER
> 2020 05 15 07 00  0.0000000  0 15        .000000000000
G12  21372656.414 8 112314046.147 8      2496.688          51.000    21372655.750 8  87517438.938 8      1945.471          51.000
G13  23348875.297 7 122699120.077 7     -3601.656          47.000    23348871.859 6  95609691.849 6     -2806.488          38.000
G15  21914468.891 8 115161292.887 8     -2922.164          51.000    21914468.227 8  89736065.799 8     -2277.011          51.000
G19  21579387.859 6 113400468.685 6       416.398          40.000    21579383.281 6  88364030.778 6       324.463          36.000
G24  20272197.641 7 106531113.229 7       747.930          42.000    20272197.859 7  83011254.367 7       582.799          43.000
G25  23889183.750 7 125538533.801 7      3441.051          45.000    23889186.758 7  97822245.004 7      2681.338          44.000
R02  20299247.539 8 108320652.017 8     -2199.012          51.000    20299249.664 8  84249396.005 8     -1710.342          48.000
R11  21458099.023 6 114665494.679 6     -2605.062          39.000
R12  19609236.352 5 104749013.517 5       -59.066          35.000    19609255.109 5  81471513.396 5       -45.941          30.000
R22  22530000.750 8 120266678.894 8      3841.316          49.000    22530002.695 7  93540759.511 7      2987.697          43.000
C20  25080384.906 6 130600135.656 6     -3046.184          39.000
C27  24821809.914 7 129253685.910 7      3106.523          44.000
E07  25227493.820 8 132571371.288 8     -2555.531          51.000    25227495.531 8 101580647.036 8     -1958.089          51.000
E27  23615664.422 8 124101134.113 8       807.441          48.000    23615665.000 7  95090501.021 7       618.713          47.000
E30  23098167.305 8 121381648.642 8     -1551.965          51.000    23098169.414 8  93006748.960 8     -1189.153          51.000
> 2020 05 15 07 00 30.0000000  0 15        .000000000000
G12  21358442.977 8 112239353.421 8      2483.223          51.000    21358441.742 8  87459236.828 8      1934.982          51.000
G13  23369458.227 7 122807285.980 7     -3609.012          45.000    23369454.812 5  95693976.913 5     -2812.217          35.000
G15  21931187.969 8 115249152.918 8     -2934.730          51.000    21931187.508 8  89804528.145 8     -2286.806          51.000
G19  21577077.695 5 113388329.468 5       392.895          35.000    21577074.625 5  88354571.724 5       306.158          34.000
G24  20267965.789 7 106508873.732 7       735.102          42.000    20267966.117 7  82993924.890 7       572.806          43.000
G25  23869558.906 7 125435404.505 7      3434.641          45.000    23869562.852 7  97741884.565 7      2676.343          44.000
R02  20311679.703 8 108386998.318 8     -2223.574          49.000    20311683.320 8  84300998.627 8     -1729.447          49.000
R11  21472754.914 5 114743742.507 5     -2610.801          35.000    21472777.398 4  89245334.010 4     -2030.635          25.000
R12  19609606.320 5 104750986.415 5       -71.375          33.000    19609617.875 5  81473048.012 5       -55.514          31.000
R22  22508445.398 7 120151615.320 7      3829.996          47.000    22508447.328 7  93451265.677 7      2978.889          43.000
C20  25097950.422 6 130691610.628 6     -3051.469          38.000
C27  24803929.977 7 129160572.905 7      3101.242          46.000
E07  25242109.586 8 132648177.396 8     -2564.508          51.000    25242110.852 8 101639498.426 8     -1964.947          51.000
E27  23611078.180 8 124077035.190 8       799.453          48.000    23611078.484 7  95072035.594 7       612.673          47.000
E30  23107043.359 8 121428292.778 8     -1557.316          51.000    23107045.789 8  93042489.252 8     -1193.235          50.000
> 2020 05 15 07 01  0.0000000  0 16        .000000000000
G12  21344312.070 8 112165096.426 8      2471.312          50.000    21344310.383 8  87401374.244 8      1925.701          50.000
G13  23390088.508 6 122915705.062 6     -3614.777          41.000    23390086.539 6  95778459.287 6     -2816.713          37.000
G15  21947984.609 8 115337419.201 8     -2945.512          51.000    21947984.195 8  89873307.037 8     -2295.207          51.000
G19  21574905.320 5 113376909.681 5       372.039          35.000    21574901.961 5  88345673.199 5       289.894          32.000
G20  24222441.234 4 127289786.980 4     -2225.918          29.000
G24  20263814.398 7 106487058.656 7       723.387          42.000    20263814.383 7  82976926.117 7       563.681          42.000
G25  23849978.484 7 125332508.142 7      3429.414          43.000    23849983.164 7  97661705.633 7      2672.274          43.000
R02  20324255.984 8 108454115.271 8     -2246.734          50.000    20324261.055 8  84353200.694 8     -1747.460          49.000
R11  21487413.453 5 114822206.697 5     -2615.453          31.000
R12  19610049.359 5 104753353.718 5       -82.395          34.000    19610057.945 5  81474889.290 5       -64.082          31.000
R22  22486960.477 8 120036927.922 8      3820.098          49.000    22486962.992 7  93362064.396 7      2971.190          44.000
C20  25115554.781 6 130783286.390 6     -3055.625          38.000
C27  24786086.758 7 129067652.470 7      3097.410          46.000
E07  25256782.859 8 132725286.700 8     -2571.855          51.000    25256784.195 8 101698582.148 8     -1970.681          51.000
E27  23606543.672 8 124053208.459 8       793.141          48.000    23606544.586 7  95053778.745 7       607.749          47.000
E30  23115956.234 8 121475130.248 8     -1560.988          51.000    23115958.852 8  93078377.691 8     -1196.118          51.000
> 2020 05 15 07 01 30.0000000  0 14        .000000000000
G12  21330241.258 8 112091155.429 8      2458.230          51.000    21330239.297 8  87343757.911 8      1915.504          51.000
G13  23410742.531 6 123024254.622 6     -3621.664          39.000    23410743.617 6  95863043.403 6     -2822.076          37.000
G15  21964835.133 8 115425968.591 8     -2957.582          51.000    21964834.797 8  89942306.512 8     -2304.612          51.000
G24  20259720.641 6 106465547.314 6       710.605          41.000    20259720.742 7  82960164.027 7       553.719          42.000
G25  23830419.602 7 125229725.217 7      3423.109          42.000    23830424.273 7  97581615.038 7      2667.358          42.000
R02  20336954.742 8 108521877.226 8     -2270.668          51.000    20336959.164 8  84405904.422 8     -1766.078          48.000
R11  21502119.852 6 114900749.094 6     -2620.359          37.000    21502124.750 4  89367301.457 4     -2038.057          28.000
R12  19610543.578 5 104755991.990 5       -94.039          35.000    19610549.289 5  81476941.256 5       -73.141          33.000
R22  22465524.344 8 119922498.835 8      3808.773          49.000    22465527.406 7  93273064.046 7      2962.382          44.000
C20  25133174.422 6 130875040.784 6     -3061.211          36.000
C27  24768257.242 7 128974807.498 7      3092.445          45.000
E07  25271490.180 8 132802576.871 8     -2580.516          49.000    25271492.289 8 101757804.462 8     -1977.275          51.000
E27  23602038.273 8 124029532.821 8       785.559          48.000    23602039.578 7  95035637.665 7       601.910          47.000
E30  23124882.805 8 121522039.501 8     -1566.000          51.000    23124885.508 8  93114321.129 8     -1199.838          51.000
> 2020 05 15 07 02  0.0000000  0 16        .000000000000
G12  21316242.133 8 112017590.806 8      2444.527          51.000    21316240.617 8  87286434.846 8      1904.827          51.000
G13  23431433.984 7 123132992.496 7     -3629.039          42.000    23431436.266 5  95947774.224 5     -2827.823          33.000
G15  21981750.148 8 115514858.063 8     -2969.805          50.000    21981750.305 8  90011570.977 8     -2314.137          50.000
G19  21570913.227 5 113355920.135 5       326.367          34.000
G24  20255696.203 6 106444400.628 6       697.449          40.000    20255696.859 6  82943686.088 6       543.464          41.000
G25  23810893.805 7 125127116.700 7      3416.172          43.000    23810897.797 7  97501660.358 7      2661.952          43.000
R02  20349786.023 8 108590340.929 8     -2295.109          51.000    20349788.453 8  84459153.939 8     -1785.085          48.000
R11  21516861.359 6 114979526.506 6     -2626.387          38.000    21516861.414 4  89428559.177 4     -2042.745          29.000
R12  19611099.984 6 104758961.456 6      -105.641          37.000    19611106.219 5  81479250.820 5       -82.165          35.000
R22  22444148.859 8 119808393.409 8      3796.727          48.000    22444152.133 7  93184315.454 7      2953.010          44.000
C20  25150820.484 6 130966930.438 6     -3066.688          36.000
C27  24750453.156 7 128882099.691 7      3086.609          45.000
E07  25286242.781 8 132880106.072 8     -2589.613          49.000    25286245.977 8 101817209.944 8     -1984.222          51.000
E21  27422784.453 6 144107704.910 6      2322.574          41.000
E27  23597573.086 8 124006067.625 8       777.262          48.000    23597574.445 7  95017657.828 7       595.663          47.000
E30  23133834.273 8 121569079.502 8     -1571.445          51.000    23133837.109 8  93150364.756 8     -1204.062          50.000
> 2020 05 15 07 02 30.0000000  0 15        .000000000000
G12  21302324.664 8 111944454.111 8      2432.191          51.000    21302324.000 8  87229445.194 8      1895.214          51.000
G13  23452171.508 7 123241966.462 7     -3634.973          44.000    23452172.953 5  96032688.949 5     -2832.446          33.000
G15  21998738.969 8 115604135.935 8     -2981.008          50.000    21998739.680 8  90081138.100 8     -2322.863          50.000
G19  21569112.555 6 113346469.413 6       304.656          37.000
G24  20251750.969 6 106423668.656 6       685.504          41.000    20251751.883 6  82927531.333 6       534.159          41.000
G25  23791410.938 7 125024733.799 7      3410.430          43.000    23791413.992 7  97421881.503 7      2657.478          43.000
R02  20362757.359 8 108659554.612 8     -2318.043          51.000    20362758.773 8  84512986.777 8     -1802.925          48.000
R12  19611726.711 5 104762312.152 5      -116.285          35.000    19611734.133 5  81481856.941 5       -90.444          34.000
R22  22422843.969 7 119694667.449 7      3786.000          46.000    22422847.555 7  93095861.980 7      2944.670          44.000
C20  25168502.055 5 131059002.397 5     -3070.969          34.000
C27  24732685.500 7 128789581.092 7      3082.117          46.000
E07  25301050.430 8 132957922.789 8     -2597.191          50.000    25301054.320 8 101876835.732 8     -1990.044          51.000
E21  27409533.320 6 144038088.063 6      2319.680          39.000
E27  23593157.453 8 123982862.510 8       770.684          48.000    23593158.867 7  94999877.312 7       590.476          47.000
E30  23142819.984 8 121616299.506 8     -1575.543          51.000    23142822.820 8  93186546.318 8     -1207.261          50.000
> 2020 05 15 07 03  0.0000000  0 18        .000000000000
G12  21288469.555 8 111871643.432 8      2420.641          51.000    21288469.242 8  87172709.606 8      1886.217          51.000
G13  23472934.562 7 123351071.914 7     -3639.820          44.000    23472933.844 4  96117706.030 4     -2836.224          27.000
G15  22015781.719 8 115693697.230 8     -2990.992          50.000    22015782.844 8  90150926.088 8     -2330.643          50.000
G17  22759499.547 5 119601977.089 5     -1523.078          31.000
G19  21567429.289 6 113337627.064 6       283.508          38.000
G20  24273759.531 5 127559443.419 5     -2264.102          33.000
G24  20247865.461 7 106403250.919 7       674.488          43.000    20247867.141 7  82911621.389 7       525.575          43.000
G25  23771951.859 7 124922475.258 7      3405.535          42.000    23771954.289 7  97342199.577 7      2653.667          43.000
R02  20375847.758 8 108729410.704 8     -2340.117          51.000    20375850.406 8  84567319.287 8     -1820.091          49.000
R11  21546396.047 5 115137335.566 5     -2635.074          35.000
R12  19612406.031 5 104765939.511 5      -126.547          31.000    19612411.445 5  81484678.247 5       -98.422          31.000
R22  22401590.648 7 119581221.524 7      3775.914          44.000    22401595.477 7  93007626.309 7      2936.825          43.000
C20  25186199.062 5 131151152.614 5     -3073.617          33.000
C27  24714935.758 8 128697152.713 8      3078.555          48.000
E07  25315893.289 8 133035922.952 8     -2603.906          50.000    25315897.547 8 101936602.071 8     -1995.186          51.000
E21  27396291.227 5 143968516.604 5      2317.195          35.000
E27  23588771.766 8 123959814.683 8       764.859          48.000    23588773.359 7  94982217.302 7       586.022          47.000
E30  23151820.352 8 121663596.298 8     -1578.703          51.000    23151823.078 8  93222786.701 8     -1209.596          50.000
> 2020 05 15 07 03 30.0000000  0 16        .000000000000
G12  21274695.000 8 111799255.962 8      2407.578          51.000    21274694.344 8  87116303.801 8      1876.038          51.000
G13  23493740.695 7 123460402.388 7     -3646.215          45.000    23493737.570 4  96202898.529 4     -2841.206          29.000
G15  22032896.359 8 115783635.027 8     -3002.184          50.000    22032897.516 8  90221007.466 8     -2339.364          50.000
G19  21565880.148 6 113329489.249 6       261.379          37.000    21565876.539 5  88308662.262 5       203.669          33.000
G24  20244057.836 6 106383243.426 6       661.848          41.000    20244060.609 6  82896031.091 6       515.725          41.000
G25  23752534.891 6 124820438.183 6      3399.324          40.000    23752537.516 6  97262690.194 6      2648.824          40.000
R02  20389076.641 8 108800003.759 8     -2363.488          51.000    20389080.461 8  84622224.980 8     -1838.272          49.000
R12  19613154.742 5 104769940.420 5      -137.945          34.000    19613157.828 5  81487789.976 5      -107.285          30.000
R21  21679764.320 6 116012799.706 6       413.008          37.000
R22  22380408.711 7 119468157.917 7      3764.195          44.000    22380414.656 7  92919687.942 7      2927.711          42.000
C20  25203929.289 4 131243473.652 4     -3078.316          29.000
C27  24697222.430 8 128604912.035 8      3073.246          48.000
E07  25330789.242 8 133114200.800 8     -2612.094          50.000    25330793.516 8 101996581.174 8     -2001.394          51.000
E21  27383076.727 5 143899086.445 5      2313.543          34.000
E27  23584434.047 8 123937019.635 8       757.453          48.000    23584435.750 7  94964750.968 7       580.506          47.000
E30  23160853.422 8 121711064.905 8     -1583.309          51.000    23160855.984 8  93259158.747 8     -1213.190          50.000
> 2020 05 15 07 04  0.0000000  0 18        .000000000000
G12  21260980.461 8 111727186.061 8      2395.262          51.000    21260979.375 8  87060145.464 8      1866.438          51.000
G13  23514569.023 7 123569850.102 7     -3651.969          45.000    23514566.266 5  96288182.354 5     -2845.693          32.000
G15  22050062.273 8 115873841.241 8     -3013.117          50.000    22050063.164 8  90291298.003 8     -2347.884          50.000
G17  22777117.797 6 119694575.219 6     -1556.961          36.000    22777127.523 5  93268528.325 5     -1213.216          33.000
G19  21564445.039 6 113321950.231 6       239.543          39.000    21564444.758 5  88302787.703 5       186.657          35.000
G24  20240308.172 7 106363540.740 7       649.906          43.000    20240311.422 7  82880678.305 7       506.420          43.000
G25  23733139.328 5 124718517.881 5      3392.379          34.000    23733143.102 5  97183271.725 5      2643.409          34.000
R02  20402422.992 8 108871222.073 8     -2386.223          51.000    20402427.133 8  84677616.986 8     -1855.951          48.000
R11  21576038.656 6 115295742.131 6     -2644.375          37.000
R12  19613953.188 5 104774206.349 5      -148.254          34.000    19613955.500 5  81491107.896 5      -115.315          31.000
R21  21677518.992 5 116000794.477 5       385.426          30.000    21677506.750 4  90222807.708 4       299.773          26.000
R22  22359279.602 7 119355373.482 7      3752.957          43.000    22359286.055 7  92831966.750 7      2918.970          42.000
C27  24679525.055 7 128512756.475 7      3068.633          47.000
C28  23876823.688 6 124332890.857 6       866.484          37.000
E07  25345717.562 8 133192648.703 8     -2619.512          51.000    25345721.438 8 102056690.583 8     -2007.158          50.000
E21  27369870.734 5 143829642.665 5      2310.930          34.000    27369881.719 5 110207152.573 5      1770.934          34.000
E27  23580123.969 8 123914370.907 8       750.785          48.000    23580125.891 7  94947396.763 7       575.265          47.000
E30  23169898.875 8 121758598.531 8     -1587.242          51.000    23169901.156 8  93295580.606 8     -1216.211          50.000
> 2020 05 15 07 04 30.0000000  0 16        .000000000000
G12  21247333.727 8 111655475.331 8      2383.980          51.000    21247332.789 8  87004267.001 8      1857.650          50.000
G13  23535426.664 7 123679452.758 7     -3656.246          47.000    23535425.023 5  96373586.953 5     -2849.026          34.000
G15  22067286.578 8 115964353.872 8     -3022.531          51.000    22067287.172 8  90361827.294 8     -2355.222          51.000
G17  22786039.875 5 119741426.483 5     -1572.047          32.000
G24  20236624.742 7 106344184.315 7       639.051          45.000    20236627.383 7  82865595.390 7       497.962          45.000
G25  23713774.375 6 124616755.625 6      3388.980          37.000    23713778.219 6  97103976.441 6      2640.767          36.000
R02  20415893.234 8 108943103.425 8     -2407.422          51.000    20415897.258 8  84733524.695 8     -1872.442          48.000
R11  21590892.633 5 115375150.650 5     -2647.945          30.000
R12  19614808.961 5 104778778.032 5      -158.008          34.000    19614811.516 5  81494663.661 5      -122.892          33.000
R22  22338211.656 7 119242914.099 7      3742.730          42.000    22338218.469 7  92744498.387 7      2911.013          42.000
C27  24661852.016 8 128420728.626 8      3065.137          48.000
C28  23871868.453 5 124307100.143 5       851.926          31.000
E07  25360685.516 8 133271305.528 8     -2625.762          50.000    25360688.750 8 102116960.058 8     -2011.869          49.000
E21  27356679.672 5 143760320.741 5      2309.137          35.000    27356708.383 5 110154038.313 5      1769.183          35.000
E27  23575849.586 8 123891908.610 8       745.348          48.000    23575851.625 7  94930185.404 7       571.069          47.000
E30  23178964.180 8 121806236.885 8     -1590.070          51.000    23178966.453 8  93332082.703 8     -1218.360          50.000
> 2020 05 15 07 05  0.0000000  0 16        .000000000000
G12  21233754.266 8 111584116.163 8      2383.535          51.000    21233753.539 8  86948662.437 8      1857.300          51.000
G13  23556312.016 7 123789200.035 7     -3650.008          47.000    23556310.789 6  96459104.280 6     -2844.165          37.000
G15  22084566.992 8 116055161.632 8     -3021.098          51.000    22084567.281 8  90432586.539 8     -2354.105          51.000
G24  20233005.852 7 106325166.306 7       638.816          45.000    20233007.906 7  82850776.166 7       497.779          46.000
G25  23694438.867 7 124515144.244 7      3395.000          42.000    23694441.492 7  97024798.821 7      2645.458          42.000
R02  20429485.500 8 109015635.734 8     -2417.793          51.000    20429489.195 8  84789938.694 8     -1880.506          48.000
R11  21605766.516 5 115454660.794 5     -2639.863          33.000
R12  19615720.117 6 104783645.797 6      -156.141          39.000    19615723.641 6  81498449.673 6      -121.443          36.000
R22  22317203.969 7 119130775.998 7      3743.465          42.000    22317211.188 7  92657279.878 7      2911.584          44.000
C20  25257225.867 5 131520984.245 5     -3076.246          31.000
C27  24644202.930 8 128328822.595 8      3072.117          49.000
C28  23867000.906 5 124281767.666 5       847.336          35.000
E07  25375691.258 8 133350161.086 8     -2620.973          50.000    25375693.836 8 102177381.791 8     -2008.239          49.000
E21  27343502.648 6 143691069.394 6      2317.863          38.000    27343533.602 5 110100975.578 5      1776.046          35.000
E27  23571608.969 8 123869623.841 8       750.617          48.000    23571611.258 7  94913110.061 7       575.196          47.000
E30  23188047.523 8 121853970.609 8     -1581.918          51.000    23188050.117 8  93368657.883 8     -1212.107          49.000
> 2020 05 15 07 05 30.0000000  0 17        .000000000000
G12  21220278.984 8 111513302.407 8      2360.961          51.000    21220277.992 8  86893482.879 8      1839.710          51.000
G13  23577261.008 7 123899282.731 7     -3665.445          47.000    23577259.617 6  96544882.980 6     -2856.191          37.000
G15  22101939.898 8 116146455.523 8     -3041.598          51.000    22101939.641 8  90503724.602 8     -2370.076          51.000
G17  22804196.828 6 119836854.140 6     -1602.348          38.000
G24  20229488.336 7 106306680.448 7       616.977          46.000    20229490.164 7  82836371.606 7       480.764          46.000
G25  23675169.070 7 124413877.989 7      3379.340          45.000    23675170.516 6  96945890.147 6      2633.255          39.000
R02  20443236.531 8 109089012.126 8     -2450.102          51.000    20443240.102 8  84847009.221 8     -1905.635          49.000
R11  21620690.969 5 115534396.528 5     -2654.121          35.000    21620701.594 4  89860134.539 4     -2064.316          28.000
R12  19616724.680 6 104789005.714 6      -176.930          37.000    19616728.172 5  81502618.470 5      -137.615          35.000
R21  21671702.867 5 115969652.467 5       308.082          31.000
R22  22296295.172 7 119019159.956 7      3721.586          42.000    22296301.789 7  92570467.391 7      2894.570          45.000
C20  25275059.508 5 131613837.519 5     -3090.172          31.000
C27  24626614.531 8 128237232.112 8      3057.199          49.000
E07  25390771.359 8 133429406.837 8     -2638.551          50.000    25390773.281 8 102238102.507 8     -2021.648          49.000
E21  27330377.836 5 143622120.560 5      2305.102          35.000    27330395.773 6 110048154.464 6      1766.067          38.000
E27  23567438.281 7 123847709.268 7       733.918          46.000    23567441.000 7  94896318.369 7       562.242          46.000
E30  23197185.562 8 121901992.032 8     -1595.922          50.000    23197188.484 8  93405453.515 8     -1222.903          49.000
> 2020 05 15 07 06  0.0000000  0 16        .000000000000
G12  21206857.359 8 111442769.919 8      2342.094          51.000    21206855.883 8  86838522.516 8      1825.008          51.000
G13  23598222.797 7 124009433.683 7     -3677.250          46.000    23598221.328 6  96630714.853 6     -2865.390          38.000
G15  22119354.133 8 116237967.568 8     -3058.406          51.000    22119353.430 8  90575032.667 8     -2383.177          51.000
G17  22813411.469 6 119885274.868 6     -1624.422          39.000    22813390.461 5  93417024.478 5     -1265.783          32.000
G19  21559982.367 5 113298505.327 5       148.785          34.000    21559976.367 5  88284499.573 5       115.933          31.000
G24  20226021.680 7 106288462.262 7       598.359          47.000    20226023.539 7  82822175.617 7       466.254          46.000
G25  23655914.602 7 124312692.881 7      3366.961          45.000    23655915.898 6  96867044.693 6      2623.609          39.000
R02  20457094.977 8 109162959.605 8     -2478.867          51.000    20457098.344 8  84904523.923 8     -1928.008          49.000
R11  21635621.375 5 115614200.423 5     -2664.637          31.000    21635622.422 4  89922159.651 4     -2072.495          27.000
R12  19617769.188 5 104794602.312 5      -194.199          35.000    19617771.953 5  81506959.759 5      -151.047          32.000
R22  22275435.344 7 118907801.296 7      3703.266          44.000    22275440.734 7  92483855.131 7      2880.318          45.000
C27  24609036.594 8 128145696.911 8      3045.926          50.000
E07  25405874.844 8 133508775.929 8     -2651.961          51.000    25405876.859 8 102298917.721 8     -2032.070          49.000
E21  27317248.453 6 143553125.151 6      2295.828          36.000    27317268.125 6 109995287.884 6      1758.851          38.000
E27  23563287.297 7 123825899.280 7       720.965          46.000    23563290.398 7  94879606.798 7       552.404          46.000
E30  23206327.742 8 121950035.177 8     -1606.074          50.000    23206330.656 8  93442265.781 8     -1230.646          48.000
> 2020 05 15 07 06 30.0000000  0 17        .000000000000
G12  21193459.695 8 111372363.456 8      2349.691          51.000    21193457.820 8  86783660.364 8      1830.931          51.000
G13  23619166.766 7 124119494.168 7     -3662.000          44.000    23619165.719 6  96716476.246 6     -2853.506          36.000
G15  22136779.586 8 116329539.743 8     -3048.598          51.000    22136778.547 8  90646387.581 8     -2375.531          51.000
G17  22822670.945 6 119933928.175 6     -1620.355          37.000    22822654.828 6  93454910.925 6     -1262.618          36.000
G19  21559128.898 6 113294027.705 6       147.711          37.000    21559122.688 5  88281010.534 5       115.090          33.000
G24  20222576.250 7 106270356.560 7       606.441          47.000    20222578.250 7  82808067.268 7       472.552          47.000
G25  23636645.922 7 124211434.213 7      3381.207          42.000    23636647.812 7  96788141.891 7      2634.707          42.000
R02  20471029.633 8 109237316.447 8     -2480.574          51.000    20471032.977 8  84962356.969 8     -1929.336          48.000
R11  21650535.594 6 115693862.215 6     -2648.891          37.000    21650558.352 4  89984223.057 4     -2060.260          27.000
R12  19618825.508 6 104800246.673 6      -184.219          36.000    19618827.688 5  81511349.788 5      -143.284          32.000
R21  21668553.008 5 115952774.507 5       268.035          30.000    21668541.414 4  90185483.396 4       208.460          27.000
R22  22254594.359 7 118796546.437 7      3711.758          43.000    22254599.273 7  92397323.592 7      2886.923          45.000
C20  25310705.938 4 131799493.869 4     -3083.031          28.000
C27  24591439.883 8 128054065.004 8      3060.734          50.000
E07  25420971.703 8 133588110.824 8     -2639.020          50.000    25420974.539 8 102359706.740 8     -2022.127          50.000
E27  23559127.047 8 123804037.589 8       734.473          48.000    23559130.344 7  94862855.616 7       562.763          46.000
E30  23215444.273 8 121997943.388 8     -1589.754          49.000    23215446.984 8  93478974.647 8     -1218.192          48.000
> 2020 05 15 07 07  0.0000000  0 17        .000000000000
G12  21180243.383 8 111302911.117 8      2316.688          51.000    21180241.883 8  86729541.668 8      1805.211          51.000
G13  23640250.180 7 124230289.350 7     -3687.543          42.000    23640249.453 5  96802810.130 5     -2873.413          30.000
G15  22154373.367 8 116421996.334 8     -3078.996          51.000    22154372.211 8  90718431.632 8     -2399.221          51.000
G17  22832132.016 6 119983639.202 6     -1656.578          37.000    22832120.484 6  93493646.690 6     -1290.840          36.000
G19  21558510.531 6 113290782.192 6       104.668          38.000    21558507.477 5  88278481.507 5        81.553          35.000
G20  24378756.805 5 128111222.936 5     -2336.453          30.000
G24  20219309.898 8 106253191.421 8       574.020          48.000    20219311.719 8  82794691.838 8       447.291          48.000
G25  23617520.164 6 124110930.254 6      3355.090          39.000    23617522.750 6  96709827.119 6      2614.356          38.000
R02  20485197.586 8 109312918.880 8     -2522.910          51.000    20485199.680 7  85021158.839 7     -1962.266          45.000
R11  21665587.805 6 115774331.544 6     -2673.531          36.000    21665599.391 4  90046767.159 4     -2079.422          28.000
R12  19620051.398 6 104806794.047 6      -215.270          38.000    19620053.867 5  81516442.177 5      -167.432          31.000
R21  21667280.633 5 115945983.137 5       220.551          31.000
R22  22233930.500 7 118686240.164 7      3678.688          43.000    22233935.461 7  92311529.866 7      2861.201          44.000
C27  24573982.055 8 127963158.419 8      3035.555          50.000
E07  25436219.109 8 133668236.967 8     -2666.445          50.000    25436222.852 8 102421102.053 8     -2043.162          51.000
E27  23555114.727 8 123782950.928 8       707.535          48.000    23555118.234 7  94846698.296 7       542.158          46.000
E30  23224692.461 8 122046542.993 8     -1613.941          49.000    23224694.930 7  93516213.265 7     -1236.600          47.000
> 2020 05 15 07 07 30.0000000  0 14        .000000000000
G12  21167050.828 8 111233584.364 8      2300.969          51.000    21167049.789 8  86675520.821 8      1792.963          51.000
G13  23661314.219 6 124340987.832 6     -3696.211          39.000    23661314.688 5  96889068.695 5     -2880.161          33.000
G15  22171977.422 8 116514505.757 8     -3092.332          51.000    22171975.828 8  90790516.843 8     -2409.612          51.000
G19  21557968.062 5 113287939.221 5        80.000          35.000    21557967.633 5  88276266.292 5        62.347          30.000
G24  20216064.875 7 106236138.130 7       558.699          47.000    20216066.242 7  82781403.574 7       435.350          47.000
G25  23598380.188 6 124010352.698 6      3346.410          40.000    23598383.227 6  96631455.008 6      2607.592          40.000
R02  20499440.641 8 109388921.384 8     -2548.039          51.000    20499441.320 7  85080271.857 7     -1981.811          44.000
R12  19621288.820 6 104813400.475 6      -229.062          39.000    19621290.383 5  81521580.519 5      -178.163          30.000
R21  21666113.727 4 115939778.201 4       188.902          28.000    21666123.531 4  90175369.299 4       146.918          27.000
R22  22213286.922 7 118576045.224 7      3663.445          42.000    22213291.555 6  92225822.697 6      2849.349          41.000
C27  24556506.117 8 127872157.875 8      3027.172          50.000
E07  25451459.070 8 133748323.339 8     -2676.727          50.000    25451463.391 8 102482466.905 8     -2051.007          51.000
E27  23551091.914 7 123761809.468 7       697.793          47.000    23551095.703 7  94830499.006 7       534.711          46.000
E30  23233914.352 8 122095003.860 8     -1620.844          49.000    23233916.766 7  93553345.585 7     -1241.957          47.000
> 2020 05 15 07 08  0.0000000  0 16        .000000000000
G12  21153915.445 8 111164557.153 8      2293.398          51.000    21153913.758 8  86621733.397 8      1787.067          51.000
G13  23682392.367 6 124451760.680 6     -3696.102          39.000
G15  22189624.070 8 116607238.651 8     -3097.254          51.000    22189621.805 8  90862776.194 8     -2413.448          51.000
G19  21557535.836 5 113285672.481 5        64.191          30.000    21557536.836 3  88274499.842 3        49.995          21.000
G20  24405495.031 5 128251750.890 5     -2349.984          30.000
G24  20212874.086 7 106219370.213 7       551.660          47.000    20212875.266 8  82768337.668 8       429.862          48.000
G25  23579259.945 6 123909876.051 6      3345.047          41.000    23579262.836 6  96553161.572 6      2606.533          41.000
R02  20513790.391 8 109465496.305 8     -2564.562          49.000    20513790.906 7  85139830.078 7     -1994.663          44.000
R12  19622569.500 6 104820241.941 6      -234.688          36.000    19622570.430 5  81526901.645 5      -182.532          32.000
R21  21665100.273 5 115934307.930 5       167.672          32.000    21665092.820 4  90171114.973 4       130.408          27.000
R22  22192697.742 7 118466141.818 7      3655.965          43.000    22192700.906 6  92140342.297 6      2843.531          38.000
C20  25364435.383 5 132079266.502 5     -3110.797          31.000
C27  24539045.766 8 127781237.525 8      3026.816          50.000
E07  25466724.438 8 133828541.599 8     -2678.594          51.000    25466728.844 8 102543932.813 8     -2052.441          51.000
E27  23547091.602 7 123740786.145 7       696.281          47.000    23547095.242 7  94814390.233 7       533.634          44.000
E30  23243142.742 8 122143498.549 8     -1619.629          49.000    23243145.133 7  93590503.827 7     -1240.925          47.000
> 2020 05 15 07 08 30.0000000  0 14        .000000000000
G12  21140876.258 8 111096035.004 8      2275.891          51.000    21140873.164 8  86568339.566 8      1773.424          51.000
G13  23703523.836 6 124562810.205 6     -3705.926          41.000
G15  22207351.594 8 116700397.072 8     -3112.238          51.000    22207348.883 8  90935367.130 8     -2425.121          51.000
G19  21557251.266 6 113284186.697 6        37.191          37.000
G24  20209776.688 7 106203093.723 7       534.523          47.000    20209778.289 7  82755654.681 7       416.509          47.000
G25  23560198.219 7 123809706.055 7      3333.895          43.000    23560201.422 7  96475107.064 7      2597.840          42.000
R02  20528285.352 8 109542847.482 8     -2590.902          48.000    20528287.211 7  85199992.101 7     -2015.146          45.000
R12  19623932.703 6 104827525.420 6      -249.824          36.000    19623935.156 5  81532566.540 5      -194.308          33.000
R22  22172203.766 7 118356742.850 7      3638.395          44.000    22172205.164 6  92055254.194 6      2829.862          38.000
C20  25382390.930 5 132172748.136 5     -3119.332          34.000
C27  24521640.414 8 127690602.587 8      3016.531          50.000
E07  25482053.758 8 133909094.675 8     -2690.406          51.000    25482057.766 8 102605655.267 8     -2061.498          51.000
E27  23543152.555 7 123720085.169 7       684.863          47.000    23543155.211 7  94798528.416 7       524.912          44.000
E30  23252416.305 8 122192230.851 8     -1628.035          48.000    23252418.680 7  93627844.143 7     -1247.584          47.000
> 2020 05 15 07 09  0.0000000  0 17        .000000000000
G12  21127896.156 8 111027824.872 8      2271.398          51.000    21127893.109 8  86515188.831 8      1769.921          51.000
G13  23724671.172 6 124673940.788 6     -3702.719          41.000    23724675.648 4  97148587.071 4     -2885.238          27.000
G15  22225122.641 8 116793784.864 8     -3113.719          51.000    22225120.039 8  91008136.786 8     -2426.274          51.000
G17  22870681.695 5 120186242.576 5     -1714.801          34.000
G19  21557086.242 5 113283244.663 5        22.730          32.000
G24  20206735.844 8 106187115.000 8       530.629          48.000    20206738.023 8  82743203.698 8       413.477          48.000
G25  23541158.352 7 123709649.977 7      3336.176          43.000    23541162.203 7  96397141.327 7      2599.617          42.000
R02  20542888.922 8 109620774.926 8     -2604.117          50.000    20542892.227 7  85260602.333 7     -2025.424          46.000
R11  21725791.312 6 116096003.856 6     -2685.148          38.000    21725808.172 4  90296946.073 4     -2088.452          27.000
R12  19625341.750 5 104835053.487 5      -252.074          35.000    19625345.031 5  81538421.665 5      -196.061          31.000
R22  22151768.328 7 118247655.898 7      3634.012          44.000    22151770.070 6  91970408.858 6      2826.457          39.000
C19  23777448.375 6 123815440.240 6     -1239.152          36.000
C20  25400349.297 5 132266253.508 5     -3113.648          35.000
C27  24504253.672 8 127600063.570 8      3019.273          50.000
E07  25497409.664 8 133989787.125 8     -2689.098          51.000    25497412.867 8 102667484.505 8     -2060.483          51.000
E27  23539237.367 7 123699512.360 7       686.484          46.000    23539239.547 7  94782764.836 7       526.160          43.000
E30  23261698.156 8 122241006.294 8     -1623.609          48.000    23261700.258 7  93665217.489 7     -1244.019          47.000
> 2020 05 15 07 09 30.0000000  0 16        .000000000000
G12  21114985.680 8 110959980.583 8      2251.078          51.000    21114983.562 8  86462323.138 8      1754.084          51.000
G13  23745843.758 6 124785202.803 6     -3715.164          40.000    23745848.742 5  97235284.644 5     -2894.939          33.000
G15  22242946.945 8 116887452.705 8     -3131.250          50.000    22242944.656 8  91081124.662 8     -2439.935          50.000
G19  21557030.828 4 113282960.932 4        -6.070          29.000
G24  20203762.086 8 106171488.064 8       510.816          49.000    20203764.523 8  82731026.847 8       398.039          49.000
G25  23522150.281 7 123609761.901 7      3322.559          44.000    23522154.438 6  96319306.491 6      2589.007          41.000
R02  20557610.336 8 109699328.341 8     -2633.227          51.000    20557614.289 7  85321699.407 7     -2048.068          47.000
R11  21740909.516 6 116176770.538 6     -2697.344          37.000
R12  19626805.742 5 104842879.239 5      -270.426          34.000    19626809.062 4  81544508.353 4      -210.331          29.000
R22  22131402.383 7 118138939.576 7      3613.312          45.000    22131404.469 6  91885851.792 6      2810.354          40.000
C19  23784650.203 5 123852938.568 5     -1261.566          30.000
C20  25418321.289 5 132359832.639 5     -3124.555          35.000
C27  24486895.633 8 127509675.347 8      3006.180          50.000
E07  25512801.625 8 134070670.137 8     -2703.488          51.000    25512804.109 8 102729459.755 8     -2071.498          51.000
E27  23535356.375 7 123679120.138 7       672.516          45.000    23535358.867 7  94767139.653 7       515.247          43.000
E30  23270998.148 7 122289876.951 7     -1634.938          47.000    23270999.859 7  93702663.811 7     -1252.765          47.000
> 2020 05 15 07 10  0.0000000  0 17        .000000000000
G12  21102159.328 8 110892577.699 8      2244.301          51.000    21102157.664 8  86409801.385 8      1748.806          51.000
G13  23767055.711 6 124896669.084 6     -3714.082          40.000    23767060.984 5  97322141.459 5     -2894.090          31.000
G15  22260838.312 8 116981472.818 8     -3134.961          49.000    22260836.523 8  91154387.041 8     -2442.827          49.000
G19  21557117.633 5 113283422.833 5       -21.656          31.000
G24  20200869.688 8 106156288.143 8       504.461          49.000    20200872.070 8  82719182.739 8       393.086          49.000
G25  23503188.648 7 123510118.041 7      3322.191          44.000    23503192.500 7  96241661.944 7      2588.721          42.000
R02  20572462.367 8 109778580.945 8     -2648.414          51.000    20572466.273 7  85383340.292 7     -2059.878          46.000
R11  21756025.719 5 116257592.621 5     -2695.508          31.000
R12  19628341.031 5 104851078.756 5      -274.512          34.000    19628343.812 4  81550885.787 4      -213.509          29.000
R21  21662593.664 5 115920859.889 5        60.477          31.000    21662608.297 4  90160701.298 4        47.043          28.000
R22  22111120.773 7 118030674.999 7      3606.211          45.000    22111123.109 6  91801646.058 6      2804.834          41.000
C20  25436321.688 5 132453557.357 5     -3121.656          33.000
C27  24469581.180 8 127419514.766 8      3006.410          51.000
E07  25528243.508 8 134151817.094 8     -2704.363          51.000    25528245.742 8 102791637.264 8     -2072.207          51.000
E21  27212914.891 5 143004829.682 5      2275.020          35.000    27212935.133 6 109575187.608 6      1743.134          39.000
E27  23531524.539 7 123658983.235 7       671.914          46.000    23531527.039 7  94751710.076 7       514.715          43.000
E30  23280330.133 7 122338917.163 7     -1632.676          46.000    23280331.898 7  93740240.057 7     -1250.960          47.000
> 2020 05 15 07 10 30.0000000  0 17        .000000000000
G12  21089397.508 8 110825513.137 8      2227.469          51.000    21089394.914 8  86357543.290 8      1735.690          51.000
G13  23788286.734 7 125008233.249 7     -3722.953          42.000    23788290.742 4  97409074.522 4     -2901.002          29.000
G15  22278776.023 7 117075738.665 7     -3148.641          47.000    22278774.938 7  91227840.933 7     -2453.486          47.000
G19  21557323.203 5 113284522.419 5       -47.375          35.000
G24  20198039.031 8 106141412.272 8       488.082          50.000    20198041.008 8  82707591.143 8       380.324          50.000
G25  23484253.609 7 123410615.530 7      3311.828          43.000    23484257.164 7  96164127.546 7      2580.645          43.000
R02  20587424.055 8 109858422.425 8     -2673.605          49.000    20587428.141 7  85445439.176 7     -2079.474          45.000
R11  21771186.133 4 116338582.457 4     -2702.867          28.000    21771186.336 4  90485588.230 4     -2102.227          26.000
R12  19629926.562 6 104859545.194 6      -289.086          36.000    19629929.594 5  81557470.840 5      -224.848          30.000
R21  21662335.094 4 115919530.928 4        28.660          28.000    21662362.406 4  90159759.428 4        22.300          28.000
R22  22090905.586 7 117922760.989 7      3588.781          47.000    22090908.148 6  91717712.951 6      2791.274          41.000
C20  25454329.594 5 132547321.922 5     -3128.527          32.000
C27  24452290.773 8 127329481.235 8      2996.617          49.000
E07  25543715.242 8 134233122.279 8     -2715.172          51.000    25543717.719 8 102853936.024 8     -2080.456          51.000
E21  27199949.328 5 142936695.830 5      2267.742          34.000    27199970.805 6 109522981.117 6      1737.597          39.000
E27  23527721.586 7 123638997.196 7       661.363          44.000    23527723.336 7  94736396.080 7       506.642          42.000
E30  23289674.227 7 122388022.149 7     -1640.328          45.000    23289676.516 7  93777865.964 7     -1256.947          47.000
> 2020 05 15 07 11  0.0000000  0 16        .000000000000
G12  21076709.414 8 110758835.656 8      2210.781          51.000    21076706.031 8  86305586.847 8      1722.687          51.000
G13  23809545.547 7 125119941.496 7     -3731.230          43.000    23809547.789 4  97496119.877 4     -2907.446          25.000
G15  22296768.617 7 117170296.003 7     -3162.125          46.000    22296768.375 7  91301522.003 7     -2463.990          46.000
G19  21557652.469 5 113286228.273 5       -74.098          30.000    21557649.078 4  88274962.714 4       -57.745          28.000
G24  20195279.289 8 106126909.326 8       471.914          51.000    20195280.734 8  82696290.144 8       367.725          51.000
G25  23465355.039 7 123311303.740 7      3301.930          45.000    23465358.070 7  96086741.754 7      2572.932          43.000
R02  20602504.648 8 109938898.545 8     -2698.453          49.000    20602508.875 7  85508031.654 7     -2098.797          45.000
R11  21786386.836 5 116419855.931 5     -2711.012          31.000    21786379.062 4  90548740.083 4     -2108.565          28.000
R12  19631571.070 6 104868327.296 6      -303.543          38.000    19631574.742 5  81564301.365 5      -236.089          31.000
R21  21662244.375 5 115919044.290 5        -2.152          31.000    21662247.023 5  90159267.831 5        -1.674          30.000
R22  22070766.438 7 117815251.386 7      3571.461          47.000    22070768.836 7  91634094.410 7      2777.806          42.000
C27  24435033.828 8 127239625.045 8      2986.934          48.000
E07  25559226.047 8 134314632.326 8     -2725.648          51.000    25559228.656 8 102916391.739 8     -2088.490          51.000
E21  27187002.266 6 142868655.945 6      2261.020          37.000    27187023.172 6 109470846.680 6      1732.562          38.000
E27  23523956.016 7 123619209.847 7       651.039          44.000    23523957.461 7  94721234.363 7       498.770          42.000
E30  23299039.781 7 122437239.487 7     -1647.578          44.000    23299042.406 7  93815577.925 7     -1262.544          47.000
> 2020 05 15 07 11 30.0000000  0 14        .000000000000
G12  21064109.391 8 110692621.429 8      2200.637          51.000    21064106.508 8  86253991.362 8      1714.782          51.000
G13  23830845.758 7 125231866.769 7     -3733.465          43.000    23830847.016 5  97583334.306 5     -2909.196          30.000
G15  22314831.523 8 117265217.626 8     -3168.926          49.000    22314831.172 8  91375486.876 8     -2469.293          49.000
G24  20192604.938 8 106112854.852 8       462.176          51.000    20192606.164 8  82685338.602 8       360.137          51.000
G25  23446507.531 7 123212258.789 7      3298.266          45.000    23446509.805 7  96009563.918 7      2570.077          42.000
R02  20617718.391 8 110020081.829 8     -2716.758          50.000    20617723.008 7  85571174.170 7     -2113.034          45.000
R11  21801580.102 5 116501087.627 5     -2712.598          31.000    21801580.227 4  90611916.070 4     -2109.792          25.000
R12  19633288.805 5 104877501.093 5      -311.375          35.000    19633291.664 4  81571436.474 4      -242.184          29.000
R22  22050717.672 7 117708226.998 7      3560.855          45.000    22050719.516 6  91550853.314 6      2769.557          38.000
C27  24417825.461 7 127150023.088 7      2983.676          46.000
E07  25574790.086 8 134396420.563 8     -2729.602          51.000    25574792.484 8 102979060.607 8     -2091.507          51.000
E21  27174087.562 5 142800785.097 5      2260.840          35.000    27174109.359 5 109418841.730 5      1732.018          35.000
E27  23520242.922 7 123599695.894 7       647.137          45.000    23520244.336 7  94706282.135 7       495.876          43.000
E30  23308441.125 7 122486643.469 7     -1648.699          45.000    23308443.625 7  93853432.906 7     -1263.277          47.000
> 2020 05 15 07 12  0.0000000  0 15        .000000000000
G12  21051561.781 8 110626684.069 8      2201.621          51.000    21051559.703 8  86202611.593 8      1715.549          51.000
G13  23852150.758 6 125343819.457 6     -3723.789          41.000    23852150.820 4  97670570.152 4     -2901.651          27.000
G15  22332928.242 8 117360313.710 8     -3164.539          51.000    22332927.508 8  91449587.667 8     -2465.878          51.000
G24  20189980.508 8 106099062.919 8       463.688          51.000    20189981.789 8  82674591.633 8       361.315          51.000
G25  23427675.508 7 123113294.730 7      3305.750          45.000    23427677.367 6  95932449.108 6      2575.909          41.000
R02  20633029.008 8 110101778.657 8     -2723.277          51.000    20633033.602 7  85634716.139 7     -2118.105          45.000
R12  19635043.602 6 104886875.023 6      -307.262          37.000    19635045.961 5  81578727.336 5      -238.981          30.000
R21  21662520.328 5 115920536.431 5       -39.695          31.000    21662522.164 4  90160404.240 4       -30.871          25.000
R22  22030724.922 7 117601502.701 7      3560.770          43.000    22030725.133 5  91467845.649 5      2769.490          33.000
C20  25508460.398 5 132829242.362 5     -3124.363          30.000
C27  24400629.984 7 127060492.434 7      2991.523          43.000
E07  25590371.266 8 134478298.232 8     -2722.465          51.000    25590373.422 8 103041797.992 8     -2086.077          51.000
E21  27161168.805 6 142732896.238 6      2271.516          36.000    27161191.602 5 109366823.047 5      1740.332          35.000
E27  23516546.555 7 123580267.835 7       654.488          46.000    23516548.062 7  94691395.685 7       501.455          43.000
E30  23317842.297 7 122536046.278 7     -1638.520          45.000    23317844.219 7  93891286.987 7     -1255.531          46.000
> 2020 05 15 07 12 30.0000000  0 13        .000000000000
G12  21039129.727 8 110561355.100 8      2168.242          51.000    21039128.062 8  86151705.887 8      1689.539          51.000
G13  23873522.492 6 125456128.551 6     -3748.547          37.000    23873521.492 3  97758083.686 3     -2920.949          22.000
G15  22351120.781 8 117455912.705 8     -3194.188          51.000    22351119.945 8  91524080.332 8     -2488.980          51.000
G24  20187469.039 8 106085864.859 8       430.867          51.000    20187470.336 8  82664307.428 8       335.741          51.000
G25  23408921.875 7 123014743.601 7      3279.008          43.000    23408923.977 7  95855656.049 7      2555.071          43.000
R02  20648497.891 8 110184321.026 8     -2764.699          51.000    20648502.125 7  85698915.748 7     -2150.322          45.000
R12  19636899.297 5 104896785.647 5      -338.715          34.000    19636902.086 5  81586435.543 5      -263.445          32.000
R22  22010851.648 6 117495419.222 6      3526.230          40.000    22010850.211 5  91385336.336 5      2742.627          30.000
C27  24383510.906 7 126971363.567 7      2965.004          42.000
E07  25606031.992 8 134560594.507 8     -2749.367          51.000    25606034.141 8 103104856.130 8     -2106.670          51.000
E21  27148309.633 6 142665329.344 6      2248.086          37.000
E27  23512928.664 7 123561256.166 7       627.578          43.000    23512930.500 7  94676828.269 7       480.836          43.000
E30  23327305.984 7 122585778.117 7     -1662.465          44.000    23327307.281 7  93929393.166 7     -1273.783          46.000
> 2020 05 15 07 13  0.0000000  0 14        .000000000000
G12  21026740.766 8 110496250.437 8      2162.824          51.000    21026739.297 8  86100975.007 8      1685.318          51.000
G13  23894888.555 6 125568406.915 6     -3745.773          36.000
G15  22369335.141 8 117551627.185 8     -3196.043          51.000    22369334.414 8  91598662.998 8     -2490.426          51.000
G24  20184997.391 8 106072876.246 8       425.762          51.000    20184998.617 8  82654186.423 8       331.762          51.000
G25  23390173.703 7 122916221.703 7      3279.957          44.000    23390176.430 7  95778885.741 7      2555.811          44.000
R02  20664051.102 8 110267314.609 8     -2777.684          51.000    20664054.633 7  85763466.287 7     -2160.421          44.000
R21  21663450.594 5 115925492.193 5      -107.168          33.000
R22  21991025.914 6 117389590.285 6      3519.555          39.000    21991025.070 5  91303024.954 5      2737.434          31.000
C20  25544649.859 4 133017694.880 4     -3141.297          29.000
C27  24366398.805 7 126882257.483 7      2966.184          45.000
E07  25621698.523 8 134642922.885 8     -2748.582          51.000    25621700.977 8 103167938.872 8     -2106.020          51.000
E21  27135436.977 6 142597681.571 6      2252.605          36.000
E27  23509316.148 7 123542275.684 7       628.562          43.000    23509318.609 7  94662284.747 7       481.578          43.000
E30  23336758.953 7 122635453.426 7     -1658.539          43.000    23336759.984 7  93967456.047 7     -1270.993          45.000
> 2020 05 15 07 13 30.0000000  0 16        .000000000000
G12  21014431.164 8 110431562.608 8      2149.336          51.000    21014430.500 8  86050568.942 8      1674.807          51.000
G13  23916284.578 6 125680844.265 6     -3750.848          38.000
G15  22387607.164 8 117647646.395 8     -3205.637          51.000    22387606.523 8  91673483.125 8     -2497.899          51.000
G19  21561256.469 5 113305166.197 5      -180.172          33.000
G24  20182602.305 8 106060290.328 8       412.816          51.000    20182603.508 8  82644379.205 8       321.675          51.000
G25  23371467.867 7 122817921.944 7      3272.945          45.000    23371471.266 7  95702288.558 7      2550.347          46.000
R02  20679724.586 8 110350950.168 8     -2798.465          51.000    20679727.148 7  85828516.138 7     -2176.587          44.000
R11  21862675.305 6 116827523.524 6     -2728.328          36.000    21862685.359 4  90865878.180 4     -2122.033          27.000
R21  21664135.867 4 115929128.434 4      -135.586          29.000
R22  21971285.961 5 117284215.581 5      3504.367          34.000    21971286.469 6  91221066.890 6      2725.619          36.000
C20  25562754.031 5 133111974.975 5     -3144.219          33.000
C27  24349329.547 7 126793366.762 7      2959.352          47.000
E07  25637406.914 8 134725473.511 8     -2755.434          51.000    25637410.234 8 103231191.929 8     -2111.300          51.000
E21  27122590.492 6 142530174.874 6      2249.195          37.000
E27  23505746.672 7 123523517.812 7       621.543          44.000    23505749.469 7  94647911.845 7       476.268          43.000
E30  23346237.789 6 122685263.390 6     -1662.633          40.000    23346238.680 7  94005622.072 7     -1273.956          45.000
> 2020 05 15 07 14  0.0000000  0 14        .000000000000
G12  21002207.039 8 110367324.095 8      2133.680          51.000    21002206.711 8  86000512.964 8      1662.608          51.000
G13  23937717.039 6 125793470.206 6     -3757.375          41.000    23937718.320 4  98020960.201 4     -2927.834          25.000
G15  22405942.531 8 117743999.707 8     -3217.402          51.000    22405941.984 8  91748563.593 8     -2507.067          51.000
G24  20180289.781 8 106048139.051 8       397.652          50.000    20180291.164 8  82634910.665 8       309.862          50.000
G25  23352810.750 7 122719877.328 7      3263.828          46.000    23352814.742 7  95625890.188 7      2543.243          46.000
R02  20695523.297 8 110435255.734 8     -2821.352          50.000    20695525.719 7  85894087.080 7     -2194.385          45.000
R11  21878025.688 4 116909535.172 4     -2734.086          28.000    21877996.719 4  90929536.618 4     -2126.511          26.000
R12  19642739.195 5 104927953.722 5      -364.039          30.000
C20  25580885.000 5 133206382.462 5     -3148.887          31.000
C27  24332308.609 8 126704725.464 8      2950.488          49.000
E07  25653162.750 8 134808276.519 8     -2764.383          50.000    25653167.383 8 103294638.373 8     -2118.074          51.000
E21  27109767.539 6 142462796.059 6      2243.309          39.000
E27  23502226.062 7 123505014.003 7       612.566          44.000    23502228.266 7  94633733.648 7       469.420          42.000
E30  23355748.102 6 122735239.128 6     -1668.742          38.000    23355749.164 7  94043915.143 7     -1278.461          44.000
> 2020 05 15 07 14 30.0000000  0 15        .000000000000
G12  20990048.461 8 110303430.690 8      2124.512          49.000    20990047.250 8  85950725.877 8      1655.464          49.000
G13  23959165.164 6 125906177.060 6     -3757.969          40.000    23959165.148 4  98108783.749 4     -2928.278          28.000
G15  22424320.977 8 117840579.333 8     -3222.555          50.000    22424320.414 8  91823820.404 8     -2511.082          50.000
G24  20178039.945 8 106036317.608 8       389.016          49.000    20178041.641 8  82625699.135 8       303.129          50.000
G25  23334182.375 7 122621983.677 7      3261.172          46.000    23334186.914 7  95549609.451 7      2541.176          46.000
R02  20711426.875 8 110520121.817 8     -2837.582          50.000    20711430.070 7  85960093.994 7     -2207.008          47.000
R11  21893369.484 5 116991491.831 5     -2734.555          32.000    21893350.000 4  90993349.271 4     -2126.873          26.000
R12  19644806.102 5 104938982.424 5      -371.332          34.000
R22  21932076.406 5 117074923.208 5      3477.426          32.000    21932068.570 6  91058248.130 6      2704.664          39.000
C20  25599018.523 5 133300810.615 5     -3146.969          31.000
C27  24315316.180 8 126616231.848 8      2947.727          50.000
E07  25668945.906 8 134891224.937 8     -2766.812          49.000    25668952.055 8 103358196.251 8     -2120.052          51.000
E21  27096954.734 6 142395466.895 6      2243.930          40.000
E27  23498733.445 7 123486658.590 7       609.836          42.000    23498734.391 6  94619669.165 6       467.456          41.000
E30  23365268.922 6 122785274.636 6     -1668.250          37.000    23365271.078 7  94082254.034 7     -1278.281          44.000
> 2020 05 15 07 15  0.0000000  0 15        .000000000000
G12  20977969.945 8 110239959.237 8      2108.578          48.000    20977967.445 8  85901267.604 8      1643.048          48.000
G13  23980642.641 6 126019039.360 6     -3764.547          38.000    23980643.641 5  98196718.454 5     -2933.407          31.000
G15  22442756.680 8 117937459.415 8     -3234.441          51.000    22442756.195 8  91899311.349 8     -2520.347          51.000
G19  21564901.695 5 113324345.429 5      -247.781          34.000
G24  20175867.789 8 106024903.825 8       373.598          50.000    20175869.805 8  82616805.252 8       291.115          50.000
G25  23315597.359 7 122524318.671 7      3251.520          45.000    23315602.305 7  95473506.863 7      2533.652          46.000
R02  20727449.406 8 110605621.126 8     -2860.586          50.000    20727453.344 8  86026593.435 8     -2224.900          48.000
