     3.02           OBSERVATION DATA    M (MIXED)           RINEX VERSION / TYPE
SAVERINEX           SC600               20200501 225931 LCL PGM / RUN BY / DATE
       G = GPS       R = GLONASS       C = COMPASS          COMMENT
       S = SBAS      J = QZSS          E = GALILEO          COMMENT
BEAN                                                        MARKER NAME
1                                                           MARKER NUMBER
GEODETIC                                                    MARKER TYPE
Unige DICCA         GTER                                    OBSERVER / AGENCY
SC60291900056       SC600               2.12(191226)        REC # / TYPE / VERS
                    HEMA45          NONE                    ANT # / TYPE
  4509407.8091   693652.4678  4442337.6214                  APPROX POSITION XYZ
        0.0000        0.0000        0.0000                  ANTENNA: DELTA H/E/N
G    8 C1C L1C D1C S1C C2Y L2Y D2Y S2Y                      SYS / # / OBS TYPES
R    8 C1C L1C D1C S1C C2P L2P D2P S2P                      SYS / # / OBS TYPES
C    8 C1I L1I D1I S1I C7I L7I D7I S7I                      SYS / # / OBS TYPES
E    8 C1C L1C D1C S1C C7Q L7Q D7Q S7Q                      SYS / # / OBS TYPES
DBHZ                                                        COMMENT
     30.000                                                 INTERVAL
  2020    05    01    20    00    0.0000000     GPS         TIME OF FIRST OBS
  2020    05    01    20    59   30.0000000     GPS         TIME OF LAST OBS
     0                                                      RCV CLOCK OFFS APPL
G L1C  0.00000                                              SYS / PHASE SHIFT
G L2Y  0.00000                                              SYS / PHASE SHIFT
R L1C  0.00000                                              SYS / PHASE SHIFT
R L2P  0.25000                                              SYS / PHASE SHIFT
C L1I  0.00000                                              SYS / PHASE SHIFT
C L7I  0.00000                                              SYS / PHASE SHIFT
E L1C  0.50000                                              SYS / PHASE SHIFT
E L7Q -0.25000                                              SYS / PHASE SHIFT
 12 R05  1 R06 -4 R07  5 R08  6 R09 -2 R10 -5 R11  0 R16 -1 GLONASS SLOT / FRQ #
    R19  3 R20  2 R21  4 R22 -3                             GLONASS SLOT / FRQ #
 C1C   71.950 C2C   71.950 C2P   71.950                     GLONASS COD/PHS/BIS
    18                                                      LEAP SECONDS
*** Above antenna height is from mark to ANTENNA BOTTOM.    COMMENT
    17     4        0.0000        ANT MEASURE TYPE/HEIGT    COMMENT
    0.0000    0.0000    0.0458    0.0405    0.0000          COMMENT
                    BASE STATION                            COMMENT
                                                            END OF HEADER
> 2020 05 01 20 00  0.0000000  0 19        .000000000000
G01  20464926.492 5 107543920.726 5       916.922          32.000    20464925.188 5  83800465.051 5       714.485          32.000
G03  21787118.914 8 114492097.141 8      2459.922          51.000    21787120.805 8  89214642.821 8      1916.822          51.000
G08  22012495.164 8 115676434.323 8     -2954.594          50.000    22012496.820 8  90137482.522 8     -2302.281          51.000
G11  19993177.211 8 105064862.327 8      -916.195          49.000    19993175.312 8  81868718.610 8      -713.918          49.000
G14  21903900.711 5 115105754.054 5       161.938          33.000
G22  20786677.633 8 109234778.834 8       873.609          51.000    20786674.469 8  85117998.003 8       680.738          51.000
G27  24645098.469 5 129510855.444 5     -3802.070          32.000
G32  22317186.508 5 117277608.733 5     -1413.152          32.000
R07  19238990.445 8 102987859.082 8       557.117          50.000    19238991.414 7  80101689.889 7       433.313          47.000
R08  21673069.492 6 116058364.168 6      3757.543          36.000    21673077.344 6  90267582.873 6      2922.533          36.000
R21  21266939.383 8 113803654.885 8     -3032.023          51.000    21266941.664 7  88513968.023 7     -2358.240          45.000
R22  19287724.117 8 102959197.520 8       633.270          51.000    19287727.039 8  80079360.716 8       492.543          51.000
C05  39658675.359 5 206513129.297 5       -28.934          35.000    39658671.820 6 159689038.675 6       -22.313          37.000
C12  21482497.594 8 111865006.960 8        37.430          51.000    21482496.031 8  86501116.267 8        28.840          51.000
C21  22297070.172 8 116106736.856 8      1683.840          51.000
C22  22425725.492 8 116776720.745 8     -1419.672          51.000
E04  24321142.602 7 127808539.841 7      -651.727          45.000    24321143.516 7  97931159.367 7      -499.258          44.000
E09  22624586.602 8 118893062.368 8      2159.453          51.000    22624588.383 8  91099899.932 8      1654.646          51.000
E11  23006558.664 8 120900267.900 8     -1048.855          51.000    23006556.977 8  92637876.243 8      -803.683          49.000
> 2020 05 01 20 00 30.0000000  0 18        .000000000000
G01  20459725.602 5 107516592.094 5       905.285          31.000    20459726.000 5  83779170.086 5       705.414          30.000
G03  21773108.969 8 114418475.254 8      2448.586          49.000    21773111.492 8  89157275.127 8      1907.989          49.000
G08  22029397.078 8 115765253.867 8     -2966.434          49.000    22029398.547 8  90206692.549 8     -2311.507          49.000
G11  19998461.008 8 105092629.321 8      -934.453          48.000    19998459.500 8  81890355.215 8      -728.145          48.000
G14  21903026.391 6 115101160.907 6       143.824          37.000    21903022.883 4  89689216.069 4       112.071          29.000
G22  20781729.195 8 109208775.056 8       860.422          51.000    20781726.133 8  85097735.314 8       670.456          51.000
G27  24666810.828 5 129624951.824 5     -3804.102          33.000    24666803.789 5 101006429.974 5     -2964.235          33.000
R07  19235938.445 8 102971522.682 8       532.320          50.000    19235939.930 7  80088983.810 7       414.027          47.000
R08  21652057.125 6 115945840.818 6      3744.523          39.000    21652064.828 6  90180064.739 6      2912.407          38.000
R21  21283978.500 8 113894836.582 8     -3046.441          49.000    21283981.281 7  88584887.094 7     -2369.457          45.000
R22  19284220.727 8 102940497.361 8       613.836          51.000    19284223.891 8  80064816.133 8       477.428          51.000
C05  39658844.234 5 206514008.974 5       -29.742          34.000    39658840.859 6 159689717.916 6       -23.104          37.000
C12  21482326.781 8 111864117.118 8        22.297          51.000    21482324.789 8  86500428.187 8        17.099          51.000
C21  22287407.586 8 116056420.231 8      1670.945          51.000
C22  22433940.930 8 116819500.791 8     -1431.988          49.000
E04  24324902.555 7 127828296.391 7      -665.434          47.000    24324902.914 7  97946297.504 7      -509.911          43.000
E09  22612289.531 8 118828440.838 8      2148.863          51.000    22612290.312 8  91050384.767 8      1646.502          50.000
E11  23012572.961 8 120931872.918 8     -1057.566          51.000    23012570.977 8  92662093.063 8      -810.385          48.000
> 2020 05 01 20 01  0.0000000  0 17        .000000000000
G03  21759162.148 8 114345184.385 8      2438.629          50.000    21759165.039 8  89100165.349 8      1900.230          50.000
G08  22046364.102 7 115854419.392 7     -2976.777          47.000    22046366.172 7  90276172.171 7     -2319.567          47.000
G11  20003847.352 7 105120936.108 7      -951.473          47.000    20003846.477 7  81912412.438 7      -741.410          47.000
G14  21902259.289 6 115097129.212 6       126.352          39.000    21902260.672 6  89686105.676 6        98.459          36.000
G22  20776854.914 8 109183160.315 8       848.484          51.000    20776852.047 8  85077775.769 8       661.157          51.000
G27  24688536.195 5 129739119.923 5     -3805.504          33.000
R07  19233024.430 8 102955924.368 8       508.754          50.000    19233026.133 7  80076851.803 7       395.697          47.000
R08  21631117.289 6 115833699.995 6      3732.883          41.000    21631123.945 6  90092844.139 6      2903.356          41.000
R21  21301096.445 8 113986440.174 8     -3059.316          51.000    21301099.859 7  88656134.270 7     -2379.471          44.000
R22  19280825.586 8 102922374.504 8       595.598          51.000    19280828.766 8  80050720.571 8       463.243          50.000
C05  39659014.398 5 206514894.267 5       -28.645          35.000    39659010.977 6 159690403.222 6       -22.032          37.000
C12  21482241.477 8 111863672.398 8         8.535          51.000    21482239.148 8  86500084.284 8         6.600          51.000
C21  22277818.812 8 116006487.281 8      1659.262          51.000
C22  22442225.555 8 116862642.561 8     -1442.883          50.000
E04  24328738.594 7 127848452.998 7      -677.473          46.000    24328738.539 7  97961742.171 7      -519.129          42.000
E09  22600051.766 8 118764130.460 8      2139.664          51.000    22600051.531 8  91001108.021 8      1639.480          50.000
E11  23018635.211 8 120963731.508 8     -1064.949          51.000    23018633.461 8  92686504.163 8      -815.967          49.000
> 2020 05 01 20 01 30.0000000  0 18        .000000000000
G01  20449518.500 5 107462946.480 5       882.855          35.000    20449521.133 6  83737353.597 6       687.939          36.000
G03  21745274.055 8 114272200.924 8      2426.980          50.000    21745276.797 8  89043295.147 8      1891.154          50.000
G08  22063391.680 7 115943904.412 7     -2988.750          46.000    22063394.633 7  90345900.744 7     -2328.896          46.000
G11  20009331.867 7 105149758.530 7      -969.973          46.000    20009331.492 7  81934871.475 7      -755.820          46.000
G14  21901594.766 6 115093634.503 6       106.969          41.000    21901592.492 5  89683382.502 5        83.355          32.000
G22  20772050.180 8 109157910.259 8       834.977          51.000    20772047.289 8  85058100.415 8       650.631          51.000
G27  24710270.055 5 129853333.131 5     -3808.395          35.000
R07  19230243.328 8 102941038.880 8       483.660          49.000    19230245.633 7  80065274.231 7       376.180          47.000
R08  21610244.609 7 115721919.397 7      3719.441          42.000    21610250.633 7  90005903.686 7      2892.902          44.000
R21  21318289.359 8 114078439.246 8     -3073.824          51.000    21318292.297 7  88727689.067 7     -2390.755          45.000
R22  19277534.500 8 102904806.297 8       575.699          51.000    19277537.617 8  80037056.408 8       447.766          51.000
C05  39659181.211 5 206515762.964 5       -29.426          35.000    39659177.867 6 159691074.956 6       -22.582          37.000
C12  21482237.266 8 111863649.560 8        -6.957          51.000    21482234.648 8  86500066.616 8        -5.235          51.000
C21  22268299.203 8 115956914.422 8      1645.824          51.000
C22  22450575.133 8 116906120.379 8     -1455.430          50.000
E04  24332645.672 7 127868984.483 7      -691.172          46.000    24332646.008 6  97977474.112 6      -529.545          41.000
E09  22587868.672 8 118700108.048 8      2128.691          51.000    22587867.859 8  90952051.930 8      1631.114          50.000
E11  23024741.164 8 120995819.622 8     -1074.074          51.000    23024739.609 8  92711091.132 8      -822.884          48.000
> 2020 05 01 20 02  0.0000000  0 18        .000000000000
G01  20444515.117 6 107436644.891 6       870.516          38.000    20444515.750 6  83716858.869 6       678.324          39.000
G03  21731450.320 8 114199556.768 8      2415.637          49.000    21731452.781 8  88986689.359 8      1882.317          49.000
G08  22080486.211 8 116033737.368 8     -3000.480          48.000    22080489.422 8  90415900.459 8     -2338.037          48.000
G11  20014920.383 7 105179127.215 7      -988.496          47.000    20014920.266 7  81957756.172 7      -770.257          46.000
G14  21901037.984 6 115090708.038 6        87.867          40.000    21901036.969 5  89681102.170 5        68.471          34.000
G22  20767320.469 8 109133055.453 8       821.625          51.000    20767317.492 8  85038733.052 8       640.230          51.000
G27  24732018.086 5 129967620.381 5     -3811.656          34.000
R07  19227601.242 8 102926897.257 8       458.711          48.000    19227603.805 7  80054275.195 7       356.775          47.000
R08  21589445.188 7 115610533.664 7      3706.047          43.000    21589450.617 7  89919270.334 7      2882.481          45.000
R21  21335561.992 8 114170864.149 8     -3088.152          51.000    21335564.047 7  88799575.070 7     -2401.899          45.000
R22  19274353.508 8 102887825.900 8       555.938          51.000    19274356.695 8  80023849.421 8       432.396          51.000
C05  39659350.445 5 206516644.955 5       -29.422          35.000    39659347.094 6 159691756.998 6       -23.150          36.000
C12  21482319.750 8 111864080.146 8       -22.125          51.000    21482317.234 8  86500399.565 8       -17.145          51.000
C21  22258854.758 8 115907732.955 8      1632.586          51.000
C22  22458994.727 8 116949963.467 8     -1467.816          49.000
E04  24336629.719 8 127889921.181 8      -704.863          48.000    24336629.781 6  97993516.525 6      -540.186          39.000
E09  22575746.312 8 118636405.848 8      2117.742          51.000    22575745.625 8  90903241.201 8      1622.695          50.000
E11  23030896.984 8 121028168.628 8     -1082.988          51.000    23030895.578 8  92735878.034 8      -829.861          48.000
> 2020 05 01 20 02 30.0000000  0 18        .000000000000
G01  20439578.133 6 107410699.360 6       858.617          39.000    20439579.523 6  83696641.572 6       669.052          40.000
G03  21717690.945 8 114127251.988 8      2404.129          48.000    21717693.086 8  88930347.993 8      1873.347          48.000
G08  22097646.945 8 116123916.040 8     -3012.047          49.000    22097650.172 8  90486169.526 8     -2347.050          49.000
G11  20020613.055 8 105209041.337 8     -1006.621          48.000    20020612.789 8  81981065.902 8      -784.380          48.000
G14  21900589.102 6 115088349.118 6        68.746          37.000    21900588.867 5  89679264.062 5        53.568          34.000
G22  20762665.570 8 109108594.859 8       808.418          51.000    20762662.727 8  85019672.875 8       629.936          51.000
G27  24753779.680 5 130081978.810 5     -3813.742          32.000
R07  19225097.680 8 102913498.544 8       433.734          48.000    19225100.984 7  80043853.992 7       337.349          47.000
R08  21568718.617 7 115499544.799 7      3692.609          45.000    21568723.844 7  89832945.683 7      2872.030          44.000
R21  21352913.273 8 114263712.559 8     -3102.422          51.000    21352914.859 7  88871790.452 7     -2412.995          45.000
R22  19271283.047 8 102871434.943 8       536.121          51.000    19271285.789 8  80011100.895 8       416.983          51.000
C05  39659522.148 5 206517538.529 5       -29.969          35.000    39659518.812 6 159692448.739 6       -23.554          37.000
C12  21482489.180 8 111864964.097 8       -37.457          51.000    21482486.898 8  86501083.072 8       -28.867          51.000
C21  22249485.188 8 115858942.628 8      1619.375          51.000
C22  22467483.758 8 116994169.433 8     -1479.992          48.000
E04  24340690.633 7 127911261.439 7      -718.395          47.000    24340690.172 6  98009868.103 6      -550.383          38.000
E09  22563684.805 8 118573024.163 8      2107.004          51.000    22563684.898 8  90854676.057 8      1614.443          51.000
E11  23037102.398 8 121060778.034 8     -1091.801          51.000    23037100.859 8  92760864.447 8      -836.527          48.000
> 2020 05 01 20 03  0.0000000  0 18        .000000000000
G01  20434712.000 6 107385129.227 6       847.355          36.000    20434715.000 6  83676716.841 6       660.280          36.000
G03  21704000.070 8 114055305.898 8      2393.875          50.000    21704001.641 8  88874286.132 8      1865.360          50.000
G08  22114876.406 8 116214456.421 8     -3022.480          49.000    22114879.586 8  90556720.439 8     -2355.180          49.000
G11  20026413.164 8 105239519.160 8     -1023.730          50.000    20026412.711 8  82004814.852 8      -797.712          49.000
G14  21900251.938 6 115086576.662 6        50.988          37.000    21900251.664 4  89677882.960 4        39.731          28.000
G22  20758089.414 8 109084546.813 8       796.281          51.000    20758086.570 8  85000934.146 8       620.479          51.000
G32  22367458.281 6 117541785.093 6     -1519.492          38.000    22367463.039 5  91591027.238 5     -1184.011          32.000
R07  19222736.586 8 102900861.066 8       410.219          48.000    19222740.219 7  80034024.855 7       319.059          47.000
R08  21548069.414 7 115388974.203 7      3680.305          46.000    21548074.273 7  89746946.352 7      2862.462          43.000
R21  21370346.742 8 114357001.799 8     -3115.480          49.000    21370348.328 7  88944348.775 7     -2423.148          45.000
R22  19268326.797 8 102855653.844 8       517.379          51.000    19268329.258 8  79998826.707 8       402.406          50.000
C05  39659699.766 5 206518464.064 5       -29.414          35.000    39659696.578 6 159693164.409 6       -23.104          37.000
C12  21482749.680 8 111866320.596 8       -51.523          51.000    21482747.281 8  86502132.017 8       -39.941          51.000
C21  22240194.062 8 115810562.331 8      1607.426          51.000
C22  22476046.172 8 117038755.150 8     -1490.926          49.000
E04  24344831.781 7 127933022.956 7      -730.988          46.000    24344833.219 6  98026542.535 6      -560.093          38.000
E09  22551688.180 8 118509982.761 8      2097.203          51.000    22551689.391 8  90806371.639 8      1606.912          51.000
E11  23043360.867 8 121093666.674 8     -1099.559          51.000    23043359.250 8  92786064.825 8      -842.531          48.000
> 2020 05 01 20 03 30.0000000  0 17        .000000000000
G01  20429902.859 5 107359822.834 5       836.391          32.000    20429908.102 5  83657028.057 5       651.739          32.000
G03  21690363.578 8 113983645.086 8      2382.793          50.000    21690365.273 8  88818446.596 8      1856.725          50.000
G08  22132159.859 8 116305282.147 8     -3033.387          48.000    22132163.273 8  90627493.708 8     -2363.678          48.000
G11  20032306.445 8 105270486.571 8     -1041.453          51.000    20032305.797 8  82028945.272 8      -811.522          49.000
G22  20753577.680 8 109060836.924 8       783.598          51.000    20753574.750 8  84982458.912 8       610.596          51.000
G32  22376179.883 5 117587618.497 5     -1536.949          35.000    22376174.930 5  91626741.684 5     -1197.617          34.000
R07  19220503.570 8 102888908.755 8       385.980          49.000    19220506.977 7  80024728.613 7       300.207          46.000
R08  21527485.555 8 115278749.222 8      3667.301          48.000    21527489.773 7  89661215.841 7      2852.345          43.000
R21  21387847.055 7 114450655.048 7     -3129.055          43.000    21387850.016 7  89017190.271 7     -2433.703          45.000
R22  19265471.031 8 102840409.477 8       498.109          51.000    19265473.484 8  79986969.975 8       387.418          50.000
C05  39659869.320 5 206519346.120 5       -29.824          35.000    39659866.141 6 159693847.226 6       -23.020          36.000
C12  21483086.820 8 111868076.822 8       -66.289          51.000    21483084.320 8  86503490.054 8       -51.205          51.000
C21  22230967.844 8 115762519.058 8      1594.719          51.000
C22  22484667.141 8 117083645.554 8     -1502.449          49.000
E04  24349038.797 7 127955130.734 7      -743.727          47.000    24349043.250 5  98043482.260 5      -569.704          34.000
E09  22539742.609 8 118447208.575 8      2086.957          51.000    22539745.094 8  90758271.957 8      1599.073          51.000
E11  23049658.367 8 121126760.629 8     -1107.723          51.000    23049656.852 8  92811422.520 8      -848.754          48.000
> 2020 05 01 20 04  0.0000000  0 19        .000000000000
G01  20425161.328 6 107334906.217 6       824.562          38.000    20425165.812 6  83637612.447 6       642.516          38.000
G03  21676790.492 8 113912319.116 8      2372.055          48.000    21676793.086 8  88762867.942 8      1848.354          48.000
G08  22149506.391 7 116396439.985 7     -3044.125          47.000    22149510.141 8  90698525.789 8     -2372.045          48.000
G11  20038302.086 8 105301992.200 8     -1059.043          51.000    20038301.148 8  82053495.083 8      -825.228          50.000
G14  21899882.625 5 115084661.420 5        13.727          32.000    21899880.102 5  89676353.438 5        10.693          30.000
G22  20749139.242 8 109037513.632 8       771.109          51.000    20749136.336 8  84964284.930 8       600.864          51.000
G32  22385004.539 5 117633976.043 5     -1553.867          31.000    22384978.766 5  91662786.816 5     -1210.815          31.000
R06  21057823.555 5 112368579.938 5     -3291.543          31.000
R07  19218408.008 8 102877690.914 8       361.781          50.000    19218411.211 7  80016003.638 7       281.385          47.000
R08  21506976.844 8 115168922.102 8      3654.289          49.000    21506980.359 7  89575794.793 7      2842.228          44.000
R21  21405422.758 7 114544720.214 7     -3142.246          44.000    21405428.594 7  89090352.142 7     -2443.972          42.000
R22  19262725.406 8 102825753.400 8       478.855          51.000    19262727.977 8  79975570.791 8       372.443          51.000
C05  39660039.969 5 206520234.968 5       -29.316          35.000    39660036.883 6 159694534.538 6       -22.811          37.000
C12  21483509.852 8 111870281.906 8       -80.852          50.000    21483507.891 8  86505195.157 8       -62.526          51.000
C21  22221815.773 8 115714861.656 8      1582.191          51.000
C22  22493355.031 8 117128887.373 8     -1513.871          49.000
E04  24353320.789 8 127977632.719 8      -756.488          48.000
E09  22527857.469 8 118384751.501 8      2076.715          51.000    22527861.039 8  90710415.239 8      1591.225          51.000
E11  23056004.148 8 121160109.015 8     -1115.871          51.000    23056002.992 8  92836975.167 8      -854.994          49.000
> 2020 05 01 20 04 30.0000000  0 18        .000000000000
G01  20420488.664 6 107310350.786 6       812.672          40.000    20420493.477 6  83618478.381 6       633.251          40.000
G03  21663282.727 8 113841336.832 8      2360.633          48.000    21663285.969 8  88707557.074 8      1839.454          48.000
G08  22166917.445 8 116487935.903 8     -3055.086          49.000    22166921.125 8  90769821.352 8     -2380.583          49.000
G11  20044401.547 8 105334043.703 8     -1077.098          51.000    20044400.453 8  82078470.250 8      -839.297          50.000
G14  21899853.430 6 115084508.698 6        -4.156          37.000    21899855.922 5  89676246.422 5        -3.239          33.000
G22  20744775.953 8 109014584.519 8       758.102          51.000    20744772.883 8  84946418.093 8       590.728          51.000
G32  22393930.289 5 117680868.298 5     -1571.793          34.000    22393896.812 4  91699325.965 4     -1224.786          28.000
R07  19216451.242 8 102867214.851 8       337.246          51.000    19216454.133 7  80007855.607 7       262.303          47.000
R08  21486544.477 8 115059503.986 8      3640.855          49.000    21486547.492 7  89490691.842 7      2831.776          44.000
R21  21423079.438 8 114639204.305 8     -3155.988          51.000    21423083.672 6  89163839.652 6     -2454.664          37.000
R22  19260091.797 8 102811695.243 8       458.957          51.000    19260094.438 8  79964636.670 8       356.967          50.000
C05  39660213.312 5 206521137.721 5       -30.164          34.000    39660210.250 6 159695231.574 6       -23.119          36.000
C12  21484020.758 8 111872944.473 8       -96.012          49.000    21484019.453 8  86507254.019 8       -74.194          51.000
C21  22212739.180 8 115667598.495 8      1569.258          51.000
C22  22502111.945 8 117174486.946 8     -1525.539          49.000
E04  24357678.938 8 128000536.019 8      -769.668          48.000
E09  22516034.266 8 118322620.640 8      2065.984          51.000    22516038.562 8  90662808.467 8      1583.045          51.000
E11  23062400.062 8 121193720.006 8     -1124.469          51.000    23062399.109 8  92862729.028 8      -861.540          49.000
> 2020 05 01 20 05  0.0000000  0 18        .000000000000
G01  20415880.047 6 107286132.075 6       801.824          40.000    20415882.422 6  83599606.644 6       624.798          40.000
G03  21649836.000 8 113770673.974 8      2350.211          49.000    21649839.023 8  88652495.120 8      1831.333          49.000
G08  22184387.938 8 116579742.240 8     -3065.223          50.000    22184391.148 8  90841358.783 8     -2388.485          50.000
G11  20050599.930 8 105366615.813 8     -1094.219          51.000    20050598.812 8  82103851.090 8      -852.638          51.000
G14  21899931.523 6 115084923.871 6       -22.715          39.000    21899938.836 5  89676569.950 5       -17.697          32.000
G22  20740482.992 8 108992024.452 8       746.020          51.000    20740479.602 8  84928838.829 8       581.314          51.000
G32  22402952.125 6 117728266.542 6     -1588.070          36.000    22402916.750 5  91736259.376 5     -1237.467          35.000
R07  19214628.047 8 102857454.674 8       313.617          51.000    19214630.422 7  80000264.356 7       243.924          47.000
R08  21466183.641 8 114950471.868 8      3628.121          48.000    21466186.219 7  89405889.098 7      2821.872          44.000
R21  21440810.531 8 114734080.435 8     -3168.898          51.000    21440812.133 6  89237632.037 6     -2464.702          40.000
R22  19257565.859 8 102798211.649 8       440.051          50.000    19257568.516 8  79954149.427 8       342.262          50.000
C05  39660384.625 5 206522029.602 5       -29.863          35.000    39660381.500 6 159695921.242 6       -22.826          37.000
C12  21484615.242 8 111876040.523 8      -110.203          49.000    21484614.188 8  86509648.087 8       -85.282          51.000
C21  22203733.758 8 115620705.404 8      1557.148          51.000
C22  22510932.672 8 117220418.051 8     -1536.367          49.000
E04  24362108.617 8 128023814.874 8      -782.098          48.000
E09  22504268.477 8 118260792.212 8      2056.062          51.000    22504273.180 8  90615433.429 8      1575.430          51.000
E11  23068841.438 8 121227569.014 8     -1132.082          51.000    23068840.406 8  92888665.280 8      -867.490          48.000
> 2020 05 01 20 05 30.0000000  0 18        .000000000000
G01  20411337.680 6 107262262.241 6       790.316          39.000    20411337.961 6  83581006.758 6       615.831          39.000
G03  21636452.531 8 113700342.563 8      2338.855          50.000    21636454.945 8  88597691.447 8      1822.488          50.000
G08  22201919.586 8 116671868.495 8     -3076.207          51.000    22201921.727 8  90913145.457 8     -2397.044          51.000
G11  20056899.352 8 105399719.673 8     -1112.379          51.000    20056898.273 8  82129646.273 8      -866.789          51.000
G14  21900116.000 7 115085894.618 7       -41.633          44.000    21900119.875 5  89677326.218 5       -32.444          31.000
G22  20736262.148 8 108969844.289 8       732.953          51.000    20736258.938 8  84911555.598 8       571.132          51.000
G32  22412071.531 5 117776180.580 5     -1605.746          34.000    22412034.492 5  91773594.728 5     -1251.249          32.000
R07  19212940.633 8 102848421.364 8       288.934          51.000    19212942.953 7  79993238.465 7       224.726          47.000
R08  21445897.289 8 114841839.862 8      3614.285          49.000    21445899.305 7  89321397.554 7      2811.114          44.000
R21  21458616.492 8 114829358.404 8     -3182.555          51.000    21458618.281 7  89311737.095 7     -2475.320          45.000
R22  19255149.883 8 102785315.963 8       420.023          49.000    19255152.672 8  79944119.460 8       326.688          50.000
C05  39660555.945 5 206522921.788 5       -30.027          35.000    39660552.773 6 159696611.149 6       -23.228          37.000
C12  21485295.391 8 111879581.851 8      -125.477          50.000    21485294.453 8  86512386.474 8       -97.063          51.000
C21  22194801.805 8 115574193.950 8      1543.922          51.000
C22  22519818.570 8 117266690.225 8     -1548.145          48.000
E04  24366612.094 7 128047479.589 7      -795.398          47.000
E09  22492562.555 8 118199278.530 8      2045.125          51.000    22492567.320 8  90568299.566 8      1567.089          51.000
E11  23075330.258 8 121261667.525 8     -1140.793          51.000    23075329.070 8  92914792.711 8      -874.153          48.000
> 2020 05 01 20 06  0.0000000  0 18        .000000000000
G01  20406861.664 6 107238740.463 6       778.219          40.000    20406861.789 6  83562678.068 6       606.407          41.000
G03  21623131.945 8 113630341.623 8      2327.859          49.000    21623134.242 8  88543145.307 8      1813.916          49.000
G08  22219511.328 8 116764310.571 8     -3086.656          51.000    22219511.930 8  90985178.194 8     -2405.187          51.000
G11  20063299.586 8 105433353.147 8     -1129.996          51.000    20063298.641 8  82155854.175 8      -880.516          51.000
G14  21900405.961 7 115087419.418 7       -60.305          42.000    21900411.367 6  89678514.356 6       -46.991          36.000
G22  20732113.234 8 108948042.194 8       720.379          51.000    20732110.414 8  84894566.936 8       561.334          51.000
G32  22421282.328 5 117824602.003 5     -1622.473          35.000    22421289.328 5  91811396.815 5     -1264.258          34.000
R07  19211388.500 8 102840112.250 8       264.926          50.000    19211390.281 7  79986775.831 7       206.053          46.000
R08  21425685.805 8 114733609.053 8      3600.977          50.000    21425687.227 7  89237218.078 7      2800.763          44.000
R21  21476496.469 8 114925034.961 8     -3195.902          51.000    21476499.273 8  89386152.177 8     -2485.702          48.000
R22  19252844.078 8 102773008.308 8       400.453          48.000    19252846.992 8  79934546.843 8       311.464          50.000
C05  39660727.008 5 206523812.561 5       -29.406          34.000    39660723.852 6 159697299.972 6       -22.983          37.000
C12  21486060.992 8 111883567.474 8      -140.320          49.000    21486060.109 8  86515468.418 8      -108.441          51.000
C21  22185943.141 8 115528062.833 8      1531.352          51.000
C22  22528769.453 8 117313300.121 8     -1559.359          49.000
E04  24371188.391 7 128071527.571 7      -808.062          46.000    24371198.836 5  98132679.128 5      -619.024          35.000
E09  22480916.438 8 118138078.910 8      2034.727          51.000    22480921.102 8  90521406.373 8      1559.139          51.000
E11  23081866.250 8 121296014.085 8     -1148.922          51.000    23081864.984 8  92941110.193 8      -880.343          49.000
> 2020 05 01 20 06 30.0000000  0 18        .000000000000
G01  20402452.672 7 107215570.145 7       766.945          42.000    20402453.625 7  83544623.252 7       597.623          43.000
G03  21609874.898 8 113560674.515 8      2317.211          50.000    21609877.141 8  88488859.274 8      1805.622          50.000
G08  22237163.062 8 116857069.013 8     -3096.812          51.000    22237163.008 8  91057457.446 8     -2413.101          51.000
G11  20069801.062 8 105467518.758 8     -1147.195          50.000    20069800.031 8  82182476.735 8      -893.918          50.000
G14  21900802.461 6 115089500.822 6       -78.109          41.000    21900804.938 6  89680136.223 6       -60.864          36.000
G22  20728036.828 8 108926620.609 8       708.188          51.000    20728033.984 8  84877874.786 8       551.834          51.000
G32  22430594.406 6 117873541.610 6     -1639.402          36.000    22430597.062 5  91849531.455 5     -1277.462          31.000
R07  19209972.055 8 102832529.384 8       241.082          50.000    19209973.516 7  79980878.054 7       187.511          47.000
R08  21405549.969 8 114625784.655 8      3587.809          50.000    21405551.102 7  89153354.719 7      2790.521          44.000
R21  21494450.938 8 115021111.050 8     -3208.664          51.000    21494454.172 8  89460878.065 8     -2495.625          48.000
R22  19250649.211 8 102761292.964 8       381.035          48.000    19250652.555 8  79925434.935 8       296.361          50.000
C05  39660898.422 5 206524705.688 5       -29.230          35.000    39660895.062 6 159697989.787 6       -22.588          37.000
C12  21486912.461 8 111888000.601 8      -154.699          49.000    21486911.875 8  86518896.399 8      -119.747          51.000
C21  22177158.305 8 115482315.059 8      1518.996          51.000
C22  22537785.695 8 117360248.791 8     -1570.152          50.000
E04  24375838.039 7 128095960.548 7      -820.438          46.000    24375851.500 5  98151452.596 5      -628.455          32.000
E09  22469330.914 8 118077197.076 8      2024.477          51.000    22469335.375 8  90474756.687 8      1551.273          51.000
E11  23088449.969 8 121330611.543 8     -1156.844          51.000    23088449.031 8  92967619.918 8      -886.455          49.000
> 2020 05 01 20 07  0.0000000  0 18        .000000000000
G01  20398110.547 7 107192751.498 7       754.508          42.000    20398111.703 7  83526842.514 7       587.928          42.000
G03  21596681.352 8 113491341.293 8      2305.211          49.000    21596683.250 8  88434833.407 8      1796.268          50.000
G08  22254874.086 8 116950140.282 8     -3107.945          50.000    22254874.273 8  91129980.468 8     -2421.779          50.000
G11  20076403.555 8 105502215.371 8     -1165.625          50.000    20076402.477 8  82209513.064 8      -908.279          50.000
G14  21901304.578 7 115092138.388 7       -97.340          42.000    21901306.359 5  89682191.427 5       -75.852          35.000
G22  20724032.547 8 108905578.131 8       694.863          51.000    20724029.422 8  84861478.064 8       541.452          51.000
G32  22440003.945 5 117922992.133 5     -1657.277          32.000    22439994.898 5  91888064.224 5     -1291.385          31.000
R07  19208690.688 8 102825671.247 8       216.230          50.000    19208692.469 7  79975543.970 7       168.179          47.000
R08  21385490.531 8 114518368.752 8      3573.426          51.000    21385491.625 7  89069809.080 7      2779.334          45.000
R21  21512479.609 8 115117584.574 8     -3222.777          51.000    21512483.094 8  89535913.052 8     -2506.605          48.000
R22  19248565.070 7 102750171.365 7       360.582          46.000    19248569.008 8  79916784.815 8       280.453          49.000
C05                                                                  39661066.438 6 159698680.092 6       -23.346          37.000
C12  21487849.727 8 111892881.077 8      -170.445          49.000    21487849.445 8  86522670.279 8      -131.742          51.000
C21  22168446.812 8 115436950.386 8      1505.484          51.000
C22  22546866.141 8 117407533.884 8     -1582.027          49.000
E04  24380560.602 7 128120776.883 7      -833.805          44.000    24380563.875 6  98170450.522 6      -638.743          36.000
E09  22457806.078 8 118016633.390 8      2013.191          51.000    22457810.148 8  90428350.776 8      1542.590          51.000
E11  23095081.156 8 121365459.466 8     -1165.844          50.000    23095080.633 8  92994321.560 8      -893.321          50.000
> 2020 05 01 20 07 30.0000000  0 17        .000000000000
G01  20393835.430 6 107170286.267 6       743.199          41.000    20393836.742 6  83509337.180 6       579.116          41.000
G03  21583551.445 8 113422343.445 8      2294.590          49.000    21583553.273 8  88381068.872 8      1787.992          49.000
G08  22272644.266 8 117043523.696 8     -3117.711          49.000    22272644.742 8  91202746.729 8     -2429.388          49.000
G11  20083107.266 8 105537443.584 8     -1182.879          51.000    20083106.242 8  82236963.612 8      -921.724          50.000
G14  21901913.320 6 115095332.729 6      -114.969          36.000    21901914.109 5  89684680.448 5       -89.592          33.000
G22  20720100.641 8 108884915.441 8       682.660          51.000    20720097.078 8  84845377.283 8       531.943          51.000
R07  19207544.570 8 102819537.835 8       192.672          49.000    19207546.594 8  79970773.532 8       149.856          48.000
R08  21365508.586 8 114411364.664 8      3560.340          51.000    21365509.570 7  88986583.731 7      2769.153          45.000
R21  21530582.203 8 115214454.700 8     -3235.273          49.000    21530586.156 8  89611256.472 8     -2516.327          48.000
R22  19246592.938 7 102739645.688 7       341.176          47.000    19246597.375 8  79908598.180 8       265.359          49.000
C05  39661241.508 5 206526491.479 5       -28.922          34.000    39661238.141 6 159699371.484 6       -22.811          37.000
C12  21488873.164 8 111898210.537 8      -184.742          49.000    21488873.117 8  86526791.354 8      -142.845          51.000
C21  22159808.695 8 115391969.989 8      1493.176          51.000
C22  22556010.984 8 117455154.597 8     -1592.738          49.000
E04  24385355.836 7 128145976.456 7      -846.137          44.000    24385355.727 6  98189759.312 6      -648.276          39.000
E09  22446342.281 8 117956389.748 8      2003.117          51.000    22446345.453 8  90382190.077 8      1534.877          51.000
E11  23101760.156 8 121400558.898 8     -1173.738          49.000    23101759.898 8  93021215.923 8      -899.313          50.000
> 2020 05 01 20 08  0.0000000  0 18        .000000000000
G01  20389626.945 6 107148171.859 6       731.164          41.000    20389628.914 6  83492105.190 6       569.738          40.000
G03  21570484.844 8 113353678.213 8      2283.012          49.000    21570486.883 8  88327563.511 8      1778.970          49.000
G08  22290472.398 7 117137213.171 7     -3128.301          47.000    22290473.320 8  91275751.486 8     -2437.640          48.000
G11  20089911.414 8 105573199.440 8     -1200.859          51.000    20089910.180 8  82264825.312 8      -935.735          49.000
G14  21902627.430 5 115099080.185 5      -133.734          32.000    21902625.773 5  89687600.610 5      -104.203          33.000
G22  20716240.359 8 108864628.988 8       669.766          51.000    20716236.609 8  84829569.659 8       521.895          51.000
G32  22459112.719 5 118023414.267 5     -1690.066          32.000
R07  19206532.977 8 102814125.005 8       168.152          50.000    19206535.766 8  79966563.575 8       130.788          48.000
R08  21345603.406 8 114304771.192 8      3545.980          50.000    21345604.602 7  88903677.756 7      2757.985          45.000
R21  21548757.633 8 115311716.285 8     -3248.734          49.000    21548762.117 7  89686904.332 7     -2526.793          45.000
R22  19244732.602 8 102729714.549 8       320.961          49.000    19244736.945 8  79900873.964 8       249.636          48.000
C05  39661412.695 5 206527383.700 5       -29.922          35.000    39661409.523 6 159700061.367 6       -22.923          37.000
C12  21489982.188 8 111903986.057 8      -200.145          49.000    21489982.453 8  86531257.349 8      -154.786          51.000
C21  22151243.672 8 115347370.880 8      1480.086          51.000
C22  22565219.438 8 117503105.894 8     -1604.035          48.000
E04  24390223.297 7 128171554.884 7      -859.207          42.000    24390222.266 6  98209358.383 6      -658.389          40.000
E09  22434939.141 8 117896463.718 8      1992.008          51.000    22434940.867 8  90336272.743 8      1526.368          50.000
E11  23108486.367 8 121435906.614 8     -1182.535          48.000    23108486.156 8  93048300.561 8      -906.065          50.000
> 2020 05 01 20 08 30.0000000  0 18        .000000000000
G01  20385487.516 7 107126419.074 7       719.891          43.000    20385489.594 7  83475154.957 7       560.954          43.000
G03  21557483.664 8 113285356.171 8      2272.730          50.000    21557485.812 8  88274325.599 8      1770.959          49.000
G08  22308360.094 7 117231216.536 7     -3137.621          47.000    22308361.914 7  91349000.850 7     -2444.900          47.000
G11  20096817.852 8 105609492.522 8     -1217.715          51.000    20096816.281 8  82293105.652 8      -948.869          48.000
G14  21903454.836 5 115103415.869 5      -152.641          32.000
G22  20712453.258 8 108844727.660 8       658.027          51.000    20712449.820 8  84814062.151 8       512.749          51.000
G32  22468809.016 6 118074392.614 6     -1706.574          38.000    22468815.578 5  92006046.377 5     -1329.798          34.000
R07  19205658.320 8 102809442.091 8       144.930          49.000    19205661.141 8  79962921.313 8       112.723          48.000
R08  21325776.969 8 114198601.326 8      3533.000          48.000    21325778.328 7  88821101.226 7      2747.892          44.000
R21  21567008.000 8 115409377.754 8     -3260.973          50.000    21567011.797 6  89762863.216 6     -2536.315          41.000
R22  19242985.844 8 102720389.445 8       301.664          50.000    19242990.047 8  79893621.112 8       234.628          48.000
C05                                                                  39661582.391 6 159700757.337 6       -22.542          37.000
C12  21491178.930 8 111910218.106 8      -214.387          49.000    21491179.305 8  86536076.354 8      -165.768          51.000
C21  22142753.477 8 115303163.205 8      1468.066          51.000
C22  22574492.547 7 117551395.963 7     -1614.262          47.000
E04  24395163.695 6 128197521.108 6      -870.871          40.000    24395162.016 6  98229254.596 6      -667.285          40.000
E09  22423598.438 8 117836866.230 8      1982.133          51.000    22423598.594 8  90290607.180 8      1518.702          50.000
E11  23115261.539 8 121471512.741 8     -1190.047          48.000    23115261.797 8  93075583.187 8      -911.965          50.000
> 2020 05 01 20 09  0.0000000  0 17        .000000000000
G01  20381415.672 7 107105020.410 7       707.422          43.000    20381417.453 7  83458480.682 7       551.238          42.000
G03  21544546.336 8 113217369.709 8      2260.840          50.000    21544547.758 8  88221349.171 8      1761.693          49.000
G08  22326305.156 7 117325522.879 7     -3148.309          47.000    22326308.375 7  91422486.326 7     -2453.224          47.000
G11  20103824.719 8 105646314.324 8     -1235.945          50.000    20103823.172 8  82321797.965 8      -963.074          48.000
G22  20708738.031 8 108825203.330 8       644.723          51.000    20708734.672 8  84798848.399 8       502.381          51.000
G32  22478605.711 5 118125873.918 5     -1724.191          35.000    22478609.039 5  92046161.547 5     -1343.529          35.000
R07  19204918.180 8 102805479.472 8       120.324          51.000    19204920.992 8  79959839.297 8        93.586          48.000
R08  21306027.930 8 114092849.240 8      3518.285          48.000    21306029.594 7  88738849.638 7      2736.447          43.000
R21  21585331.062 7 115507429.247 7     -3274.543          47.000    21585332.578 6  89839125.397 6     -2546.867          38.000
R22  19241351.344 8 102711663.990 8       281.074          51.000    19241355.508 7  79886834.610 7       218.613          47.000
C05  39661758.289 5 206529182.372 5       -28.512          35.000    39661755.172 6 159701452.035 6       -23.002          37.000
C12  21492461.898 8 111916898.934 8      -230.016          49.000    21492462.406 8  86541242.387 8      -177.697          51.000
C21  22134336.703 8 115259339.055 8      1454.637          51.000
C22  22583829.516 8 117600015.005 8     -1625.859          49.000
E04  24400177.133 6 128223865.920 6      -884.355          39.000    24400175.398 6  98249440.884 6      -677.677          41.000
E09  22412318.477 8 117777589.979 8      1970.773          51.000    22412317.570 8  90245187.772 8      1510.043          49.000
E11  23122084.688 8 121507369.164 8     -1199.074          49.000    23122085.117 8  93103057.597 8      -918.798          51.000
> 2020 05 01 20 09 30.0000000  0 17        .000000000000
G01  20377410.562 7 107083973.562 7       695.031          42.000    20377412.562 7  83442080.566 7       541.583          42.000
G03  21531672.094 8 113149716.410 8      2248.883          48.000    21531673.266 8  88168632.338 8      1752.376          48.000
G08  22344307.133 8 117420126.796 8     -3159.016          48.000    22344311.500 8  91496203.670 8     -2461.571          48.000
G11  20110931.438 8 105683661.359 8     -1254.359          51.000    20110930.242 8  82350899.530 8      -977.423          48.000
G22  20705093.758 8 108806052.077 8       631.508          51.000    20705090.312 8  84783925.343 8       492.084          51.000
G32  22488497.344 5 118177849.311 5     -1741.586          34.000    22488500.555 5  92086664.858 5     -1357.086          32.000
R07  19204311.977 8 102802232.864 8        95.594          50.000    19204314.812 8  79957314.174 8        74.354          48.000
R08  21286357.211 8 113987514.020 8      3503.453          49.000    21286358.039 7  88656922.322 7      2724.908          42.000
R21  21603725.750 7 115605865.804 7     -3288.273          45.000    21603725.320 6  89915687.068 6     -2557.549          39.000
R22  19239829.219 8 102703536.427 8       260.273          51.000    19239833.031 7  79880513.162 7       202.435          47.000
C05  39661930.438 5 206530079.649 5       -30.273          34.000    39661927.281 6 159702146.065 6       -23.612          37.000
C12  21493830.594 8 111924026.164 8      -245.715          49.000    21493831.164 8  86546753.609 8      -189.990          51.000
C21  22125993.625 8 115215895.735 8      1441.102          51.000
C22  22593228.922 8 117648958.243 8     -1637.523          48.000
E04  24405261.180 5 128250513.050 5      -897.668          32.000    24405260.727 7  98269914.053 7      -687.758          42.000
E09  22401099.133 8 117718632.858 8      1959.203          51.000    22401098.016 8  90200012.887 8      1501.187          50.000
E11  23128955.477 8 121543473.000 8     -1208.305          51.000    23128955.680 8  93130721.571 8      -925.868          51.000
> 2020 05 01 20 10  0.0000000  0 18        .000000000000
G01  20373470.453 7 107063269.356 7       684.398          42.000    20373472.734 7  83425947.419 7       533.297          42.000
G03  21518859.211 7 113082386.758 7      2238.754          47.000    21518861.211 8  88116167.702 8      1744.484          48.000
G08  22362363.984 8 117515016.053 8     -3167.852          49.000    22362368.742 8  91570143.341 8     -2468.456          49.000
G11  20118136.102 8 105721522.534 8     -1270.844          51.000    20118135.102 8  82380401.739 8      -990.268          49.000
G14  21906543.109 5 115119658.693 5      -207.828          35.000    21906533.461 5  89703584.814 5      -161.947          31.000
G22  20701518.266 8 108787263.634 8       620.113          51.000    20701514.977 8  84769285.008 8       483.205          51.000
G32  22498481.367 6 118230314.741 6     -1757.309          37.000    22498484.938 6  92127546.954 6     -1369.334          36.000
R07  19203837.328 8 102799691.263 8        72.879          50.000    19203839.898 7  79955337.377 7        56.684          47.000
R08  21266763.547 8 113882588.033 8      3490.422          50.000    21266763.570 7  88575313.300 7      2714.776          42.000
R21  21622189.469 7 115704675.391 7     -3299.988          42.000    21622188.773 6  89992538.965 6     -2566.658          40.000
R22  19238417.367 8 102695998.116 8       241.227          51.000    19238421.469 7  79874649.999 7       187.621          47.000
C05                                                                  39662096.805 6 159702827.664 6       -22.766          37.000
C12  21495283.039 8 111931590.139 8      -259.492          49.000    21495283.680 8  86552602.554 8      -200.774          51.000
C21  22117722.055 8 115172823.523 8      1429.375          51.000
C22  22602687.828 7 117698213.982 7     -1647.316          47.000
E04                                                                  24410414.664 7  98290665.597 7      -696.489          42.000
E09  22389938.797 8 117659985.757 8      1949.523          51.000    22389938.203 8  90155075.513 8      1493.746          50.000
E11  23135871.516 8 121579814.318 8     -1215.668          51.000    23135871.328 8  93158567.501 8      -931.477          51.000
> 2020 05 01 20 10 30.0000000  0 18        .000000000000
G01  20369604.727 7 107042956.006 7       670.836          42.000    20369606.883 6  83410118.835 6       522.726          41.000
G03  21506117.578 8 113015428.834 8      2225.930          49.000    21506120.227 8  88063992.715 8      1734.491          49.000
G08  22380484.258 8 117610236.303 8     -3179.438          50.000    22380488.898 8  91644340.910 8     -2477.484          50.000
G11  20125447.672 8 105759945.211 8     -1290.078          51.000    20125446.648 8  82410341.477 8     -1005.259          49.000
G14  21907784.156 6 115126204.574 6      -227.445          36.000    21907780.148 5  89708685.402 5      -177.230          34.000
G22  20698020.883 8 108768885.141 8       605.770          51.000    20698017.625 8  84754964.108 8       472.028          51.000
G32  22508566.844 5 118283311.951 5     -1775.734          31.000    22508571.078 4  92168843.457 4     -1383.680          28.000
R07  19203503.234 8 102797901.934 8        47.211          49.000    19203505.672 8  79953945.668 8        36.720          48.000
R08  21247254.828 7 113778122.015 7      3474.672          47.000    21247255.977 7  88494062.010 7      2702.523          43.000
R21  21640729.984 6 115803904.423 6     -3314.355          39.000    21640732.422 6  90069717.148 6     -2577.829          41.000
R22  19237125.062 8 102689098.885 8       219.418          51.000    19237129.086 8  79869283.906 8       170.658          48.000
C05  39662275.945 5 206531878.666 5       -30.348          35.000    39662272.742 6 159703536.194 6       -24.047          37.000
C12  21496828.539 8 111939638.452 8      -276.312          49.000    21496829.203 8  86558826.014 8      -213.551          51.000
C21  22109530.492 8 115130169.712 8      1414.797          51.000
C22  22612215.711 7 117747827.563 7     -1659.598          47.000
E04                                                                  24415646.742 7  98311731.108 7      -707.237          42.000
E09  22378846.633 8 117601697.068 8      1937.082          51.000    22378846.906 8  90110412.743 8      1484.377          51.000
E11  23142841.555 8 121616440.722 8     -1225.621          51.000    23142841.078 8  93186631.867 8      -939.064          50.000
> 2020 05 01 20 11  0.0000000  0 17        .000000000000
G01  20365803.922 7 107022982.897 7       660.375          42.000    20365805.711 7  83394555.345 7       514.578          43.000
G03  21493437.258 8 112948791.725 8      2216.027          49.000    21493439.703 8  88012067.752 8      1726.778          49.000
G08  22398657.070 8 117705732.752 8     -3187.832          49.000    22398661.227 8  91718753.720 8     -2484.025          49.000
G11  20132856.211 8 105798877.572 8     -1306.230          50.000    20132855.062 8  82440678.358 8     -1017.842          50.000
G14  21909131.211 6 115133287.110 6      -245.281          38.000    21909128.812 5  89714204.193 5      -191.137          31.000
G22  20694591.781 8 108750864.349 8       594.836          51.000    20694588.414 8  84740921.936 8       463.509          51.000
R07  19203299.789 8 102796811.398 8        24.801          49.000    19203302.070 7  79953097.480 7        19.289          47.000
R08  21227820.883 7 113674066.277 7      3461.898          44.000    21227824.625 7  88413129.801 7      2692.588          42.000
R21  21659339.898 7 115903498.899 7     -3325.887          46.000    21659344.852 6  90147179.544 6     -2586.801          41.000
R22  19235943.148 8 102682788.212 8       200.539          51.000    19235946.469 7  79864375.599 7       155.975          47.000
C05  39662448.531 5 206532777.483 5       -29.852          34.000    39662445.289 6 159704231.173 6       -22.953          36.000
C12  21498457.375 8 111948120.500 8      -289.914          48.000    21498457.906 8  86565384.872 8      -224.225          51.000
C21  22101410.055 8 115087883.574 8      1403.445          51.000
C22  22621802.258 7 117797746.346 7     -1668.891          46.000
E04  24420943.906 6 128332919.044 6      -934.250          37.000    24420946.969 7  98333070.323 7      -715.815          42.000
E09  22367813.180 8 117543716.247 8      1927.559          51.000    22367814.102 8  90065985.877 8      1476.963          51.000
E11  23149855.969 8 121653300.891 8     -1232.695          51.000    23149855.289 8  93214875.353 8      -944.524          50.000
> 2020 05 01 20 11 30.0000000  0 17        .000000000000
G01  20362073.039 7 107003377.211 7       647.340          42.000    20362074.906 7  83379278.181 7       504.421          42.000
G03  21480822.750 7 112882502.537 7      2203.305          46.000    21480824.570 7  87960413.873 7      1716.861          46.000
G08  22416887.023 8 117801530.009 8     -3198.762          49.000    22416890.820 8  91793400.929 8     -2492.542          49.000
G11  20140366.617 8 105838345.409 8     -1324.906          51.000    20140365.359 8  82471432.496 8     -1032.398          50.000
G14  21910585.406 5 115140932.144 5      -264.781          35.000    21910584.070 4  89720161.335 4      -206.323          29.000
G22  20691235.555 8 108733227.336 8       581.074          51.000    20691232.234 8  84727178.823 8       452.785          50.000
R07  19203231.414 8 102796445.510 8         -.398          50.000    19203233.633 7  79952812.900 7         -.310          47.000
R08  21208470.031 7 113570449.890 7      3446.059          44.000    21208474.188 6  88332539.293 6      2680.268          41.000
R21  21678025.938 8 116003484.287 8     -3339.832          49.000    21678030.117 6  90224945.915 6     -2597.650          41.000
R22  19234876.492 8 102677094.198 8       179.035          51.000    19234879.922 8  79859946.895 8       139.250          48.000
C05  39662622.852 5 206533684.999 5       -31.125          34.000    39662619.531 6 159704932.916 6       -23.965          36.000
C12  21500174.742 8 111957063.147 8      -306.242          49.000    21500175.125 8  86572299.890 8      -236.857          51.000
C21  22093365.688 8 115045991.608 8      1389.383          51.000
C22  22631451.430 7 117847994.796 7     -1680.836          45.000
E04  24426321.055 6 128361151.158 6      -947.996          37.000    24426319.312 7  98354702.739 7      -726.387          42.000
E09  22356843.648 8 117486070.650 8      1915.398          51.000    22356844.852 8  90021815.880 8      1467.628          51.000
E11  23156919.859 8 121690421.438 8     -1242.309          51.000    23156918.961 8  93243318.348 8      -951.938          50.000
> 2020 05 01 20 12  0.0000000  0 17        .000000000000
G01  20358409.781 7 106984128.057 7       637.438          42.000    20358412.047 7  83364278.825 7       496.705          43.000
G03  21468272.023 7 112816550.092 7      2194.531          46.000    21468273.773 7  87909022.351 7      1710.027          46.000
G08  22435171.344 8 117897613.991 8     -3205.812          50.000    22435174.867 8  91868271.558 8     -2498.036          49.000
G11  20147976.484 8 105878336.326 8     -1339.910          50.000    20147975.312 8  82502594.246 8     -1044.086          50.000
G14  21912144.227 6 115149127.942 6      -280.375          37.000    21912144.641 5  89726568.562 5      -218.477          32.000
G22  20687950.109 8 108715962.207 8       571.055          51.000    20687946.594 8  84713725.492 8       444.978          50.000
R07  19203296.188 8 102796791.186 8       -21.582          51.000    19203298.328 7  79953081.765 7       -16.783          46.000
R08  21189201.297 7 113467263.494 7      3434.145          46.000    21189203.875 6  88252283.244 6      2671.001          41.000
R21  21696782.961 8 116103846.491 8     -3349.832          50.000    21696785.750 6  90303005.378 6     -2605.425          41.000
R22  19233923.531 8 102672006.623 8       161.262          51.000    19233927.156 8  79855989.874 8       125.426          49.000
C05  39662796.484 5 206534589.478 5       -29.270          35.000    39662793.258 6 159705632.291 6       -21.860          36.000
C12  21501978.609 8 111966455.039 8      -318.750          49.000    21501978.641 8  86579562.291 8      -246.414          51.000
C21  22085394.602 8 115004482.325 8      1379.066          51.000
C22  22641162.008 7 117898559.595 7     -1688.984          46.000
E04  24431762.266 6 128389752.964 6      -957.852          38.000    24431761.719 7  98376618.475 7      -733.753          42.000
E09  22345935.875 8 117428749.419 8      1907.141          51.000    22345937.008 8  89977894.433 8      1461.354          51.000
E11  23164030.984 8 121727790.754 8     -1248.121          51.000    23164029.984 8  93271951.949 8      -956.293          50.000
> 2020 05 01 20 12 30.0000000  0 18        .000000000000
G01  20354815.773 7 106965242.735 7       624.285          44.000    20354818.391 7  83349562.995 7       486.459          43.000
G03  21455786.977 7 112750941.403 7      2182.043          46.000    21455788.664 7  87857898.733 7      1700.296          46.000
G08  22453511.102 8 117993988.678 8     -3216.594          50.000    22453513.711 8  91943368.715 8     -2506.437          50.000
G11  20155687.039 8 105918856.229 8     -1358.715          50.000    20155685.891 8  82534168.202 8     -1058.739          50.000
G14  21913809.445 5 115157880.704 5      -300.828          32.000
G22  20684736.539 8 108699074.704 8       557.352          51.000    20684732.688 8  84700566.419 8       434.300          50.000
G32  22549838.391 6 118500180.411 6     -1839.941          36.000
R07  19203494.781 8 102797853.649 8       -46.684          51.000    19203496.539 7  79953908.142 7       -36.309          46.000
R08  21170015.297 8 113364516.257 8      3418.219          48.000    21170016.781 7  88172368.757 7      2658.615          43.000
R21  21715610.586 8 116204590.673 8     -3363.758          48.000    21715613.477 7  90381361.893 7     -2616.259          43.000
R22  19233085.492 8 102667533.684 8       139.535          51.000    19233089.297 8  79852510.899 8       108.527          49.000
C05  39662970.695 5 206535496.341 5       -29.238          34.000    39662967.547 6 159706334.335 6       -23.062          37.000
C12  21503869.672 8 111976303.142 8      -335.219          48.000    21503869.586 8  86587177.459 8      -259.312          51.000
C21  22077498.242 8 114963362.503 8      1364.855          51.000
C22  22650934.375 7 117949445.566 7     -1700.895          46.000
E04  24437275.969 7 128418730.145 7      -971.602          42.000    24437275.977 7  98398821.760 7      -744.363          42.000
E09  22335091.102 8 117371760.006 8      1894.723          51.000    22335092.016 8  89934227.258 8      1451.806          51.000
