     3.02           OBSERVATION DATA    M (MIXED)           RINEX VERSION / TYPE
SAVERINEX           SC600               20200503 095930 LCL PGM / RUN BY / DATE
       G = GPS       R = GLONASS       C = COMPASS          COMMENT
       S = SBAS      J = QZSS          E = GALILEO          COMMENT
BEAN                                                        MARKER NAME
1                                                           MARKER NUMBER
GEODETIC                                                    MARKER TYPE
Unige DICCA         GTER                                    OBSERVER / AGENCY
SC60291900056       SC600               2.12(191226)        REC # / TYPE / VERS
                    HEMA45          NONE                    ANT # / TYPE
  4509407.8091   693652.4678  4442337.6214                  APPROX POSITION XYZ
        0.0000        0.0000        0.0000                  ANTENNA: DELTA H/E/N
G    8 C1C L1C D1C S1C C2Y L2Y D2Y S2Y                      SYS / # / OBS TYPES
R    8 C1C L1C D1C S1C C2P L2P D2P S2P                      SYS / # / OBS TYPES
C    8 C1I L1I D1I S1I C7I L7I D7I S7I                      SYS / # / OBS TYPES
E    8 C1C L1C D1C S1C C7Q L7Q D7Q S7Q                      SYS / # / OBS TYPES
DBHZ                                                        COMMENT
     30.000                                                 INTERVAL
  2020    05    03    07    00    0.0000000     GPS         TIME OF FIRST OBS
  2020    05    03    07    59   30.0000000     GPS         TIME OF LAST OBS
     0                                                      RCV CLOCK OFFS APPL
G L1C  0.00000                                              SYS / PHASE SHIFT
G L2Y  0.00000                                              SYS / PHASE SHIFT
R L1C  0.00000                                              SYS / PHASE SHIFT
R L2P  0.25000                                              SYS / PHASE SHIFT
C L1I  0.00000                                              SYS / PHASE SHIFT
C L7I  0.00000                                              SYS / PHASE SHIFT
E L1C  0.50000                                              SYS / PHASE SHIFT
E L7Q -0.25000                                              SYS / PHASE SHIFT
 14 R02 -4 R03  5 R04  6 R05  1 R06 -4 R09 -2 R10 -5 R13 -2 GLONASS SLOT / FRQ #
    R14 -7 R15  0 R16 -1 R17  4 R18 -3 R23  3               GLONASS SLOT / FRQ #
 C1C   71.950 C2C   71.950 C2P   71.950                     GLONASS COD/PHS/BIS
    18                                                      LEAP SECONDS
*** Above antenna height is from mark to ANTENNA BOTTOM.    COMMENT
    17     4        0.0000        ANT MEASURE TYPE/HEIGT    COMMENT
    0.0000    0.0000    0.0458    0.0405    0.0000          COMMENT
                    BASE STATION                            COMMENT
                                                            END OF HEADER
> 2020 05 03 07 00  0.0000000  0 13        .000000000000
G12  23058862.812 5 121175140.174 5      3497.730          33.000    23058861.211 5  94422178.499 5      2725.510          32.000
G13  21560834.281 8 113302926.700 8     -2657.074          51.000    21560832.984 7  88287974.113 7     -2070.447          45.000
G15  20656080.461 8 108548437.304 8     -1467.461          51.000    20656080.164 8  84583187.200 8     -1143.476          51.000
G17  22412896.391 5 117780564.791 5       362.848          33.000
G19  22370154.070 6 117555958.681 6      2305.566          39.000    22370149.070 5  91602020.203 5      1796.545          34.000
R05  21085202.039 8 112712496.826 8     -3743.961          48.000    21085204.734 7  87665267.854 7     -2911.970          44.000
R15  20320461.164 6 108586350.025 6     -2122.762          41.000    20320464.633 6  84456068.355 6     -1651.040          37.000
C23  24470769.422 5 127425740.885 5      2306.211          31.000
C25  21858501.141 8 113822938.929 8       224.504          48.000
E05  23844137.805 8 125301798.875 8     -1036.555          51.000    23844138.633 8  96010469.171 8      -794.285          51.000
E09  24513229.984 7 128817845.404 7     -2989.953          46.000    24513233.547 7  98704591.972 7     -2291.003          42.000
E24  21654022.766 8 113792654.658 8      -478.426          51.000    21654035.344 8  87191869.945 8      -366.568          51.000
E25  25153514.453 8 132182601.473 8      1892.023          48.000    25153519.484 8 101282779.270 8      1449.807          49.000
> 2020 05 03 07 00 30.0000000  0 15        .000000000000
G12  23038903.086 5 121070277.119 5      3493.938          33.000
G13  21576022.883 8 113382742.488 8     -2665.629          51.000    21576021.883 7  88350168.200 7     -2077.113          45.000
G15  20664491.906 8 108592636.925 8     -1480.852          51.000    20664491.102 8  84617628.479 8     -1153.910          51.000
G17  22410861.008 5 117769873.064 5       348.805          33.000    22410861.914 5  91768727.539 5       271.799          34.000
G19  22357019.602 6 117486939.907 6      2293.762          40.000    22357015.453 6  91548239.378 6      1787.350          37.000
R05  21106240.352 7 112824959.799 7     -3755.168          47.000    21106243.102 7  87752739.054 7     -2920.686          44.000
R15  20332386.188 6 108650074.257 6     -2126.926          38.000    20332390.898 6  84505631.569 6     -1654.276          36.000
R24  23001315.727 5 122998392.718 5      -529.699          30.000
C23  24457486.578 6 127356535.053 6      2306.219          36.000
C24  23962267.891 5 124777803.279 5     -2237.555          31.000
C25  21857216.250 8 113816246.066 8       220.113          48.000
E05  23850077.539 8 125333010.942 8     -1045.754          51.000    23850078.805 8  96034384.898 8      -801.301          51.000
E09  24530297.438 7 128907533.589 7     -2990.777          46.000    24530300.242 6  98773314.055 6     -2291.497          40.000
E24  21656762.156 8 113807049.835 8      -482.875          51.000    21656774.789 8  87202899.999 8      -369.965          51.000
E25  25142717.891 8 132125862.142 8      1889.023          50.000    25142721.836 8 101239303.674 8      1447.425          48.000
> 2020 05 03 07 01  0.0000000  0 14        .000000000000
G13  21591280.789 8 113462922.182 8     -2680.516          51.000    21591279.625 7  88412645.871 7     -2088.713          45.000
G15  20673000.617 8 108637348.678 8     -1500.707          51.000    20672999.320 8  84652468.826 8     -1169.379          51.000
G17  22408927.477 5 117759708.284 5       327.395          33.000    22408930.039 5  91760818.576 5       255.113          33.000
G19  22343972.797 6 117418384.806 6      2275.680          39.000    22343971.297 6  91494819.790 6      1773.251          37.000
R05  21127361.930 8 112937864.820 8     -3772.586          49.000    21127364.164 7  87840554.044 7     -2934.234          45.000
R15  20344354.609 5 108714038.151 5     -2137.668          32.000    20344361.484 6  84555381.265 6     -1662.631          36.000
R24  23004373.414 5 123014697.264 5      -557.043          32.000
C23  24444225.172 6 127287455.777 6      2299.105          37.000
C24  23975177.422 5 124845030.084 5     -2243.742          31.000
C25  21855977.133 8 113809792.531 8       209.367          49.000
E05  23856089.656 8 125364604.659 8     -1061.309          51.000    23856091.383 8  96058593.049 8      -813.190          51.000
E09  24547389.555 7 128997349.887 7     -2997.820          46.000    24547390.469 6  98842134.294 6     -2296.759          36.000
E24  21659546.906 8 113821683.587 8      -493.527          51.000    21659559.711 8  87214112.874 8      -378.139          51.000
E25  25131958.500 8 132069318.163 8      1879.645          50.000    25131961.531 8 101195977.782 8      1440.280          48.000
> 2020 05 03 07 01 30.0000000  0 15        .000000000000
G12  22999131.984 6 120861235.547 6      3476.148          36.000    22999115.984 6  94177543.412 6      2708.684          37.000
G13  21606635.016 8 113543609.180 8     -2692.902          51.000    21606633.742 7  88475518.856 7     -2098.365          45.000
G15  20681633.805 8 108682716.533 8     -1518.160          51.000    20681632.219 8  84687820.404 8     -1182.985          51.000
G17  22407127.414 5 117750250.806 5       309.059          35.000    22407129.477 5  91753449.056 5       240.828          34.000
G19  22331042.828 6 117350441.297 6      2259.410          38.000    22331043.555 6  91441876.755 6      1760.579          38.000
R05  21148593.492 8 113051355.093 8     -3787.543          51.000    21148594.648 7  87928824.209 7     -2945.870          44.000
R15  20356394.172 5 108778387.178 5     -2146.457          34.000    20356403.477 6  84605430.522 6     -1669.470          36.000
R24  23007587.164 5 123031875.141 5      -583.098          32.000
C23  24431013.609 5 127218646.246 5      2293.906          31.000
C24  23988125.477 5 124912468.964 5     -2246.973          31.000
C25  21854811.320 8 113803721.580 8       200.992          49.000
E05  23862201.578 8 125396724.378 8     -1074.285          51.000    23862204.055 8  96083204.246 8      -823.139          51.000
E09  24564533.531 7 129087437.647 7     -3002.352          45.000    24564529.773 5  98911183.525 5     -2300.458          31.000
E24  21662404.586 8 113836699.861 8      -501.820          51.000    21662417.203 8  87225618.847 8      -384.494          51.000
E25  25121263.781 8 132013114.442 8      1872.926          51.000    25121265.625 8 101152912.627 8      1435.108          48.000
> 2020 05 03 07 02  0.0000000  0 14        .000000000000
G12  22979305.570 6 120757012.567 6      3465.227          39.000    22979285.281 6  94096330.763 6      2700.180          38.000
G13  21622030.055 8 113624514.338 8     -2707.773          49.000    21622029.609 7  88538561.823 7     -2109.953          46.000
G15  20690336.656 8 108728451.702 8     -1537.820          51.000    20690335.109 8  84723458.178 8     -1198.302          51.000
G17  22405404.039 5 117741198.612 5       287.531          35.000    22405405.641 5  91746395.407 5       224.050          35.000
G19  22318175.406 6 117282824.474 6      2241.109          39.000    22318176.875 6  91389188.237 6      1746.316          38.000
R05  21169878.984 8 113165134.325 8     -3804.746          51.000    21169879.242 7  88017319.119 7     -2959.250          46.000
R15  20368453.164 6 108842827.047 6     -2156.848          38.000    20368461.133 5  84655550.384 5     -1677.548          35.000
C24  24001071.000 5 124979876.432 5     -2253.402          33.000
C25  21853664.383 8 113797747.986 8       190.266          49.000
E05  23868358.633 8 125429082.082 8     -1089.836          51.000    23868362.055 8  96107997.802 8      -835.000          51.000
E09  24581673.836 7 129177507.790 7     -3009.203          42.000
E24  21665280.133 8 113851810.151 8      -512.426          51.000    21665292.445 8  87237196.849 8      -392.638          51.000
E25  25110579.102 8 131956963.470 8      1863.547          51.000    25110579.750 8 101109887.875 8      1427.957          48.000
E31  26268626.555 5 138042533.852 5     -2380.191          34.000
> 2020 05 03 07 02 30.0000000  0 15        .000000000000
G12  22959529.922 6 120653078.665 6      3460.992          39.000    22959510.289 6  94015343.379 6      2696.880          39.000
G13  21637503.711 7 113705836.887 7     -2717.141          45.000    21637504.742 7  88601930.003 7     -2117.252          45.000
G15  20699147.469 8 108774753.599 8     -1552.324          51.000    20699146.328 8  84759537.566 8     -1209.603          51.000
G17  22403796.477 6 117732752.967 6       271.598          36.000    22403799.883 6  91739814.339 6       211.635          36.000
G19  22305409.766 6 117215737.772 6      2227.863          40.000    22305410.195 6  91336912.821 6      1735.997          37.000
G28  23371437.016 5 122817728.898 5     -2985.559          32.000
R05  21191255.469 8 113279402.279 8     -3816.492          50.000    21191255.914 7  88106194.168 7     -2968.383          46.000
R15  20380567.906 6 108907560.269 6     -2161.984          39.000    20380573.531 5  84705898.415 5     -1681.546          35.000
C24  24014046.188 5 125047438.625 5     -2254.355          31.000
C25  21852574.141 8 113792070.325 8       184.863          49.000
E05  23874599.141 8 125461877.981 8     -1099.934          51.000    23874603.234 8  96133127.123 8      -842.806          51.000
E09  24598847.703 6 129267759.494 6     -3010.887          38.000    24598842.172 5  99049332.046 5     -2307.172          35.000
E24  21668211.367 8 113867214.256 8      -517.836          51.000    21668223.719 8  87248999.985 8      -396.738          51.000
E25  25099942.383 8 131901065.971 8      1859.508          51.000    25099942.602 8 101067057.334 8      1424.866          48.000
E31  26282206.688 5 138113867.043 5     -2378.879          34.000
> 2020 05 03 07 03  0.0000000  0 14        .000000000000
G12  22939801.500 6 120549395.119 6      3451.461          37.000    22939780.922 6  93934550.996 6      2689.450          37.000
G13  21653049.562 7 113787534.755 7     -2730.281          45.000    21653051.750 7  88665590.679 7     -2127.495          45.000
G15  20708058.148 8 108821580.781 8     -1570.562          51.000    20708057.664 8  84796026.268 8     -1223.815          51.000
G17  22402297.391 5 117724873.344 5       252.258          31.000    22402300.156 4  91733674.411 4       196.561          29.000
G19  22292737.961 7 117149143.266 7      2210.750          43.000    22292737.906 6  91285021.078 6      1722.665          36.000
R05  21212714.062 8 113394113.700 8     -3831.930          49.000    21212715.555 7  88195414.166 7     -2980.390          47.000
R15  20392730.102 6 108972543.868 6     -2171.043          40.000    20392734.070 5  84756441.169 5     -1688.589          34.000
C23  24391446.258 5 127012682.388 5      2279.840          30.000
C25  21851532.258 8 113786648.139 8       175.598          48.000
E05  23880915.344 8 125495071.120 8     -1113.965          51.000    23880919.891 8  96158560.825 8      -853.605          51.000
E09  24616048.219 6 129358150.728 6     -3016.164          40.000    24616047.477 6  99118592.923 6     -2311.278          39.000
E24  21671190.523 8 113882870.752 8      -527.023          51.000    21671203.156 8  87260996.518 8      -403.820          51.000
E25  25089345.586 8 131845381.477 8      1851.754          49.000    25089346.539 8 101024390.001 8      1418.846          48.000
E31  26295793.594 5 138185327.460 5     -2381.574          35.000
> 2020 05 03 07 03 30.0000000  0 15        .000000000000
G13  21668669.062 7 113869616.226 7     -2731.301          47.000    21668671.711 7  88729550.269 7     -2128.289          46.000
G15  20717070.227 8 108868941.704 8     -1576.391          51.000    20717070.078 8  84832930.829 8     -1228.359          51.000
G17  22400907.938 6 117717570.741 6       245.211          36.000    22400909.680 5  91727984.117 5       191.077          34.000
G19  22280162.273 7 117083053.926 7      2205.598          44.000    22280160.477 5  91233523.053 5      1718.657          35.000
G24  20932645.156 5 110001793.745 5      1740.555          34.000    20932638.891 5  85715652.857 5      1356.276          33.000
G28  23405583.969 5 122997141.033 5     -2983.387          33.000
R05  21234257.312 8 113509274.830 8     -3834.836          51.000    21234259.539 8  88284983.928 8     -2982.650          48.000
R15  20404940.297 6 109037786.356 6     -2167.914          39.000    20404944.086 5  84807185.250 5     -1686.158          34.000
C23  24378326.633 5 126944339.795 5      2285.844          31.000
C25  21850541.273 8 113781490.983 8       178.590          48.000
E05  23887308.984 8 125528670.944 8     -1115.613          51.000    23887313.859 8  96184306.113 8      -854.803          51.000
E09  24633278.383 7 129448690.111 7     -3009.258          43.000    24633279.938 6  99187967.234 6     -2305.529          41.000
E24  21674219.508 8 113898788.634 8      -523.793          51.000    21674232.320 8  87273193.329 8      -401.342          51.000
E25  25078790.594 7 131789919.964 7      1856.090          47.000    25078793.078 8 100981893.520 8      1422.199          48.000
E31  26309394.172 5 138256792.204 5     -2372.055          34.000
> 2020 05 03 07 04  0.0000000  0 14        .000000000000
G13  21684356.570 8 113952052.293 8     -2763.875          49.000    21684358.695 7  88793786.149 7     -2153.672          45.000
G15  20726178.695 8 108916807.726 8     -1614.078          51.000    20726178.297 8  84870228.985 8     -1257.723          51.000
G17  22399623.891 6 117710818.110 6       205.352          36.000    22399622.938 5  91722722.442 5       160.017          30.000
G19  22267677.844 7 117017444.924 7      2168.672          43.000    22267673.500 5  91182399.209 5      1689.877          34.000
G28  23422690.219 5 123087034.699 5     -3008.289          32.000
R05  21255879.586 8 113624853.371 8     -3869.828          51.000    21255881.508 8  88374878.302 8     -3009.866          48.000
R15  20417193.031 6 109103257.595 6     -2196.547          39.000    20417196.398 5  84858107.363 5     -1708.425          31.000
C23  24365230.422 5 126876151.924 5      2260.820          32.000
C24  24053108.648 4 125250818.266 4     -2275.016          28.000
C25  21849596.570 8 113776571.310 8       149.910          49.000
E05  23893774.867 8 125562649.354 8     -1149.086          51.000    23893779.703 8  96210341.495 8      -880.516          51.000
E09  24650531.562 7 129539348.508 7     -3034.109          45.000    24650533.805 7  99257432.768 7     -2324.849          42.000
E24  21677292.805 8 113914939.480 8      -552.418          51.000    21677305.742 8  87285568.641 8      -423.281          51.000
E25  25068272.828 7 131734653.890 7      1828.555          46.000    25068276.969 8 100939546.808 8      1401.151          48.000
> 2020 05 03 07 04 30.0000000  0 13        .000000000000
G13  21700116.789 8 114034869.245 8     -2763.047          51.000    21700117.586 7  88858318.795 7     -2153.024          43.000
G15  20735388.594 8 108965205.425 8     -1618.227          51.000    20735387.680 8  84907941.432 8     -1260.959          51.000
G17  22398449.500 6 117704643.387 6       199.973          38.000    22398446.000 6  91717911.016 6       155.826          38.000
G19  22255289.195 5 116952346.499 5      2165.238          33.000    22255284.898 5  91131673.234 5      1687.193          31.000
G28  23439821.422 5 123177091.984 5     -2998.918          31.000
R05  21277584.625 8 113740873.617 8     -3870.711          51.000    21277586.039 8  88465116.212 8     -3010.556          49.000
R15  20429493.117 6 109168984.523 6     -2191.227          38.000    20429496.336 4  84909228.299 4     -1704.290          28.000
C23  24352151.484 5 126808090.716 5      2270.363          34.000
C25  21848702.711 8 113771916.259 8       154.637          48.000
E05  23900318.141 8 125597033.559 8     -1148.926          51.000    23900322.461 8  96236687.822 8      -880.367          51.000
E09  24667812.133 7 129630152.149 7     -3025.219          45.000    24667813.781 7  99327009.606 7     -2317.986          43.000
E24  21680415.469 8 113931350.037 8      -547.371          51.000    21680428.547 8  87298142.960 8      -419.438          51.000
E25  25057798.016 7 131679610.999 7      1835.055          47.000    25057803.070 8 100897371.086 8      1406.081          48.000
> 2020 05 03 07 05  0.0000000  0 14        .000000000000
G12  22861327.562 6 120137100.981 6      3419.676          38.000    22861309.508 6  93613251.811 6      2664.682          38.000
G13  21715915.641 8 114117888.524 8     -2777.262          51.000    21715914.891 7  88923009.108 7     -2164.100          44.000
G15  20744665.922 8 109013956.512 8     -1637.590          51.000    20744664.250 8  84945929.246 8     -1276.047          51.000
G17  22397351.789 6 117698869.979 6       178.680          37.000    22397348.109 6  91713412.224 6       139.234          36.000
G28  23456946.430 5 123267083.196 5     -3005.129          32.000
R05  21299337.211 8 113857151.092 8     -3886.832          51.000    21299338.617 8  88555554.201 8     -3023.092          48.000
R15  20441807.656 6 109234785.285 6     -2201.219          39.000    20441810.422 4  84960406.566 4     -1712.062          27.000
C23  24339079.625 5 126740009.075 5      2263.191          32.000
C24  24079217.906 5 125386819.883 5     -2271.160          34.000
C25  21847825.594 8 113767350.253 8       144.172          48.000
E05  23906904.938 8 125631646.215 8     -1164.184          51.000    23906908.531 8  96263209.176 8      -892.010          51.000
E09  24685086.000 7 129720922.648 7     -3031.629          46.000    24685087.492 7  99396561.026 7     -2323.041          43.000
E24  21683553.984 8 113947842.550 8      -557.648          51.000    21683566.961 8  87310780.073 8      -427.307          51.000
E25  25047332.586 7 131624614.486 7      1825.812          47.000    25047338.344 8 100855230.898 8      1399.008          48.000
> 2020 05 03 07 05 30.0000000  0 14        .000000000000
G12  22841844.469 6 120034701.034 6      3410.781          36.000    22841821.703 6  93533459.728 6      2657.761          36.000
G13  21731817.031 8 114201446.705 8     -2789.586          51.000    21731815.484 7  88988119.342 7     -2173.703          46.000
G15  20754074.539 8 109063398.108 8     -1654.832          51.000    20754072.414 8  84984455.135 8     -1289.480          51.000
G17  22396394.125 6 117693836.622 6       160.074          37.000    22396392.086 6  91709490.208 6       124.733          36.000
G19  22230773.422 6 116823477.916 6      2129.574          41.000    22230765.203 5  91031272.707 5      1659.402          33.000
R05  21321200.719 8 113974026.120 8     -3901.078          51.000    21321202.719 8  88646456.983 8     -3034.172          48.000
R15  20454199.633 6 109301002.455 6     -2209.320          38.000
C23  24326067.625 5 126672242.372 5      2258.363          31.000
C24  24092332.125 6 125455064.047 6     -2274.422          38.000
C25  21847030.125 8 113763208.455 8       135.672          48.000
E05  23913599.688 8 125666825.154 8     -1177.320          51.000    23913602.328 8  96290164.447 8      -902.097          51.000
E09  24702417.383 7 129811996.916 7     -3036.160          46.000    24702418.945 7  99466345.201 7     -2326.387          43.000
E24  21686772.391 8 113964754.530 8      -566.008          51.000    21686785.258 8  87323738.585 8      -433.646          51.000
E25  25036940.523 7 131570002.747 7      1818.637          47.000    25036946.484 8 100813385.527 8      1393.573          48.000
> 2020 05 03 07 06  0.0000000  0 13        .000000000000
G12  22822391.633 6 119932451.138 6      3405.562          37.000    22822369.219 6  93453804.097 6      2653.685          37.000
G13  21747770.875 8 114285280.656 8     -2798.473          51.000    21747769.062 7  89053444.472 7     -2180.628          47.000
G15  20763564.336 8 109113267.139 8     -1668.879          51.000    20763562.391 8  85023314.079 8     -1300.425          51.000
G17  22395527.570 6 117689282.179 6       144.641          39.000    22395525.234 6  91705941.296 6       112.707          38.000
G19  22218658.406 6 116759812.904 6      2115.434          41.000    22218651.305 5  90981663.743 5      1648.396          33.000
R05  21343124.461 8 114091228.361 8     -3911.562          50.000    21343127.648 7  88737614.279 7     -3042.326          46.000
R15  20466618.719 6 109367367.931 6     -2214.105          38.000
C24  24105447.977 5 125523329.170 5     -2275.074          32.000
C25  21846266.438 8 113759231.035 8       130.430          49.000
E05  23920352.219 8 125702307.947 8     -1187.207          51.000    23920353.992 8  96317352.545 8      -909.663          51.000
E09  24719756.055 7 129903111.582 7     -3037.180          46.000    24719757.539 6  99536160.311 6     -2327.217          41.000
E24  21690020.422 8 113981823.164 8      -571.000          51.000    21690033.391 8  87336817.147 8      -437.472          51.000
E25  25026572.109 7 131515513.936 7      1814.934          47.000    25026577.641 7 100771634.334 7      1390.681          47.000
> 2020 05 03 07 06 30.0000000  0 14        .000000000000
G12  22802998.953 5 119830582.383 5      3391.004          32.000    22802999.875 5  93374476.032 5      2642.338          32.000
G13  21763827.078 8 114369654.101 8     -2816.758          51.000    21763825.234 7  89119190.008 7     -2194.879          47.000
G15  20773185.648 8 109163827.539 8     -1692.160          51.000    20773184.172 8  85062711.761 8     -1318.566          51.000
G17  22394802.391 5 117685472.048 5       119.438          35.000    22394800.797 5  91702972.298 5        93.068          35.000
G19  22206673.516 7 116696834.748 7      2092.539          42.000    22206667.453 5  90932589.893 5      1630.553          35.000
R05  21365159.281 8 114209023.520 8     -3931.594          50.000    21365162.852 7  88829232.714 7     -3057.909          44.000
R15  20479115.305 6 109434149.926 6     -2228.172          40.000
C23  24300120.836 5 126537105.804 5      2244.930          31.000
C24  24118615.727 5 125591877.324 5     -2284.988          33.000
C25  21845584.773 8 113755680.534 8       115.957          49.000
E05  23927212.547 8 125738359.319 8     -1206.473          51.000    23927213.773 8  96344976.325 8      -924.467          51.000
E09  24737152.289 7 129994530.404 7     -3047.559          45.000    24737151.742 6  99606208.466 6     -2335.133          36.000
E24  21693348.484 8 113999312.779 8      -585.230          51.000    21693361.516 8  87350218.277 8      -448.414          51.000
E25  25016277.789 7 131461413.312 7      1801.566          47.000    25016282.766 7 100730180.633 7      1380.406          47.000
> 2020 05 03 07 07  0.0000000  0 14        .000000000000
G12  22783644.219 5 119728863.351 5      3383.324          34.000    22783643.766 5  93295214.404 5      2636.357          33.000
G13  21779915.742 8 114454200.191 8     -2827.359          51.000    21779914.273 7  89185070.060 7     -2203.137          46.000
G15  20782868.773 8 109214712.995 8     -1707.773          51.000    20782867.820 8  85102362.755 8     -1330.733          51.000
G17  22394148.703 5 117682041.207 5       101.734          35.000    22394149.211 5  91700299.002 5        79.274          34.000
G19  22194750.148 7 116634180.384 7      2076.840          42.000    22194746.102 6  90883768.407 6      1618.311          38.000
R05  21387235.602 8 114327035.764 8     -3943.719          50.000    21387237.852 7  88921019.976 7     -3067.340          43.000
R15  20491620.758 6 109500975.561 6     -2234.660          40.000
C23  24287164.828 4 126469639.714 4      2242.605          29.000
C24  24131774.391 5 125660346.033 5     -2287.379          33.000
C25  21844915.531 8 113752194.867 8       108.879          49.000
E05  23934111.492 8 125774613.578 8     -1218.215          51.000    23934112.430 8  96372755.556 8      -933.455          51.000
E09  24754536.727 7 130085886.732 7     -3050.465          45.000    24754529.672 5  99676234.647 5     -2337.276          31.000
E24  21696687.133 8 114016857.377 8      -592.098          51.000    21696699.930 8  87363661.526 8      -453.700          51.000
E25  25005987.883 8 131407335.761 8      1795.805          48.000    25005991.523 7 100688744.612 7      1375.955          47.000
> 2020 05 03 07 07 30.0000000  0 14        .000000000000
G12  22764348.320 6 119627460.472 6      3377.277          41.000    22764347.992 6  93216199.260 6      2631.645          40.000
G13  21796082.531 8 114539158.516 8     -2836.465          51.000    21796081.555 7  89251271.364 7     -2210.232          45.000
G15  20792659.227 8 109266163.284 8     -1721.980          51.000    20792658.852 8  85142453.872 8     -1341.803          51.000
G17  22393613.367 6 117679231.452 6        85.695          38.000    22393612.211 6  91698109.478 6        66.766          36.000
G19  22182935.109 6 116572094.262 6      2062.523          40.000    22182933.234 6  90835389.605 6      1607.161          39.000
R05  21409397.906 8 114445506.357 8     -3954.074          48.000    21409399.547 7  89013163.740 7     -3075.394          43.000
R15  20504180.430 6 109568088.210 6     -2239.453          40.000
C23  24274271.258 5 126402530.667 5      2240.527          33.000
C24  24144961.086 5 125728973.745 5     -2288.316          33.000
C25  21844304.852 8 113749012.800 8       103.453          50.000
E05  23941095.047 8 125811311.326 8     -1228.168          51.000    23941095.781 8  96400874.615 8      -941.040          51.000
E09  24771955.047 7 130177420.292 7     -3051.625          43.000
E24  21700081.859 8 114034697.220 8      -597.125          51.000    21700094.570 8  87377331.002 8      -457.519          51.000
E25  24995748.109 8 131353522.528 8      1791.957          50.000    24995750.375 7 100647511.128 7      1373.025          47.000
> 2020 05 03 07 08  0.0000000  0 14        .000000000000
G12  22745093.211 7 119526269.989 7      3368.156          42.000    22745092.797 6  93137349.551 6      2624.537          41.000
G13  21812306.938 8 114624421.603 8     -2848.484          51.000    21812306.359 7  89317710.143 7     -2219.598          44.000
G15  20802536.570 8 109318071.249 8     -1739.270          50.000    20802536.773 8  85182901.621 8     -1355.275          49.000
G17  22393176.336 5 117676936.967 5        66.758          31.000    22393176.930 5  91696321.560 5        52.022          31.000
G19  22171208.406 5 116510473.249 5      2044.438          34.000    22171207.438 5  90787373.203 5      1593.074          33.000
R05  21431625.039 8 114564323.614 8     -3967.578          48.000    21431627.367 7  89105577.156 7     -3085.894          44.000
R15  20516773.383 6 109635378.759 6     -2247.355          38.000
C23  24261373.281 5 126335383.506 5      2235.051          34.000
C24  24158116.516 5 125797654.236 5     -2291.750          31.000
C25  21843732.375 8 113746029.064 8        94.793          50.000
E05  23948142.789 8 125848346.101 8     -1241.418          51.000    23948143.492 8  96429251.900 8      -951.195          51.000
E09  24789386.711 6 130269023.646 6     -3055.828          40.000    24789404.102 5  99816592.822 5     -2341.488          35.000
E24  21703512.383 8 114052725.460 8      -605.379          51.000    21703525.312 8  87391144.845 8      -463.823          51.000
E25  24985538.344 8 131299867.702 8      1784.477          50.000    24985539.164 7 100606399.005 7      1367.410          47.000
> 2020 05 03 07 08 30.0000000  0 14        .000000000000
G12  22725875.195 6 119425277.755 6      3359.520          40.000    22725874.570 6  93058654.356 6      2617.810          40.000
G13  21828586.227 8 114709972.302 8     -2860.199          51.000    21828585.375 7  89384372.990 7     -2228.727          43.000
G15  20812497.859 8 109370419.893 8     -1756.008          49.000    20812498.453 8  85223692.782 8     -1368.318          49.000
G17  22392834.820 5 117675140.425 5        47.953          35.000    22392838.086 5  91694923.348 5        37.360          34.000
G19  22159567.469 6 116449303.617 6      2027.758          40.000    22159567.148 5  90739708.537 5      1580.071          35.000
R05  21453913.758 8 114683467.605 8     -3980.684          48.000    21453916.273 7  89198244.687 7     -3096.087          43.000
R15  20529396.055 6 109702829.452 6     -2254.770          36.000
R24  23067301.562 6 123351139.983 6      -937.273          37.000    23067303.188 5  95939805.771 5      -728.990          31.000
C23  24248482.898 5 126268312.461 5      2230.488          31.000
C25  21843194.891 8 113743228.017 8        86.652          50.000
E05  23955251.477 8 125885701.759 8     -1254.211          51.000    23955252.531 8  96457875.049 8      -961.028          51.000
E09  24806828.977 6 130360679.770 6     -3059.844          37.000    24806827.953 6  99886822.997 6     -2344.544          40.000
E24  21706975.828 8 114070925.657 8      -613.270          51.000    21706988.859 8  87405090.454 8      -469.890          51.000
E25  24975355.648 8 131246355.697 8      1777.629          49.000    24975355.531 7 100565396.313 7      1362.064          47.000
> 2020 05 03 07 09  0.0000000  0 15        .000000000000
G12  22706729.414 6 119324665.929 6      3349.848          41.000    22706727.930 6  92980255.538 6      2610.271          41.000
G13  21844954.328 8 114795988.991 8     -2872.484          50.000    21844952.789 7  89451398.915 7     -2238.303          42.000
G15  20822577.234 8 109423387.818 8     -1773.320          50.000    20822577.883 8  85264966.522 8     -1381.805          50.000
G17  22392623.039 5 117674026.285 5        27.699          31.000    22392625.727 4  91694055.198 4        21.584          27.000
G19  22148048.320 6 116388768.385 6      2009.609          40.000    22148047.273 6  90692538.254 6      1565.932          36.000
R05  21476297.078 7 114803117.302 7     -3994.133          47.000    21476299.062 7  89291305.507 7     -3106.551          42.000
R15  20542081.617 6 109770622.509 6     -2262.918          36.000
R24  23072634.773 5 123379665.070 5      -963.047          31.000    23072637.883 5  95961992.055 5      -749.033          30.000
C23  24235645.750 5 126201496.483 5      2225.363          35.000
C24  24184548.930 5 125935279.219 5     -2298.789          33.000
C25  21842726.617 8 113740787.857 8        77.812          51.000
E05  23962455.234 8 125923557.793 8     -1267.734          51.000    23962456.961 8  96486881.589 8      -971.384          51.000
E09                                                                  24824308.297 6  99957230.243 6     -2348.093          41.000
E24  21710506.188 8 114089477.005 8      -621.758          51.000    21710519.008 8  87419305.121 8      -476.424          51.000
E25  24965234.250 8 131193166.640 8      1770.191          49.000    24965234.055 7 100524641.068 7      1356.312          47.000
> 2020 05 03 07 09 30.0000000  0 14        .000000000000
G12  22687624.211 7 119224268.397 7      3338.148          43.000    22687622.539 7  92902023.713 7      2601.155          42.000
G13  21861379.133 8 114882303.077 8     -2886.914          50.000    21861377.391 7  89518656.571 7     -2249.546          43.000
G15  20832742.680 8 109476806.978 8     -1792.891          50.000    20832743.109 8  85306591.851 8     -1397.058          50.000
G17  22392509.109 5 117673431.291 5         6.637          35.000    22392510.961 5  91693590.012 5         5.178          34.000
G19  22136618.547 6 116328703.432 6      1989.574          41.000    22136615.227 4  90645734.445 4      1550.318          28.000
R05  21498741.602 7 114923098.536 7     -4009.734          46.000    21498744.008 7  89384624.188 7     -3118.682          42.000
R15  20554799.953 6 109838585.813 6     -2272.773          39.000    20554798.125 4  85430021.408 4     -1767.713          25.000
C23  24222829.531 5 126134770.330 5      2218.027          35.000
C24  24197801.922 6 126004263.277 6     -2305.305          37.000
C25  21842295.398 8 113738542.848 8        66.883          50.000
E05  23969722.320 8 125961746.577 8     -1283.293          51.000    23969724.578 8  96516143.099 8      -983.210          51.000
E09                                                                  24841804.852 7 100027685.613 7     -2352.763          42.000
E24  21714071.289 8 114108211.604 8      -632.258          51.000    21714083.898 8  87433660.200 8      -484.460          51.000
E25  24955142.664 8 131140133.525 8      1760.383          49.000    24955142.109 7 100484005.332 7      1348.847          46.000
> 2020 05 03 07 10  0.0000000  0 14        .000000000000
G12  22668570.508 7 119124143.539 7      3335.227          42.000    22668570.281 7  92824004.403 7      2598.881          42.000
G13  21877871.219 8 114968969.014 8     -2892.398          51.000    21877869.844 7  89586188.436 7     -2253.817          45.000
G15  20843004.617 8 109530732.091 8     -1803.535          51.000    20843004.852 8  85348611.404 8     -1405.352          51.000
G17  22392503.398 6 117673403.561 6        -6.797          36.000    22392504.695 5  91693557.060 5        -5.296          35.000
G19  22125289.328 6 116269167.414 6      1978.242          41.000    22125284.852 5  90599342.806 5      1541.494          34.000
R05  21521257.234 7 115043464.354 7     -4016.176          44.000    21521261.430 7  89478242.041 7     -3123.692          44.000
R15  20567560.664 6 109906775.147 6     -2274.438          39.000    20567566.617 5  85483072.548 5     -1769.007          30.000
C23  24210041.133 5 126068189.899 5      2218.656          32.000
C25  21841911.883 8 113736548.383 8        64.664          50.000
E05  23977063.172 8 126000323.661 8     -1290.012          51.000    23977065.938 8  96545702.158 8      -988.442          51.000
E09                                                                  24859324.648 7 100098231.032 7     -2351.170          43.000
E24  21717681.711 8 114127184.740 8      -634.102          51.000    21717694.484 8  87448198.054 8      -485.873          51.000
E25  24945091.539 8 131087312.518 8      1759.477          48.000    24945090.195 7 100443532.142 7      1348.260          45.000
E31  26486947.812 5 139189846.978 5     -2399.453          35.000
> 2020 05 03 07 10 30.0000000  0 15        .000000000000
G12  22649570.406 7 119024301.804 7      3324.176          42.000    22649571.781 6  92746205.675 6      2590.267          41.000
G13  21894431.672 8 115055994.252 8     -2905.898          51.000    21894431.055 7  89654000.287 7     -2264.336          46.000
G15  20853364.312 8 109585170.428 8     -1822.348          51.000    20853364.234 8  85391030.877 8     -1420.011          51.000
G17  22392605.820 4 117673937.319 4       -26.172          28.000    22392608.383 4  91693984.758 4       -20.388          29.000
G19  22114062.586 6 116210171.743 6      1958.410          41.000    22114058.688 5  90553372.303 5      1526.043          33.000
R05  21543846.883 7 115164219.893 7     -4030.824          45.000    21543852.195 7  89572163.005 7     -3135.086          45.000
R15  20580364.758 6 109975198.137 6     -2283.656          39.000    20580372.445 5  85536290.441 5     -1776.174          32.000
C23  24197279.633 5 126001593.182 5      2212.418          31.000
C24  24224357.773 5 126142598.587 5     -2307.484          35.000
C25  21841578.188 8 113734813.098 8        54.246          51.000
E05  23984479.305 8 126039297.416 8     -1304.879          51.000    23984482.820 8  96575565.138 8      -999.845          51.000
E09                                                                  24876869.062 7 100168872.194 7     -2355.684          44.000
E24  21721339.148 8 114146404.453 8      -643.922          51.000    21721352.258 8  87462924.840 8      -493.335          51.000
E25  24935082.328 7 131034712.620 7      1750.656          46.000    24935080.141 7 100403228.379 7      1341.238          45.000
E31  26500666.891 6 139261940.784 6     -2403.148          37.000
> 2020 05 03 07 11  0.0000000  0 12        .000000000000
G12  22630612.688 7 118924679.541 7      3314.074          43.000    22630614.062 7  92668577.869 7      2582.392          42.000
G13  21911047.648 8 115143311.562 8     -2918.285          51.000    21911047.875 7  89722039.753 7     -2273.988          47.000
G15  20863808.977 8 109640055.301 8     -1839.816          51.000    20863808.414 8  85433798.297 8     -1433.623          51.000
G19  22102926.906 6 116151653.882 6      1939.680          40.000    22102924.344 6  90507773.976 6      1511.442          36.000
R05  21566496.852 7 115285294.203 7     -4044.039          45.000    21566502.414 7  89666331.908 7     -3145.364          45.000
R15  20593200.508 6 110043786.620 6     -2291.789          40.000    20593207.828 5  85589637.023 5     -1782.503          32.000
C24  24237665.375 5 126211847.326 5     -2311.883          35.000
C25  21841282.102 8 113733271.919 8        45.301          51.000
E05  23991958.438 8 126078601.759 8     -1318.520          51.000    23991962.406 8  96605681.417 8     -1010.282          51.000
E09  24894422.977 5 130821075.175 5     -3079.066          33.000    24894425.172 7 100239557.803 7     -2359.117          45.000
E24  21725030.867 8 114165804.440 8      -652.523          51.000    21725044.188 8  87477789.752 8      -499.988          51.000
E25  24925100.969 6 130982268.469 6      1742.805          41.000    24925100.039 7 100363043.888 7      1335.228          45.000
> 2020 05 03 07 11 30.0000000  0 13        .000000000000
G12  22611724.219 7 118825417.419 7      3308.641          46.000    22611724.289 7  92591230.780 7      2578.165          46.000
G13  21927745.266 8 115231058.702 8     -2926.051          49.000    21927746.391 7  89790414.148 7     -2280.040          47.000
G15  20874364.430 8 109695524.405 8     -1852.797          51.000    20874363.531 8  85477020.941 8     -1443.741          51.000
G19  22091909.242 6 116093755.521 6      1925.441          40.000    22091907.695 6  90462658.356 6      1500.344          38.000
R05  21589232.266 7 115406824.917 7     -4052.609          44.000    21589237.422 7  89760855.761 7     -3152.033          44.000
R15  20606093.195 6 110112680.659 6     -2295.512          36.000    20606097.391 5  85643221.285 5     -1785.401          32.000
C23  24171861.086 5 125869217.216 5      2205.875          32.000
C24  24250989.609 5 126281263.495 5     -2312.191          32.000
C25  21841049.852 8 113732062.637 8        40.766          51.000
E05  23999526.867 8 126118375.318 8     -1327.625          51.000    23999531.031 8  96636157.240 8     -1017.253          51.000
E09  24912015.500 5 130913521.757 5     -3079.152          34.000    24912018.555 7 100310393.482 7     -2359.054          45.000
E24  21728783.062 8 114185523.106 8      -656.656          51.000    21728796.539 8  87492898.844 8      -503.161          51.000
E25  24915174.922 6 130930119.378 6      1739.418          41.000    24915177.180 7 100323085.419 7      1332.648          46.000
> 2020 05 03 07 12  0.0000000  0 14        .000000000000
G12  22592872.141 8 118726346.294 8      3297.523          49.000    22592870.703 8  92514032.552 8      2569.499          49.000
G13  21944491.414 8 115319063.206 8     -2939.512          48.000    21944493.594 7  89858989.124 7     -2290.526          46.000
G15  20884998.016 8 109751405.687 8     -1871.219          51.000    20884997.023 8  85520564.763 8     -1458.093          51.000
G17  22393573.609 5 117679009.578 5       -83.102          34.000
G19  22080976.898 6 116036308.217 6      1905.672          39.000    22080975.578 5  90417894.229 5      1484.939          34.000
R05  21612019.961 7 115528634.095 7     -4066.723          44.000    21612024.742 7  89855596.224 7     -3163.007          43.000
R15  20619011.102 6 110181704.885 6     -2304.566          38.000    20619014.102 5  85696906.718 5     -1792.441          33.000
C23  24159177.516 5 125803168.935 5      2198.379          35.000
C24  24264324.203 4 126350702.169 4     -2316.625          27.000
C25  21840848.500 8 113731015.763 8        30.520          50.000
E05  24007151.961 8 126158446.683 8     -1342.422          51.000    24007156.039 8  96666861.260 8     -1028.588          51.000
E09  24929612.180 5 131005995.003 5     -3084.535          35.000    24929615.812 7 100381247.223 7     -2363.313          44.000
E24  21732563.383 8 114205388.772 8      -666.301          51.000    21732576.891 8  87508120.580 8      -510.548          51.000
E25  24905274.562 7 130878094.386 7      1730.492          43.000    24905278.523 7 100283222.105 7      1325.980          46.000
> 2020 05 03 07 12 30.0000000  0 16        .000000000000
G12  22574070.641 8 118627541.807 8      3289.953          49.000    22574068.383 8  92437042.057 8      2563.600          49.000
G13  21961299.953 7 115407397.134 7     -2948.906          47.000    21961303.211 7  89927820.789 7     -2297.852          46.000
G15  20895723.930 8 109807771.382 8     -1886.012          51.000    20895722.758 8  85564486.070 8     -1469.620          51.000
G17  22394102.188 6 117681763.399 6      -100.195          37.000    22394083.773 6  91700038.138 6       -78.080          37.000
G19  22070144.445 6 115979388.344 6      1889.418          37.000    22070143.695 5  90373541.089 5      1472.277          34.000
R05  21634873.383 7 115650792.570 7     -4076.824          47.000    21634877.039 6  89950608.349 6     -3170.863          41.000
R15  20631967.672 6 110250932.981 6     -2310.047          36.000    20631970.297 5  85750750.729 5     -1796.700          34.000
R24  23113837.383 4 123600043.502 4     -1134.480          29.000    23113836.016 4  96133387.933 4      -882.374          27.000
C23  24146518.750 5 125737253.010 5      2195.848          32.000
C24  24277679.297 5 126420238.502 5     -2318.449          30.000
C25  21840692.258 8 113730204.079 8        23.988          50.000
E05  24014847.711 8 126198888.894 8     -1353.336          51.000    24014851.523 8  96697849.446 8     -1036.966          51.000
E09  24947227.508 6 131098560.870 6     -3086.277          37.000    24947230.461 7 100452174.356 7     -2364.939          43.000
E24  21736385.758 8 114225474.246 8      -672.250          51.000    21736399.156 8  87523510.741 8      -515.116          51.000
E25  24895412.203 7 130826267.278 7      1725.109          43.000    24895417.320 7 100243510.432 7      1321.876          46.000
E31  26555587.555 5 139550551.130 5     -2406.223          34.000
> 2020 05 03 07 13  0.0000000  0 14        .000000000000
G12  22555327.117 8 118529044.632 8      3274.453          49.000    22555325.711 8  92360291.026 8      2551.522          49.000
G13  21978179.281 8 115496098.066 8     -2966.449          50.000    21978182.266 7  89996938.416 7     -2311.519          45.000
G15  20906549.086 8 109864659.584 8     -1908.629          49.000    20906548.023 8  85608814.517 8     -1487.243          49.000
G17  22394746.062 5 117685168.580 5      -125.594          34.000
G19  22059420.344 6 115923037.736 6      1865.172          38.000    22059421.141 6  90329631.645 6      1453.381          38.000
R05  21657799.117 7 115773336.552 7     -4094.812          47.000    21657801.367 6  90045920.301 6     -3184.857          38.000
R15  20644968.828 6 110320403.440 6     -2323.820          36.000    20644971.016 5  85804783.361 5     -1807.413          33.000
R24  23120283.672 5 123634506.092 5     -1165.598          31.000    23120281.023 4  96160193.084 4      -906.576          25.000
C24  24291056.734 5 126489901.599 5     -2327.309          35.000
C25  21840589.086 8 113729666.543 8         9.664          51.000
E05  24022621.680 8 126239740.827 8     -1372.227          51.000    24022625.227 8  96729151.580 8     -1051.494          51.000
E09  24964868.961 6 131191260.583 6     -3095.965          37.000    24964870.609 7 100523203.962 7     -2372.194          43.000
E24  21740257.281 8 114245818.169 8      -686.125          51.000    21740270.539 8  87539098.948 8      -525.756          51.000
E25  24885594.734 7 130774677.571 7      1711.941          42.000    24885600.430 7 100203980.676 7      1311.762          44.000
> 2020 05 03 07 13 30.0000000  0 12        .000000000000
G12  22536648.898 8 118430890.633 8      3267.480          50.000    22536648.930 8  92283807.386 8      2546.089          50.000
G13  21995135.250 8 115585198.732 8     -2975.348          51.000    21995137.086 7  90066367.470 7     -2318.456          44.000
G15  20917479.617 8 109922102.205 8     -1922.766          49.000    20917478.914 8  85653574.951 8     -1498.259          49.000
G19  22048812.766 6 115867292.674 6      1849.359          38.000    22048813.727 5  90286194.004 5      1441.065          35.000
R05  21680802.180 7 115896295.699 7     -4104.047          45.000    21680801.422 5  90141555.048 5     -3192.043          33.000
C23  24121316.633 5 125606020.040 5      2182.840          35.000
C24  24304466.062 5 126559723.976 5     -2328.980          34.000
C25  21840545.336 8 113729436.221 8         3.852          51.000
E05  24030480.102 8 126281035.388 8     -1382.602          51.000    24030483.102 8  96760792.864 8     -1059.420          51.000
E09  24982542.133 5 131284126.187 5     -3096.953          35.000    24982542.508 7 100594360.674 7     -2373.074          43.000
E24  21744184.086 8 114266453.244 8      -691.371          51.000    21744197.297 8  87554910.240 8      -529.752          51.000
E25  24875829.250 7 130723358.894 7      1707.234          42.000    24875834.328 7 100164658.562 7      1308.326          43.000
> 2020 05 03 07 14  0.0000000  0 12        .000000000000
G12  22518004.391 8 118332913.478 8      3258.961          50.000    22518004.992 8  92207461.555 8      2539.450          50.000
G13  22012134.922 8 115674529.016 8     -2985.422          51.000    22012135.484 7  90135975.432 7     -2326.303          43.000
G15  20928483.953 8 109979930.080 8     -1937.941          51.000    20928483.125 8  85698635.599 8     -1510.084          51.000
G19  22038288.594 5 115811987.670 5      1831.699          32.000    22038288.297 5  90243099.144 5      1427.301          33.000
R05  21703849.586 7 116019495.513 7     -4114.645          43.000    21703846.391 5  90237376.987 5     -3200.282          34.000
C23  24108726.961 5 125540521.049 5      2178.602          35.000
C24  24317874.648 5 126629538.552 5     -2330.867          32.000
C25  21840528.445 8 113729346.701 8        -3.250          50.000
E05  24038390.648 8 126322604.199 8     -1394.016          51.000    24038392.922 8  96792644.277 8     -1068.160          51.000
E09  25000214.070 5 131376988.527 5     -3099.672          34.000    25000214.039 7 100665514.822 7     -2374.762          42.000
E24  21748134.227 8 114287210.888 8      -697.855          51.000    21748147.453 8  87570815.448 8      -534.741          51.000
E25  24866084.172 7 130672143.459 7      1701.406          43.000    24866088.328 7 100125415.602 7      1303.792          43.000
> 2020 05 03 07 14 30.0000000  0 15        .000000000000
G12  22499407.688 8 118235187.180 8      3251.156          51.000    22499407.508 8  92131311.219 8      2533.372          51.000
G13  22029191.445 8 115764159.601 8     -2994.914          51.000    22029191.305 6  90205817.388 6     -2333.702          41.000
G15  20939575.352 8 110038214.287 8     -1952.590          51.000    20939574.508 8  85744051.840 8     -1521.499          51.000
G17  22397265.656 5 117698425.038 5      -176.355          30.000
G19  22027862.914 6 115757198.201 6      1815.480          37.000    22027862.539 6  90200406.117 6      1414.663          37.000
R05  21726954.898 7 116143005.612 7     -4124.516          43.000    21726952.898 6  90333440.384 6     -3207.957          36.000
R15  20684190.336 5 110530058.599 5     -2338.684          32.000    20684195.562 5  85967834.748 5     -1818.982          31.000
C23  24096164.391 5 125475133.638 5      2175.145          31.000
C24  24331296.219 5 126699437.204 5     -2332.852          31.000
C25  21840552.148 8 113729469.603 8        -9.805          50.000
E05  24046366.844 8 126364519.099 8     -1405.129          51.000    24046368.711 8  96824760.872 8     -1076.675          51.000
E09  25017899.133 6 131469918.487 6     -3101.055          37.000    25017898.312 7 100736720.886 7     -2376.151          42.000
E24  21752121.336 8 114308162.807 8      -703.836          51.000    21752134.477 8  87586869.510 8      -539.327          51.000
E25  24856372.672 7 130621103.840 7      1696.145          45.000    24856376.312 7 100086307.374 7      1299.643          44.000
E31  26610640.242 6 139839857.067 6     -2412.254          37.000
> 2020 05 03 07 15  0.0000000  0 15        .000000000000
G12  22480882.586 8 118137836.614 8      3241.395          50.000    22480881.633 8  92055453.673 8      2525.765          50.000
G13  22046327.992 8 115854212.401 8     -3006.008          51.000    22046327.328 6  90275988.365 6     -2342.344          41.000
G15  20950776.797 8 110097076.581 8     -1968.965          51.000    20950775.945 8  85789918.544 8     -1534.258          51.000
G17  22398338.305 5 117704057.643 5      -196.090          35.000    22398333.055 5  91717410.339 5      -152.812          35.000
G19  22017559.391 6 115703049.597 6      1796.824          36.000    22017559.031 5  90158212.449 5      1400.129          34.000
R05  21750140.750 6 116266947.046 6     -4136.016          41.000    21750140.359 5  90429839.312 5     -3216.901          35.000
R15  20697350.414 5 110600382.011 5     -2345.938          32.000    20697358.594 5  86022530.579 5     -1824.624          33.000
C11  25801298.797 6 134354136.690 6      3170.219          38.000    25801302.477 7 103891144.395 7      2451.701          42.000
C23  24083651.508 4 125409890.906 4      2170.957          29.000
C25  21840640.102 8 113729926.830 8       -18.219          51.000
E05  24054432.016 8 126406902.558 8     -1417.895          51.000    24054434.039 8  96857236.496 8     -1086.472          51.000
E09  25035620.156 6 131563037.887 6     -3104.113          36.000    25035618.164 6 100808072.083 6     -2378.701          40.000
E24  21756168.531 8 114329431.265 8      -711.508          51.000    21756181.688 8  87603166.122 8      -545.166          51.000
E25  24846717.953 7 130570363.268 7      1689.109          45.000    24846721.703 7 100047428.264 7      1294.223          45.000
E31  26624424.828 6 139912288.437 6     -2413.828          39.000
> 2020 05 03 07 15 30.0000000  0 14        .000000000000
G12  22462404.664 8 118040734.484 8      3235.586          50.000    22462404.008 8  91979789.713 8      2521.236          50.000
G13  22063520.039 8 115944557.089 8     -3013.332          51.000    22063519.156 7  90346386.801 7     -2348.051          42.000
G15  20962063.453 8 110156386.912 8     -1981.504          51.000    20962062.961 8  85836134.377 8     -1544.032          51.000
G19  22007352.398 5 115649415.378 5      1781.969          33.000    22007352.398 4  90116419.464 4      1388.544          26.000
R05  21773380.219 5 116391184.980 5     -4143.324          35.000    21773385.562 5  90526468.951 5     -3222.582          32.000
R15  20710543.117 4 110670872.089 4     -2349.949          29.000    20710552.430 5  86077356.219 5     -1827.735          34.000
C11  25783037.078 6 134259043.987 6      3173.102          39.000    25783041.867 7 103817612.703 7      2453.414          44.000
C23  24071161.070 5 125344851.420 5      2169.000          30.000
C25  21840767.852 8 113730590.723 8       -22.613          50.000
E05  24062561.531 8 126449625.255 8     -1426.621          51.000    24062563.859 8  96889972.053 8     -1093.110          51.000
E09  25053351.852 6 131656216.651 6     -3103.738          36.000    25053349.422 6 100879468.725 6     -2378.210          40.000
E24  21760251.312 8 114350886.823 8      -715.238          51.000    21760264.664 8  87619606.093 8      -548.055          51.000
E25  24837095.297 7 130519793.140 7      1685.766          45.000    24837098.641 7 100008679.722 7      1291.843          45.000
E31  26638209.188 6 139984717.267 6     -2411.184          40.000
> 2020 05 03 07 16  0.0000000  0 15        .000000000000
G12  22443985.031 8 117943938.640 8      3215.020          50.000    22443985.125 8  91904364.380 8      2505.210          50.000
G13  22080778.047 8 116035247.775 8     -3035.090          51.000    22080777.211 6  90417054.824 6     -2365.008          41.000
G15  20973445.461 8 110216199.482 8     -2008.523          51.000    20973445.609 8  85882741.559 8     -1565.083          51.000
G17  22400794.094 6 117716976.814 6      -240.945          36.000
G19  21997254.484 5 115596354.374 5      1752.707          33.000    21997255.156 5  90075073.149 5      1365.743          32.000
G24  20702818.938 4 108794047.819 4      1479.430          29.000
R05  21796685.156 6 116515771.943 6     -4165.062          38.000    21796698.805 5  90623370.179 5     -3239.487          31.000
C11  25764787.766 6 134164015.193 6      3159.938          39.000    25764792.656 7 103744130.394 7      2443.805          46.000
C23  24058700.914 5 125279968.267 5      2153.781          33.000
C25  21840945.484 8 113731516.548 8       -41.488          50.000
E05  24070766.109 8 126492742.495 8     -1450.133          51.000    24070768.680 8  96923009.933 8     -1111.135          51.000
E09  25071104.812 6 131749509.205 6     -3117.695          38.000    25071102.414 6 100950952.576 6     -2388.949          38.000
E24  21764380.242 8 114372584.587 8      -733.590          51.000    21764393.742 8  87636231.645 8      -562.101          51.000
E25  24827515.461 7 130469449.387 7      1668.051          44.000    24827517.602 7  99970104.664 7      1278.105          44.000
E31  26652002.641 6 140057198.852 6     -2423.238          39.000
> 2020 05 03 07 16 30.0000000  0 15        .000000000000
G12  22425625.477 8 117847458.172 8      3214.102          50.000    22425626.320 8  91829184.795 8      2504.495          50.000
G13  22098102.945 8 116126289.835 8     -3037.164          51.000    22098101.609 6  90487996.647 6     -2366.621          41.000
G15  20984923.945 8 110276519.835 8     -2015.645          51.000    20984924.695 8  85929744.425 8     -1570.632          51.000
G17  22402189.711 6 117724315.297 6      -251.047          38.000    22402190.273 5  91733231.297 5      -195.621          35.000
G19  21987267.672 5 115543871.906 5      1742.422          30.000    21987268.930 4  90034189.796 4      1357.725          29.000
R05  21820057.227 6 116640711.186 6     -4167.043          39.000    21820073.961 5  90720545.229 5     -3241.027          34.000
R24  23169240.922 4 123896342.299 4     -1331.656          29.000
C11  25746552.422 6 134069059.838 6      3167.410          39.000    25746557.523 7 103670704.942 7      2449.255          47.000
C23  24046272.664 5 125215253.417 5      2157.805          35.000
C25  21841174.445 8 113732711.152 8       -40.906          50.000
E05  24079047.156 8 126536260.673 8     -1453.797          51.000    24079049.758 8  96956355.020 8     -1113.888          51.000
E09  25088880.336 6 131842921.192 6     -3112.254          39.000    25088878.016 6 101022527.976 6     -2384.687          38.000
E24  21768556.438 8 114394530.829 8      -732.297          51.000    21768569.883 8  87653047.581 8      -561.099          51.000
E25  24817979.789 7 130419339.135 7      1670.047          42.000    24817980.438 7  99931708.514 7      1279.658          44.000
E31  26665806.656 6 140129739.575 6     -2415.738          36.000    26665803.312 5 107372142.367 5     -1850.772          34.000
> 2020 05 03 07 17  0.0000000  0 16        .000000000000
G12  22407303.789 8 117751176.808 8      3205.488          51.000    22407304.578 8  91754160.347 8      2497.783          51.000
G13  22115471.719 8 116217564.048 8     -3046.852          50.000    22115470.141 6  90559119.369 6     -2374.173          41.000
G15  20996476.492 8 110337228.887 8     -2030.688          51.000    20996477.430 8  85977050.171 8     -1582.354          51.000
G17  22403675.867 5 117732127.872 5      -268.977          31.000    22403676.883 4  91739319.078 4      -209.586          25.000
G19  21977371.547 5 115491872.786 5      1724.766          32.000
G28  23874203.352 5 125459784.688 5     -3078.820          30.000
R05  21843473.234 6 116765879.090 6     -4176.488          40.000    21843488.250 6  90817898.080 6     -3248.380          36.000
R15  20750352.195 4 110883575.200 4     -2370.586          29.000    20750355.797 5  86242801.259 5     -1843.789          33.000
