     3.02           OBSERVATION DATA    M (MIXED)           RINEX VERSION / TYPE
SAVERINEX           SC600               20200509 205931 LCL PGM / RUN BY / DATE
       G = GPS       R = GLONASS       C = COMPASS          COMMENT
       S = SBAS      J = QZSS          E = GALILEO          COMMENT
BEAN                                                        MARKER NAME
1                                                           MARKER NUMBER
GEODETIC                                                    MARKER TYPE
Unige DICCA         GTER                                    OBSERVER / AGENCY
SC60291900056       SC600               2.12(191226)        REC # / TYPE / VERS
                    HEMA45          NONE                    ANT # / TYPE
  4509407.8091   693652.4678  4442337.6214                  APPROX POSITION XYZ
        0.0000        0.0000        0.0000                  ANTENNA: DELTA H/E/N
G    8 C1C L1C D1C S1C C2Y L2Y D2Y S2Y                      SYS / # / OBS TYPES
R    8 C1C L1C D1C S1C C2P L2P D2P S2P                      SYS / # / OBS TYPES
C    8 C1I L1I D1I S1I C7I L7I D7I S7I                      SYS / # / OBS TYPES
E    8 C1C L1C D1C S1C C7Q L7Q D7Q S7Q                      SYS / # / OBS TYPES
DBHZ                                                        COMMENT
     30.000                                                 INTERVAL
  2020    05    09    18    00    0.0000000     GPS         TIME OF FIRST OBS
  2020    05    09    18    59   30.0000000     GPS         TIME OF LAST OBS
     0                                                      RCV CLOCK OFFS APPL
G L1C  0.00000                                              SYS / PHASE SHIFT
G L2Y  0.00000                                              SYS / PHASE SHIFT
R L1C  0.00000                                              SYS / PHASE SHIFT
R L2P  0.25000                                              SYS / PHASE SHIFT
C L1I  0.00000                                              SYS / PHASE SHIFT
C L7I  0.00000                                              SYS / PHASE SHIFT
E L1C  0.50000                                              SYS / PHASE SHIFT
E L7Q -0.25000                                              SYS / PHASE SHIFT
 14 R04  6 R05  1 R06 -4 R07  5 R08  6 R09 -2 R10 -5 R11  0 GLONASS SLOT / FRQ #
    R16 -1 R18 -3 R19  3 R20  2 R21  4 R22 -3               GLONASS SLOT / FRQ #
 C1C   71.950 C2C   71.950 C2P   71.950                     GLONASS COD/PHS/BIS
    18                                                      LEAP SECONDS
*** Above antenna height is from mark to ANTENNA BOTTOM.    COMMENT
    17     4        0.0000        ANT MEASURE TYPE/HEIGT    COMMENT
    0.0000    0.0000    0.0458    0.0405    0.0000          COMMENT
                    BASE STATION                            COMMENT
                                                            END OF HEADER
> 2020 05 09 18 00  0.0000000  0 18        .000000000000
G08  20335878.461 8 106865767.364 8      -245.090          51.000    20335880.883 8  83272010.036 8      -190.982          51.000
G10  22205141.242 6 116688798.598 6     -2520.398          38.000    22205143.898 6  90926388.043 6     -1963.947          38.000
G14  23478650.461 7 123381168.908 7      2677.852          44.000    23478650.984 6  96141193.981 6      2086.641          40.000
G22  22689447.086 8 119233862.783 8      2932.383          49.000    22689445.039 7  92909454.545 7      2284.974          44.000
G27  21406841.102 7 112493708.617 7     -2383.504          47.000    21406844.141 8  87657427.035 8     -1857.276          48.000
R05  22115419.023 5 118219533.267 5     -3472.141          34.000    22115417.656 5  91948513.211 5     -2700.554          33.000
R06  19507432.555 8 104095388.486 8       744.578          48.000
R07  21697063.047 7 116146109.200 7      4065.277          46.000    21697069.156 6  90335900.646 6      3161.885          38.000
R21  19607304.820 8 104922658.474 8      -336.293          50.000    19607307.531 8  81606500.778 8      -261.561          49.000
C05                                                                  39639481.914 6 159611766.790 6       -17.933          36.000
C19  22063681.250 8 114891502.615 8      1612.895          50.000
C20  23152859.953 6 120563039.133 6     -1531.121          37.000
C29  22523583.891 8 117286179.572 8     -1789.211          51.000
E01  26670445.570 6 140154116.840 6     -2225.051          41.000    26670450.227 7 107390829.112 7     -1704.918          43.000
E07  25096121.508 7 131881101.614 7      2193.184          46.000    25096127.852 8 101051702.811 8      1680.521          49.000
E08  23314495.719 5 122518508.436 5      -447.848          34.000    23314500.797 5  93877829.662 5      -342.504          34.000
E13  24610392.125 6 129328470.552 6     -1518.672          36.000    24610394.734 6  99095841.290 6     -1163.867          39.000
E26  22578498.289 6 118650810.873 6       673.883          38.000    22578501.430 6  90914262.599 6       516.627          37.000
> 2020 05 09 18 00 30.0000000  0 18        .000000000000
G08  20337328.453 8 106873386.386 8      -262.629          51.000    20337330.719 8  83277946.914 8      -204.646          51.000
G10  22219562.203 6 116764580.676 6     -2531.039          36.000    22219564.055 6  90985439.049 6     -1972.235          36.000
G14  23463387.320 7 123300961.533 7      2669.574          42.000    23463387.680 7  96078694.817 7      2080.191          42.000
G22  22672736.766 8 119146049.072 8      2922.180          49.000    22672734.430 7  92841028.343 7      2277.026          43.000
G27  21420487.789 8 112565422.791 8     -2397.172          48.000    21420491.281 8  87713308.217 8     -1867.926          48.000
R05  22134949.391 5 118323928.168 5     -3487.090          34.000    22134946.078 5  92029709.255 5     -2712.184          34.000
R06  19503324.414 8 104073465.396 8       717.316          49.000
R07  21674316.141 8 116024334.787 8      4053.188          48.000    21674318.750 6  90241187.338 6      3152.482          38.000
R21  19609232.859 8 104932974.483 8      -351.230          51.000    19609235.562 8  81614524.339 8      -273.176          49.000
C05                                                                  39639617.906 6 159612314.103 6       -18.075          36.000
C19  22054432.688 8 114843345.432 8      1597.766          50.000
C20  23161719.523 6 120609188.435 6     -1545.516          38.000
C29  22533922.359 8 117340015.259 8     -1799.547          51.000
E01  26683175.688 6 140221013.593 6     -2234.484          39.000    26683179.336 7 107442087.643 7     -1711.967          43.000
E07  25083632.461 7 131815465.851 7      2182.945          47.000    25083636.867 8 101001410.536 8      1672.581          48.000
E08  23317091.375 6 122532145.009 6      -462.051          37.000    23317095.492 5  93888287.043 5      -354.596          34.000
E13  24619078.500 6 129374114.581 6     -1523.828          37.000    24619079.664 6  99130815.140 6     -1167.698          40.000
E26  22574668.312 6 118630684.480 6       668.121          41.000    22574671.414 6  90898841.063 6       511.994          38.000
> 2020 05 09 18 01  0.0000000  0 19        .000000000000
G08  20338875.914 8 106881517.406 8      -280.965          51.000    20338878.102 8  83284282.766 8      -218.934          51.000
G10  22234041.281 6 116840670.049 6     -2542.797          41.000    22234043.547 6  91044729.448 6     -1981.406          37.000
G14  23448169.289 7 123220992.956 7      2660.098          43.000    23448170.117 6  96016381.679 6      2072.806          40.000
G22  22656081.680 8 119058525.589 8      2911.293          50.000    22656079.289 7  92772828.300 7      2268.543          43.000
G27  21434209.555 8 112637529.826 8     -2411.539          49.000    21434213.008 8  87769495.501 8     -1879.121          49.000
G32  22522685.266 5 118357512.382 5      1760.098          34.000    22522687.750 5  92226643.990 5      1371.505          35.000
R05  22154559.164 5 118428719.298 5     -3503.973          32.000    22154557.969 5  92111258.089 5     -2725.312          33.000
R06  19499368.453 8 104052354.294 8       688.699          49.000
R07  21651634.438 8 115902911.618 8      4040.156          49.000    21651634.555 6  90146747.213 6      3142.347          41.000
R21  19611241.938 8 104943725.670 8      -367.031          50.000    19611244.672 8  81622886.375 8      -285.469          49.000
C05                                                                  39639754.258 6 159612863.982 6       -19.519          36.000
C19  22045269.242 8 114795630.333 8      1581.699          50.000
C20  23170662.102 6 120655758.162 6     -1560.715          39.000
C29  22544317.984 8 117394147.284 8     -1810.688          51.000
E01  26695955.375 6 140288170.866 6     -2244.258          40.000    26695957.773 7 107493545.755 7     -1719.629          42.000
E07  25071200.266 8 131750128.571 8      2171.625          49.000    25071203.312 8 100951346.983 8      1663.928          50.000
E08  23319770.641 6 122546225.587 6      -477.664          39.000    23319773.789 6  93899075.976 6      -366.532          36.000
E13  24627792.469 6 129419903.512 6     -1530.031          38.000    24627790.703 6  99165900.139 6     -1172.463          41.000
E26  22570869.367 6 118610719.907 6       661.484          41.000    22570872.945 6  90883543.540 6       506.918          39.000
> 2020 05 09 18 01 30.0000000  0 18        .000000000000
G08  20340523.172 8 106890173.460 8      -296.961          51.000    20340525.273 8  83291027.734 8      -231.398          51.000
G10  22248580.594 6 116917076.748 6     -2551.625          39.000    22248583.055 5  91104267.051 5     -1988.282          30.000
G14  23432999.820 7 123141278.576 7      2653.285          44.000    23433001.227 7  95954266.576 7      2067.492          42.000
G22  22639484.406 8 118971306.026 8      2902.539          50.000    22639482.289 7  92704865.046 7      2261.719          45.000
G27  21448008.305 8 112710040.828 8     -2423.406          50.000    21448011.195 8  87825997.564 8     -1888.372          50.000
G32  22512670.086 5 118304891.474 5      1746.180          33.000    22512680.711 5  92185640.435 5      1360.663          34.000
R06  19495566.844 8 104032068.329 8       662.742          48.000
R07  21629020.648 8 115781855.911 8      4029.363          49.000    21629020.961 7  90052592.860 7      3133.949          44.000
R21  19613334.711 8 104954925.629 8      -380.461          50.000    19613337.844 8  81631597.419 8      -295.914          48.000
C05                                                                  39639893.656 6 159613425.773 6       -18.755          36.000
C19  22036193.094 8 114748370.473 8      1568.062          49.000
C20  23179686.883 5 120702758.783 5     -1573.738          35.000
C29  22554772.719 8 117448587.634 8     -1819.445          51.000
E01  26708787.078 6 140355598.906 6     -2251.539          40.000    26708788.289 7 107545211.363 7     -1725.400          43.000
E07  25058827.383 8 131685103.704 8      2162.680          51.000    25058830.656 8 100901522.809 8      1657.115          51.000
E08  23322535.109 6 122560750.759 6      -490.980          38.000    23322539.750 6  93910205.654 6      -376.236          37.000
E13  24636535.492 6 129465849.960 6     -1533.785          39.000    24636533.938 7  99201105.754 7     -1175.280          44.000
E26  22567103.812 6 118590929.903 6       657.148          41.000    22567107.539 6  90868379.772 6       503.673          39.000
> 2020 05 09 18 02  0.0000000  0 17        .000000000000
G08  20342264.281 8 106899323.634 8      -313.070          51.000    20342266.461 8  83298157.719 8      -243.951          51.000
G10  22263205.047 5 116993916.762 5     -2561.074          32.000    22263214.680 5  91164153.598 5     -1995.642          32.000
G14  23417873.906 7 123061790.561 7      2645.832          45.000    23417875.672 7  95892327.918 7      2061.687          43.000
G22  22622939.211 8 118884360.910 8      2893.688          50.000    22622938.094 7  92637115.629 7      2254.821          47.000
G27  21461877.766 8 112782923.733 8     -2435.391          51.000    21461879.859 8  87882789.415 8     -1897.710          51.000
R06  19491913.812 7 104012576.271 7       636.574          47.000
R07  21606470.023 8 115661140.268 8      4018.352          49.000    21606471.008 7  89958702.958 7      3125.385          45.000
R21  19615505.797 8 104966543.976 8      -394.113          49.000    19615508.789 8  81640633.918 8      -306.533          48.000
C05                                                                  39640030.438 6 159613975.966 6       -18.286          36.000
C19  22027198.867 8 114701536.284 8      1554.273          50.000
C20  23188789.141 6 120750158.149 6     -1586.633          38.000
C29  22565280.781 8 117503305.506 8     -1828.355          51.000
E01  26721664.023 7 140423265.072 7     -2259.281          43.000    26721664.320 7 107597059.353 7     -1731.126          44.000
E07  25046508.312 8 131620362.013 8      2153.539          51.000    25046512.227 8 100851915.598 8      1650.084          51.000
E08  23325378.148 6 122575689.326 6      -504.570          40.000    23325382.312 6  93921652.135 6      -386.517          37.000
E13  24645302.773 7 129511923.073 7     -1537.570          43.000    24645302.523 7  99236408.494 7     -1178.240          45.000
E26  22563365.391 7 118571284.127 7       652.594          42.000    22563368.609 6  90853326.543 6       500.060          39.000
> 2020 05 09 18 02 30.0000000  0 19        .000000000000
G08  20344099.336 8 106908967.043 8      -329.992          51.000    20344101.695 8  83305672.051 8      -257.137          51.000
G10  22277823.023 5 117070746.584 5     -2571.527          32.000    22277820.383 5  91223949.728 5     -2003.788          33.000
G14  23402791.414 7 122982529.838 7      2637.695          46.000    23402793.000 7  95830566.370 7      2055.350          42.000
G22  22606446.312 8 118797689.743 8      2883.977          51.000    22606446.008 8  92569579.689 8      2247.254          48.000
G27  21475817.523 8 112856175.748 8     -2448.168          51.000    21475818.930 8  87939868.881 8     -1907.666          51.000
G32  22492899.750 5 118200991.853 5      1716.648          35.000    22492907.750 5  92104686.777 5      1337.669          30.000
R06  19488409.430 7 103993877.310 7       609.707          46.000
R07  21583982.930 8 115540766.718 8      4006.258          48.000    21583984.398 7  89865079.136 7      3115.978          45.000
R21  19617755.281 8 104978580.087 8      -408.520          50.000    19617757.727 8  81649995.323 8      -317.740          48.000
C05                                                                  39640163.844 6 159614513.232 6       -17.882          37.000
C19  22018286.641 8 114655126.957 8      1539.586          50.000
C20  23197967.977 6 120797953.198 6     -1600.152          37.000
C22  25638052.898 6 133504065.191 6      3426.289          36.000
C29  22575841.586 8 117558299.011 8     -1838.094          51.000
E01  26734585.930 7 140491165.588 7     -2267.695          44.000    26734584.633 7 107649086.987 7     -1737.594          44.000
E07  25034242.945 8 131555903.394 8      2143.535          51.000    25034247.484 8 100802525.253 8      1642.425          51.000
E08  23328299.633 6 122591039.185 6      -518.945          40.000    23328301.969 6  93933413.680 6      -397.385          38.000
E13  24654093.859 7 129558121.390 7     -1542.492          43.000    24654095.000 7  99271807.169 7     -1181.916          44.000
E26  22559654.055 6 118551781.390 6       647.234          41.000    22559656.578 6  90838382.909 6       495.942          39.000
> 2020 05 09 18 03  0.0000000  0 19        .000000000000
G08  20346034.891 8 106919138.236 8      -347.492          51.000    20346037.164 8  83313597.648 8      -270.773          51.000
G10  22292529.945 6 117148030.097 6     -2580.914          37.000    22292528.211 6  91284170.563 6     -2011.105          36.000
G11  20479242.945 5 107619140.521 5      1759.090          35.000
G14  23387759.312 8 122903533.225 8      2629.016          48.000    23387760.375 7  95769010.634 7      2048.584          42.000
G22  22590012.414 8 118711328.072 8      2873.801          51.000    22590011.805 7  92502284.904 7      2239.328          47.000
G27  21489833.820 8 112929829.720 8     -2461.395          51.000    21489835.102 8  87997261.542 8     -1917.973          51.000
G32  22483144.195 6 118149743.988 6      1700.578          38.000    22483146.461 6  92064760.510 6      1325.135          36.000
R06  19485060.328 7 103976006.798 7       582.180          45.000
R07  21561566.250 8 115420773.991 8      3993.766          48.000    21561568.648 7  89771751.517 7      3106.262          45.000
R21  19620089.477 8 104991069.701 8      -423.559          50.000    19620091.648 8  81659709.459 8      -329.434          48.000
C05                                                                  39640300.469 6 159615063.833 6       -18.386          37.000
C19  22009463.250 8 114609177.392 8      1524.281          51.000
C22  25618327.086 5 133401351.490 5      3422.367          34.000
C29  22586461.852 8 117613601.739 8     -1848.254          51.000
E01  26747558.531 7 140559332.692 7     -2276.145          45.000    26747556.695 7 107701318.869 7     -1744.167          45.000
E07  25022038.094 8 131491763.595 8      2133.031          51.000    25022042.766 8 100753379.195 8      1634.401          51.000
E08  23331305.094 6 122606833.943 6      -533.688          37.000    23331308.641 6  93945516.169 6      -408.687          39.000
E13  24662915.188 7 129604479.240 7     -1547.602          43.000    24662916.656 7  99307328.094 7     -1185.863          43.000
E26  22555976.547 7 118532456.274 7       641.500          42.000    22555979.070 6  90823575.366 6       491.710          39.000
> 2020 05 09 18 03 30.0000000  0 19        .000000000000
G08  20348061.758 8 106929789.472 8      -364.863          51.000    20348063.688 8  83321897.333 8      -284.309          51.000
G10  22307286.211 6 117225575.784 6     -2590.551          36.000    22307287.297 5  91344595.679 5     -2018.611          35.000
G14  23372768.922 8 122824755.894 8      2620.445          48.000    23372769.523 7  95707625.777 7      2041.908          43.000
G22  22573628.547 8 118625229.232 8      2863.719          51.000    22573627.547 7  92435194.933 7      2231.469          47.000
G27  21503917.000 8 113003836.382 8     -2474.527          51.000    21503918.438 8  88054929.021 8     -1928.206          51.000
G32  22473467.414 5 118098868.468 5      1685.230          32.000    22473470.156 5  92025156.744 5      1313.167          31.000
R06  19481856.898 7 103958915.992 7       554.988          44.000
R07  21539212.531 8 115301116.637 8      3981.117          48.000    21539215.344 7  89678684.721 7      3096.428          44.000
R21  19622498.953 8 105003964.809 8      -438.395          49.000    19622501.555 7  81669738.970 7      -340.977          47.000
C05                                                                  39640431.289 6 159615590.932 6       -18.507          36.000
C19  22000719.367 8 114563640.917 8      1509.254          51.000
C20  23216571.820 5 120894780.750 5     -1628.570          33.000
C22  25598614.938 5 133298710.644 5      3418.332          32.000
C29  22597132.102 8 117669165.815 8     -1858.250          51.000
E01  26760572.312 7 140627716.417 7     -2284.840          46.000    26760569.969 7 107753716.712 7     -1750.709          45.000
E07  25009885.070 8 131427896.167 8      2122.578          51.000    25009889.047 8 100704441.815 8      1626.394          51.000
E08  23334386.359 6 122623025.077 6      -548.152          38.000    23334390.719 6  93957922.425 6      -420.064          38.000
E13  24671757.711 7 129650948.711 7     -1552.762          42.000    24671759.617 7  99342934.530 7     -1189.719          42.000
E26  22552323.859 7 118513261.308 7       635.863          43.000    22552327.102 6  90808867.564 6       487.145          40.000
> 2020 05 09 18 04  0.0000000  0 18        .000000000000
G08  20350191.953 8 106940984.183 8      -380.727          51.000    20350193.914 8  83330620.484 8      -296.670          51.000
G10  22322104.180 4 117303449.084 4     -2599.430          29.000    22322106.555 4  91405272.241 4     -2025.524          28.000
G14  23357832.648 8 122746263.233 8      2613.305          48.000    23357833.016 6  95646462.752 6      2036.344          41.000
G22  22557306.969 8 118539457.998 8      2855.098          50.000    22557305.609 7  92368360.234 7      2224.754          46.000
G27  21518078.805 8 113078257.260 8     -2486.086          51.000    21518079.734 8  88112919.274 8     -1937.213          51.000
R06  19478811.898 7 103942668.902 7       528.918          45.000
R07  21516934.523 8 115181862.986 8      3969.914          49.000    21516937.328 7  89585931.940 7      3087.711          44.000
R21  19624996.828 8 105017330.338 8      -451.781          50.000    19624999.297 7  81680134.373 7      -351.385          47.000
C05                                                                  39640568.219 6 159616141.646 6       -17.435          36.000
C19  21992066.609 8 114518580.609 8      1495.613          51.000
C20  23225988.984 6 120943820.919 6     -1640.594          36.000
C22  25578930.773 5 133196206.642 5      3415.598          32.000
C29  22607864.625 8 117725053.202 8     -1866.797          51.000
E01  26773638.562 7 140696377.579 7     -2291.688          44.000    26773635.984 7 107806327.181 7     -1756.016          45.000
E07  24997795.984 8 131364365.403 8      2113.594          51.000    24997799.102 8 100655762.401 8      1619.525          51.000
E08  23337555.008 6 122639674.913 6      -560.988          39.000    23337558.406 6  93970680.066 6      -429.935          38.000
E13  24680633.375 6 129697592.700 6     -1556.098          41.000    24680634.766 6  99378674.720 6     -1192.478          40.000
E26  22548708.273 7 118494259.679 7       631.727          43.000    22548711.602 6  90794307.877 6       484.098          40.000
> 2020 05 09 18 04 30.0000000  0 18        .000000000000
G08  20352418.641 8 106952685.600 8      -400.742          51.000    20352420.742 8  83339738.469 8      -312.267          51.000
G14  23342943.938 8 122668021.467 8      2601.523          48.000    23342944.289 6  95585495.232 6      2027.164          41.000
G22  22541040.672 8 118453978.534 8      2842.125          49.000    22541038.438 7  92301752.909 7      2214.646          45.000
G27  21532312.289 8 113153054.056 8     -2501.695          51.000    21532312.742 8  88171202.461 8     -1949.373          51.000
G32  22454403.008 6 117998711.002 6      1651.840          37.000
R05  22294101.016 4 119174745.359 4     -3602.906          28.000    22294102.539 4  92691449.897 4     -2802.260          28.000
R06  19475918.062 7 103927228.577 7       498.945          44.000
R07  21494725.672 8 115062978.828 8      3954.273          49.000    21494728.445 7  89493466.510 7      3075.546          45.000
R21  19627575.883 8 105031129.695 8      -469.488          50.000    19627577.969 7  81690867.180 7      -365.158          47.000
C05                                                                  39640704.391 6 159616689.687 6       -20.205          36.000
C19  21983498.141 8 114473960.680 8      1477.703          51.000
C20  23235476.477 5 120993261.837 5     -1656.777          35.000
C29  22618652.055 8 117781226.964 8     -1879.480          50.000
E01  26786749.781 7 140765277.204 7     -2302.910          45.000    26786747.891 7 107859120.311 7     -1764.577          46.000
E07  24985763.742 8 131301135.857 8      2100.375          51.000    24985766.492 8 100607313.815 8      1609.312          51.000
E08  23340803.227 6 122656745.883 6      -578.617          37.000    23340805.148 6  93983760.384 6      -443.108          38.000
E13  24689535.398 6 129744374.355 6     -1564.004          41.000    24689537.008 6  99414520.364 6     -1198.536          39.000
E26  22545122.656 7 118475414.912 7       623.199          43.000    22545125.383 6  90779868.411 6       477.423          41.000
> 2020 05 09 18 05  0.0000000  0 17        .000000000000
G08  20354748.133 8 106964926.810 8      -416.621          51.000    20354750.086 8  83349277.067 8      -324.640          51.000
G14  23328109.375 7 122590065.972 7      2594.020          47.000    23328109.438 7  95524750.726 7      2021.317          42.000
G22  22524836.078 8 118368824.212 8      2833.328          49.000    22524833.172 7  92235398.950 7      2207.791          45.000
G27  21546623.398 8 113228258.396 8     -2513.203          51.000    21546623.359 8  88229803.214 8     -1958.340          51.000
R05  22314356.703 6 119283015.951 6     -3616.145          36.000    22314363.578 5  92775694.222 5     -2812.557          30.000
R06  19473182.266 7 103912628.540 7       473.105          45.000
R07  21472593.461 8 114944501.323 8      3942.805          50.000    21472595.836 7  89401317.384 7      3066.629          45.000
R21  19630242.164 8 105045397.272 8      -483.004          50.000    19630244.281 7  81701964.188 7      -375.670          47.000
C05                                                                  39640845.883 6 159617259.220 6       -18.960          36.000
C19  21975020.539 8 114429814.656 8      1464.004          51.000
C20  23245051.992 5 121043134.288 5     -1669.250          32.000
C29  22629500.984 8 117837719.431 8     -1888.047          51.000
E01  26799911.891 7 140834446.182 7     -2309.707          45.000    26799910.906 7 107912119.826 7     -1769.707          46.000
E07  24973795.156 8 131238241.976 8      2091.258          51.000    24973797.789 8 100559122.407 8      1602.362          51.000
E08  23344137.977 5 122674270.412 5      -591.270          35.000    23344139.414 6  93997188.180 6      -452.943          39.000
E13  24698470.281 6 129791326.683 6     -1567.684          37.000    24698472.695 5  99450496.715 5     -1201.422          34.000
E26  22541573.055 7 118456760.403 7       619.031          42.000    22541575.773 6  90765574.677 6       474.436          41.000
> 2020 05 09 18 05 30.0000000  0 16        .000000000000
G08  20357167.086 8 106977638.122 8      -431.281          51.000    20357168.867 8  83359181.971 8      -336.063          51.000
G14  23313315.875 7 122512328.917 7      2587.949          45.000    23313316.266 7  95464176.444 7      2016.584          42.000
G22  22508680.023 7 118283926.169 7      2825.855          47.000    22508677.078 7  92169244.692 7      2201.968          44.000
G27  21560998.375 8 113303798.266 8     -2523.363          51.000    21560998.273 8  88288665.428 8     -1966.254          51.000
R05  22334680.875 6 119391661.258 6     -3626.551          38.000    22334684.695 4  92860195.993 4     -2820.645          27.000
R06  19470590.555 7 103898796.800 7       448.582          46.000
R07  21450524.773 8 114826362.090 8      3932.555          50.000    21450527.055 7  89309431.385 7      3058.657          46.000
R21  19632982.508 8 105060062.037 8      -495.168          51.000    19632984.805 7  81713370.088 7      -385.131          47.000
C05                                                                  39640979.281 6 159617796.146 6       -17.347          36.000
C19  21966620.352 8 114386073.319 8      1451.598          51.000
C29  22640397.875 8 117894460.233 8     -1895.246          51.000
E01  26813110.969 7 140903811.786 7     -2315.309          44.000    26813111.273 7 107965270.018 7     -1773.984          46.000
E07  24961876.797 8 131175614.529 8      2083.336          51.000    24961880.016 8 100511135.196 8      1596.328          51.000
E08                                                                  23347548.453 6  94010908.897 6      -461.922          40.000
E13  24707423.836 5 129838388.243 5     -1569.875          34.000    24707427.234 5  99486549.654 5     -1202.819          32.000
E26  22538045.742 7 118438225.885 7       615.961          42.000    22538049.289 7  90751372.913 7       472.135          42.000
> 2020 05 09 18 06  0.0000000  0 19        .000000000000
G08  20359689.102 8 106990890.988 8      -451.281          51.000    20359690.695 8  83369508.858 8      -351.648          51.000
G10  22381918.719 5 117617773.022 5     -2639.293          33.000    22381923.086 5  91650210.997 5     -2056.586          33.000
G14  23298578.117 7 122434884.933 7      2576.082          46.000    23298579.062 7  95403830.501 7      2007.340          44.000
G22  22492586.523 7 118199357.681 7      2812.992          45.000    22492584.227 7  92103347.195 7      2191.942          45.000
G27  21575450.414 8 113379744.044 8     -2538.652          51.000    21575450.688 8  88347843.922 8     -1978.171          51.000
G32  22426482.844 5 117851960.275 5      1605.738          34.000
R05  22355083.086 6 119500734.156 6     -3643.117          40.000    22355083.953 3  92945012.663 3     -2833.536          23.000
R06  19468156.477 7 103885806.850 7       418.543          46.000
R07  21428532.750 8 114708638.316 8      3916.680          49.000    21428535.906 7  89217868.491 7      3046.306          46.000
R21  19635811.188 8 105075198.006 8      -512.867          51.000    19635813.305 7  81725142.490 7      -398.900          47.000
C05                                                                  39641118.211 6 159618355.362 6       -19.184          36.000
C19  21958311.367 8 114342808.522 8      1433.719          51.000
C20  23264444.328 5 121144006.037 5     -1696.316          35.000
C29  22651356.008 8 117951520.113 8     -1907.672          51.000
E01  26826360.234 7 140973443.684 7     -2325.879          43.000    26826362.289 7 108018624.274 7     -1782.191          46.000
E07  24950023.328 8 131113326.814 8      2070.074          51.000    24950026.891 8 100463408.275 8      1586.191          51.000
E08                                                                  23351043.133 6  94024976.996 6      -474.996          38.000
E13  24716410.703 5 129885614.695 5     -1577.613          33.000    24716415.164 5  99522734.450 5     -1208.740          35.000
E26  22534555.078 6 118419883.587 6       607.789          41.000    22534559.172 7  90737318.411 7       465.646          42.000
> 2020 05 09 18 06 30.0000000  0 19        .000000000000
G08  20362311.438 8 107004671.533 8      -466.234          51.000    20362312.812 8  83380246.939 8      -363.300          51.000
G10  22397012.633 6 117697105.462 6     -2646.719          36.000    22397015.352 6  91712046.048 6     -2062.381          36.000
G14  23283894.172 7 122357722.053 7      2569.172          47.000    23283895.148 7  95343703.629 7      2001.952          42.000
G22  22476553.750 7 118115105.355 7      2804.984          47.000    22476552.250 7  92037696.054 7      2185.705          44.000
G27  21589976.078 8 113456079.718 8     -2549.148          49.000    21589977.250 8  88407326.232 8     -1986.349          49.000
G32  22417358.031 5 117804018.132 5      1591.914          33.000    22417360.164 5  91795357.703 5      1240.456          33.000
R05  22375564.359 6 119610210.274 6     -3654.594          39.000
R06  19465877.164 7 103873643.570 7       393.648          45.000
R07  21406615.742 7 114591318.577 7      3905.730          47.000    21406619.969 7  89126619.819 7      3037.790          46.000
R21  19638725.141 8 105090791.048 8      -525.543          51.000    19638727.195 8  81737270.385 8      -408.756          48.000
C05                                                                  39641259.875 6 159618925.604 6       -17.794          37.000
C19  21950091.328 8 114300006.544 8      1420.879          50.000
C20  23274259.156 5 121195080.655 5     -1707.305          35.000
C29  22662372.430 8 118008884.188 8     -1915.367          51.000
E01  26839656.352 6 141043325.187 6     -2331.770          41.000    26839660.938 7 108072169.774 7     -1786.579          47.000
E07  24938232.016 8 131051365.507 8      2061.727          51.000    24938235.828 8 100415931.486 8      1579.770          51.000
E08  23354621.828 6 122729371.086 6      -632.051          36.000    23354618.844 6  94039380.712 6      -484.472          38.000
E13  24725427.672 5 129932998.501 5     -1580.168          32.000    24725433.781 6  99559039.872 6     -1210.886          38.000
E26  22531098.578 7 118401719.246 7       604.312          42.000    22531102.516 7  90723400.266 7       462.988          43.000
> 2020 05 09 18 07  0.0000000  0 19        .000000000000
G08  20365030.391 8 107018960.375 8      -483.070          51.000    20365031.711 8  83391381.081 8      -376.421          51.000
G10  22412156.508 5 117776689.302 5     -2654.914          33.000    22412158.250 5  91774059.464 5     -2068.764          32.000
G14  23269260.773 7 122280823.833 7      2560.684          47.000    23269261.391 6  95283782.974 6      1995.338          41.000
G22  22460578.133 8 118031151.383 8      2795.145          49.000    22460577.453 7  91972277.415 7      2178.035          44.000
G27  21604571.789 8 113532784.853 8     -2561.238          48.000    21604574.055 8  88467096.439 8     -1995.767          49.000
G32  22408326.297 6 117756550.138 6      1576.035          41.000    22408333.391 6  91758369.680 6      1228.076          41.000
R05  22396116.430 6 119720078.412 6     -3667.379          36.000
R06  19463749.086 7 103862287.786 7       366.863          45.000
R07  21384772.102 8 114474387.071 8      3892.895          49.000    21384775.664 7  89035673.165 7      3027.810          44.000
R21  19641720.953 8 105106822.894 8      -540.004          51.000    19641723.125 8  81749739.578 8      -420.006          48.000
C05                                                                  39641400.680 6 159619492.237 6       -17.417          37.000
C19  21941956.656 8 114257649.352 8      1406.215          50.000
C20  23284151.688 5 121246547.614 5     -1720.461          31.000
C29  22673443.164 8 118066533.221 8     -1924.680          51.000
E01  26852996.414 7 141113435.235 7     -2338.922          43.000    26853002.836 7 108125890.413 7     -1792.212          46.000
E07  24926499.773 8 130989713.133 8      2051.699          51.000    24926503.680 8 100368691.381 8      1572.039          51.000
E08                                                                  23358275.664 6  94054105.002 6      -494.574          38.000
E13  24734470.938 5 129980521.703 5     -1584.789          34.000    24734476.445 6  99595451.359 6     -1214.274          37.000
E26  22527672.469 6 118383714.266 6       599.152          41.000    22527675.930 7  90709604.238 7       459.354          42.000
> 2020 05 09 18 07 30.0000000  0 17        .000000000000
G08  20367842.766 8 107033739.990 8      -501.168          51.000    20367844.266 8  83402897.641 8      -390.520          51.000
G10  22427348.953 5 117856525.387 5     -2664.914          31.000    22427349.273 5  91836269.404 5     -2076.559          33.000
G14  23254674.805 7 122204175.184 7      2550.336          47.000    23254675.500 7  95224056.790 7      1987.275          42.000
G22  22444656.188 8 117947478.673 8      2784.172          49.000    22444656.125 7  91907077.945 7      2169.485          45.000
G27  21619234.297 8 113609840.059 8     -2574.730          48.000    21619237.438 7  88527139.431 7     -2006.283          47.000
R05  22416742.195 6 119830321.863 6     -3681.273          36.000
R06  19461768.953 7 103851721.225 7       338.844          44.000
R07  21362998.906 8 114357829.288 8      3878.707          50.000    21363000.344 7  88945017.232 7      3016.775          44.000
R21  19644795.508 8 105123275.784 8      -555.707          51.000    19644797.938 8  81762536.248 8      -432.217          48.000
C05                                                                  39641537.109 6 159620041.481 6       -18.184          37.000
C19  21933904.227 8 114215719.735 8      1390.258          50.000
C29  22684565.141 8 118124448.991 8     -1935.285          51.000
E01  26866377.195 7 141183753.755 7     -2347.641          43.000    26866384.109 7 108179770.786 7     -1798.728          47.000
E07  24914823.273 8 130928353.093 8      2040.141          51.000    24914827.516 8 100321675.257 8      1563.282          51.000
E08                                                                  23362010.109 6  94069135.597 6      -506.280          38.000
E13  24743535.703 5 130028162.241 5     -1590.465          35.000    24743539.141 6  99631955.174 6     -1218.524          38.000
E26  22524273.070 7 118365851.076 7       592.742          42.000    22524276.438 7  90695916.846 7       454.287          43.000
> 2020 05 09 18 08  0.0000000  0 19        .000000000000
G08  20370753.258 8 107049035.443 8      -518.699          51.000    20370754.914 8  83414816.146 8      -404.181          51.000
G10  22442594.562 5 117936636.404 5     -2675.344          34.000    22442593.305 5  91898693.493 5     -2084.683          33.000
G14  23240141.742 8 122127803.764 8      2540.719          48.000    23240142.758 7  95164546.631 7      1979.781          43.000
G22  22428792.633 8 117864113.602 8      2773.336          49.000    22428792.109 7  91842118.195 7      2161.041          42.000
G27  21633968.141 8 113687268.796 8     -2587.512          48.000    21633971.625 7  88587473.456 7     -2016.246          47.000
G32  22390526.133 5 117663017.766 5      1542.867          33.000    22390520.156 4  91685438.795 4      1202.222          27.000
R05  22437431.875 6 119940941.300 6     -3694.441          37.000
R06  19459941.266 7 103841969.041 7       311.113          45.000
R07  21341300.750 8 114241674.165 8      3864.910          50.000    21341301.422 7  88854674.462 7      3006.044          46.000
R21  19647953.672 8 105140175.969 8      -571.027          51.000    19647956.180 7  81775680.839 7      -444.132          47.000
C05                                                                  39641673.812 6 159620593.314 6       -18.643          36.000
C19  21925939.047 8 114174243.135 8      1374.711          51.000
C20  23304133.531 6 121350677.482 6     -1747.902          37.000
C29  22695743.078 8 118182655.755 8     -1945.277          51.000
E01  26879802.023 7 141254303.543 7     -2355.637          43.000    26879809.258 7 108233828.343 7     -1805.013          47.000
E07  24903207.039 8 130867311.684 8      2029.098          51.000    24903211.992 8 100274903.274 8      1554.781          51.000
E08  23365817.023 5 122788196.792 5      -674.922          32.000    23365823.914 6  94084490.980 6      -517.540          36.000
E13  24752628.234 5 130075940.300 5     -1595.516          35.000    24752631.680 6  99668570.389 6     -1222.703          40.000
E26  22520905.188 6 118348155.021 6       586.832          41.000    22520908.938 7  90682357.521 7       449.677          43.000
> 2020 05 09 18 08 30.0000000  0 20        .000000000000
G08  20373758.031 8 107064826.494 8      -534.801          51.000    20373759.531 8  83427120.842 8      -416.728          51.000
G10  22457887.148 5 118016999.431 5     -2683.512          34.000    22457887.656 5  91961313.940 5     -2091.054          33.000
G14  23225658.258 7 122051691.745 7      2532.492          47.000    23225659.422 7  95105238.620 7      1973.371          43.000
G22  22412983.633 8 117781036.656 8      2764.164          48.000    22412981.258 7  91777382.938 7      2153.897          42.000
G27  21648769.523 8 113765049.097 8     -2598.816          50.000    21648772.750 8  88648081.442 8     -2025.052          50.000
G32  22381764.648 6 117616958.950 6      1527.262          37.000    22381769.172 6  91649548.841 6      1190.080          36.000
R05  22458197.047 6 120051914.612 6     -3705.754          36.000
R06  19458262.203 7 103833010.109 7       285.289          45.000
R07  21319674.188 8 114125904.361 8      3852.395          49.000    21319675.695 7  88764631.383 7      2996.307          47.000
R21  19651191.258 8 105157503.446 8      -584.977          50.000    19651194.094 7  81789157.735 7      -454.982          47.000
C05                                                                  39641806.961 6 159621129.998 6       -17.534          36.000
C19  21918057.414 8 114133199.871 8      1360.734          51.000
C20  23314246.508 6 121403285.867 6     -1759.832          36.000
C22  25402740.633 5 132278749.186 5      3381.074          33.000
C29  22706972.961 8 118241132.798 8     -1953.883          51.000
E01  26893266.719 7 141325061.941 7     -2362.406          44.000    26893274.016 7 108288045.746 7     -1810.051          47.000
E07  24891648.195 8 130806569.786 8      2019.527          51.000    24891653.250 8 100228360.777 8      1547.418          51.000
E08                                                                  23369712.844 6  94100154.872 6      -527.333          37.000
E13  24761745.312 6 130123851.213 6     -1599.277          37.000    24761749.117 6  99705281.283 6     -1225.438          41.000
E26  22517565.359 6 118330605.992 6       582.414          41.000    22517569.305 7  90668910.848 7       446.298          44.000
> 2020 05 09 18 09  0.0000000  0 18        .000000000000
G08  20376865.453 8 107081156.535 8      -552.766          51.000    20376867.141 8  83439845.527 8      -430.726          51.000
G14  23211232.758 7 121975885.136 7      2522.320          47.000    23211233.852 7  95046168.603 7      1965.447          42.000
G22  22397237.617 8 117698292.666 8      2753.094          49.000    22397234.812 7  91712907.170 7      2145.271          43.000
G27  21663646.258 8 113843222.889 8     -2611.770          51.000    21663649.242 8  88708996.067 8     -2035.145          51.000
R05  22479033.750 5 120163288.873 5     -3719.785          34.000    22479040.672 4  93460374.236 4     -2893.166          25.000
R06  19456740.320 7 103824888.308 7       257.305          47.000
R07  21298128.211 7 114010567.916 7      3837.898          47.000    21298130.672 7  88674925.320 7      2985.035          47.000
R21  19654517.688 8 105175303.224 8      -600.621          51.000    19654520.227 7  81803001.982 7      -467.150          47.000
C05                                                                  39641944.875 6 159621684.784 6       -18.489          37.000
C19  21910267.477 8 114092633.606 8      1344.895          51.000
C20  23324431.969 4 121456308.791 4     -1773.215          29.000
C22  25383276.164 5 132177399.821 5      3376.000          33.000
C29  22718262.633 8 118299922.697 8     -1964.293          50.000
E01  26906779.312 7 141396070.200 7     -2370.547          44.000    26906786.102 7 108342454.658 7     -1816.339          47.000
E07  24880154.945 8 130746172.119 8      2008.020          51.000    24880159.805 8 100182082.058 8      1538.660          51.000
E08  23373712.938 5 122829681.997 5      -703.312          34.000    23373686.516 6  94116160.076 6      -538.986          37.000
E13  24770894.406 6 130171930.466 6     -1605.199          36.000    24770899.414 6  99742121.158 6     -1229.748          41.000
E26  22514261.867 6 118313247.768 6       576.086          41.000    22514266.125 7  90655610.401 7       441.291          44.000
> 2020 05 09 18 09 30.0000000  0 17        .000000000000
G08  20380079.375 8 107098045.877 8      -570.270          51.000    20380081.102 8  83453006.032 8      -444.366          51.000
G10  22488643.352 5 118178620.567 5     -2701.719          32.000    22488656.703 5  92087270.088 5     -2105.238          30.000
G14  23196869.734 8 121900406.984 8      2512.477          48.000    23196870.477 7  94987354.493 7      1957.774          42.000
G22  22381559.109 8 117615903.355 8      2742.461          49.000    22381556.883 7  91648707.727 7      2136.983          45.000
G27  21678601.375 8 113921808.981 8     -2624.457          51.000    21678604.156 8  88770231.953 8     -2045.034          51.000
R05  22499952.844 5 120275128.136 5     -3731.918          33.000
R06  19455379.008 7 103817624.144 7       229.926          47.000
R07  21276666.945 8 113895688.786 8      3823.723          48.000    21276670.500 7  88585574.912 7      2974.007          47.000
R21  19657936.344 8 105193596.724 8      -615.992          51.000    19657938.664 7  81817230.251 7      -479.105          47.000
C05                                                                  39642091.414 6 159622274.999 6       -18.803          37.000
C19  21902572.898 8 114052565.067 8      1329.266          51.000
C22  25363843.102 5 132076219.851 5      3371.852          34.000
C29  22729615.969 8 118359045.037 8     -1974.348          51.000
E01  26920343.047 7 141467346.545 7     -2378.367          44.000    26920349.156 7 108397068.935 7     -1822.364          47.000
E07  24868731.477 8 130686140.339 8      1996.926          51.000    24868735.492 8 100136083.695 8      1530.055          51.000
E13  24780079.289 5 130220198.370 5     -1609.891          34.000    24780085.195 6  99779105.620 6     -1233.906          37.000
E26  22510998.836 6 118296101.039 6       570.176          40.000    22511003.539 7  90642471.982 7       436.828          44.000
> 2020 05 09 18 10  0.0000000  0 17        .000000000000
G08  20383385.031 8 107115417.205 8      -586.121          51.000    20383386.586 8  83466542.130 8      -456.718          51.000
G10  22504095.039 5 118259818.794 5     -2709.418          31.000    22504121.805 5  92150541.663 5     -2111.223          34.000
G14  23182554.859 7 121825182.147 7      2504.176          47.000    23182555.227 7  94928737.806 7      1951.309          42.000
G22  22365933.820 8 117533791.625 8      2733.305          50.000    22365932.469 7  91584724.568 7      2129.848          46.000
G27  21693619.617 8 114000728.206 8     -2635.344          51.000    21693622.078 8  88831727.431 8     -2053.515          51.000
R05  22520935.609 5 120387292.626 5     -3743.535          34.000
R06  19454163.773 7 103811138.337 7       204.203          47.000
R07  21255277.312 8 113781191.760 8      3811.086          49.000    21255281.492 7  88496521.688 7      2964.178          46.000
R21  19661432.383 8 105212305.412 8      -629.656          51.000    19661434.711 7  81831781.427 7      -489.733          47.000
C05                                                                  39642231.867 6 159622840.103 6       -17.707          37.000
C19  21894959.078 8 114012917.927 8      1315.445          51.000
C22  25344429.242 6 131975134.134 6      3368.664          36.000
C29  22741018.812 8 118418422.369 8     -1982.551          50.000
E01  26933942.859 7 141538811.148 7     -2384.379          45.000    26933948.062 8 108451827.460 8     -1826.944          48.000
E07  24857363.016 8 130626398.117 8      1987.496          51.000    24857366.195 8 100090307.222 8      1522.851          51.000
E13  24789285.656 5 130268574.353 5     -1614.180          33.000    24789289.766 5  99816175.138 5     -1236.378          34.000
E26  22507761.406 6 118279088.565 6       565.543          41.000    22507766.375 7  90629436.423 7       433.479          44.000
> 2020 05 09 18 10 30.0000000  0 18        .000000000000
G08  20386790.680 8 107133313.547 8      -602.840          51.000    20386792.180 8  83480487.337 8      -469.745          51.000
G10  22519598.375 5 118341289.066 5     -2717.582          34.000    22519633.461 5  92214025.016 5     -2117.599          34.000
G14  23168296.984 8 121750256.580 8      2495.102          48.000    23168297.273 7  94870354.282 7      1944.235          44.000
G22  22350370.102 8 117452001.745 8      2723.449          51.000    22350369.125 7  91520992.204 7      2122.168          47.000
G27  21708708.891 8 114080022.147 8     -2646.777          50.000    21708711.219 8  88893514.903 8     -2062.424          50.000
R05  22541988.938 5 120499828.036 5     -3754.934          35.000
R06  19453102.586 7 103805474.462 7       177.781          47.000
R07  21233968.586 8 113667124.262 8      3797.633          49.000    21233972.492 7  88407802.547 7      2953.714          45.000
R21  19665014.742 8 105231474.183 8      -644.082          51.000    19665016.969 8  81846690.432 8      -500.953          48.000
C05                                                                  39642374.180 6 159623413.090 6       -17.033          37.000
C19  21887434.086 8 113973735.449 8      1300.859          51.000
C20  23355403.148 5 121617699.339 5     -1810.352          32.000
C22  25325042.766 6 131874186.961 6      3364.930          36.000
C29  22752478.320 8 118478097.060 8     -1991.637          49.000
E01  26947586.273 7 141610505.011 7     -2391.082          45.000    26947590.648 7 108506761.657 7     -1832.122          47.000
E07  24846058.148 8 130566989.930 8      1977.188          51.000    24846059.844 8 100044786.707 8      1515.033          50.000
E13  24798522.391 6 130317109.430 6     -1617.867          36.000    24798525.086 5  99853362.792 5     -1239.889          33.000
E26  22504557.812 7 118262253.823 7       560.695          42.000    22504562.734 7  90616537.071 7       429.642          44.000
> 2020 05 09 18 11  0.0000000  0 20        .000000000000
G08  20390290.570 8 107151705.103 8      -621.730          51.000    20390292.062 8  83494818.432 8      -484.462          51.000
G10  22535146.781 5 118422999.086 5     -2727.945          34.000    22535183.344 5  92277695.318 5     -2125.663          30.000
G14  23154090.906 7 121675602.884 7      2483.566          47.000    23154091.289 7  94812182.585 7      1935.247          44.000
G22  22334861.977 8 117370505.038 8      2711.168          51.000    22334861.148 7  91457488.311 7      2112.601          46.000
G27  21723863.234 8 114159659.400 8     -2660.746          50.000    21723865.969 8  88955569.869 8     -2073.309          50.000
G32  22339376.398 4 117394215.114 4      1444.707          28.000
R05  22563104.062 5 120612663.784 5     -3768.230          35.000
R06  19452189.508 7 103800601.427 7       148.727          47.000
R07  21212735.000 7 113553459.211 7      3781.703          47.000    21212738.562 7  88319396.447 7      2941.328          43.000
R21  19668677.531 8 105251073.323 8      -660.965          51.000    19668679.594 8  81861934.182 8      -514.084          48.000
C05                                                                  39642512.672 6 159623970.966 6       -18.694          36.000
C19  21879992.953 8 113934988.669 8      1283.820          51.000
C20  23365886.641 5 121672266.852 5     -1825.430          32.000
C22  25305678.008 6 131773350.341 6      3358.988          36.000
C29  22763989.578 8 118538038.880 8     -2002.906          51.000
E01  26961267.008 7 141682396.032 7     -2400.145          47.000    26961270.930 7 108561846.909 7     -1839.027          47.000
E07  24834811.312 8 130507887.178 8      1964.512          51.000    24834812.453 8  99999500.240 8      1505.317          50.000
E08  23390393.766 6 122917378.304 6      -759.750          36.000    23390400.344 6  94183451.680 6      -581.781          36.000
E13  24807783.055 5 130365766.645 5     -1624.230          35.000    24807785.516 5  99890645.524 5     -1244.570          32.000
E26  22501382.453 7 118245567.330 7       553.473          42.000    22501387.055 7  90603751.299 7       423.952          44.000
> 2020 05 09 18 11 30.0000000  0 20        .000000000000
G08  20393892.273 8 107170631.532 8      -638.473          51.000    20393893.891 8  83509566.295 8      -497.511          51.000
G10  22550748.336 5 118504985.799 5     -2736.637          32.000    22550784.062 5  92341581.079 5     -2132.450          30.000
G14  23139944.305 7 121601262.905 7      2473.898          47.000    23139945.141 7  94754255.392 7      1927.713          43.000
G22  22319417.141 8 117289341.993 8      2701.199          51.000    22319415.984 7  91394244.412 7      2104.831          46.000
G27  21739090.297 8 114239677.673 8     -2672.414          51.000    21739093.211 8  89017921.743 8     -2082.401          51.000
G32  22331181.438 5 117351151.412 5      1428.379          31.000    22331185.641 5  91442474.803 5      1113.023          30.000
R05  22584292.250 5 120725937.775 5     -3780.363          34.000
R06  19451431.875 7 103796558.970 7       122.348          45.000
R07  21191583.898 7 113440240.348 7      3767.863          44.000    21191586.938 6  88231337.329 6      2930.557          41.000
R21  19672428.312 8 105271143.469 8      -675.500          51.000    19672429.992 8  81877544.291 8      -525.392          48.000
C05                                                                  39642654.898 6 159624543.742 6       -18.024          37.000
C19  21872643.406 8 113896717.088 8      1269.105          51.000
C20  23376437.445 5 121727234.580 5     -1837.469          30.000
C22  25286342.742 6 131672665.013 6      3355.273          37.000
C29  22775559.859 8 118598286.365 8     -2012.031          51.000
E01  26974992.516 7 141754521.296 7     -2406.707          47.000    26974995.742 7 108617111.673 7     -1844.181          47.000
E07  24823629.992 8 130449130.454 8      1954.105          51.000    24823631.250 8  99954478.931 8      1497.305          50.000
E08  23394774.727 6 122940380.946 6      -772.723          36.000    23394777.641 6  94201077.058 6      -592.191          37.000
E13  24817074.320 5 130414601.638 5     -1628.582          35.000    24817074.102 5  99928079.507 5     -1247.821          31.000
E26  22498243.086 7 118229068.792 7       548.117          44.000    22498246.867 7  90591109.543 7       419.947          44.000
> 2020 05 09 18 12  0.0000000  0 18        .000000000000
G08  20397585.180 8 107190037.618 8      -655.438          51.000    20397586.812 8  83524687.914 8      -510.731          51.000
G14  23125847.789 7 121527184.807 7      2464.180          47.000    23125848.742 7  94696532.263 7      1920.143          42.000
G22  22304025.594 8 117208459.269 8      2690.754          51.000    22304023.680 7  91331218.956 7      2096.694          45.000
G27  21754379.195 8 114320020.817 8     -2684.141          51.000    21754382.125 8  89080526.772 8     -2091.535          51.000
G32  22323069.438 4 117308520.943 4      1411.980          29.000
R05  22605536.070 5 120839520.372 5     -3791.523          33.000
R06  19450819.539 7 103793291.613 7        95.355          47.000
R07  21170506.508 7 113327415.420 7      3753.520          46.000    21170508.648 6  88143584.644 6      2919.410          39.000
R21  19676256.727 8 105291629.746 8      -690.406          51.000    19676258.750 8  81893478.040 8      -536.983          49.000
C05                                                                  39642790.305 6 159625089.571 6       -18.558          36.000
C19  21865374.461 8 113858867.028 8      1253.941          51.000
C22  25267026.414 6 131572078.514 6      3350.520          37.000
C29  22787178.430 8 118658784.853 8     -2021.406          51.000
E01  26988751.547 7 141826824.118 7     -2413.715          46.000    26988754.039 7 108672512.459 7     -1849.362          47.000
E07  24812504.445 8 130390666.455 8      1943.305          51.000    24812506.625 8  99909681.886 8      1489.029          51.000
E08  23399226.234 5 122963763.470 5      -786.801          33.000    23399227.250 6  94218994.354 6      -602.706          36.000
E13  24826385.727 5 130463531.307 5     -1633.676          35.000    24826382.320 5  99965571.061 5     -1251.724          32.000
E26  22495129.273 7 118212703.898 7       542.676          45.000    22495132.008 7  90578570.226 7       415.766          44.000
> 2020 05 09 18 12 30.0000000  0 18        .000000000000
G08  20401379.703 8 107209977.286 8      -672.715          51.000    20401381.133 8  83540225.314 8      -524.193          51.000
G14  23111811.906 8 121453425.001 8      2454.199          48.000    23111812.297 7  94639057.125 7      1912.366          42.000
G22  22288697.898 8 117127911.465 8      2680.211          50.000    22288695.727 7  91268454.480 7      2088.479          46.000
G27  21769739.672 8 114400741.008 8     -2696.133          51.000    21769742.531 8  89143425.596 8     -2100.883          51.000
R05  22626851.078 5 120953411.860 5     -3803.387          31.000
R06  19450362.469 7 103790852.588 7        68.309          47.000
R07  21149515.227 8 113215042.905 8      3739.031          49.000    21149515.133 6  88056183.870 6      2908.138          40.000
R21  19680173.188 8 105312587.653 8      -705.668          51.000    19680175.297 8  81909778.624 8      -548.853          49.000
C05                                                                  39642929.344 6 159625649.386 6       -18.416          36.000
C19  21858196.492 8 113821492.309 8      1238.758          51.000
C20  23397766.133 5 121838278.223 5     -1862.762          32.000
C22  25247739.766 6 131471645.680 6      3345.820          36.000
C29  22798855.164 8 118719587.030 8     -2030.953          50.000
E01  27002554.141 8 141899355.980 8     -2420.730          48.000    27002556.070 7 108728088.761 7     -1854.830          47.000
E07  24801445.352 8 130332550.204 8      1932.273          51.000    24801448.117 8  99865151.246 8      1480.588          51.000
E08  23403759.070 6 122987581.967 6      -800.375          37.000    23403758.680 5  94237244.108 5      -613.352          35.000
E13  24835725.234 6 130512627.674 6     -1638.363          36.000    24835723.812 5 100003187.135 5     -1255.193          35.000
E26  22492051.047 7 118196526.818 7       536.996          44.000    22492053.328 7  90566174.821 7       411.384          45.000
> 2020 05 09 18 13  0.0000000  0 16        .000000000000
G08  20405282.742 8 107230486.632 8      -697.004          51.000    20405284.031 8  83556206.613 8      -543.120          51.000
G14  23097844.023 8 121380022.406 8      2436.914          48.000    23097843.883 7  94581860.368 7      1898.897          42.000
G22  22273440.883 8 117047735.561 8      2662.461          48.000    22273438.539 7  91205979.806 7      2074.648          46.000
G27  21785178.406 8 114481872.654 8     -2715.047          51.000    21785181.023 8  89206645.040 8     -2115.624          51.000
R06  19450067.344 8 103789278.276 8        34.160          48.000
R07  21128615.719 8 113103162.915 8      3717.109          49.000    21128615.820 7  87969166.165 7      2891.088          43.000
R21  19684184.742 8 105334054.491 8      -727.988          51.000    19684186.859 8  81926475.053 8      -566.213          48.000
C05                                                                  39643078.836 6 159626250.757 6       -23.615          37.000
C19  21851117.125 8 113784629.124 8      1216.414          51.000
C22  25228490.070 6 131371403.893 6      3334.309          36.000
C29  22810596.547 8 118780728.115 8     -2047.566          50.000
E01  27016406.656 8 141972150.723 8     -2434.738          48.000    27016408.250 8 108783866.483 8     -1865.456          48.000
E07  24790459.430 8 130274818.918 8      1914.098          51.000    24790463.477 8  99820915.617 8      1466.661          51.000
E08  23408381.312 6 123011868.496 6      -821.098          36.000    23408378.805 6  94255853.272 6      -629.410          36.000
E13  24845105.273 6 130561908.591 6     -1650.191          36.000    24845104.547 5 100040955.460 5     -1264.450          35.000
E26  22489015.461 7 118180574.016 7       524.203          45.000    22489017.859 7  90553951.227 7       401.665          46.000
> 2020 05 09 18 13 30.0000000  0 18        .000000000000
G08  20409282.859 8 107251506.833 8      -706.859          51.000    20409284.141 8  83572585.986 8      -550.800          51.000
