     3.02           OBSERVATION DATA    M (MIXED)           RINEX VERSION / TYPE
SAVERINEX           SC600               20200518 065931 LCL PGM / RUN BY / DATE
       G = GPS       R = GLONASS       C = COMPASS          COMMENT
       S = SBAS      J = QZSS          E = GALILEO          COMMENT
BEAN                                                        MARKER NAME
1                                                           MARKER NUMBER
GEODETIC                                                    MARKER TYPE
Unige DICCA         GTER                                    OBSERVER / AGENCY
SC60291900056       SC600               2.12(191202)        REC # / TYPE / VERS
                    HEMA45          NONE                    ANT # / TYPE
  4509407.8091   693652.4678  4442337.6214                  APPROX POSITION XYZ
        0.0000        0.0000        0.0000                  ANTENNA: DELTA H/E/N
G    8 C1C L1C D1C S1C C2Y L2Y D2Y S2Y                      SYS / # / OBS TYPES
R    8 C1C L1C D1C S1C C2P L2P D2P S2P                      SYS / # / OBS TYPES
C    8 C1I L1I D1I S1I C7I L7I D7I S7I                      SYS / # / OBS TYPES
E    8 C1C L1C D1C S1C C7Q L7Q D7Q S7Q                      SYS / # / OBS TYPES
DBHZ                                                        COMMENT
     30.000                                                 INTERVAL
  2020    05    18    04    00    0.0000000     GPS         TIME OF FIRST OBS
  2020    05    18    04    59   30.0000000     GPS         TIME OF LAST OBS
     0                                                      RCV CLOCK OFFS APPL
G L1C  0.00000                                              SYS / PHASE SHIFT
G L2Y  0.00000                                              SYS / PHASE SHIFT
R L1C  0.00000                                              SYS / PHASE SHIFT
R L2P  0.25000                                              SYS / PHASE SHIFT
C L1I  0.00000                                              SYS / PHASE SHIFT
C L7I  0.00000                                              SYS / PHASE SHIFT
E L1C  0.50000                                              SYS / PHASE SHIFT
E L7Q -0.25000                                              SYS / PHASE SHIFT
 14 R01  1 R02 -4 R03  5 R04  6 R08  6 R10 -5 R11  0 R12 -1 GLONASS SLOT / FRQ #
    R13 -2 R14 -7 R15  0 R17  4 R22 -3 R23  3               GLONASS SLOT / FRQ #
 C1C   71.950 C2C   71.950 C2P   71.950                     GLONASS COD/PHS/BIS
    18                                                      LEAP SECONDS
*** Above antenna height is from mark to ANTENNA BOTTOM.    COMMENT
    17     4        0.0000        ANT MEASURE TYPE/HEIGT    COMMENT
    0.0000    0.0000    0.0458    0.0405    0.0000          COMMENT
                    BASE STATION                            COMMENT
                                                            END OF HEADER
> 2020 05 18 04 00  0.0000000  0 14        .000000000000
G05  22186629.953 8 116591518.944 8     -2981.641          50.000    22186628.562 8  90850524.391 8     -2323.356          50.000
G13  20263512.156 7 106485472.207 7       729.508          46.000    20263510.180 7  82975670.421 7       568.448          42.000
G15  21447514.477 5 112707461.511 5      2337.242          31.000
G28  20878988.383 8 109719879.429 8         6.887          51.000    20878986.469 7  85496011.146 7         5.366          46.000
R03  19855024.234 8 106285503.664 8     -2276.121          51.000    19855023.781 8  82666496.556 8     -1770.319          48.000
R14  19650574.758 8 104748544.240 8      1609.289          51.000    19650576.945 8  81471089.681 8      1251.669          51.000
C05  39805941.922 6 207279984.641 6        13.586          36.000    39805939.336 6 160282017.133 6        10.536          39.000
C21  24035071.805 8 125156941.058 8     -3017.621          49.000
C24  24036039.695 8 125161993.534 8      2501.848          48.000
C26  21333410.039 8 111088623.009 8       120.930          51.000
E07  23627862.414 8 124165272.268 8      -954.746          51.000    23627863.875 8  95139601.223 8      -731.547          51.000
E08  25070346.844 7 131745554.902 7     -2690.645          44.000    25070350.852 8 100948035.147 8     -2061.815          50.000
E27  24242728.797 8 127396416.885 8      1997.168          51.000    24242730.008 8  97615479.926 8      1530.289          51.000
E30  22506897.133 8 118274534.281 8      -827.750          51.000    22506898.258 8  90625950.428 8      -634.256          51.000
> 2020 05 18 04 00 30.0000000  0 14        .000000000000
G05  22203686.219 8 116681153.799 8     -2992.875          49.000    22203685.516 8  90920369.748 8     -2332.107          49.000
G13  20259387.219 7 106463795.971 7       716.785          47.000    20259385.570 7  82958779.840 7       558.534          42.000
G28  20879005.867 8 109719971.774 8       -11.953          51.000    20879003.867 7  85496083.101 7        -9.314          46.000
R03  19867841.695 8 106354118.533 8     -2297.102          51.000    19867841.281 8  82719863.637 8     -1786.635          48.000
R13  19992404.766 4 106758322.462 4     -2358.566          29.000    19992411.336 5  83034275.955 5     -1834.444          32.000
R14  19641576.102 8 104700577.512 8      1589.590          51.000    19641578.336 8  81433782.230 8      1236.348          49.000
C05  39805866.883 6 207279593.952 6        13.566          36.000    39805864.250 6 160281715.011 6        10.418          39.000
C21  24052483.891 8 125247605.462 8     -3025.602          51.000
C24  24021652.086 8 125087072.340 8      2493.965          50.000
C26  21332751.461 8 111085191.510 8       108.848          51.000
E07  23633345.945 8 124194088.976 8      -965.258          51.000    23633348.016 8  95161681.538 8      -739.637          51.000
E08  25085724.062 7 131826364.451 7     -2695.535          43.000    25085728.984 8 101009954.088 8     -2065.359          51.000
E27  24231360.188 8 127336672.191 8      1986.855          51.000    24231360.883 8  97569701.539 8      1522.390          51.000
E30  22511659.906 8 118299562.629 8      -839.766          51.000    22511661.000 8  90645127.988 8      -643.439          51.000
> 2020 05 18 04 01  0.0000000  0 13        .000000000000
G05  22220802.156 8 116771099.976 8     -3003.465          51.000    22220801.047 8  90990457.669 8     -2340.365          51.000
G13  20255330.352 7 106442477.064 7       704.629          47.000    20255328.758 7  82942167.679 7       549.061          43.000
G28  20879125.867 8 109720602.152 8       -30.027          51.000    20879123.523 7  85496574.301 7       -23.398          45.000
R03  19880770.922 8 106423334.672 8     -2317.277          48.000    19880771.359 8  82773698.398 8     -1802.327          48.000
R14  19632683.062 8 104653176.214 8      1570.605          51.000    19632685.359 8  81396914.534 8      1221.582          48.000
C05  39805787.656 6 207279181.294 6        14.160          36.000    39805785.016 6 160281395.881 6        11.031          39.000
C21  24069936.484 8 125338481.820 8     -3032.820          51.000
C24  24007305.484 8 125012359.146 8      2486.934          51.000
C26  21332157.016 8 111082095.454 8        97.566          51.000
E07  23638884.539 8 124223195.196 8      -975.078          51.000    23638887.188 8  95183983.697 8      -747.159          51.000
E08  25101122.664 7 131907286.226 7     -2699.227          44.000    25101127.820 8 101071959.092 8     -2068.307          49.000
E27  24220045.281 8 127277209.661 8      1977.359          51.000    24220046.008 8  97524139.354 8      1515.087          51.000
E30  22516485.734 8 118324922.476 8      -850.887          51.000    22516487.086 8  90664559.551 8      -651.984          51.000
> 2020 05 18 04 01 30.0000000  0 14        .000000000000
G05  22237969.742 8 116861314.933 8     -3020.078          51.000    22237967.086 8  91060754.992 8     -2353.311          51.000
G13  20251334.023 7 106421476.395 7       686.168          47.000    20251332.469 7  82925803.513 7       534.676          44.000
G28  20879340.516 8 109721730.009 8       -54.379          50.000    20879337.992 7  85497453.169 7       -42.373          46.000
G30  21911436.242 5 115145374.653 5     -2326.445          31.000    21911422.750 4  89723608.128 4     -1812.815          29.000
R03  19893804.969 8 106493109.224 8     -2343.723          49.000    19893806.172 8  82827967.549 8     -1822.892          49.000
R14  19623889.141 8 104606299.834 8      1545.148          51.000    19623891.797 8  81360455.133 8      1201.782          49.000
C05  39805696.508 6 207278707.016 6         8.484          36.000    39805693.898 6 160281028.754 6         6.425          39.000
C21  24087421.391 8 125429528.205 8     -3046.113          51.000
C24  23992991.469 8 124937814.472 8      2473.598          51.000
C26  21331619.078 8 111079294.044 8        80.066          51.000
E07  23644470.500 8 124252550.517 8      -991.164          51.000    23644473.578 8  95206476.718 8      -759.445          51.000
E08  25116535.227 7 131988279.104 7     -2709.473          45.000    25116540.133 8 101134018.592 8     -2076.006          48.000
E27  24208776.312 8 127217989.455 8      1961.492          51.000    24208777.227 8  97478762.837 8      1502.956          51.000
E30  22521366.742 8 118350572.202 8      -868.332          51.000    22521368.305 8  90684213.223 8      -665.306          51.000
> 2020 05 18 04 02  0.0000000  0 14        .000000000000
G05  22255225.273 8 116951991.442 8     -3024.887          51.000    22255221.273 8  91131411.962 8     -2357.055          51.000
G13  20247435.766 7 106400990.879 7       679.473          47.000    20247434.219 7  82909840.755 7       529.459          46.000
G28  20879686.992 8 109723550.838 8       -66.949          50.000    20879684.070 7  85498871.995 7       -52.168          45.000
R03  19906980.391 8 106563640.294 8     -2358.258          50.000    19906982.383 8  82882825.052 8     -1834.201          48.000
R13  20032538.891 4 106972622.162 4     -2401.676          28.000    20032541.977 5  83200949.538 5     -1867.967          30.000
R14  19615231.562 8 104560147.200 8      1531.637          51.000    19615234.242 8  81324558.652 8      1191.273          49.000
C05  39805630.703 5 207278363.835 5        14.648          35.000    39805628.070 6 160280763.728 6        11.297          39.000
C21  24104975.312 8 125520937.071 8     -3047.738          51.000
C24  23978746.023 8 124863633.103 8      2471.922          49.000
C26  21331174.828 8 111076980.740 8        74.207          51.000
E07  23650141.273 8 124282351.007 8      -995.465          51.000    23650144.367 8  95229310.842 8      -762.741          51.000
E08  25131999.297 8 132069538.246 8     -2707.727          49.000    25132003.828 8 101196282.061 8     -2074.740          48.000
E27  24197590.664 8 127159208.199 8      1957.363          51.000    24197591.727 8  97433722.632 8      1499.843          51.000
E30  22526339.875 8 118376706.617 8      -873.863          51.000    22526341.438 8  90704238.288 8      -669.602          51.000
> 2020 05 18 04 02 30.0000000  0 13        .000000000000
G05  22272528.344 8 117042917.887 8     -3036.516          51.000    22272524.117 8  91202263.707 8     -2366.116          51.000
G13  20243595.992 7 106380812.615 7       665.871          47.000    20243594.477 7  82894117.403 7       518.858          45.000
G28  20880125.375 8 109725855.035 8       -86.500          49.000    20880122.539 7  85500667.481 7       -67.400          46.000
R03  19920257.344 8 106634713.326 8     -2379.645          51.000    19920259.461 7  82938104.055 7     -1850.835          46.000
R14  19606670.039 8 104514506.951 8      1511.242          51.000    19606672.352 8  81289060.680 8      1175.411          49.000
C05  39805550.570 6 207277946.143 6        13.781          36.000    39805547.898 6 160280440.717 6        10.711          39.000
C21  24122558.383 8 125612499.629 8     -3056.250          50.000
C24  23964530.094 8 124789608.596 8      2463.293          51.000
C26  21330784.242 8 111074947.744 8        61.598          51.000
E07  23655857.242 8 124312387.815 8     -1006.703          51.000    23655860.219 8  95252326.044 8      -771.418          51.000
E08  25147474.320 8 132150854.036 8     -2713.078          50.000    25147476.930 7 101258588.941 7     -2078.822          45.000
E27  24186448.867 8 127100657.553 8      1946.305          51.000    24186449.812 8  97388859.128 8      1491.294          51.000
E30  22531365.289 8 118403115.626 8      -886.410          51.000    22531366.812 8  90724473.749 8      -679.254          51.000
> 2020 05 18 04 03  0.0000000  0 14        .000000000000
G05  22289893.641 8 117134172.314 8     -3046.969          51.000    22289889.984 8  91273371.041 8     -2374.261          51.000
G13  20239830.266 7 106361023.383 7       653.344          47.000    20239828.859 7  82878697.214 7       509.099          46.000
G28  20880670.859 8 109728722.817 8      -104.766          49.000    20880668.570 7  85502902.142 7       -81.636          47.000
R03  19933650.727 8 106706408.863 8     -2399.863          50.000    19933652.047 7  82993867.181 7     -1866.566          42.000
R14  19598219.758 8 104469461.036 8      1491.871          51.000    19598221.805 8  81254024.977 8      1160.344          48.000
R15  23257579.375 6 124281447.877 6      3830.359          38.000    23257589.281 6  96663356.911 6      2979.165          36.000
C05  39805471.344 5 207277534.457 5        13.883          35.000    39805468.672 6 160280121.578 6        10.756          39.000
C21  24140185.609 8 125704294.153 8     -3063.406          48.000
C24  23950360.422 8 124715821.545 8      2455.879          51.000
C26  21330462.922 8 111073274.387 8        49.977          51.000
E07  23661633.477 8 124342741.849 8     -1016.867          51.000    23661636.617 8  95275584.295 8      -779.209          51.000
E08  25162974.906 8 132232306.406 8     -2717.141          51.000    25162976.125 7 101321000.446 7     -2081.989          45.000
E27  24175366.273 8 127042418.938 8      1936.289          51.000    24175367.320 8  97344234.725 8      1483.641          51.000
E30  22536458.164 8 118429878.852 8      -897.773          51.000    22536459.805 8  90744980.620 8      -687.934          51.000
> 2020 05 18 04 03 30.0000000  0 15        .000000000000
G05  22307318.859 8 117225742.726 8     -3057.883          50.000    22307316.109 8  91344724.615 8     -2382.766          50.000
G13  20236137.148 8 106341615.688 8       640.156          48.000    20236135.836 7  82863574.318 7       498.823          46.000
G28  20881322.047 8 109732145.107 8      -123.566          50.000    20881319.742 7  85505568.832 7       -96.289          47.000
R03  19947158.312 8 106778716.182 8     -2420.660          50.000    19947158.641 7  83050106.079 7     -1882.739          43.000
R13  20073397.555 4 107190813.098 4     -2445.598          29.000    20073399.227 5  83370636.930 5     -1902.135          31.000
R14  19589879.172 8 104425000.923 8      1471.957          51.000    19589880.961 8  81219444.903 8      1144.855          48.000
R15  23236095.609 6 124166651.778 6      3822.680          39.000    23236104.609 6  96574071.048 6      2973.195          36.000
C05  39805391.438 6 207277118.038 6        13.941          36.000    39805388.734 6 160279799.562 6        10.678          39.000
C21  24157855.484 8 125796310.126 8     -3071.121          48.000
C24  23936235.211 8 124642263.865 8      2447.848          51.000
C26  21330209.016 8 111071951.280 8        37.973          51.000
E07  23667468.375 8 124373404.409 8     -1027.488          51.000    23667471.867 8  95299078.942 8      -787.287          51.000
E08  25178499.359 8 132313885.835 8     -2721.617          51.000    25178498.664 7 101383509.218 7     -2085.395          45.000
E27  24164341.219 8 126984484.210 8      1925.844          51.000    24164342.828 8  97299843.178 8      1475.679          51.000
E30  22541616.656 8 118456986.372 8      -909.566          51.000    22541618.336 8  90765751.308 8      -696.935          51.000
> 2020 05 18 04 04  0.0000000  0 15        .000000000000
G05  22324806.281 8 117317640.546 8     -3067.227          50.000    22324804.633 8  91416333.310 8     -2390.047          50.000
G13  20232519.398 8 106322604.253 8       628.516          48.000    20232518.102 7  82848760.201 7       489.752          47.000
G28  20882081.172 8 109736134.936 8      -141.074          50.000    20882079.242 8  85508677.786 8      -109.928          48.000
G30  21978146.492 5 115495925.024 5     -2351.695          31.000
R03  19960782.484 8 106851647.705 8     -2439.875          48.000    19960783.383 7  83106830.546 7     -1897.678          46.000
R14  19581651.047 8 104381140.280 8      1453.535          51.000    19581653.195 8  81185331.084 8      1130.527          50.000
R15  23214654.961 5 124052088.134 5      3816.465          35.000    23214663.633 6  96484965.955 6      2968.362          36.000
C05  39805313.281 6 207276710.529 6        14.547          36.000    39805310.711 6 160279485.187 6        11.427          39.000
C21  24175570.578 8 125888559.465 8     -3077.410          48.000
C24  23922156.070 8 124568949.778 8      2441.230          51.000
C26  21330024.594 8 111070991.267 8        27.473          51.000
E07  23673364.688 8 124404389.237 8     -1036.812          51.000    23673368.312 8  95322820.523 8      -794.381          51.000
E08  25194050.000 8 132395605.263 8     -2724.789          50.000    25194046.898 7 101446125.293 7     -2087.927          43.000
E27  24153376.727 8 126926867.675 8      1916.652          51.000    24153378.844 8  97255695.453 8      1468.598          51.000
E30  22546842.984 8 118484450.717 8      -919.996          51.000    22546844.508 8  90786795.402 8      -704.905          51.000
> 2020 05 18 04 04 30.0000000  0 15        .000000000000
G05  22342352.570 8 117409847.865 8     -3078.777          50.000    22342351.758 8  91488183.150 8     -2399.047          50.000
G13  20228974.477 8 106303975.386 8       614.652          48.000    20228973.023 7  82834244.189 7       478.950          47.000
G28  20882945.570 8 109740677.086 8      -160.613          51.000    20882943.828 8  85512217.109 8      -125.153          48.000
G30  21991600.188 5 115566660.676 5     -2360.438          34.000
R03  19974519.469 8 106925186.434 8     -2461.371          48.000    19974521.789 8  83164027.369 8     -1914.400          48.000
R14  19573532.328 8 104337864.838 8      1432.723          51.000    19573535.203 8  81151672.405 8      1114.343          50.000
R15  23193254.109 5 123937744.088 5      3807.625          31.000    23193263.930 6  96396031.721 6      2961.486          36.000
C05  39805234.227 6 207276299.219 6        13.238          36.000    39805231.633 6 160279167.124 6        10.584          39.000
C21  24193328.070 8 125981025.785 8     -3085.723          49.000
C24  23908120.766 8 124495865.186 8      2432.391          51.000
C26  21329906.781 8 111070379.007 8        14.648          51.000
E07  23679319.383 8 124435681.629 8     -1048.109          51.000    23679322.844 8  95346797.782 8      -803.112          51.000
E08  25209623.547 7 132477449.133 7     -2730.145          46.000    25209619.781 7 101508836.800 7     -2091.848          44.000
E27  24142470.445 8 126869555.219 8      1905.398          51.000    24142472.633 8  97211780.730 8      1460.029          51.000
E30  22552134.172 8 118512255.992 8      -932.473          51.000    22552135.523 8  90808100.726 8      -714.480          51.000
> 2020 05 18 04 05  0.0000000  0 14        .000000000000
G05  22359953.398 8 117502340.453 8     -3089.137          51.000    22359952.688 8  91560255.263 8     -2407.120          51.000
G13  20225498.273 8 106285707.702 8       601.527          49.000    20225496.523 7  82820009.624 7       468.723          47.000
G28  20883910.875 8 109745748.747 8      -179.180          50.000    20883908.875 8  85516169.022 8      -139.621          50.000
R03  19988365.633 8 106999308.303 8     -2481.723          50.000    19988368.781 8  83221677.738 8     -1930.229          49.000
R14  19565519.500 8 104295151.970 8      1413.031          51.000    19565522.312 8  81118451.314 8      1099.024          50.000
R15  23171893.672 5 123823598.967 5      3800.418          33.000    23171901.258 6  96307252.124 6      2955.881          37.000
C05  39805150.078 6 207275861.095 6        14.043          36.000    39805147.555 6 160278828.339 6        10.632          39.000
C21  24211123.219 8 126073685.315 8     -3093.125          51.000
C24  23894125.945 8 124422988.633 8      2424.484          51.000
C26  21329851.383 8 111070091.725 8         2.859          51.000
E07  23685328.359 8 124467259.452 8     -1058.609          51.000    23685331.555 8  95370993.749 8      -811.205          51.000
E08  25225215.867 7 132559394.483 7     -2734.637          46.000    25225215.016 7 101571626.031 7     -2095.296          46.000
E27  24131618.242 8 126812525.231 8      1894.934          51.000    24131620.023 8  97168082.443 8      1451.968          51.000
E30  22557485.812 8 118540378.789 8      -944.051          51.000    22557487.352 8  90829649.349 8      -723.373          51.000
> 2020 05 18 04 05 30.0000000  0 15        .000000000000
G05  22377615.539 8 117595154.325 8     -3097.996          51.000    22377614.008 8  91632577.703 8     -2414.023          51.000
G13  20222098.438 8 106267841.680 8       590.016          49.000    20222096.344 7  82806088.046 7       459.749          47.000
G28  20884984.195 8 109751388.462 8      -196.336          51.000    20884982.312 8  85520563.600 8      -152.986          50.000
G30  22018611.625 6 115708609.632 6     -2371.504          37.000    22018612.836 6  90162531.878 6     -1847.922          36.000
R03  20002328.836 8 107074051.053 8     -2500.578          51.000    20002331.531 8  83279810.993 8     -1944.894          48.000
R14  19557619.711 8 104253041.610 8      1394.742          51.000    19557622.234 8  81085698.812 8      1084.799          50.000
R15  23150578.680 5 123709694.299 5      3794.527          33.000    23150584.734 6  96218659.600 6      2951.296          38.000
C05  39805068.281 6 207275435.142 6        15.043          36.000    39805065.758 6 160278498.913 6        11.659          39.000
C21  24228962.742 8 126166575.132 8     -3098.988          51.000
C24  23880178.570 8 124350359.616 8      2418.039          51.000
C26  21329865.758 8 111070167.566 8        -7.453          51.000
E07  23691399.242 8 124499162.026 8     -1067.715          51.000    23691402.328 8  95395438.547 8      -818.101          51.000
E08  25240835.406 7 132641479.789 7     -2737.379          45.000    25240837.219 7 101634522.514 7     -2097.481          46.000
E27  24120827.492 8 126755817.559 8      1885.957          51.000    24120828.672 8  97124631.133 8      1445.090          51.000
E30  22562905.070 8 118568857.171 8      -954.055          51.000    22562906.781 8  90851470.450 8      -731.065          51.000
> 2020 05 18 04 06  0.0000000  0 14        .000000000000
G05  22395337.453 8 117688281.541 8     -3109.305          51.000    22395334.453 8  91705144.281 8     -2422.838          51.000
G13  20218774.297 8 106250373.233 8       575.938          50.000    20218772.102 7  82792476.256 7       448.782          47.000
G28  20886164.500 8 109757590.587 8      -215.824          51.000    20886162.695 8  85525396.404 8      -168.175          50.000
R03  20016406.961 8 107149408.017 8     -2521.938          51.000    20016408.750 8  83338421.952 8     -1961.507          48.000
R14  19549831.406 8 104211528.645 8      1374.066          50.000    19549834.812 8  81053410.956 8      1068.718          51.000
R15  23129308.312 6 123596026.896 6      3785.133          36.000    23129313.500 6  96130251.702 6      2943.992          38.000
C05  39804987.867 6 207275016.288 6        13.512          36.000    39804985.367 6 160278174.997 6        10.968          39.000
C21  24246844.883 8 126259688.510 8     -3107.238          51.000
C24  23866276.953 8 124277973.786 8      2408.965          50.000
C26  21329949.023 8 111070600.837 8       -20.160          51.000
E07  23697530.961 8 124531384.369 8     -1079.215          51.000    23697534.219 8  95420128.369 8      -826.922          51.000
E08  25256481.141 7 132723699.322 7     -2742.676          47.000    25256484.000 7 101697521.876 7     -2101.531          46.000
E27  24110097.188 8 126699427.800 8      1874.520          51.000    24110098.164 8  97081423.424 8      1436.377          51.000
E30  22568390.867 8 118597684.982 8      -966.562          51.000    22568392.250 8  90873559.282 8      -740.616          51.000
> 2020 05 18 04 06 30.0000000  0 15        .000000000000
G05  22413114.836 8 117781700.987 8     -3119.531          51.000    22413110.969 8  91777938.578 8     -2430.807          51.000
G13  20215522.539 8 106233285.054 8       562.570          50.000    20215520.242 7  82779160.791 7       438.366          47.000
G28  20887448.195 8 109764336.441 8      -234.562          51.000    20887446.352 8  85530652.910 8      -182.776          50.000
G30  22045770.648 4 115851328.367 4     -2384.891          29.000    22045773.281 4  90273761.338 4     -1858.356          28.000
R03  20030595.508 8 107225358.681 8     -2542.316          51.000    20030597.109 7  83397494.652 7     -1977.357          47.000
R14  19542151.992 8 104170594.830 8      1354.078          50.000    19542155.672 8  81021573.518 8      1053.172          50.000
R15  23108079.266 5 123482580.205 5      3777.125          35.000    23108084.422 6  96042015.374 6      2937.761          38.000
C05  39804905.375 6 207274586.338 6        13.469          36.000    39804902.781 6 160277842.535 6        10.696          39.000
C21  24264765.695 8 126353005.480 8     -3114.621          51.000
C24  23852418.211 8 124205813.499 8      2400.840          50.000
C26  21330096.844 8 111071372.592 8       -32.035          51.000
E07  23703719.891 8 124563908.215 8     -1089.797          51.000    23703723.602 8  95445049.212 8      -835.075          51.000
E08  25272149.633 8 132806033.845 8     -2747.016          49.000    25272153.023 8 101760609.337 8     -2104.844          48.000
E27  24099423.727 8 126643338.174 8      1864.027          51.000    24099424.867 8  97038445.670 8      1428.242          51.000
E30  22573939.531 8 118626842.682 8      -978.086          51.000    22573940.812 8  90895900.881 8      -749.419          51.000
> 2020 05 18 04 07  0.0000000  0 15        .000000000000
G05  22430949.891 8 117875425.573 8     -3129.895          49.000    22430946.484 8  91850970.665 8     -2438.879          49.000
G13  20212346.453 8 106216594.545 8       548.871          50.000    20212344.023 8  82766155.194 8       427.692          48.000
G28  20888838.312 8 109771641.156 8      -253.594          51.000    20888836.609 8  85536344.877 8      -197.606          50.000
G30  22059403.875 5 115922955.629 5     -2392.621          34.000    22059407.070 5  90329576.079 5     -1864.380          34.000
R03  20044897.789 8 107301917.398 8     -2562.820          51.000    20044899.109 7  83457040.254 7     -1993.308          47.000
R14  19534584.633 8 104130256.489 8      1333.848          50.000    19534587.719 8  80990199.220 8      1037.434          50.000
R15  23086895.344 5 123369372.217 5      3768.250          35.000    23086900.242 6  95953964.688 6      2930.861          39.000
C05  39804823.781 6 207274162.172 6        13.277          36.000    39804821.117 6 160277513.757 6        10.276          39.000
C21  24282728.086 8 126446540.181 8     -3122.223          51.000
C24  23838606.930 8 124133895.159 8      2392.445          50.000
C26  21330312.547 8 111072498.015 8       -44.164          51.000
E07  23709969.453 8 124596749.628 8     -1100.734          51.000    23709973.305 8  95470213.390 8      -843.426          51.000
E08  25287842.898 8 132888498.720 8     -2751.758          49.000    25287845.898 7 101823796.675 7     -2108.463          46.000
E27  24088810.062 8 126587565.343 8      1853.059          51.000    24088811.555 8  96995710.609 8      1419.912          51.000
E30  22579553.680 8 118656345.105 8      -989.930          51.000    22579555.445 8  90918506.642 8      -758.476          51.000
> 2020 05 18 04 07 30.0000000  0 14        .000000000000
G05  22448836.945 7 117969429.739 7     -3138.457          43.000    22448835.641 7  91924220.680 7     -2445.548          43.000
G13  20209241.648 8 106200279.169 8       537.082          50.000    20209239.375 8  82753441.906 8       418.502          48.000
G28  20890330.203 8 109779480.655 8      -270.688          51.000    20890328.547 8  85542453.572 8      -210.922          50.000
R03  20059309.039 8 107379058.432 8     -2581.453          51.000    20059309.945 8  83517038.761 8     -2007.800          48.000
R14  19527124.383 8 104090489.770 8      1315.520          50.000    19527127.461 8  80959269.564 8      1023.182          50.000
R15  23065751.906 6 123256381.050 6      3762.059          37.000    23065756.508 6  95866082.663 6      2926.043          38.000
C05  39804738.500 6 207273717.724 6        14.539          36.000    39804735.922 6 160277170.850 6        11.076          39.000
C21  24300727.125 8 126540267.642 8     -3127.996          50.000
C24  23824838.344 8 124062196.258 8      2385.770          51.000
C26  21330591.805 8 111073953.183 8       -54.457          51.000
E07  23716275.117 8 124629885.306 8     -1109.984          51.000    23716278.812 8  95495603.048 8      -850.460          51.000
E08  25303556.094 8 132971069.728 8     -2754.656          49.000    25303558.336 7 101887065.388 7     -2110.675          47.000
E27  24078252.055 8 126532086.528 8      1843.867          51.000    24078254.297 8  96953200.824 8      1412.800          51.000
E30  22585228.812 8 118686167.724 8      -999.941          51.000    22585230.562 8  90941357.744 8      -766.225          51.000
> 2020 05 18 04 08  0.0000000  0 14        .000000000000
G05  22466781.211 7 118063738.410 7     -3148.418          43.000    22466782.703 7  91997708.022 7     -2453.310          43.000
G13  20206213.773 8 106184367.951 8       523.809          50.000    20206211.773 8  82741043.542 8       408.159          49.000
G28  20891929.016 8 109787882.472 8      -289.230          51.000    20891927.367 8  85549000.438 8      -225.374          50.000
R03  20073833.781 8 107456808.436 8     -2601.598          51.000    20073834.164 8  83577510.970 8     -2023.465          49.000
R14  19519777.352 8 104051323.351 8      1295.781          51.000    19519780.180 8  80928806.770 8      1007.827          51.000
R15  23044652.672 6 123143636.977 6      3754.285          36.000    23044657.727 6  95778392.780 6      2920.000          36.000
C05  39804655.109 5 207273284.202 5        14.535          35.000    39804652.602 6 160276835.214 6        11.155          39.000
C21  24318767.766 8 126634213.857 8     -3134.938          49.000
C24  23811117.375 8 123990745.084 8      2377.793          51.000
C26  21330939.359 8 111075765.081 8       -66.082          51.000
E07  23722641.922 8 124663343.244 8     -1120.438          51.000    23722645.531 8  95521239.638 8      -858.535          51.000
E08  25319294.383 8 133053774.140 8     -2758.824          48.000    25319296.406 8 101950436.261 8     -2113.847          48.000
E27  24067755.938 8 126476930.242 8      1833.316          51.000    24067758.594 8  96910938.172 8      1404.785          51.000
E30  22590970.008 8 118716337.340 8     -1011.211          51.000    22590971.266 8  90964474.696 8      -774.818          51.000
> 2020 05 18 04 08 30.0000000  0 15        .000000000000
G05  22484783.406 7 118158341.883 7     -3158.375          47.000    22484785.641 7  92071425.038 7     -2461.068          47.000
G13  20203261.695 8 106168854.752 8       510.367          51.000    20203259.883 8  82728955.321 8       397.689          49.000
G28  20893633.328 8 109796838.789 8      -307.898          51.000    20893631.680 8  85555979.379 8      -239.921          49.000
G30  22100513.750 5 116138973.825 5     -2409.578          30.000
R03  20088469.891 8 107535158.343 8     -2621.672          50.000    20088470.617 8  83638449.801 8     -2039.078          49.000
R14  19512541.547 8 104012749.866 8      1275.812          51.000    19512544.047 8  80898805.148 8       992.299          50.000
R15  23023596.289 5 123031134.669 5      3746.164          32.000    23023602.047 5  95690890.963 5      2913.683          35.000
C05  39804572.250 6 207272852.093 6        14.023          36.000    39804569.672 6 160276501.426 6        11.167          39.000
C21  24336848.844 8 126728370.045 8     -3142.066          50.000
C24  23797442.578 8 123919535.183 8      2369.598          51.000
C26  21331354.391 8 111077925.925 8       -77.906          51.000
E07  23729068.586 8 124697116.446 8     -1131.078          51.000    23729072.117 8  95547117.790 8      -866.637          51.000
E08  25335056.031 7 133136604.079 7     -2763.129          47.000    25335057.164 7 102013903.325 7     -2117.206          46.000
E27  24057320.414 8 126422089.970 8      1822.734          51.000    24057323.320 8  96868917.686 8      1396.638          51.000
E30  22596775.453 8 118746845.648 8     -1022.605          51.000    22596776.805 8  90987851.204 8      -783.567          51.000
> 2020 05 18 04 09  0.0000000  0 15        .000000000000
G05  22502842.750 8 118253240.975 8     -3167.609          50.000    22502844.445 8  92145372.373 8     -2468.267          50.000
G13  20200386.227 8 106153743.893 8       497.609          51.000    20200384.625 8  82717180.612 8       387.748          49.000
G28  20895443.562 8 109806352.264 8      -325.754          51.000    20895441.945 8  85563392.468 8      -253.834          48.000
G30  22114288.281 5 116211361.590 5     -2414.906          32.000    22114290.742 4  90554310.682 4     -1881.745          29.000
R03  20103218.250 8 107614109.585 8     -2640.973          48.000    20103219.602 8  83699856.335 8     -2054.090          50.000
R14  19505417.383 8 103974772.762 8      1256.555          51.000    19505419.281 8  80869267.390 8       977.320          49.000
R15  23002587.398 4 122918879.482 4      3738.234          29.000    23002591.727 5  95603581.322 5      2907.513          35.000
C05  39804490.484 6 207272426.717 6        14.605          36.000    39804487.844 6 160276172.105 6        11.457          39.000
C21  24354971.062 8 126822737.685 8     -3148.574          50.000
C24  23783814.922 8 123848570.397 8      2362.020          51.000
C26  21331836.969 8 111080438.271 8       -88.969          51.000
E07  23735555.805 8 124731208.235 8     -1141.035          51.000    23735559.125 8  95573240.064 8      -874.309          51.000
E08  25350841.602 7 133219562.103 7     -2766.883          45.000    25350841.992 7 102077468.580 7     -2119.977          45.000
E27  24046945.914 8 126367569.619 8      1812.617          51.000    24046948.984 8  96827142.348 8      1388.921          51.000
E30  22602645.938 8 118777694.826 8     -1033.336          51.000    22602647.406 8  91011488.884 8      -791.798          51.000
> 2020 05 18 04 09 30.0000000  0 15        .000000000000
G05  22520950.445 8 118348392.878 8     -3176.605          50.000    22520950.906 8  92219516.689 8     -2475.277          50.000
G13  20197580.094 8 106138997.463 8       484.797          51.000    20197578.648 8  82705689.871 8       377.764          50.000
G28  20897352.203 8 109816382.538 8      -343.672          51.000    20897350.523 8  85571208.258 8      -267.796          48.000
R03  20118071.227 8 107693619.976 8     -2660.254          50.000    20118072.945 8  83761697.750 8     -2069.086          48.000
R13  20243753.656 5 108100542.571 5     -2606.398          30.000    20243755.305 5  84078193.682 5     -2027.199          34.000
R14  19498397.461 8 103937352.105 8      1237.453          51.000    19498399.359 8  80840162.432 8       962.464          50.000
R15  22981622.828 5 122806833.200 5      3730.570          35.000    22981622.945 6  95516434.126 6      2901.558          37.000
C05  39804402.367 6 207271967.158 6        15.145          36.000    39804399.727 6 160275817.109 6        11.974          38.000
C21  24373126.453 8 126917276.114 8     -3154.730          51.000
C24  23770226.773 8 123777812.359 8      2354.441          51.000
C26  21332378.930 8 111083262.423 8       -99.945          51.000
E07  23742096.445 8 124765579.351 8     -1150.945          51.000    23742099.312 8  95599576.379 8      -881.920          51.000
E08  25366643.180 7 133302608.119 7     -2770.230          43.000    25366645.250 7 102141101.204 7     -2122.668          47.000
E27  24036625.031 8 126313330.455 8      1802.621          51.000    24036627.898 8  96785582.475 8      1381.247          51.000
E30  22608573.539 8 118808844.382 8     -1043.980          51.000    22608574.914 8  91035356.712 8      -799.894          51.000
> 2020 05 18 04 10  0.0000000  0 14        .000000000000
G05  22539115.117 8 118443843.988 8     -3186.562          51.000    22539113.875 8  92293894.143 8     -2483.039          51.000
G13  20194852.836 8 106124665.149 8       470.914          51.000    20194851.273 8  82694521.818 8       366.946          50.000
G28  20899368.297 8 109826978.088 8      -362.566          51.000    20899366.711 8  85579464.541 8      -282.516          48.000
R03  20133037.984 8 107773737.314 8     -2680.578          51.000    20133038.820 7  83824011.222 7     -2084.894          47.000
R14  19491490.523 8 103900537.185 8      1217.148          50.000    19491493.445 8  80811528.608 8       946.671          50.000
R15  22960705.742 6 122695046.937 6      3721.746          38.000    22960704.922 6  95429489.259 6      2894.691          38.000
C05  39804316.984 6 207271523.204 6        14.445          36.000    39804314.477 6 160275473.805 6        11.252          39.000
C21  24391323.695 8 127012031.824 8     -3162.082          50.000
C24  23756687.500 8 123707309.900 8      2345.859          51.000
C26  21332990.234 8 111086445.911 8      -112.035          51.000
E07  23748699.742 8 124800278.543 8     -1162.062          51.000    23748702.383 8  95626164.080 8      -890.409          51.000
E08  25382471.398 7 133385790.117 7     -2774.965          45.000    25382474.594 7 102204838.009 7     -2126.230          47.000
E27  24026366.930 8 126259421.799 8      1791.504          51.000    24026369.336 8  96744275.855 8      1372.687          51.000
E30  22614567.070 8 118840341.838 8     -1055.656          51.000    22614568.555 8  91059491.120 8      -808.918          51.000
> 2020 05 18 04 10 30.0000000  0 14        .000000000000
G05  22557332.656 8 118539573.329 8     -3195.531          51.000    22557329.469 8  92368488.379 8     -2490.027          51.000
G13  20192201.148 8 106110729.929 8       457.934          51.000    20192199.516 8  82683663.199 8       356.831          51.000
G28  20901488.523 8 109838119.874 8      -380.461          51.000    20901486.875 8  85588146.458 8      -296.463          48.000
R03  20148114.469 8 107854441.389 8     -2699.852          51.000    20148114.633 7  83886781.042 7     -2099.885          47.000
R14  19484693.906 8 103864309.955 8      1197.773          50.000    19484697.359 8  80783351.867 8       931.602          50.000
R15  22939832.891 6 122583504.593 6      3713.926          40.000    22939832.883 6  95342734.123 6      2888.609          39.000
C05  39804231.250 6 207271077.108 6        15.184          36.000    39804228.703 6 160275128.473 6        11.584          39.000
C21  24409558.680 8 127106985.250 8     -3168.375          50.000
C24  23743193.859 8 123637045.812 8      2338.227          51.000
C26  21333667.039 8 111089970.216 8      -123.051          51.000
E07  23755362.070 8 124835287.930 8     -1172.141          51.000    23755364.539 8  95652989.441 8      -898.134          51.000
E08  25398322.906 7 133469089.382 7     -2778.594          44.000    25398325.773 7 102268664.713 7     -2128.984          46.000
E27  24016168.133 8 126205826.270 8      1781.359          51.000    24016170.281 8  96703209.170 8      1364.929          51.000
E30  22620623.242 8 118872168.065 8     -1066.309          51.000    22620624.750 8  91083877.436 8      -817.000          51.000
> 2020 05 18 04 11  0.0000000  0 15        .000000000000
G05  22575601.914 8 118635575.766 8     -3204.969          51.000    22575597.539 8  92443295.412 8     -2497.378          51.000
G13  20189624.602 8 106097189.953 8       444.438          51.000    20189623.016 8  82673112.545 8       346.315          51.000
G28  20903712.047 8 109849804.394 8      -398.840          51.000    20903710.352 7  85597251.289 7      -310.784          47.000
R03  20163299.289 8 107935726.879 8     -2719.445          50.000    20163299.883 8  83950003.066 8     -2115.124          48.000
R13  20287990.500 4 108336747.760 4     -2643.816          29.000    20287995.297 5  84261915.588 5     -2056.302          34.000
R14  19478007.148 8 103828667.462 8      1178.004          50.000    19478011.117 8  80755629.922 8       916.225          50.000
R15  22919005.070 7 122472204.803 7      3705.520          42.000    22919005.891 6  95256167.632 6      2882.071          40.000
C05  39804144.391 5 207270625.088 5        14.590          35.000    39804141.969 6 160274778.921 6        11.288          39.000
C21  24427830.672 8 127202131.736 8     -3175.129          50.000
C24  23729745.039 8 123567017.748 8      2330.137          49.000
C26  21334408.617 8 111093831.617 8      -134.645          51.000
E07  23762082.742 8 124870604.578 8     -1182.668          51.000    23762084.828 8  95680050.227 8      -906.209          51.000
E08  25414196.406 7 133552502.242 7     -2782.680          46.000    25414199.328 8 102332578.400 8     -2132.186          49.000
E27  24006028.031 8 126152541.473 8      1770.672          51.000    24006030.172 8  96662380.563 8      1356.755          51.000
E30  22626741.367 8 118904318.929 8     -1077.387          51.000    22626742.734 8  91108512.496 8      -825.533          51.000
> 2020 05 18 04 11 30.0000000  0 14        .000000000000
G05  22593923.672 8 118731856.255 8     -3213.801          50.000    22593919.430 8  92518319.136 8     -2504.260          50.000
G13  20187125.117 8 106084055.048 8       431.184          51.000    20187123.438 8  82662877.530 8       335.984          51.000
G28  20906040.344 8 109862039.315 8      -416.863          51.000    20906038.477 8  85606784.986 8      -324.829          48.000
R03  20178593.547 8 108017601.027 8     -2738.730          49.000    20178595.469 8  84013682.916 8     -2130.124          49.000
R14  19471431.930 8 103793618.044 8      1158.609          51.000    19471435.930 8  80728369.292 8       901.141          50.000
R15  22898224.430 7 122361158.272 7      3697.430          45.000    22898225.727 6  95169798.134 6      2875.782          39.000
C05  39804058.148 5 207270174.640 5        15.078          35.000    39804055.750 6 160274431.759 6        11.478          39.000
C21  24446141.031 8 127297478.028 8     -3181.391          49.000
C24  23716342.484 7 123497234.836 7      2322.219          47.000
C26  21335216.820 8 111098037.959 8      -145.867          51.000
E07  23768863.617 8 124906237.113 8     -1192.914          51.000    23768865.359 8  95707353.067 8      -914.066          51.000
E08  25430093.500 7 133636036.455 7     -2786.391          46.000    25430096.367 8 102396585.079 8     -2135.045          50.000
E27  23995948.562 8 126099576.627 8      1760.289          51.000    23995950.742 8  96621797.110 8      1348.745          51.000
E30  22632922.555 8 118936801.861 8     -1088.164          51.000    22632924.195 8  91133402.005 8      -833.800          51.000
> 2020 05 18 04 12  0.0000000  0 14        .000000000000
G05  22612296.914 8 118828409.690 8     -3223.031          49.000    22612293.727 8  92593555.533 8     -2511.453          49.000
G13  20184702.258 8 106071322.703 8       417.555          51.000    20184700.430 8  82652956.210 8       325.367          51.000
G28  20908472.500 8 109874820.685 8      -435.285          51.000    20908470.680 8  85616744.503 8      -339.183          48.000
R03  20193996.617 8 108100058.332 8     -2758.457          49.000    20193999.555 8  84077816.396 8     -2145.467          48.000
R14  19464967.711 8 103759158.728 8      1138.645          51.000    19464971.352 8  80701567.571 8       885.609          50.000
R15  22877490.836 7 122250363.667 7      3688.895          45.000    22877491.625 6  95083624.585 6      2869.140          36.000
C05  39803972.008 6 207269725.813 6        14.879          36.000    39803969.539 6 160274084.665 6        11.536          39.000
C21  24464488.633 8 127393019.394 8     -3188.094          48.000
C24  23702987.047 8 123427694.628 8      2313.898          48.000
C26  21336090.125 8 111102585.417 8      -157.352          51.000
E07  23775703.977 8 124942182.518 8     -1203.512          51.000    23775705.938 8  95734895.630 8      -922.150          51.000
E08  25446012.602 7 133719688.240 7     -2790.457          44.000    25446015.195 8 102460681.868 8     -2138.181          49.000
E27  23985929.812 8 126046929.126 8      1749.480          51.000    23985931.672 8  96581456.817 8      1340.463          51.000
E30  22639166.086 8 118969612.624 8     -1099.293          51.000    22639168.039 8  91158542.720 8      -842.330          51.000
> 2020 05 18 04 12 30.0000000  0 14        .000000000000
G05  22630719.258 8 118925223.355 8     -3231.422          48.000    22630717.352 8  92668994.734 8     -2517.991          48.000
G13  20182354.414 8 106058984.580 8       404.594          51.000    20182352.445 8  82643342.068 8       315.268          51.000
G28  20911006.641 8 109888138.072 8      -452.953          51.000    20911004.773 8  85627121.671 8      -352.950          48.000
R03  20209506.734 8 108183086.644 8     -2777.246          51.000    20209509.688 7  84142393.986 7     -2160.080          47.000
R14  19458612.281 8 103725279.423 8      1119.512          51.000    19458615.773 8  80675216.983 8       870.734          50.000
R15  22856802.742 7 122139813.139 7      3680.992          44.000    22856803.125 6  94997640.890 6      2862.997          36.000
C05  39803884.023 5 207269267.467 5        15.367          35.000    39803881.477 6 160273730.249 6        11.819          39.000
C21  24482871.641 7 127488744.326 7     -3193.824          47.000
C24  23689677.836 8 123358387.920 8      2306.234          50.000
C26  21337027.055 8 111107463.620 8      -168.176          51.000
E07  23782601.781 8 124978431.052 8     -1213.410          51.000    23782604.305 8  95762670.456 8      -929.741          51.000
E08  25461951.117 7 133803447.047 7     -2793.797          43.000    25461954.344 8 102524860.708 8     -2140.752          50.000
E27  23975970.211 8 125994589.781 8      1739.465          51.000    23975971.273 8  96541352.632 8      1332.834          51.000
E30  22645470.195 8 119002740.308 8     -1109.629          51.000    22645471.961 8  91183926.227 8      -850.184          51.000
> 2020 05 18 04 13  0.0000000  0 15        .000000000000
G05  22649191.766 7 119022301.665 7     -3240.242          46.000    22649190.883 7  92744640.155 7     -2524.864          46.000
G13  20180083.148 8 106047048.883 8       391.352          51.000    20180081.055 8  82634041.509 8       304.946          51.000
G28  20913644.047 8 109901997.840 8      -470.891          51.000    20913642.094 8  85637921.481 8      -366.928          49.000
G30  22225700.055 5 116796841.963 5     -2463.426          33.000
R03  20225124.836 8 108266691.567 8     -2796.250          51.000    20225127.445 7  84207419.996 7     -2174.864          47.000
R14  19452367.219 8 103691987.396 8      1100.078          51.000    19452369.852 8  80649323.196 8       855.616          50.000
R15  22836161.195 6 122029515.631 6      3672.703          41.000    22836162.680 6  94911853.937 6      2856.547          39.000
C05  39803795.648 6 207268808.331 6        15.668          36.000    39803793.039 6 160273374.041 6        11.925          39.000
C21  24501291.094 7 127584658.210 7     -3200.223          45.000
C24  23676415.695 8 123289322.443 8      2298.309          51.000
C26  21338028.547 8 111112678.942 8      -179.344          51.000
E07  23789558.492 8 125014989.913 8     -1223.621          51.000    23789561.859 8  95790683.060 8      -937.580          51.000
E08  25477910.812 7 133887319.322 7     -2797.316          42.000    25477915.430 8 102589126.502 8     -2143.527          51.000
E27  23966070.961 8 125942566.367 8      1729.027          51.000    23966071.312 8  96501490.535 8      1324.833          51.000
E30  22651835.688 8 119036190.875 8     -1120.223          51.000    22651837.484 8  91209557.173 8      -858.355          51.000
> 2020 05 18 04 13 30.0000000  0 14        .000000000000
G05  22667716.164 7 119119652.300 7     -3250.043          45.000    22667716.000 7  92820497.813 7     -2532.501          45.000
G13  20177890.781 8 106035527.890 8       376.543          51.000    20177888.523 8  82625064.092 8       293.410          51.000
G28  20916386.703 8 109916410.473 8      -490.121          51.000    20916384.898 8  85649152.092 8      -381.913          50.000
R03  20240852.461 8 108350882.419 8     -2816.590          51.000    20240854.555 7  84272901.716 7     -2190.684          46.000
R14  19446234.273 8 103659293.498 8      1079.309          51.000    19446235.914 8  80623894.617 8       839.462          49.000
R15  22815566.758 5 121919484.293 5      3662.652          33.000    22815572.641 6  94826273.959 6      2848.724          41.000
C05  39803708.836 5 207268356.026 5        14.648          35.000    39803706.234 6 160273024.650 6        11.215          39.000
C21  24519747.969 6 127680770.330 6     -3207.438          40.000
C24  23663201.875 8 123220509.850 8      2288.941          51.000
C26  21339096.758 8 111118241.702 8      -191.719          51.000
E07  23796576.328 8 125051870.260 8     -1235.133          51.000    23796580.547 8  95818942.015 8      -946.442          51.000
E08  25493894.398 6 133971315.591 6     -2802.402          41.000    25493899.773 8 102653487.207 8     -2147.313          50.000
E27  23956234.000 8 125890870.569 8      1717.285          51.000    23956234.141 8  96461879.473 8      1315.839          51.000
E30  22658264.359 8 119069974.315 8     -1132.188          51.000    22658266.500 8  91235443.189 8      -867.502          51.000
> 2020 05 18 04 14  0.0000000  0 16        .000000000000
G05  22686285.672 7 119217237.005 7     -3256.348          46.000    22686285.844 7  92896537.865 7     -2537.414          45.000
G13  20175770.633 8 106024386.227 8       365.383          51.000    20175768.242 8  82616382.271 8       284.714          51.000
G24  24053943.625 6 126404326.965 6      3158.934          37.000    24053948.922 5  98496899.150 5      2461.507          31.000
G28  20919227.477 8 109931338.448 8      -505.930          51.000    20919225.594 8  85660784.276 8      -394.231          49.000
G30  22253864.078 5 116944858.391 5     -2472.594          33.000
R03  20256682.289 8 108435619.440 8     -2833.355          51.000    20256683.352 7  84338808.239 7     -2203.721          45.000
R14  19440206.344 8 103627160.775 8      1062.008          51.000    19440208.141 8  80598902.489 8       826.006          51.000
R15  22795019.391 6 121809683.984 6      3656.078          37.000    22795025.562 7  94740873.558 7      2843.610          42.000
C05  39803616.828 6 207267876.922 6        16.500          36.000    39803614.227 6 160272654.175 6        12.653          39.000
C21  24538229.945 5 127777042.612 5     -3211.430          32.000
C24  23650029.016 8 123151914.542 8      2283.164          51.000
C26  21340224.703 8 111124114.912 8      -200.648          51.000
E07  23803648.391 8 125089035.613 8     -1243.395          51.000    23803653.141 8  95847419.330 8      -952.698          51.000
E08  25509895.336 7 134055398.444 7     -2803.879          45.000    25509900.062 8 102717914.295 8     -2148.460          49.000
E27  23946452.438 8 125839466.423 8      1708.844          51.000    23946452.711 8  96422491.892 8      1309.389          51.000
E30  22664749.406 8 119104052.953 8     -1140.562          51.000    22664751.445 8  91261555.369 8      -873.991          51.000
> 2020 05 18 04 14 30.0000000  0 15        .000000000000
G05  22704893.906 7 119315021.995 7     -3262.539          47.000    22704893.828 7  92972733.942 7     -2542.238          47.000
G13  20173717.039 8 106013593.790 8       354.277          51.000    20173714.492 8  82607972.574 8       276.060          51.000
G24  24035915.000 6 126309587.366 6      3157.488          36.000
G28  20922160.258 8 109946750.048 8      -521.465          51.000    20922158.227 8  85672793.307 8      -406.336          49.000
R03  20272608.281 8 108520869.374 8     -2849.926          51.000    20272607.430 7  84405113.710 7     -2216.609          44.000
R14  19434277.742 8 103595557.873 8      1044.895          51.000    19434280.000 8  80574322.448 8       812.696          51.000
R15  22774512.188 7 121700084.684 7      3650.215          42.000    22774515.414 7  94655629.675 7      2839.059          42.000
C05  39803513.766 6 207267340.096 6        19.395          36.000    39803511.219 6 160272239.057 6        14.647          39.000
C21  24556742.539 6 127873442.960 6     -3215.043          38.000
C24  23636891.945 8 123083506.532 8      2277.418          51.000
C26  21341406.125 8 111130267.384 8      -209.375          51.000
E07  23810768.914 8 125126455.246 8     -1251.254          51.000    23810773.906 8  95876091.487 8      -958.786          51.000
E08  25525907.180 7 134139536.409 7     -2805.211          46.000    25525910.961 8 102782383.600 8     -2149.393          48.000
E27  23936720.414 8 125788323.678 8      1700.758          51.000    23936720.891 8  96383304.612 8      1303.121          51.000
E30  22671284.570 8 119138394.833 8     -1148.730          51.000    22671286.359 8  91287869.263 8      -880.226          51.000
> 2020 05 18 04 15  0.0000000  0 15        .000000000000
G05  22723563.500 8 119413128.662 8     -3274.941          48.000    22723562.562 7  93049180.664 7     -2551.902          47.000
G13  20171753.719 8 106003275.990 8       336.613          51.000    20171751.062 8  82599932.731 8       262.296          51.000
G24  24017923.914 5 126215038.889 5      3148.887          35.000
G28  20925208.539 8 109962768.754 8      -543.500          51.000    20925206.602 8  85685275.415 8      -423.506          49.000
R03  20288652.617 8 108606756.601 8     -2872.969          48.000    20288651.102 7  84471914.903 7     -2234.531          43.000
R14  19428471.984 8 103564610.456 8      1021.215          51.000    19428474.234 8  80550252.200 8       794.278          50.000
R15  22754065.852 7 121590815.011 7      3637.258          44.000    22754066.180 7  94570642.171 7      2828.978          42.000
C05  39803423.312 6 207266868.859 6        15.055          36.000    39803420.773 6 160271874.622 6        11.738          39.000
C21  24575305.211 7 127970092.921 7     -3225.227          42.000
C24  23623815.266 8 123015409.521 8      2265.262          51.000
C26  21342664.875 8 111136821.471 8      -224.570          51.000
E07  23817961.641 8 125164253.384 8     -1265.703          51.000    23817966.672 8  95905053.643 8      -969.839          51.000
E08  25541952.867 8 134223852.930 8     -2812.992          48.000    25541955.656 7 102846989.688 7     -2155.428          47.000
E27  23927061.594 8 125737567.136 8      1685.988          51.000    23927062.289 8  96344413.232 8      1291.837          51.000
E30  22677893.070 8 119173122.992 8     -1163.512          51.000    22677895.016 8  91314479.149 8      -891.534          51.000
> 2020 05 18 04 15 30.0000000  0 14        .000000000000
G05  22742285.148 7 119511509.698 7     -3288.301          47.000    22742282.523 7  93125841.156 7     -2562.315          47.000
G13  20169872.539 8 105993390.016 8       317.926          51.000    20169869.781 8  82592229.365 8       247.734          51.000
G28  20928363.734 8 109979349.363 8      -566.395          51.000    20928361.773 8  85698195.359 8      -441.346          49.000
R03  20304806.562 8 108693233.968 8     -2896.906          49.000    20304804.758 6  84539175.087 6     -2253.149          41.000
R14  19422780.273 8 103534273.526 8       996.590          51.000    19422782.766 8  80526656.810 8       775.125          50.000
R15  22733671.695 7 121481831.809 7      3623.645          43.000    22733670.391 7  94485877.451 7      2818.390          42.000
C05  39803337.008 6 207266420.353 6        10.020          36.000    39803334.484 6 160271527.010 6         8.047          39.000
C21  24593906.289 7 128066946.759 7     -3236.262          44.000
C24  23610789.523 8 122947580.306 8      2252.168          51.000
C26  21343991.906 8 111143732.658 8      -240.711          50.000
E07  23825218.461 8 125202385.864 8     -1281.023          51.000    23825223.070 8  95934272.002 8      -981.560          51.000
E08  25558023.734 8 134308303.095 8     -2821.566          48.000    25558025.211 7 102911698.233 7     -2161.938          45.000
E27  23917467.695 8 125687153.151 8      1670.371          51.000    23917468.758 8  96305784.310 8      1279.904          51.000
E30  22684566.617 8 119208192.073 8     -1179.039          51.000    22684568.688 8  91341350.257 8      -903.375          51.000
> 2020 05 18 04 16  0.0000000  0 15        .000000000000
G05  22761067.352 7 119610209.125 7     -3290.949          47.000    22761063.164 7  93202749.750 7     -2564.376          47.000
G13  20168082.477 8 105983983.213 8       309.797          51.000    20168079.922 8  82584899.368 8       241.397          51.000
G28  20931634.539 8 109996537.599 8      -578.730          51.000    20931632.641 8  85711588.779 8      -450.959          50.000
G30  22310602.047 5 117243027.261 5     -2495.820          33.000    22310602.336 5  91358167.909 5     -1944.786          34.000
R03  20321079.953 8 108780346.754 8     -2909.941          51.000    20321076.695 6  84606929.405 6     -2263.291          40.000
R14  19417212.578 8 103504594.009 8       982.746          51.000    19417215.055 8  80503572.740 8       764.358          51.000
R15  22713338.805 7 121373184.147 7      3620.543          42.000    22713338.023 7  94401373.636 7      2815.975          42.000
C05  39803263.797 5 207266038.899 5        15.852          35.000    39803261.211 6 160271232.049 6        12.324          39.000
C21  24612554.539 7 128164048.794 7     -3236.492          44.000
C24  23597823.195 8 122880065.573 8      2249.387          50.000
C26  21345396.219 8 111151046.321 8      -246.254          50.000
E07  23832547.859 8 125240899.236 8     -1285.773          51.000    23832551.883 8  95963782.219 8      -985.200          51.000
E08  25574128.406 7 134392932.713 7     -2819.680          47.000    25574129.273 7 102976544.314 7     -2160.465          45.000
E27  23907947.922 8 125637128.777 8      1665.320          51.000    23907949.422 8  96267453.907 8      1276.073          51.000
E30  22691313.586 8 119243647.451 8     -1183.902          51.000    22691315.750 8  91368517.355 8      -907.128          51.000
> 2020 05 18 04 16 30.0000000  0 15        .000000000000
G05  22779874.664 7 119709040.230 7     -3299.582          47.000    22779870.305 7  93279760.971 7     -2571.106          47.000
