     3.02           OBSERVATION DATA    M (MIXED)           RINEX VERSION / TYPE
SAVERINEX           SC600               20200512 165931 LCL PGM / RUN BY / DATE
       G = GPS       R = GLONASS       C = COMPASS          COMMENT
       S = SBAS      J = QZSS          E = GALILEO          COMMENT
BEAN                                                        MARKER NAME
1                                                           MARKER NUMBER
GEODETIC                                                    MARKER TYPE
Unige DICCA         GTER                                    OBSERVER / AGENCY
SC60291900056       SC600               2.12(191226)        REC # / TYPE / VERS
                    HEMA45          NONE                    ANT # / TYPE
  4509407.8091   693652.4678  4442337.6214                  APPROX POSITION XYZ
        0.0000        0.0000        0.0000                  ANTENNA: DELTA H/E/N
G    8 C1C L1C D1C S1C C2Y L2Y D2Y S2Y                      SYS / # / OBS TYPES
R    8 C1C L1C D1C S1C C2P L2P D2P S2P                      SYS / # / OBS TYPES
C    8 C1I L1I D1I S1I C7I L7I D7I S7I                      SYS / # / OBS TYPES
E    8 C1C L1C D1C S1C C7Q L7Q D7Q S7Q                      SYS / # / OBS TYPES
DBHZ                                                        COMMENT
     30.000                                                 INTERVAL
  2020    05    12    14    00    0.0000000     GPS         TIME OF FIRST OBS
  2020    05    12    14    59   30.0000000     GPS         TIME OF LAST OBS
     0                                                      RCV CLOCK OFFS APPL
G L1C  0.00000                                              SYS / PHASE SHIFT
G L2Y  0.00000                                              SYS / PHASE SHIFT
R L1C  0.00000                                              SYS / PHASE SHIFT
R L2P  0.25000                                              SYS / PHASE SHIFT
C L1I  0.00000                                              SYS / PHASE SHIFT
C L7I  0.00000                                              SYS / PHASE SHIFT
E L1C  0.50000                                              SYS / PHASE SHIFT
E L7Q -0.25000                                              SYS / PHASE SHIFT
 13 R05  1 R06 -4 R07  5 R08  6 R09 -2 R10 -5 R11  0 R12 -1 GLONASS SLOT / FRQ #
    R13 -2 R20  2 R21  4 R22 -3 R23  3                      GLONASS SLOT / FRQ #
 C1C   71.950 C2C   71.950 C2P   71.950                     GLONASS COD/PHS/BIS
    18                                                      LEAP SECONDS
*** Above antenna height is from mark to ANTENNA BOTTOM.    COMMENT
    17     4        0.0000        ANT MEASURE TYPE/HEIGT    COMMENT
    0.0000    0.0000    0.0458    0.0405    0.0000          COMMENT
                    BASE STATION                            COMMENT
                                                            END OF HEADER
> 2020 05 12 14 00  0.0000000  0 18        .000000000000
G18  20564383.961 8 108066641.144 8     -1218.395          51.000    20564383.328 8  84207756.527 8      -949.398          50.000
G20  22364184.609 7 117524607.332 7      2725.262          46.000    22364186.789 7  91577667.496 7      2123.581          46.000
G21  20939738.414 8 110039129.535 8     -1165.738          51.000    20939736.969 8  85744753.256 8      -908.367          50.000
G26  20278401.094 8 106563705.162 8      -201.570          51.000    20278402.430 8  83036674.239 8      -157.068          51.000
G29  23425487.258 4 123101766.308 4     -2792.156          28.000
G31  23982848.867 5 126030762.654 5     -3313.367          34.000    23982844.188 5  98205721.584 5     -2581.845          34.000
R12  20202562.570 8 107918432.529 8     -2863.176          51.000    20202565.898 8  83936558.715 8     -2226.914          48.000
R22  19827702.750 6 105841716.948 6     -1657.242          40.000    19827707.570 4  82321264.168 4     -1288.963          29.000
C05  39617507.805 5 206298758.729 5         7.320          35.000
C11  21999160.531 8 114555424.802 8      -811.398          51.000    21999160.133 8  88581546.738 8      -627.349          51.000
C12  24998341.617 5 130172938.595 5     -2602.777          30.000    24998343.969 5 100657981.214 5     -2011.944          34.000
C23  22977284.078 5 119648722.121 5      -797.711          34.000
C25  24513972.172 5 127650693.391 5     -3158.004          30.000
C28  24716384.367 5 128704668.087 5      2488.359          31.000
E13  23326712.273 8 122582716.368 8      -828.781          51.000    23326713.336 8  93927039.353 8      -635.076          51.000
E21  23816177.844 8 125154854.199 8     -1195.664          51.000    23816180.367 8  95897861.418 8      -916.161          51.000
E26  23557929.656 8 123797751.873 8      1727.773          51.000    23557931.234 8  94858095.448 8      1323.914          51.000
E27  26671139.359 7 140157716.016 7     -3045.875          44.000    26671140.023 6 107393558.755 6     -2333.664          38.000
> 2020 05 12 14 00 30.0000000  0 18        .000000000000
G18  20571390.039 8 108103458.148 8     -1234.383          51.000    20571389.523 8  84236445.105 8      -961.857          50.000
G20  22348663.008 8 117443041.448 8      2714.141          48.000    22348665.328 7  91514109.700 7      2114.918          46.000
G21  20946433.938 8 110074314.741 8     -1178.195          51.000    20946432.359 8  85772170.301 8      -918.074          50.000
G26  20279607.352 8 106570044.002 8      -219.246          51.000    20279609.047 8  83041613.589 8      -170.841          51.000
G31  24001775.133 5 126130224.423 5     -3316.316          35.000    24001775.305 5  98283253.267 5     -2584.143          31.000
R12  20218704.641 8 108004664.992 8     -2884.008          51.000    20218708.594 7  84003628.388 7     -2243.117          47.000
R21  23553346.531 4 126038710.150 4     -3499.727          29.000
R22  19837053.625 6 105891630.021 6     -1668.695          40.000    19837057.750 4  82360085.329 4     -1297.880          29.000
R23  20818881.211 5 111366977.152 5      2244.418          35.000
C05  39617471.078 5 206298567.459 5         7.398          35.000
C11  22003862.016 8 114579906.419 8      -818.926          50.000    22003861.453 8  88600477.474 8      -633.324          51.000
C12  25013341.289 5 130251037.468 5     -2602.152          30.000    25013340.664 6 100718372.209 6     -2012.901          37.000
C23  22981929.484 5 119672927.012 5      -814.121          34.000
C25  24532188.367 5 127745552.163 5     -3163.934          33.000
E13  23331472.797 8 122607733.327 8      -837.262          51.000    23331473.977 8  93946208.189 8      -641.520          51.000
E21  23823045.758 8 125190947.129 8     -1208.730          51.000    23823048.922 8  95925517.043 8      -926.182          51.000
E26  23548094.031 8 123746067.217 8      1719.637          51.000    23548096.586 8  94818492.945 8      1317.632          51.000
E27  26688545.477 7 140249183.727 7     -3050.027          42.000    26688547.148 5 107463644.396 5     -2337.324          33.000
> 2020 05 12 14 01  0.0000000  0 17        .000000000000
G18  20578490.750 8 108140772.644 8     -1250.324          51.000    20578490.102 8  84265521.330 8      -974.279          50.000
G20  22333208.461 8 117361825.747 8      2702.887          50.000    22333210.109 7  91450824.763 7      2106.145          45.000
G21  20953203.953 8 110109891.413 8     -1190.691          51.000    20953202.484 8  85799892.387 8      -927.811          50.000
G26  20280918.344 8 106576933.459 8      -237.141          51.000    20280920.328 8  83046981.981 8      -184.788          51.000
G31  24020722.859 5 126229799.937 5     -3319.191          31.000    24020734.297 5  98360852.384 5     -2586.386          31.000
R12  20234966.891 8 108091540.688 8     -2904.871          51.000    20234971.023 7  84071198.362 7     -2259.344          47.000
R22  19846471.875 5 105941905.010 5     -1679.785          34.000    19846476.672 5  82399188.119 5     -1306.493          34.000
C05  39617439.406 5 206298401.546 5         6.562          35.000
C11  22008611.016 8 114604636.644 8      -826.875          49.000    22008610.555 8  88619600.441 8      -639.320          51.000
C12                                                                  25028350.344 6 100778805.695 6     -2013.865          36.000
C23  22986678.102 6 119697652.472 6      -831.133          39.000
C25  24550443.742 5 127840607.446 5     -3170.359          35.000
C28  24687770.016 4 128555681.493 4      2477.797          28.000
E13  23336284.914 8 122633020.311 8      -845.629          51.000    23336286.195 8  93965583.928 8      -647.952          51.000
E21  23829991.617 8 125227448.842 8     -1221.855          51.000    23829995.008 8  95953485.915 8      -936.194          51.000
E26  23538308.797 8 123694644.932 8      1711.414          51.000    23538311.523 8  94779091.473 8      1311.358          51.000
E27  26705979.656 6 140340799.043 6     -3054.445          38.000
> 2020 05 12 14 01 30.0000000  0 18        .000000000000
G18  20585665.422 8 108178475.945 8     -1262.980          51.000    20585664.969 8  84294900.538 8      -984.141          50.000
G20  22317801.039 8 117280856.394 8      2695.055          51.000    22317801.820 7  91387731.784 7      2100.043          44.000
G21  20960027.695 8 110145750.485 8     -1199.762          51.000    20960026.031 8  85827834.519 8      -934.879          50.000
G26  20282313.852 8 106584266.995 8      -251.723          51.000    20282316.039 8  83052696.410 8      -196.148          51.000
R12  20251329.547 8 108178947.494 8     -2922.145          51.000    20251333.305 7  84139181.429 7     -2272.779          47.000
R21  23592599.172 4 126248718.631 4     -3496.312          29.000
R22  19855937.320 6 105992431.429 6     -1688.359          36.000    19855942.898 5  82438486.487 5     -1313.168          32.000
R23  20793853.625 5 111233082.017 5      2223.066          31.000
C05  39617392.055 5 206298156.070 5        10.180          35.000
C11  22013387.031 8 114629508.738 8      -831.258          49.000    22013386.953 8  88638833.121 8      -642.679          51.000
C12                                                                  25043349.781 5 100839199.391 5     -2012.074          33.000
C23  22991507.461 6 119722791.884 6      -844.688          41.000
C25  24568716.109 5 127935750.960 5     -3173.234          33.000
C28  24673497.484 5 128481322.991 5      2478.348          31.000
E13  23341128.000 8 122658469.426 8      -850.797          51.000    23341129.141 8  93985083.894 8      -651.912          51.000
E21  23836994.852 8 125264252.106 8     -1231.523          50.000    23836998.336 8  95981685.838 8      -943.662          51.000
E26  23528553.359 8 123643378.202 8      1706.523          51.000    23528555.570 8  94739809.201 8      1307.590          51.000
E27  26723421.547 5 140432453.635 5     -3055.484          35.000
> 2020 05 12 14 02  0.0000000  0 17        .000000000000
G18  20592935.867 8 108216682.491 8     -1280.344          51.000    20592935.633 8  84324671.870 8      -997.670          49.000
G20  22302463.164 8 117200252.040 8      2682.320          51.000    22302463.406 7  91324923.255 7      2090.123          44.000
G21  20966926.961 8 110182006.527 8     -1213.582          51.000    20966925.289 8  85856085.978 8      -945.648          50.000
G26  20283815.992 8 106592161.184 8      -270.836          51.000    20283818.328 8  83058847.725 8      -211.041          51.000
G29  23489398.406 5 123437634.898 5     -2804.230          33.000    23489406.203 5  96185190.726 5     -2185.115          33.000
R12  20267813.805 8 108267000.162 8     -2944.258          51.000    20267817.469 8  84207666.815 8     -2289.978          49.000
R22  19865471.438 5 106043325.105 5     -1701.125          35.000    19865475.195 5  82478070.439 5     -1323.097          32.000
R23  20781428.688 5 111166646.469 5      2209.414          33.000
C05  39617351.398 5 206297944.182 5         8.152          34.000
C11  22018212.492 8 114654637.141 8      -840.391          48.000    22018212.602 8  88658264.007 8      -649.777          51.000
C12                                                                  25058362.133 5 100899641.785 5     -2014.058          31.000
C23  22996438.109 6 119748459.465 6      -862.914          41.000
C28  24659250.469 5 128407123.480 5      2472.273          34.000
E13  23346023.586 8 122684195.727 8      -860.516          51.000    23346024.711 8  94004796.258 8      -659.380          51.000
E21  23844077.359 8 125301472.716 8     -1245.996          50.000    23844080.961 8  96010205.509 8      -954.742          51.000
E26  23518849.648 8 123592383.271 8      1696.875          51.000    23518851.508 8  94700735.185 8      1300.299          51.000
E27                                                                  26740891.531 6 107674484.039 6     -2345.624          36.000
> 2020 05 12 14 02 30.0000000  0 18        .000000000000
G18  20600292.547 8 108255342.589 8     -1297.062          51.000    20600292.352 8  84354796.633 8     -1010.698          50.000
G20  22287185.664 8 117119967.630 8      2670.090          48.000    22287185.766 7  91262364.060 7      2080.593          45.000
G21  20973892.398 8 110218610.053 8     -1226.605          51.000    20973890.750 8  85884608.213 8      -955.793          50.000
G26  20285415.656 8 106600568.466 8      -289.355          51.000    20285418.305 8  83065398.856 8      -225.472          51.000
R12  20284409.242 8 108355646.825 8     -2965.480          51.000    20284412.805 8  84276614.183 8     -2306.488          50.000
R22  19875065.938 6 106094535.273 6     -1713.238          38.000    19875071.914 5  82517900.596 5     -1332.519          34.000
R23  20769071.328 6 111100554.860 6      2196.980          38.000
C05  39617308.148 5 206297719.382 5         7.043          35.000
C11  22023078.219 8 114679973.656 8      -848.633          49.000    22023078.172 8  88677855.808 8      -656.377          51.000
C12                                                                  25073375.164 5 100960095.933 5     -2015.741          31.000
C21  25094748.289 5 130674954.047 5      1140.035          35.000
C23  23001460.047 6 119774606.963 6      -880.320          39.000
C25  24605366.359 5 128126572.385 5     -3186.008          32.000
C28  24645023.797 5 128333035.680 5      2466.879          33.000
E13  23350962.539 8 122710150.327 8      -869.688          51.000    23350963.812 8  94024683.547 8      -666.399          51.000
E21  23851230.359 8 125339062.313 8     -1259.867          51.000    23851233.812 8  96039007.902 8      -965.353          51.000
E26  23509188.398 8 123541612.331 8      1687.863          51.000    23509190.797 8  94661832.810 8      1293.256          51.000
E27                                                                  26758385.133 6 107744911.200 6     -2349.377          39.000
> 2020 05 12 14 03  0.0000000  0 18        .000000000000
G18  20607743.609 8 108294498.281 8     -1313.898          51.000    20607743.398 8  84385307.550 8     -1023.817          49.000
G20  22271977.141 7 117040049.561 7      2657.492          46.000    22271977.531 7  91200090.316 7      2070.776          45.000
G21  20980932.016 8 110255603.209 8     -1239.996          51.000    20980930.094 8  85913434.050 8      -966.231          49.000
G26  20287121.469 8 106609532.984 8      -308.465          51.000    20287124.227 8  83072384.191 8      -240.362          51.000
R12  20301123.250 8 108444928.886 8     -2987.051          51.000    20301126.984 8  84346055.750 8     -2323.265          50.000
R22  19884726.695 5 106146104.431 5     -1724.938          31.000    19884735.281 5  82558009.984 5     -1341.612          31.000
R23  20756789.922 5 111034851.749 5      2183.445          33.000
C05  39617270.672 5 206297523.995 5         5.590          34.000
C11  22027991.992 8 114705560.948 8      -857.480          48.000    22027991.867 8  88697641.521 8      -663.073          51.000
C12                                                                  25088398.188 5 101020594.753 5     -2017.299          33.000
C21  25088220.039 6 130640975.958 6      1124.191          36.000
C23  23006580.898 6 119801276.964 6      -897.742          37.000
C25  24623748.117 5 128222260.760 5     -3193.254          35.000
C28  24630826.445 5 128259103.204 5      2461.930          32.000
E13  23355953.320 8 122736375.935 8      -879.074          51.000    23355954.672 8  94044778.490 8      -673.567          51.000
E21  23858462.203 8 125377064.238 8     -1274.043          51.000    23858465.391 8  96068126.240 8      -976.155          51.000
E26  23499577.719 8 123491109.187 8      1678.512          51.000    23499581.242 8  94623135.605 8      1286.168          51.000
E27                                                                  26775904.195 6 107815451.178 6     -2353.514          39.000
> 2020 05 12 14 03 30.0000000  0 16        .000000000000
G18  20615286.773 8 108334137.973 8     -1339.359          51.000    20615286.766 8  84416195.620 8     -1043.654          50.000
G20  22256836.719 7 116960491.049 7      2635.824          45.000    22256837.797 7  91138096.745 7      2053.892          44.000
G21  20988043.516 8 110292974.170 8     -1261.871          51.000    20988041.539 8  85942554.288 8      -983.276          50.000
G26  20288931.633 8 106619045.302 8      -336.043          51.000    20288934.453 8  83079796.382 8      -261.852          51.000
R12  20317953.273 8 108534832.858 8     -3017.242          51.000    20317957.641 8  84415981.022 8     -2346.747          50.000
R22  19894452.398 6 106198020.486 6     -1746.430          38.000    19894462.289 4  82598389.051 4     -1358.340          27.000
C05  39617237.289 5 206297350.414 5        -4.371          35.000
C11  22032951.844 8 114731388.647 8      -874.758          49.000    22032951.797 8  88717613.131 8      -676.334          51.000
C12  25103436.773 4 130720179.439 4     -2619.402          29.000    25103431.211 5 101081130.516 5     -2026.331          31.000
C23  23011799.984 6 119828458.950 6      -924.066          36.000
C25  24642161.070 6 128318129.548 6     -3208.445          37.000
C28  24616656.148 4 128185387.575 4      2447.012          28.000
E13  23360993.453 8 122762861.743 8      -897.008          51.000    23360995.039 8  94065072.810 8      -687.336          51.000
E21  23865770.570 8 125415468.327 8     -1296.723          51.000    23865773.438 8  96097552.722 8      -993.521          51.000
E26  23490015.867 8 123440864.184 8      1660.703          51.000    23490020.406 8  94584636.201 8      1272.469          51.000
E27                                                                  26793448.633 6 107886095.494 6     -2364.104          38.000
> 2020 05 12 14 04  0.0000000  0 16        .000000000000
G18  20622910.375 8 108374199.729 8     -1337.430          51.000    20622910.344 8  84447412.570 8     -1042.153          50.000
G20  22241754.164 7 116881234.766 7      2641.797          46.000    22241755.500 7  91076338.618 7      2058.543          43.000
G21  20995215.070 8 110330661.157 8     -1256.480          51.000    20995213.133 8  85971920.781 8      -979.076          50.000
G26  20290834.750 8 106629045.601 8      -336.398          51.000    20290837.602 8  83087588.813 8      -262.129          51.000
R12  20334887.312 8 108625294.175 8     -3019.594          51.000    20334892.398 8  84486339.819 8     -2348.573          49.000
R22  19904232.266 5 106250220.391 5     -1739.605          31.000
C05  39617196.531 5 206297137.979 5        12.449          35.000
C11  22037946.461 8 114757396.403 8      -865.031          50.000    22037946.320 8  88737723.964 8      -668.903          51.000
C12                                                                  25118463.094 5 101141656.680 5     -2013.505          34.000
C21  25075423.164 5 130574280.349 5      1103.027          35.000
C23  23017106.648 6 119856092.557 6      -924.090          36.000
C25  24660595.219 6 128414116.928 6     -3196.699          36.000
E13  23366071.281 8 122789546.577 8      -887.852          51.000    23366072.953 8  94085519.633 8      -680.284          51.000
E21  23873143.906 8 125454213.950 8     -1292.258          51.000    23873146.352 8  96127240.915 8      -990.169          51.000
E26  23480491.695 8 123390817.258 8      1669.938          51.000    23480496.383 8  94546288.563 8      1279.539          51.000
E27  26811001.164 6 140892765.398 6     -3071.852          36.000    26811007.633 6 107956797.013 6     -2353.984          36.000
> 2020 05 12 14 04 30.0000000  0 18        .000000000000
G18  20630640.141 8 108414819.190 8     -1354.965          51.000    20630640.086 8  84479064.087 8     -1055.820          50.000
G20  22226756.000 7 116802420.447 7      2628.090          47.000    22226757.867 7  91014924.867 7      2047.862          43.000
G21  21002472.719 8 110368800.126 8     -1270.445          51.000    21002470.703 8  86001639.449 8      -989.957          49.000
G26  20292857.000 8 106639671.560 8      -356.363          51.000    20292859.594 8  83095868.769 8      -277.686          51.000
G31  24153764.938 5 126928881.377 5     -3332.719          34.000
R12  20351951.547 8 108716449.444 8     -3041.492          51.000    20351956.469 7  84557238.355 7     -2365.605          46.000
R23  20720358.625 5 110839916.974 5      2152.484          34.000
C05  39617174.578 5 206297022.873 5        10.789          35.000
C11  22043001.789 8 114783719.664 8      -874.453          50.000    22043001.453 8  88758078.777 8      -676.056          51.000
C12                                                                  25133519.164 5 101202278.166 5     -2016.293          33.000
C21  25069166.703 4 130541678.368 4      1085.902          29.000
C23  23022525.414 5 119884312.988 5      -942.320          35.000
C25  24679077.922 6 128510356.753 6     -3204.059          38.000
C28  24588386.055 6 128038139.517 6      2453.945          37.000
E13  23371213.148 8 122816566.794 8      -897.832          51.000    23371214.555 8  94106223.426 8      -687.943          51.000
E21  23880608.172 8 125493438.058 8     -1307.059          51.000    23880610.477 8  96157295.736 8     -1001.474          51.000
E26  23471031.531 8 123341105.824 8      1659.902          50.000    23471035.609 8  94508197.995 8      1271.927          51.000
E27  26828600.000 6 140985247.569 6     -3078.043          38.000    26828606.258 5 108027659.981 5     -2358.438          33.000
> 2020 05 12 14 05  0.0000000  0 18        .000000000000
G18  20638429.742 8 108455753.807 8     -1374.059          51.000    20638429.695 8  84510961.211 8     -1070.695          50.000
G20  22211797.055 8 116723810.141 8      2612.820          49.000    22211798.672 7  90953670.099 7      2035.964          43.000
G21  21009770.195 8 110407148.512 8     -1285.984          51.000    21009768.312 8  86031521.321 8     -1002.066          49.000
G26  20294952.602 8 106650682.768 8      -377.672          51.000    20294954.805 8  83104448.923 8      -294.290          51.000
G29  23585805.664 5 123944259.219 5     -2823.965          33.000
G31  24172812.578 5 127028986.118 5     -3338.621          34.000    24172791.438 5  98983567.947 5     -2601.511          31.000
R12  20369099.641 8 108808050.484 8     -3064.988          51.000    20369103.250 7  84628483.564 7     -2383.880          45.000
C05  39617125.375 5 206296766.664 5         6.555          35.000
C11  22048071.797 8 114810119.340 8      -885.383          51.000    22048071.391 8  88778492.687 8      -684.643          51.000
C12                                                                  25148551.977 5 101262810.211 5     -2019.595          32.000
C21  25062962.797 5 130509370.288 5      1067.910          35.000
C23  23028009.836 6 119912880.823 6      -962.273          36.000
C25  24697563.375 6 128606608.227 6     -3212.883          39.000
C28  24574277.375 6 127964646.969 6      2445.664          36.000
E13  23376372.836 8 122843680.668 8      -909.547          51.000    23376374.211 8  94126998.987 8      -696.908          51.000
E21  23888117.258 8 125532899.523 8     -1323.516          51.000    23888119.727 8  96187532.427 8     -1014.134          51.000
E26  23461589.688 8 123291489.280 8      1648.102          50.000    23461593.500 8  94470180.147 8      1262.801          51.000
E27  26846191.445 6 141077698.364 6     -3085.090          38.000
> 2020 05 12 14 05 30.0000000  0 17        .000000000000
G18  20646320.664 8 108497220.440 8     -1392.270          51.000    20646320.531 8  84543272.867 8     -1084.885          49.000
G20  22196919.453 8 116645625.310 8      2597.844          50.000    22196920.047 7  90892746.876 7      2024.297          43.000
G21  21017148.828 8 110445923.294 8     -1300.719          51.000    21017146.992 8  86061735.455 8     -1013.547          48.000
G26  20297163.211 8 106662298.162 8      -398.363          51.000    20297165.055 8  83113499.867 8      -310.413          51.000
G31  24191884.305 5 127129215.456 5     -3344.836          34.000    24191865.969 5  99061663.917 5     -2606.360          32.000
R12  20386372.047 8 108900316.242 8     -3087.727          51.000    20386374.945 7  84700245.765 7     -2401.565          46.000
R22  19933940.922 4 106408739.338 4     -1780.668          29.000    19933947.258 4  82762371.343 4     -1384.964          25.000
C05  39617090.688 5 206296586.920 5         3.805          35.000
C11  22053197.945 8 114836811.355 8      -895.609          51.000    22053197.562 8  88799132.644 8      -692.584          51.000
C12                                                                  25163604.430 5 101323419.818 5     -2022.371          32.000
C21  25056855.055 5 130477574.281 5      1050.031          30.000
C23  23033603.789 6 119942011.828 6      -981.523          38.000
C25  24716091.938 6 128703085.748 6     -3220.887          41.000
E13  23381591.617 8 122871105.810 8      -920.422          51.000    23381593.125 8  94148013.067 8      -705.249          51.000
E21  23895712.953 8 125572816.506 8     -1339.227          51.000    23895715.320 8  96218118.153 8     -1026.176          51.000
E26  23452207.680 8 123242186.283 8      1637.129          51.000    23452212.273 8  94432402.568 8      1254.477          51.000
E27  26863819.555 6 141170335.143 6     -3092.105          38.000
> 2020 05 12 14 06  0.0000000  0 16        .000000000000
G18  20654290.398 8 108539101.672 8     -1399.621          51.000    20654290.305 8  84575907.595 8     -1090.614          50.000
G20  22182101.367 8 116567753.254 8      2593.762          50.000    22182101.266 7  90832067.398 7      2021.116          44.000
G21  21024586.211 8 110485007.043 8     -1304.609          51.000    21024584.258 8  86092190.327 8     -1016.579          48.000
G26  20299466.797 8 106674402.366 8      -408.176          51.000    20299468.469 8  83122931.703 8      -318.059          51.000
G31  24210962.812 5 127229460.867 5     -3339.055          35.000    24210941.969 5  99139759.433 5     -2601.858          34.000
R12  20403745.961 8 108993125.681 8     -3099.258          50.000    20403749.586 7  84772430.841 7     -2410.534          47.000
R22  19943958.406 5 106462203.078 5     -1783.359          34.000    19943964.844 4  82803937.199 4     -1387.060          28.000
C11  22058357.969 8 114863680.372 8      -895.395          50.000    22058357.672 8  88819909.464 8      -692.264          51.000
C12                                                                  25178654.156 5 101384018.147 5     -2017.520          31.000
C23  23039285.680 6 119971590.665 6      -990.160          41.000
C25  24734641.109 7 128799672.444 7     -3218.117          43.000
C28  24546171.984 5 127818263.683 5      2441.680          33.000
E13  23386847.508 8 122898725.591 8      -920.574          51.000    23386848.961 8  94169176.274 8      -705.375          51.000
E21  23903373.461 8 125613072.903 8     -1344.199          51.000    23903375.555 8  96248963.948 8     -1029.968          51.000
E26  23442863.695 8 123193081.312 8      1636.898          51.000    23442869.070 8  94394776.714 8      1254.196          51.000
E27  26881461.641 6 141263040.763 6     -3087.883          40.000
> 2020 05 12 14 06 30.0000000  0 17        .000000000000
G18  20662361.844 8 108581517.567 8     -1420.855          50.000    20662361.836 8  84608958.952 8     -1107.157          50.000
G20  22167366.445 8 116490318.543 8      2575.711          49.000    22167365.836 7  90771728.692 7      2007.047          45.000
G21  21032105.219 8 110524520.096 8     -1322.395          51.000    21032103.422 8  86122979.728 8     -1030.437          48.000
G26  20301886.398 8 106687117.545 8      -432.125          51.000    20301888.062 8  83132839.623 8      -336.721          51.000
G31  24230065.414 5 127329852.885 5     -3346.199          31.000    24230042.898 5  99217983.735 5     -2607.449          30.000
R12  20421244.383 8 109086599.315 8     -3124.875          51.000    20421248.531 8  84845132.527 8     -2430.458          48.000
R22  19954047.961 6 106516065.598 6     -1799.762          36.000    19954052.531 4  82845830.317 4     -1399.815          29.000
C05  39617022.133 5 206296229.225 5         4.953          35.000
C11  22063575.023 8 114890846.657 8      -908.730          51.000    22063574.633 8  88840916.152 8      -702.682          51.000
C12                                                                  25193724.281 5 101444698.179 5     -2023.123          32.000
C23  23045076.930 7 120001737.221 7     -1012.488          45.000
C25  24753233.227 7 128896486.871 7     -3229.031          43.000
C28  24532162.789 5 127745268.283 5      2431.609          31.000
E13  23392163.461 8 122926660.836 8      -934.629          51.000    23392164.906 8  94190581.214 8      -716.150          51.000
E21  23911121.633 8 125653790.136 8     -1363.098          51.000    23911123.812 8  96280162.837 8     -1044.502          51.000
E26  23433580.586 8 123144296.383 8      1622.613          51.000    23433586.188 8  94357396.074 8      1243.283          51.000
E27  26899139.539 6 141355935.885 6     -3097.777          39.000
> 2020 05 12 14 07  0.0000000  0 17        .000000000000
G18  20670512.727 8 108624350.715 8     -1434.766          51.000    20670512.805 8  84642335.427 8     -1117.999          49.000
G20  22152693.148 8 116413208.493 8      2564.824          50.000    22152692.125 7  90711642.975 7      1998.564          46.000
G21  21039683.633 8 110564345.028 8     -1332.820          51.000    21039681.852 8  86154012.141 8     -1038.561          49.000
G26  20304400.156 8 106700328.345 8      -448.840          51.000    20304401.875 8  83143133.746 8      -349.745          51.000
G31  24249171.906 5 127430257.838 5     -3347.109          32.000
R12  20438844.734 8 109180616.371 8     -3143.066          51.000    20438848.992 7  84918256.871 7     -2444.607          47.000
R22  19964188.930 5 106570205.899 5     -1809.043          33.000    19964192.211 4  82887939.345 4     -1407.039          28.000
C05  39616989.266 5 206296058.560 5         6.027          35.000
C11  22068826.953 8 114918194.963 8      -914.770          50.000    22068826.562 8  88862063.596 8      -707.373          51.000
C12                                                                  25208792.930 5 101505371.107 5     -2022.030          35.000
C23  23050955.227 7 120032335.934 7     -1027.562          47.000
C25  24771846.023 7 128993412.240 7     -3232.844          44.000
C28  24518168.453 5 127672367.143 5      2428.004          33.000
E13  23397517.195 8 122954794.975 8      -941.258          51.000    23397518.812 8  94212138.547 8      -721.209          51.000
E21  23918935.344 8 125694852.178 8     -1374.621          51.000    23918937.836 8  96311625.907 8     -1053.269          51.000
E26  23424336.234 8 123095715.946 8      1615.781          51.000    23424341.016 8  94320172.130 8      1238.087          51.000
E27  26916830.992 6 141448903.585 6     -3100.395          39.000    26916832.797 5 108382927.203 5     -2375.199          31.000
> 2020 05 12 14 07 30.0000000  0 18        .000000000000
G18  20678752.078 8 108667649.649 8     -1450.898          50.000    20678752.250 8  84676074.848 8     -1130.570          49.000
G20  22138091.578 8 116336475.607 8      2551.523          51.000    22138090.219 7  90651851.147 7      1988.200          46.000
G21  21047330.711 8 110604530.571 8     -1345.324          50.000    21047328.789 8  86185325.558 8     -1048.305          49.000
G26  20307017.828 8 106714085.294 8      -467.383          51.000    20307019.641 8  83153853.447 8      -364.194          51.000
G29  23666631.938 5 124368995.865 5     -2840.016          34.000
R12  20456555.727 8 109275224.381 8     -3163.219          51.000    20456559.812 7  84991840.881 7     -2460.281          46.000
R22  19974391.945 6 106624672.575 6     -1820.828          37.000    19974396.250 4  82930302.341 4     -1416.197          27.000
R23  20649281.250 5 110459729.233 5      2075.562          35.000
C05  39616959.875 5 206295905.086 5         4.578          35.000
C11  22074123.141 8 114945774.440 8      -923.000          50.000    22074123.023 8  88883389.798 8      -713.707          51.000
C12                                                                  25223870.227 5 101566075.192 5     -2023.908          34.000
C23  23056929.039 7 120063435.774 7     -1044.809          47.000
C25  24790489.742 7 129090496.115 7     -3238.746          45.000
C28  24504154.859 6 127599571.941 6      2423.023          38.000
E13  23402918.148 8 122983177.339 8      -949.992          51.000    23402919.812 8  94233886.085 8      -727.970          51.000
E21  23926824.312 8 125736308.850 8     -1388.262          51.000    23926826.977 8  96343391.377 8     -1063.721          51.000
E26  23415140.453 8 123047390.383 8      1606.844          51.000    23415144.047 8  94283143.484 8      1231.188          51.000
E27  26934545.305 6 141541992.792 6     -3104.805          39.000    26934550.188 5 108454255.232 5     -2378.746          35.000
> 2020 05 12 14 08  0.0000000  0 17        .000000000000
G18  20687074.570 8 108711385.187 8     -1465.059          50.000    20687074.820 8  84710154.496 8     -1141.604          49.000
G20  22123557.031 8 116260095.552 8      2540.391          50.000    22123555.336 7  90592334.262 7      1979.528          46.000
G21  21055040.820 8 110645047.495 8     -1355.840          51.000    21055039.039 8  86216897.197 8     -1056.499          48.000
G26  20309734.289 8 106728361.301 8      -484.238          51.000    20309736.656 8  83164977.620 8      -377.329          51.000
G29  23682849.852 5 124454221.137 5     -2841.699          34.000
R12  20474371.703 8 109370392.291 8     -3181.383          51.000    20474375.492 7  85065860.350 7     -2474.412          46.000
R22  19984651.992 6 106679436.228 6     -1830.457          39.000    19984654.797 4  82972896.300 4     -1423.689          28.000
C05  39616928.398 5 206295741.762 5         5.676          34.000
C11  22079458.453 8 114973557.463 8      -929.273          50.000    22079458.648 8  88904873.376 8      -718.597          51.000
C12                                                                  25238949.148 5 101626788.990 5     -2023.636          31.000
C23  23062992.570 7 120095008.668 7     -1060.070          47.000
C25  24809157.859 7 129187709.132 7     -3242.336          43.000
C28  24490201.500 5 127526932.121 5      2419.895          34.000
E13  23408360.898 8 123011779.568 8      -956.902          51.000    23408362.555 8  94255802.083 8      -733.202          51.000
E21  23934783.242 8 125778132.312 8     -1400.059          51.000    23934786.055 8  96375437.915 8     -1072.799          51.000
E26  23405988.055 8 122999292.398 8      1599.637          51.000    23405991.234 8  94246289.197 8      1225.711          51.000
E27  26952277.039 6 141635174.765 6     -3107.430          37.000    26952283.992 6 108525654.414 6     -2380.952          37.000
> 2020 05 12 14 08 30.0000000  0 17        .000000000000
G18  20695473.469 8 108755522.104 8     -1477.129          49.000    20695473.844 8  84744546.887 8     -1151.010          48.000
G20  22109083.617 8 116184037.479 8      2530.672          50.000    22109082.648 7  90533068.306 7      1971.955          46.000
G21  21062807.398 8 110685860.982 8     -1364.621          51.000    21062805.570 8  86248699.906 8     -1063.341          48.000
G26  20312543.102 8 106743123.022 8      -499.492          51.000    20312546.102 8  83176480.246 8      -389.218          51.000
G29  23699077.609 5 124539487.041 5     -2841.871          32.000    23699085.008 5  97043789.826 5     -2214.445          31.000
R12  20492285.781 8 109466082.552 8     -3197.621          51.000    20492288.602 7  85140286.020 7     -2487.042          44.000
R22  19994960.039 6 106734460.967 6     -1837.656          37.000    19994964.477 4  83015693.355 4     -1429.288          27.000
R23  20626132.672 5 110335900.490 5      2054.582          30.000
C05  39616888.812 5 206295535.495 5         8.488          35.000
C11  22084826.375 8 115001510.239 8      -933.824          49.000    22084826.703 8  88926488.209 8      -722.095          51.000
C12                                                                  25254022.570 5 101687486.681 5     -2022.301          31.000
C23  23069139.758 7 120127020.590 7     -1073.609          47.000
C25  24827844.359 7 129285015.953 7     -3244.289          43.000
E13  23413838.945 8 123040567.248 8      -961.914          51.000    23413840.766 8  94277860.186 8      -737.078          51.000
E21  23942805.461 8 125820288.630 8     -1410.004          51.000    23942808.445 8  96407739.479 8     -1080.378          51.000
E26  23396872.484 8 122951388.616 8      1594.301          51.000    23396876.234 8  94209583.708 8      1221.601          51.000
E27  26970019.852 6 141728414.875 6     -3108.312          36.000    26970027.727 6 108597098.054 6     -2381.556          40.000
> 2020 05 12 14 09  0.0000000  0 17        .000000000000
G18  20703971.180 8 108800178.800 8     -1497.789          49.000    20703971.727 8  84779344.331 8     -1167.108          48.000
G20  22094694.961 8 116108424.411 8      2512.613          50.000    22094694.422 7  90474149.078 7      1957.884          45.000
G21  21070652.906 8 110727089.394 8     -1381.746          51.000    21070651.023 8  86280825.941 8     -1076.685          48.000
G26  20315467.352 8 106758491.142 8      -522.941          51.000    20315470.469 8  83188455.392 8      -407.487          51.000
G29  23715335.500 5 124624919.387 5     -2851.586          33.000
R12  20510319.781 8 109562413.886 8     -3222.203          51.000    20510321.414 7  85215210.301 7     -2506.158          43.000
R22  20005339.078 6 106789866.906 6     -1853.992          36.000    20005342.867 4  83058793.310 4     -1442.000          26.000
C05  39616863.852 5 206295405.555 5         2.891          35.000
C11  22090249.578 8 115029751.288 8      -946.652          49.000    22090250.031 8  88948325.964 8      -732.069          51.000
C12                                                                  25269114.625 5 101748260.154 5     -2027.427          32.000
C23  23075394.000 8 120159589.762 8     -1095.402          48.000
C25  24846571.508 7 129382533.526 7     -3254.512          42.000
C28  24462369.391 5 127381987.928 5      2408.023          31.000
E13  23419375.023 8 123069659.684 8      -975.355          51.000    23419377.117 8  94300151.791 8      -747.377          51.000
E21  23950913.852 8 125862897.604 8     -1428.387          51.000    23950916.805 8  96440387.905 8     -1094.523          51.000
E26  23387816.695 8 122903799.467 8      1580.496          51.000    23387820.945 8  94173119.291 8      1211.026          51.000
E27  26987796.484 6 141821832.034 6     -3117.297          36.000    26987804.406 6 108668677.386 6     -2388.850          40.000
> 2020 05 12 14 09 30.0000000  0 16        .000000000000
G18  20712555.289 8 108845288.599 8     -1507.254          48.000    20712555.617 8  84814494.799 8     -1174.484          48.000
G20  22080378.938 8 116033194.206 8      2505.277          50.000    22080378.977 7  90415528.173 7      1952.164          45.000
G21  21078564.664 8 110768666.016 8     -1387.801          49.000    21078562.648 8  86313223.303 8     -1081.403          49.000
G26  20318494.789 8 106774400.839 8      -535.441          51.000    20318497.656 8  83200852.563 8      -417.227          51.000
R12  20528460.164 8 109659316.993 8     -3235.562          51.000    20528461.438 7  85290579.368 7     -2516.549          43.000
R22  20015778.453 6 106845585.917 6     -1858.367          37.000    20015779.922 5  83102127.750 5     -1445.397          31.000
C05  39616841.234 5 206295287.743 5         7.656          35.000
C11  22095715.781 8 115058215.737 8      -948.715          50.000    22095716.336 8  88970336.466 8      -733.510          51.000
C21  25011080.195 5 130239328.084 5       935.723          35.000
C23  23081742.688 8 120192650.872 8     -1106.348          48.000
C25  24865326.133 7 129480195.313 7     -3253.871          43.000
C28  24448500.047 5 127309776.626 5      2408.262          31.000
E13  23424956.484 8 123098990.990 8      -977.801          51.000    23424958.766 8  94322626.411 8      -749.203          51.000
E21  23959095.867 8 125905893.776 8     -1435.750          51.000    23959098.758 8  96473333.019 8     -1100.126          51.000
E26  23378808.344 8 122856460.067 8      1577.699          51.000    23378812.578 8  94136846.254 8      1208.919          51.000
E27  27005594.172 5 141915355.028 5     -3115.746          34.000    27005601.719 6 108740341.604 6     -2387.234          40.000
> 2020 05 12 14 10  0.0000000  0 17        .000000000000
G18  20721200.109 7 108890717.275 7     -1522.484          47.000    20721200.312 7  84849893.782 7     -1186.351          47.000
G20  22066110.930 8 115958217.284 8      2491.840          50.000    22066111.273 7  90357104.596 7      1941.693          44.000
G21  21086517.148 8 110810457.009 8     -1399.629          49.000    21086515.086 8  86345787.731 8     -1090.620          49.000
G26  20321600.125 8 106790719.967 8      -553.852          51.000    20321602.672 8  83213568.752 8      -431.573          51.000
R12  20546681.219 8 109756653.659 8     -3254.930          51.000    20546683.070 7  85366285.654 7     -2531.612          44.000
R22  20026249.812 5 106901481.673 5     -1869.230          30.000    20026254.484 6  83145602.302 6     -1453.837          36.000
R23  20591927.039 4 110152921.155 4      2017.516          29.000
C05  39616795.750 5 206295050.973 5         6.852          35.000
C11  22101199.820 8 115086771.859 8      -956.344          50.000    22101200.383 8  88992417.894 8      -739.533          51.000
C21  25005725.859 4 130211469.827 4       919.062          29.000
C23  23088159.852 7 120226071.837 7     -1123.008          47.000
C25  24884083.453 7 129577867.998 7     -3258.918          42.000
C28  24434643.906 5 127237566.363 5      2402.891          33.000
E13  23430557.977 8 123128427.856 8      -986.020          51.000    23430560.375 8  94345181.914 8      -755.501          51.000
E21  23967326.188 8 125949144.352 8     -1448.934          51.000    23967329.180 8  96506473.057 8     -1110.207          51.000
E26  23369822.141 8 122809238.164 8      1569.059          51.000    23369825.883 8  94100663.265 8      1202.284          51.000
E27  27023387.523 5 142008859.106 5     -3119.508          31.000    27023394.633 6 108811988.313 6     -2390.269          38.000
> 2020 05 12 14 10 30.0000000  0 16        .000000000000
G18  20729944.695 8 108936670.148 8     -1534.570          49.000    20729945.086 7  84885701.221 7     -1195.769          47.000
G20  22051931.258 8 115883703.542 8      2481.680          51.000    22051931.523 7  90299041.944 7      1933.776          44.000
G21  21094549.539 8 110852667.794 8     -1408.207          50.000    21094547.586 7  86378679.243 7     -1097.304          47.000
G26  20324822.789 8 106807655.709 8      -569.055          51.000    20324825.219 8  83226765.415 8      -443.422          51.000
R12  20565022.438 8 109854631.025 8     -3270.742          51.000    20565024.930 7  85442490.243 7     -2543.914          46.000
R22  20036792.320 5 106957762.789 5     -1876.832          34.000    20036799.125 6  83189376.597 6     -1459.755          36.000
C05  39616766.891 5 206294900.484 5         9.723          35.000
C11  22106740.820 8 115115624.219 8      -960.977          50.000    22106741.250 8  89014728.358 8      -743.103          51.000
C21  25000478.953 5 130184033.374 5       907.805          32.000
C23  23094684.969 7 120260056.821 7     -1136.551          46.000
C25  24902882.023 7 129675754.496 7     -3260.824          43.000
C28  24420824.117 5 127165578.862 5      2402.113          32.000
E13  23436218.719 8 123158176.404 8      -991.035          51.000    23436221.422 8  94367976.244 8      -759.380          51.000
E21  23975644.234 8 125992855.933 8     -1458.973          51.000    23975647.359 8  96539966.338 8     -1117.917          51.000
E26  23360897.680 8 122762340.922 8      1563.555          51.000    23360901.492 8  94064729.048 8      1198.045          51.000
E27                                                                  27041222.500 6 108883775.178 6     -2390.883          36.000
> 2020 05 12 14 11  0.0000000  0 17        .000000000000
G18  20738762.758 8 108983008.510 8     -1558.508          49.000    20738762.828 7  84921809.011 7     -1214.422          47.000
G20  22037814.367 8 115809518.332 8      2459.938          51.000    22037814.125 7  90241235.337 7      1916.837          43.000
G21  21102635.297 8 110895159.523 8     -1428.539          49.000    21102633.422 8  86411789.678 8     -1113.150          48.000
G26  20328136.891 8 106825071.361 8      -595.906          51.000    20328139.203 8  83240336.028 8      -464.343          51.000
R12  20583457.164 8 109953106.570 8     -3298.211          51.000    20583460.547 7  85519082.290 7     -2565.275          47.000
R22  20047382.805 6 107014288.148 6     -1895.539          40.000    20047387.250 5  83233340.718 5     -1474.308          35.000
R23  20569435.516 5 110032608.715 5      1986.066          30.000
C05  39616728.516 5 206294700.779 5         -.312          35.000
C11  22112312.453 8 115144636.629 8      -977.000          50.000    22112312.695 8  89037162.592 8      -755.524          51.000
C21  24995316.477 5 130157114.449 5       883.496          32.000
C23  23101292.867 8 120294469.160 8     -1161.484          48.000
C25  24921695.094 7 129773717.028 7     -3273.984          42.000
C28  24407015.719 5 127093734.720 5      2388.695          30.000
E13  23441912.578 8 123188098.828 8     -1007.637          51.000    23441915.539 8  94390903.802 8      -772.088          51.000
E21  23984023.953 8 126036891.041 8     -1480.547          51.000    23984027.078 8  96573707.533 8     -1134.487          51.000
E26  23352009.164 8 122715631.552 8      1546.461          51.000    23352013.703 8  94028938.755 8      1184.978          51.000
E27                                                                  27059059.477 5 108955596.341 5     -2400.607          35.000
> 2020 05 12 14 11 30.0000000  0 16        .000000000000
G18  20747679.562 8 109029865.944 8     -1567.332          49.000    20747679.156 7  84958321.284 7     -1221.298          47.000
G20  22023786.648 8 115735800.309 8      2452.781          51.000    22023785.430 7  90183792.752 7      1911.261          43.000
G21  21110800.102 8 110938066.605 8     -1433.801          48.000    21110798.445 8  86445223.770 8     -1117.247          48.000
G26  20331568.320 8 106843102.476 8      -607.996          51.000    20331569.984 8  83254386.258 8      -473.763          51.000
R12  20602010.430 8 110052214.204 8     -3310.730          51.000    20602014.305 8  85596165.960 8     -2575.016          48.000
R22  20058043.664 6 107071193.636 6     -1899.980          37.000    20058045.938 6  83277600.459 6     -1477.766          36.000
R23  20558314.172 4 109973124.229 4      1979.719          28.000
C05  39616706.805 5 206294587.171 5         5.633          35.000
C11  22117940.430 8 115173942.731 8      -978.473          50.000    22117940.422 8  89059823.925 8      -756.693          51.000
C23  23108009.414 8 120329442.141 8     -1171.676          48.000
C25  24940547.906 7 129871887.599 7     -3272.520          42.000
C28  24393247.836 5 127022041.619 5      2389.688          30.000
E13  23447665.266 8 123218329.597 8     -1009.582          51.000    23447668.094 8  94414067.626 8      -773.576          51.000
E21  23992491.047 8 126081384.693 8     -1487.477          51.000    23992493.914 8  96607800.071 8     -1139.755          51.000
E26  23343182.312 8 122669245.600 8      1544.062          51.000    23343187.688 8  93993396.279 8      1183.104          51.000
E27                                                                  27076931.836 5 109027554.539 5     -2398.285          35.000
> 2020 05 12 14 12  0.0000000  0 16        .000000000000
G18  20756667.719 8 109077098.552 8     -1581.543          49.000    20756667.570 8  84995125.919 8     -1232.371          48.000
G20  22009821.227 8 115662409.916 8      2439.961          51.000    22009819.859 7  90126605.500 7      1901.271          43.000
G21  21119016.555 8 110981244.768 8     -1444.648          48.000    21119015.133 7  86478869.082 7     -1125.700          47.000
G26  20335089.875 8 106861607.149 8      -625.520          51.000    20335091.383 8  83268805.484 8      -487.418          51.000
R12  20620654.586 8 110151806.104 8     -3328.574          51.000    20620658.703 8  85673626.294 8     -2588.891          48.000
R22  20068747.031 5 107128332.961 5     -1909.738          32.000    20068751.398 6  83322042.238 6     -1485.349          38.000
R23  20547247.750 5 109913898.809 5      1968.254          35.000
C05  39616674.203 5 206294418.021 5         5.312          35.000
C11  22123597.547 8 115203401.211 8      -985.344          50.000    22123597.398 8  89082603.090 8      -761.973          51.000
C23  23114806.406 8 120364833.946 8     -1187.555          48.000
C25  24959413.297 6 129970123.171 6     -3276.414          41.000
C28  24379494.320 4 126950420.784 4      2385.621          29.000
E13  23453449.492 8 123248725.672 8     -1016.859          51.000    23453452.125 8  94437358.119 8      -779.167          51.000
E21  24001018.086 8 126126194.254 8     -1499.879          51.000    24001020.914 8  96642134.669 8     -1149.285          51.000
E26  23334389.930 8 122623041.029 8      1536.184          51.000    23334395.672 8  93957992.782 8      1177.055          51.000
E27  27094801.438 6 142384142.429 6     -3133.082          36.000    27094810.742 5 109099539.882 5     -2400.916          34.000
> 2020 05 12 14 12 30.0000000  0 17        .000000000000
G18  20765735.406 8 109124749.407 8     -1594.602          48.000    20765735.508 8  85032256.452 8     -1242.547          48.000
G20  21995927.250 8 115589395.037 8      2428.316          51.000    21995925.602 7  90069710.835 7      1892.198          44.000
G21  21127292.906 8 111024737.690 8     -1454.215          48.000    21127291.477 8  86512759.666 8     -1133.154          48.000
G26  20338710.086 8 106880630.352 8      -641.996          51.000    20338711.844 8  83283628.743 8      -500.257          51.000
R12  20639397.383 8 110251924.342 8     -3345.328          51.000    20639401.148 7  85751495.984 7     -2601.925          47.000
R22  20079503.141 5 107185749.858 5     -1917.621          33.000    20079508.555 6  83366699.830 6     -1491.486          36.000
R23  20536238.859 5 109855021.213 5      1958.078          35.000
C05  39616639.250 5 206294235.790 5         6.699          35.000
C11  22129292.242 8 115233055.947 8      -990.965          49.000    22129291.984 8  89105533.998 8      -766.355          51.000
C12  25374828.961 4 132133403.841 4     -2622.211          29.000    25374823.000 5 102173898.794 5     -2027.584          35.000
C23  23121691.672 7 120400688.015 7     -1202.074          47.000
C25  24978299.406 6 130068466.077 6     -3279.055          40.000
C28  24365761.883 5 126878918.094 5      2382.262          34.000
E13  23459273.641 8 123279331.039 8     -1022.945          51.000    23459276.234 8  94460808.977 8      -783.833          51.000
E21  24009613.461 8 126171364.104 8     -1510.969          51.000    24009616.531 8  96676745.313 8     -1157.758          51.000
E26  23325640.570 8 122577062.889 8      1529.551          51.000    23325645.734 8  93922762.777 8      1171.922          51.000
E27  27112694.664 6 142478168.580 6     -3134.695          36.000    27112704.859 5 109171623.822 5     -2401.918          32.000
> 2020 05 12 14 13  0.0000000  0 18        .000000000000
G18  20774892.008 8 109172868.192 8     -1611.664          48.000    20774891.812 7  85069751.607 7     -1255.842          47.000
G20  21982114.594 8 115516809.041 8      2412.504          51.000    21982113.234 7  90013150.359 7      1879.873          45.000
G21  21135638.688 8 111068594.743 8     -1467.844          49.000    21135637.203 8  86546933.971 8     -1143.774          49.000
G26  20342438.727 8 106900223.716 8      -662.441          51.000    20342440.492 8  83298896.291 8      -516.188          51.000
G31  24479088.273 5 128638507.958 5     -3363.020          31.000    24479073.648 4 100237718.977 4     -2620.535          29.000
R12  20658247.820 8 110352617.672 8     -3365.910          51.000    20658250.844 7  85829812.946 7     -2617.933          46.000
R22  20090320.219 5 107243494.684 5     -1930.160          35.000    20090325.438 5  83411612.485 5     -1501.236          32.000
C05  39616612.094 5 206294093.798 5         4.480          35.000
C11  22135034.461 8 115262957.508 8     -1000.703          50.000    22135034.000 8  89128655.759 8      -773.762          51.000
C12                                                                  25389944.219 5 102234784.424 5     -2030.415          32.000
C23  23128675.477 8 120437054.295 8     -1220.582          49.000
C25  24997216.117 6 130166965.189 6     -3285.613          39.000
C28  24352063.289 6 126807585.095 6      2375.477          39.000
E13  23465147.352 8 123310196.285 8     -1033.000          51.000    23465149.781 8  94484458.964 8      -791.511          51.000
E15  26887084.953 5 141292584.223 5     -2580.562          33.000    26887088.594 5 108263161.748 5     -1977.036          34.000
E21  24018287.125 8 126216945.225 8     -1526.062          51.000    24018290.305 8  96711671.083 8     -1169.303          51.000
E26  23316944.305 8 122531362.745 8      1518.906          51.000    23316947.750 8  93887745.793 8      1163.783          51.000
E27  27130611.648 6 142572324.038 6     -3140.535          37.000    27130624.531 5 109243781.866 5     -2406.064          31.000
> 2020 05 12 14 13 30.0000000  0 18        .000000000000
G18  20784130.789 8 109221418.523 8     -1624.773          48.000    20784130.703 8  85107583.005 8     -1266.060          48.000
G20  21968377.539 8 115444620.716 8      2400.375          50.000    21968376.492 7  89956899.738 7      1870.422          45.000
G21  21144046.891 8 111112779.720 8     -1477.559          48.000    21144045.461 8  86581363.817 8     -1151.344          48.000
G26  20346269.273 8 106920352.724 8      -679.203          51.000    20346270.922 8  83314581.232 8      -529.249          51.000
G31  24498285.875 5 128739406.676 5     -3363.238          30.000    24498277.711 4 100316340.182 4     -2620.711          27.000
R12  20677198.141 8 110453847.333 8     -3382.512          49.000    20677201.086 7  85908547.053 7     -2630.842          47.000
R23  20514430.062 5 109738362.452 5      1931.363          34.000
C05  39616586.125 5 206293958.836 5         5.043          35.000
C11  22140817.594 8 115293071.058 8     -1006.641          50.000    22140816.867 8  89151941.457 8      -778.314          51.000
C12                                                                  25405071.492 5 102295688.195 5     -2029.708          33.000
C23  23135751.383 8 120473897.530 8     -1235.371          48.000
C25  25016156.141 6 130265583.991 6     -3288.211          36.000
C28  24338389.484 6 126736387.910 6      2371.773          38.000
E13  23471063.773 8 123341285.878 8     -1039.246          51.000    23471065.805 8  94508280.854 8      -796.320          51.000
E15  26901812.938 5 141369980.409 5     -2579.770          34.000    26901817.500 5 108322467.613 5     -1976.201          33.000
E21  24027032.414 8 126262902.468 8     -1537.406          51.000    24027035.461 8  96746885.063 8     -1177.998          51.000
E26  23308294.664 8 122485906.098 8      1511.988          51.000    23308296.539 8  93852915.407 8      1158.533          51.000
E27  27148546.594 6 142666572.951 6     -3142.316          38.000
> 2020 05 12 14 14  0.0000000  0 20        .000000000000
G18  20793448.047 7 109270381.202 7     -1639.793          47.000    20793448.438 7  85145735.732 7     -1277.761          47.000
G20  21954713.195 8 115372815.296 8      2386.285          49.000    21954712.984 7  89900947.471 7      1859.443          47.000
G21  21152513.773 8 111157273.546 8     -1489.117          49.000    21152512.422 8  86616034.337 8     -1160.351          49.000
G26  20350198.422 8 106941000.112 8      -697.754          51.000    20350200.133 8  83330670.106 8      -543.704          51.000
G31  24517486.695 5 128840309.446 5     -3364.051          32.000    24517477.766 5 100394965.547 5     -2621.347          32.000
R12  20696243.984 8 110555592.268 8     -3400.871          49.000    20696248.602 7  85987681.968 7     -2645.122          47.000
R23  20503636.547 5 109680598.738 5      1918.707          35.000
R24  23612951.273 6 126269051.616 6      3261.207          37.000    23612960.047 4  98209305.915 4      2536.494          29.000
C05  39616558.156 5 206293813.829 5         4.043          35.000
C11  22146638.062 8 115323378.927 8     -1014.418          51.000    22146637.148 8  89175377.416 8      -784.373          51.000
C12                                                                  25420199.086 5 102356596.849 5     -2030.874          35.000
C21  24966188.820 5 130005482.901 5       796.137          30.000
C23  23142915.086 8 120511199.511 8     -1251.945          49.000
C25  25035116.008 5 130364303.211 5     -3293.102          32.000
C28  24324737.125 5 126665309.625 5      2366.137          32.000
E13  23477019.344 8 123372581.608 8     -1047.457          51.000    23477021.109 8  94532260.692 8      -802.603          51.000
E15  26916540.516 5 141447374.300 5     -2579.977          32.000    26916544.773 5 108381771.461 5     -1977.509          30.000
E21  24035845.938 8 126309217.984 8     -1550.680          51.000    24035848.602 8  96782373.564 8     -1188.156          51.000
E26  23299687.898 8 122440675.703 8      1503.062          51.000    23299689.320 8  93818258.386 8      1151.664          50.000
E27  27166495.258 6 142760896.660 6     -3146.094          39.000
> 2020 05 12 14 14 30.0000000  0 17        .000000000000
G10  24127806.477 6 126792483.599 6      3466.805          36.000
G18  20802844.219 8 109319758.634 8     -1658.879          48.000    20802844.641 8  85184211.629 8     -1292.633          48.000
G20  21941122.508 7 115301399.866 7      2368.137          47.000    21941123.562 7  89845299.116 7      1845.304          46.000
