     3.04           OBSERVATION DATA    M (MIXED)           RINEX VERSION / TYPE
Convert 2.6.2       NovAtel             20200518 125010 UTC PGM / RUN BY / DATE 
Rinex Version 3.04 Observation File                         COMMENT             
                                                            MARKER NAME         
                                                            MARKER NUMBER       
                                                            MARKER TYPE         
                                                            OBSERVER / AGENCY   
                    NovAtel GPSCard                         REC # / TYPE / VERS 
                                                            ANT # / TYPE        
        0.0000        0.0000        0.0000                  APPROX POSITION XYZ 
        0.0000        0.0000        0.0000                  ANTENNA: DELTA H/E/N
G    8 C1C L1C D1C S1C C2W L2W D2W S2W                      SYS / # / OBS TYPES 
R    8 C1C L1C D1C S1C C2P L2P D2P S2P                      SYS / # / OBS TYPES 
E    8 C1C L1C D1C S1C C7Q L7Q D7Q S7Q                      SYS / # / OBS TYPES 
C    8 C2I L2I D2I S2I C7I L7I D7I S7I                      SYS / # / OBS TYPES 
DBHZ                                                        SIGNAL STRENGTH UNIT
    30.000                                                  INTERVAL            
  2020    05    17    04    00    0.0000000     GPS         TIME OF FIRST OBS   
  2020    05    17    04    59   30.0000000     GPS         TIME OF LAST OBS    
G L1C  0.00000  08 G30 G13 G28 G05 G24 G17 G15 G19          SYS / PHASE SHIFT   
G L2W  0.00000  07 G30 G13 G28 G05 G17 G15 G19              SYS / PHASE SHIFT   
R L1C  0.00000  05 R02 R13 R12 R14 R03                      SYS / PHASE SHIFT   
R L2P  0.25000  05 R02 R13 R12 R14 R03                      SYS / PHASE SHIFT   
E L1C  0.50000  05 E01 E19 E21 E04 E31                      SYS / PHASE SHIFT   
E L7Q -0.25000  05 E01 E19 E21 E04 E31                      SYS / PHASE SHIFT   
C L2I  0.00000  05 C24 C25 C14 C05 C26                      SYS / PHASE SHIFT   
C L7I  0.00000  02 C14 C05                                  SYS / PHASE SHIFT   
  5 R02 -4 R13 -2 R12 -1 R14 -7 R03  5                      GLONASS SLOT / FRQ #
 C1C  -71.950 C2C  -71.950 C2P  -71.950                     GLONASS COD/PHS/BIS 
     0     0     0     0GPS                                 LEAP SECONDS        
                                                            END OF HEADER       
> 2020 05 17 04 00  0.0000000  0 15      -0.000000000000
G30  21764408.875 6 114372735.661 6     -2244.219          36.000    21764409.523 5  89121614.259 5     -1748.749          35.000  
G13  20300144.141 7 106677972.619 7       831.266          42.000    20300143.508 6  83125668.339 6       647.737          40.000  
G28  20882695.258 8 109739357.305 8       159.812          49.000    20882694.328 8  85511203.898 8       124.529          49.000  
G05  22048870.242 8 115867590.733 8     -2886.715          48.000    22048870.992 8  90286397.308 8     -2249.389          48.000  
R02  19609509.047 8 104639704.516 8     -2063.852          49.000    19609510.773 7  81386439.339 7     -1605.221          47.000  
R13  19738783.734 6 105403620.098 6      1765.832          41.000    19738785.984 7  81980595.017 7      1373.425          45.000  
R12  19891664.336 6 106257334.597 6     -2276.379          40.000    19891667.625 7  82644588.560 7     -1770.520          42.000  
E01  23774055.867 8 124933495.078 8      1064.254          51.000    23774058.070 8  95728298.981 8       815.474          51.000  
E19  25411137.930 8 133536415.624 8     -2011.363          48.000    25411141.391 8 102320118.192 8     -1541.121          48.000  
E21  24744539.664 8 130033414.008 8     -1713.902          49.000    24744542.016 8  99636021.426 8     -1313.173          48.000  
E04  23618993.445 7 124118653.802 7       751.285          44.000    23618996.141 7  95103903.165 7       575.675          47.000  
C24  21814612.953 8 113594438.942 8      -405.816          51.000                                                                  
C25  23725455.430 8 123544647.359 8      2388.426          50.000                                                                  
C14  22551635.898 8 117432299.556 8     -2240.707          48.000    22551634.227 8  90806093.471 8     -1732.687          51.000  
C05  39804291.375 6 207271389.605 6        12.875          36.000    39804288.773 6 160275375.707 6        10.089          39.000  
> 2020 05 17 04 00 30.0000000  0 16      -0.000000000000
G30  21777239.500 6 114440157.117 6     -2251.449          38.000    21777240.578 6  89174150.433 6     -1754.377          37.000  
G13  20295433.203 7 106653217.430 7       818.594          43.000    20295432.398 6  83106378.593 6       637.865          41.000  
G28  20881835.969 8 109734842.560 8       140.680          49.000    20881835.305 8  85507685.916 8       109.621          49.000  
G05  22065384.383 8 115954373.174 8     -2899.148          49.000    22065385.219 8  90354019.999 8     -2259.077          49.000  
R02  19621169.750 8 104701936.746 8     -2085.527          48.000    19621172.953 7  81434842.175 7     -1622.077          46.000  
R13  19728918.281 6 105350940.067 6      1746.098          39.000    19728921.047 7  81939621.646 7      1358.076          45.000  
R12  19904493.734 7 106325867.050 7     -2292.355          43.000    19904496.852 7  82697891.595 7     -1782.947          42.000  
E01  23768015.773 8 124901752.949 8      1051.516          51.000    23768017.602 8  95703977.078 8       805.707          51.000  
E19  25422643.844 8 133596876.434 8     -2019.699          48.000    25422646.344 7 102366445.259 7     -1547.566          47.000  
E21  24754350.383 8 130084969.211 8     -1723.551          49.000    24754352.594 7  99675524.739 7     -1320.590          47.000  
E04  23614732.383 7 124096260.027 7       741.367          45.000    23614734.531 7  95086744.287 7       568.025          47.000  
C24  21816984.586 8 113606789.984 8      -418.062          51.000                                                                  
C25  23711718.469 8 123473114.829 8      2379.891          50.000                                                                  
C14  22564579.570 8 117499703.113 8     -2253.211          49.000    22564577.383 8  90858214.114 8     -1742.335          51.000  
C26  23900913.805 5 124458336.364 5     -2646.461          33.000                                                                  
C05                                                                  39804213.633 6 160275073.038 6         9.838          39.000  
> 2020 05 17 04 01  0.0000000  0 16      -0.000000000000
G30  21790112.836 6 114507805.558 6     -2257.938          36.000    21790113.812 5  89226863.489 5     -1759.429          32.000  
G13  20290795.375 7 106628846.497 7       806.547          43.000    20290794.234 7  83087388.240 7       628.475          42.000  
G28  20881086.555 8 109730904.508 8       122.129          48.000    20881085.719 8  85504617.277 8        95.165          48.000  
G05  22081969.258 8 116041525.420 8     -2910.664          50.000    22081969.586 8  90421930.842 8     -2268.051          50.000  
R02  19632954.352 8 104764821.031 8     -2106.461          51.000    19632957.039 7  81483752.166 7     -1638.359          47.000  
R13  19719165.141 6 105298861.352 6      1726.355          40.000    19719168.625 7  81899115.978 7      1342.721          45.000  
R12  19917411.812 7 106394870.249 7     -2307.535          42.000    19917414.008 7  82751560.689 7     -1794.753          42.000  
E01  23762048.977 8 124870396.966 8      1039.254          51.000    23762050.609 8  95679951.059 8       796.336          51.000  
E19  25434198.461 7 133657593.671 7     -2027.609          46.000    25434199.289 7 102412968.802 7     -1553.609          46.000  
E21  24764217.461 8 130136820.633 8     -1732.738          48.000    24764219.742 7  99715255.040 7     -1327.737          47.000  
E04  23610528.992 7 124074169.470 7       731.926          46.000    23610530.375 7  95069817.758 7       560.776          47.000  
C24  21819427.742 8 113619510.484 8      -429.656          51.000                                                                  
C25  23698031.406 8 123401840.199 8      2372.066          50.000                                                                  
C14  22577596.203 8 117567482.682 8     -2265.062          51.000    22577593.500 8  90910625.501 8     -1751.481          51.000  
C26  23916168.422 5 124537787.973 5     -2649.965          33.000                                                                  
C05  39804143.680 5 207270621.389 5        12.812          35.000    39804141.023 6 160274780.836 6        10.089          39.000  
> 2020 05 17 04 01 30.0000000  0 16      -0.000000000000
G30  21803024.516 5 114575656.524 5     -2264.441          34.000    21803026.852 5  89279734.327 5     -1764.503          34.000  
G13  20286226.750 7 106604837.749 7       794.617          44.000    20286225.625 6  83068680.100 6       619.179          41.000  
G28  20880442.414 8 109727519.642 8       103.980          48.000    20880441.555 8  85501979.701 8        81.024          48.000  
G05  22098619.727 8 116129021.602 8     -2921.863          51.000    22098619.297 8  90490109.677 8     -2276.777          51.000  
R02  19644857.336 8 104828332.164 8     -2127.098          51.000    19644859.320 8  81533149.672 8     -1654.410          48.000  
R13  19709521.156 6 105247360.867 6      1707.418          41.000    19709524.414 7  81859060.060 7      1327.992          45.000  
R12  19930412.031 7 106464317.650 7     -2321.895          42.000    19930415.172 7  82805575.385 7     -1805.918          43.000  
E01  23756151.273 8 124839404.150 8      1027.465          51.000    23756152.734 8  95656203.305 8       787.270          51.000  
E19  25445796.562 7 133718543.800 7     -2035.059          43.000    25445796.648 7 102459670.812 7     -1559.328          45.000  
E21  24774136.203 8 130188943.649 8     -1741.535          48.000    24774138.547 7  99755193.422 7     -1334.349          46.000  
E04  23606379.070 7 124052360.049 7       722.746          46.000    23606379.930 7  95053106.639 7       553.658          47.000  
C24  21821936.883 8 113632576.495 8      -440.902          51.000                                                                  
C25  23684389.539 8 123330801.128 8      2364.395          49.000                                                                  
C14  22590680.766 8 117635614.109 8     -2276.512          51.000    22590677.945 8  90963309.011 8     -1760.307          51.000  
C26  23931448.227 5 124617351.043 5     -2653.371          33.000                                                                  
C05  39804069.266 6 207270233.201 6        14.223          36.000    39804066.758 6 160274481.419 6        10.587          39.000  
> 2020 05 17 04 02  0.0000000  0 16      -0.000000000000
G30  21815976.516 6 114643720.556 6     -2271.844          38.000    21815979.961 6  89332771.228 6     -1770.268          38.000  
G13  20281729.680 7 106581204.207 7       781.773          46.000    20281728.492 6  83050264.351 6       609.174          41.000  
G28  20879905.906 8 109724699.948 8        84.844          49.000    20879905.070 8  85499782.523 8        66.109          48.000  
G05  22115337.406 8 116216870.763 8     -2933.906          51.000    22115336.086 8  90558563.553 8     -2286.161          51.000  
R02  19656879.586 8 104892480.858 8     -2148.641          51.000    19656881.344 8  81583043.072 8     -1671.165          49.000  
R13  19699987.867 6 105196450.616 6      1687.445          41.000    19699990.594 7  81819463.208 7      1312.458          46.000  
R12  19943497.406 7 106534218.129 7     -2337.164          44.000    19943501.320 6  82859942.398 6     -1817.798          41.000  
E01  23750325.062 8 124808786.458 8      1014.637          51.000    23750326.141 8  95632742.974 8       777.440          51.000  
E19  25457439.859 6 133779738.316 6     -2043.594          40.000    25457440.844 7 102506560.136 7     -1565.892          46.000  
E21  24784108.562 7 130241348.610 7     -1751.250          47.000    24784110.734 7  99795347.857 7     -1341.862          46.000  
E04  23602285.039 7 124030844.571 7       712.578          47.000    23602285.844 7  95036620.736 7       546.011          47.000  
C24  21824514.594 8 113645998.809 8      -453.059          51.000                                                                  
C25  23670794.891 8 123260009.941 8      2355.891          49.000                                                                  
C14  22603835.000 8 117704107.749 8     -2288.805          51.000    22603832.289 8  91016272.638 8     -1769.904          51.000  
C26  23946755.461 5 124697033.788 5     -2657.762          31.000                                                                  
C05                                                                  39803992.969 6 160274183.904 6        10.161          39.000  
> 2020 05 17 04 02 30.0000000  0 16      -0.000000000000
G30  21828967.539 5 114711989.772 5     -2278.438          34.000    21828971.922 5  89385967.985 5     -1775.412          34.000  
G13  20277302.969 7 106557940.675 7       769.340          46.000    20277301.586 6  83032136.920 6       599.486          41.000  
G28  20879475.742 8 109722437.966 8        65.922          49.000    20879474.445 8  85498019.927 8        51.368          48.000  
G05  22132120.414 8 116305063.363 8     -2945.414          51.000    22132118.227 8  90627285.047 8     -2295.128          51.000  
R02  19669019.484 8 104957259.410 8     -2169.684          51.000    19669021.414 8  81633426.370 8     -1687.532          50.000  
R13  19690564.016 7 105146125.235 7      1667.648          42.000    19690566.453 7  81780321.273 7      1297.060          45.000  
R12  19956665.836 7 106604561.459 7     -2352.074          44.000    19956669.391 6  82914653.875 6     -1829.391          40.000  
E01  23744568.875 8 124778537.306 8      1002.156          51.000    23744569.656 8  95609565.041 8       767.836          51.000  
E19  25469129.242 7 133841170.286 7     -2051.750          42.000    25469131.453 7 102553631.352 7     -1572.058          47.000  
E21  24794132.875 7 130294027.341 7     -1760.570          47.000    24794134.828 7  99835712.051 7     -1348.988          45.000  
E04  23598245.734 7 124009617.368 7       702.648          46.000    23598246.547 7  95020355.723 7       538.453          47.000  
C24  21827159.414 8 113659769.856 8      -464.902          51.000                                                                  
C25  23657246.523 8 123189460.562 8      2347.641          49.000                                                                  
C14  22617056.711 8 117772955.607 8     -2300.859          49.000    22617054.648 8  91069510.140 8     -1779.159          51.000  
C26  23962084.297 5 124776849.201 5     -2660.891          30.000                                                                  
C05  39803920.828 5 207269460.528 5        13.441          35.000    39803918.320 6 160273883.121 6        10.040          39.000  
> 2020 05 17 04 03  0.0000000  0 15      -0.000000000000
G13  20272946.797 7 106535047.811 7       757.625          46.000    20272945.164 7  83014298.335 7       590.360          42.000  
G28  20879151.516 8 109720733.456 8        48.254          50.000    20879150.141 8  85496691.746 8        37.600          48.000  
G05  22148968.297 8 116393597.108 8     -2956.121          51.000    22148965.516 8  90696272.358 8     -2303.475          51.000  
R02  19681276.773 8 105022666.195 8     -2189.930          51.000    19681279.047 8  81684298.330 8     -1703.276          50.000  
R13  19681249.641 7 105096384.867 7      1648.902          42.000    19681251.258 7  81741634.333 7      1282.480          44.000  
R12  19969916.969 7 106675344.496 7     -2365.906          44.000    19969920.711 6  82969707.336 6     -1840.150          39.000  
E01  23738882.672 8 124748656.715 8       990.559          51.000    23738883.547 8  95586669.525 8       758.955          51.000  
E19  25480864.930 7 133902839.094 7     -2058.961          45.000    25480866.977 8 102600884.099 8     -1577.724          48.000  
E21  24804208.953 8 130346978.318 8     -1768.891          48.000    24804210.828 7  99876284.858 7     -1355.381          45.000  
E04  23594261.391 7 123988679.406 7       693.859          47.000    23594262.023 8  95004312.347 8       531.551          48.000  
C24  21829870.484 8 113673888.568 8      -475.684          51.000                                                                  
C25  23643744.688 8 123119153.544 8      2340.141          50.000                                                                  
C14  22630345.547 8 117842156.300 8     -2311.887          48.000    22630344.484 8  91123020.531 8     -1787.698          51.000  
C26  23977432.812 5 124856760.173 5     -2665.035          32.000                                                                  
C05  39803845.297 6 207269067.346 6        13.984          36.000    39803842.891 6 160273579.031 6        10.699          39.000  
> 2020 05 17 04 03 30.0000000  0 14      -0.000000000000
G13  20268660.922 7 106512524.978 7       744.102          45.000    20268659.055 7  82996748.055 7       579.820          43.000  
G28  20878933.047 8 109719584.200 8        28.613          51.000    20878931.438 7  85495796.203 7        22.296          47.000  
G05  22165879.930 8 116482467.030 8     -2968.293          51.000    22165877.141 8  90765521.641 8     -2312.956          51.000  
R02  19693651.266 8 105088697.468 8     -2211.871          51.000    19693653.734 8  81735655.995 8     -1720.344          50.000  
R13  19672044.156 6 105047227.531 6      1628.590          41.000    19672045.031 7  81703400.869 7      1266.681          45.000  
R12  19983249.172 7 106746562.242 7     -2381.633          42.000    19983253.445 6  83025098.910 6     -1852.381          37.000  
E01  23733266.086 8 124719142.733 8       977.172          51.000    23733267.164 8  95564054.917 8       748.689          51.000  
E19  25492645.219 7 133964742.114 7     -2067.898          46.000    25492647.430 8 102648316.269 8     -1584.489          48.000  
E21  24814336.156 7 130400197.994 7     -1778.980          47.000    24814338.055 7  99917063.559 7     -1363.167          44.000  
E04  23590332.156 8 123968029.618 8       682.957          48.000    23590332.352 8  94988489.763 8       523.257          48.000  
C24  21832648.039 8 113688351.976 8      -488.297          51.000                                                                  
C25  23630289.250 8 123049087.346 8      2331.133          51.000                                                                  
C14  22643701.352 7 117911706.445 7     -2324.523          47.000    22643701.070 8  91176801.147 8     -1797.599          51.000  
C05  39803768.594 6 207268667.869 6        13.262          36.000    39803766.266 6 160273270.121 6         9.850          39.000  
> 2020 05 17 04 04  0.0000000  0 14      -0.000000000000
G13  20264446.906 7 106490380.436 7       731.961          47.000    20264445.227 7  82979492.568 7       570.359          43.000  
G28  20878821.367 8 109718997.139 8        10.457          50.000    20878819.602 7  85495338.768 7         8.151          47.000  
G05  22182855.961 8 116571677.767 8     -2979.172          51.000    22182853.930 8  90835036.501 8     -2321.433          51.000  
R02  19706144.000 8 105155359.060 8     -2232.363          51.000    19706146.164 8  81787503.885 8     -1736.283          50.000  
R13  19662948.812 6 104998660.890 6      1609.047          40.000    19662950.289 7  81665626.823 7      1251.481          46.000  
R12  19996663.359 7 106818218.603 7     -2395.555          44.000    19996666.352 5  83080831.571 5     -1863.213          35.000  
E01  23727720.617 8 124690002.673 8       965.395          51.000    23727721.594 8  95541726.808 8       739.754          51.000  
E19  25504471.656 7 134026886.447 7     -2075.242          47.000    25504473.906 8 102695933.377 8     -1590.056          49.000  
E21  24824515.828 7 130453692.064 7     -1787.500          47.000    24824517.562 7  99958052.504 7     -1369.617          45.000  
E04  23586459.430 8 123947676.219 8       673.773          49.000    23586459.117 8  94972894.297 8       516.295          49.000  
C24  21835492.719 8 113703166.220 8      -499.492          51.000                                                                  
C25  23616882.039 8 122979269.760 8      2323.281          51.000                                                                  
C14  22657125.695 8 117981611.863 8     -2335.797          48.000    22657125.719 8  91230856.464 8     -1806.166          51.000  
C05  39803692.102 6 207268269.417 6        13.422          36.000    39803689.734 6 160272961.957 6        10.581          39.000  
> 2020 05 17 04 04 30.0000000  0 14      -0.000000000000
G13  20260304.070 7 106468610.161 7       719.098          47.000    20260302.727 7  82962528.695 7       560.336          42.000  
G28  20878815.492 8 109718966.777 8        -8.555          51.000    20878813.711 7  85495315.122 7        -6.666          46.000  
G05  22199894.820 8 116661221.285 8     -2990.508          49.000    22199893.594 8  90904810.687 8     -2330.267          49.000  
R02  19718753.727 8 105222645.038 8     -2253.500          51.000    19718755.734 8  81839837.370 8     -1752.723          50.000  
R13  19653963.086 6 104950680.312 6      1589.219          41.000    19653965.125 7  81628308.582 7      1236.059          44.000  
R12  20010157.773 6 106890305.415 6     -2410.312          41.000    20010161.109 6  83136899.052 6     -1874.685          37.000  
E01  23722245.484 8 124661231.505 8       952.633          51.000    23722246.445 8  95519681.356 8       729.922          51.000  
E19  25516343.102 8 134089266.289 8     -2083.508          48.000    25516345.367 8 102743730.891 8     -1596.374          49.000  
E21  24834746.586 8 130507453.956 8     -1796.816          48.000    24834748.328 7  99999246.663 7     -1376.734          45.000  
E04  23582641.945 8 123927615.124 8       663.449          49.000    23582641.492 8  94957522.815 8       508.408          48.000  
C24  21838403.469 8 113718325.222 8      -511.312          51.000                                                                  
C25  23603521.727 8 122909696.203 8      2314.797          51.000                                                                  
C14  22670617.492 8 118051866.104 8     -2347.938          50.000    22670617.250 8  91285181.484 8     -1815.526          51.000  
C05  39803614.836 6 207267866.775 6        13.137          36.000    39803612.438 6 160272650.585 6        10.264          39.000  
> 2020 05 17 04 05  0.0000000  0 14      -0.000000000000
G13  20256235.539 7 106447230.385 7       706.844          46.000    20256234.391 7  82945869.116 7       550.787          44.000  
G28  20878918.445 8 109719507.820 8       -26.969          50.000    20878916.406 7  85495736.708 7       -21.012          46.000  
G05  22216999.867 8 116751110.391 8     -3001.316          51.000    22216998.203 8  90974854.146 8     -2338.689          51.000  
R02  19731482.812 8 105290568.647 8     -2274.000          51.000    19731484.648 8  81892666.787 8     -1768.670          50.000  
R13  19645090.500 6 104903302.054 6      1569.809          39.000    19645091.938 7  81591458.807 7      1220.963          43.000  
R12  20023735.336 7 106962834.716 7     -2424.379          43.000    20023739.039 6  83193310.735 6     -1885.628          36.000  
E01  23716843.383 8 124632844.443 8       940.508          51.000    23716844.977 8  95497930.237 8       720.655          51.000  
E19  25528262.141 8 134151896.576 8     -2091.207          49.000    25528264.305 8 102791720.303 8     -1602.354          49.000  
E21  24845030.844 8 130561497.400 8     -1805.500          48.000    24845032.930 7 100040656.532 7     -1383.319          45.000  
E04  23578882.883 8 123907862.523 8       653.883          48.000    23578882.719 8  94942387.689 8       501.114          49.000  
C24  21841383.625 8 113733843.091 8      -522.594          51.000                                                                  
C25  23590210.516 8 122840382.336 8      2306.770          50.000                                                                  
C14  22684179.352 8 118122482.837 8     -2359.371          51.000    22684178.375 8  91339786.808 8     -1824.277          51.000  
C05  39803539.633 6 207267475.137 6        12.941          36.000    39803537.156 6 160272347.698 6        10.539          39.000  
> 2020 05 17 04 05 30.0000000  0 14      -0.000000000000
G13  20252238.359 7 106426225.210 7       694.066          46.000    20252237.203 7  82929501.427 7       540.831          44.000  
G28  20879126.820 8 109720603.084 8       -45.516          49.000    20879124.648 7  85496590.181 7       -35.467          46.000  
G05  22234167.367 8 116841325.163 8     -3012.418          51.000    22234164.227 8  91045151.333 8     -2347.343          51.000  
R02  19744327.594 8 105359111.307 8     -2294.816          51.000    19744329.383 8  81945977.702 8     -1784.858          50.000  
R13  19636326.859 6 104856508.070 6      1550.398          39.000    19636328.953 7  81555063.515 7      1205.866          44.000  
R12  20037391.828 7 107035786.378 7     -2438.238          42.000    20037394.641 6  83250050.888 6     -1896.411          36.000  
E01  23711511.133 8 124604824.532 8       928.062          51.000    23711513.375 8  95476460.461 8       711.134          51.000  
E19  25540225.203 8 134214759.941 8     -2099.145          49.000    25540227.234 8 102839888.266 8     -1608.403          48.000  
E21  24855364.961 7 130615803.858 7     -1814.410          47.000    24855367.594 7 100082267.940 7     -1390.185          45.000  
E04  23575179.516 8 123888402.388 8       644.051          48.000    23575179.734 8  94927476.675 8       493.452          50.000  
C24  21844429.117 8 113749701.946 8      -534.113          51.000                                                                  
C25  23576945.273 8 122771311.862 8      2298.512          50.000                                                                  
C14  22697807.406 8 118193443.779 8     -2370.895          51.000    22697805.508 8  91394658.280 8     -1833.348          51.000  
C05  39803463.367 6 207267077.590 6        13.188          36.000    39803460.781 6 160272040.264 6        10.430          39.000  
> 2020 05 17 04 06  0.0000000  0 14      -0.000000000000
G13  20248312.750 7 106405596.235 7       681.680          46.000    20248311.461 7  82913426.893 7       531.179          45.000  
G28  20879440.688 8 109722252.680 8       -63.859          49.000    20879438.148 7  85497875.579 7       -49.761          46.000  
G05  22251396.555 8 116931863.546 8     -3022.879          51.000    22251392.078 8  91115700.672 8     -2355.494          51.000  
R02  19757287.805 8 105428272.053 8     -2315.203          50.000    19757289.906 8  81999769.383 8     -1800.714          50.000  
R13  19627673.719 6 104810300.073 6      1530.715          41.000    19627676.562 7  81519123.949 7      1190.556          45.000  
R12  20051126.852 7 107109157.519 7     -2452.184          44.000    20051129.797 6  83307117.308 6     -1907.257          37.000  
E01  23706249.312 8 124577172.281 8       916.086          51.000    23706251.156 8  95455272.377 8       701.933          51.000  
E19  25552232.180 8 134277856.038 8     -2106.617          49.000    25552233.953 8 102888234.563 8     -1614.090          49.000  
E21  24865748.891 7 130670372.246 7     -1822.762          46.000    24865751.836 7 100124080.088 7     -1396.650          45.000  
E04  23571532.141 8 123869236.191 8       634.430          49.000    23571532.805 8  94912790.858 8       486.143          51.000  
C24  21847540.023 8 113765901.238 8      -545.223          51.000                                                                  
C25  23563727.648 8 122702485.745 8      2290.547          50.000                                                                  
C14  22711501.328 8 118264748.008 8     -2382.027          51.000    22711498.508 8  91449795.193 8     -1841.938          51.000  
C05  39803386.031 6 207266675.639 6        13.738          36.000    39803383.414 6 160271728.627 6        10.992          39.000  
> 2020 05 17 04 06 30.0000000  0 14      -0.000000000000
G13  20244457.984 7 106385339.323 7       668.789          46.000    20244456.633 7  82897642.276 7       521.135          46.000  
G28  20879858.922 8 109724450.940 8       -82.578          48.000    20879856.398 7  85499588.498 7       -64.347          46.000  
G05  22268685.789 8 117022717.710 8     -3033.883          51.000    22268681.172 8  91186496.091 8     -2364.065          51.000  
R02  19770362.125 8 105498043.925 8     -2336.074          50.000    19770365.133 8  82054036.407 8     -1816.947          50.000  
R13  19619129.625 6 104764672.695 6      1511.027          40.000    19619132.609 7  81483635.969 7      1175.244          45.000  
R12  20064939.758 7 107182939.969 7     -2466.617          42.000    20064942.453 6  83364503.584 6     -1918.480          37.000  
E01  23701056.523 8 124549882.648 8       903.441          51.000    23701057.828 8  95434362.135 8       692.236          51.000  
E19  25564282.141 8 134341179.770 8     -2114.773          48.000    25564283.844 8 102936755.274 8     -1620.349          49.000  
E21  24876181.484 8 130725196.055 8     -1831.855          48.000    24876184.375 7 100166087.920 7     -1403.511          44.000  
E04  23567939.977 8 123850359.788 8       624.266          50.000    23567941.062 8  94898327.114 8       478.301          51.000  
C24  21850715.172 8 113782434.960 8      -556.801          51.000                                                                  
C25  23550556.938 8 122633899.433 8      2281.977          50.000                                                                  
C14  22725259.359 8 118336389.087 8     -2393.867          50.000    22725256.375 8  91505192.563 8     -1851.000          51.000  
C05  39803306.609 6 207266262.254 6        13.594          36.000    39803304.008 6 160271408.961 6        10.666          39.000  
> 2020 05 17 04 07  0.0000000  0 15      -0.000000000000
G13  20240676.633 8 106365467.727 8       655.754          48.000    20240675.227 7  82882157.891 7       510.977          46.000  
G28  20880383.656 8 109727209.261 8      -101.512          48.000    20880381.523 7  85501737.866 7       -79.097          47.000  
G05  22286036.609 8 117113896.309 8     -3044.922          51.000    22286032.711 8  91257544.342 8     -2372.667          51.000  
R02  19783553.484 8 105568437.647 8     -2357.066          51.000    19783556.789 8  82108787.091 8     -1833.274          49.000  
R13  19610696.141 6 104719638.078 6      1490.969          41.000    19610699.547 7  81448609.036 7      1159.643          45.000  
R12  20078830.250 6 107257142.316 6     -2480.574          41.000    20078833.383 6  83422216.553 6     -1929.336          37.000  
E01  23695934.898 8 124522967.537 8       890.727          51.000    23695936.172 8  95413738.884 8       682.529          51.000  
E19  25576377.195 7 134404742.277 7     -2122.992          46.000    25576379.094 8 102985458.958 8     -1626.631          49.000  
E21  24886664.680 7 130780285.657 7     -1840.855          47.000    24886667.078 7 100208299.411 7     -1410.610          44.000  
E04  23564405.375 8 123831786.088 8       613.844          50.000    23564406.656 8  94884095.305 8       470.324          51.000  
C24  21853956.430 8 113799313.846 8      -568.617          51.000                                                                  
C25  23537433.961 8 122565565.342 8      2273.441          48.000                                                                  
C14  22739083.039 8 118408377.362 8     -2405.629          49.000    22739081.211 8  91560858.428 8     -1860.158          51.000  
C26  24100961.250 5 125500012.366 5     -2694.820          31.000                                                                  
C05                                                                  39803225.000 6 160271090.362 6        10.451          39.000  
> 2020 05 17 04 07 30.0000000  0 15      -0.000000000000
G13  20236969.641 8 106345987.264 8       643.363          48.000    20236968.352 7  82866978.298 7       501.322          46.000  
G28  20881015.898 8 109730531.937 8      -119.605          50.000    20881013.734 7  85504326.940 7       -93.199          47.000  
G05  22303449.461 8 117205401.810 8     -3055.113          50.000    22303446.562 8  91328847.336 8     -2380.608          50.000  
R02  19796862.211 8 105639456.297 8     -2377.137          51.000    19796865.523 7  82164023.803 7     -1848.888          46.000  
R13  19602375.055 6 104675201.333 6      1471.844          40.000    19602378.078 7  81414047.117 7      1144.768          45.000  
R12  20092800.242 7 107331766.550 7     -2494.078          42.000    20092803.188 6  83480257.555 6     -1939.842          37.000  
E01  23690885.703 8 124496431.645 8       878.691          51.000    23690886.719 8  95393406.197 8       673.262          51.000  
E19  25588517.773 7 134468547.819 7     -2130.312          43.000    25588520.680 8 103034348.892 8     -1632.381          49.000  
E21  24897199.125 7 130835644.217 7     -1849.289          45.000    24897200.828 7 100250716.974 7     -1416.932          43.000  
E04  23560929.508 8 123813520.721 8       604.195          50.000    23560930.930 8  94870099.748 8       462.994          51.000  
C24  21857264.922 8 113816541.535 8      -579.523          51.000                                                                  
C25  23524359.438 8 122497488.583 8      2265.527          49.000                                                                  
C14  22752973.781 8 118480716.046 8     -2416.617          48.000    22752973.406 8  91616795.280 8     -1868.721          51.000  
C26  24116493.625 5 125580898.342 5     -2697.578          32.000                                                                  
C05  39803149.469 5 207265444.271 5        13.730          35.000    39803147.047 6 160270776.380 6        10.714          39.000  
> 2020 05 17 04 08  0.0000000  0 15      -0.000000000000
G13  20233333.883 8 106326881.095 8       630.867          48.000    20233332.641 7  82852090.356 7       491.585          46.000  
G28  20881752.078 8 109734400.549 8      -137.742          50.000    20881750.031 8  85507341.430 8      -107.332          48.000  
G05  22320920.625 8 117297213.913 8     -3065.086          50.000    22320918.625 8  91400389.236 8     -2388.379          50.000  
R02  19810284.516 8 105711080.177 8     -2397.152          51.000    19810286.219 7  82219731.214 7     -1864.455          42.000  
R13  19594162.062 6 104631345.380 6      1452.312          40.000    19594165.062 7  81379936.948 7      1129.577          46.000  
R12  20106845.328 6 107406791.224 6     -2506.781          37.000    20106847.914 6  83538610.069 6     -1949.719          38.000  
E01  23685905.188 8 124470257.104 8       866.801          51.000    23685905.836 8  95373350.354 8       664.178          51.000  
E19  25600700.602 7 134532578.156 7     -2137.676          43.000    25600704.883 8 103083411.127 8     -1638.020          50.000  
E21  24907780.984 7 130891252.366 7     -1857.445          46.000    24907782.516 7 100293325.818 7     -1423.271          43.000  
E04  23557509.297 8 123795546.835 8       594.586          51.000    23557510.766 8  94856327.530 8       455.622          51.000  
C24  21860636.742 8 113834099.295 8      -590.398          51.000                                                                  
C25  23511332.125 8 122429651.968 8      2257.676          51.000                                                                  
C14  22766928.875 8 118553385.969 8     -2427.484          49.000    22766929.062 8  91672988.270 8     -1877.106          51.000  
C26  24132038.367 5 125661875.834 5     -2700.406          30.000                                                                  
C05  39803069.305 6 207265026.706 6        14.234          36.000    39803066.820 6 160270453.469 6        10.995          39.000  
> 2020 05 17 04 08 30.0000000  0 15      -0.000000000000
G13  20229772.094 8 106308163.746 8       617.777          49.000    20229770.711 7  82837505.393 7       481.385          46.000  
G28  20882594.758 8 109738828.124 8      -156.613          51.000    20882592.773 8  85510791.489 8      -122.036          48.000  
G05  22338452.078 8 117389342.693 8     -3075.816          51.000    22338450.656 8  91472177.880 8     -2396.741          51.000  
R02  19823822.484 8 105783320.903 8     -2417.871          51.000    19823822.656 7  82275918.270 7     -1880.573          42.000  
R13  19586060.008 6 104588083.027 6      1432.562          39.000    19586063.266 7  81346288.461 7      1114.215          46.000  
R12  20120966.391 6 107482226.606 6     -2520.922          39.000    20120969.656 6  83597282.077 6     -1960.720          38.000  
E01  23680995.594 8 124444457.323 8       854.094          51.000    23680996.406 8  95353581.677 8       654.463          51.000  
E19  25612929.508 7 134596846.246 7     -2145.797          45.000    25612934.656 8 103132655.536 8     -1644.195          50.000  
E21  24918412.516 7 130947122.089 7     -1866.320          47.000    24918414.180 7 100336135.039 7     -1430.015          44.000  
E04  23554147.375 8 123777878.800 8       584.141          51.000    23554148.609 8  94842789.675 8       447.669          51.000  
C24  21864074.320 8 113851999.424 8      -601.965          51.000                                                                  
C25  23498354.383 8 122362069.320 8      2248.875          51.000                                                                  
C14  22780950.641 8 118626399.029 8     -2439.098          50.000    22780950.484 8  91729446.572 8     -1886.029          51.000  
C26  24147603.523 5 125742926.838 5     -2704.414          30.000                                                                  
C05  39802989.422 5 207264610.827 5        14.496          35.000    39802987.039 6 160270131.846 6        10.943          39.000  
> 2020 05 17 04 09  0.0000000  0 17      -0.000000000000
G30  22001355.781 6 115617880.151 6     -2358.922          37.000    22001365.367 5  90091877.755 5     -1838.125          30.000  
G13  20226280.891 8 106289817.065 8       610.414          49.000    20226279.102 7  82823209.268 7       475.647          46.000  
G28  20883540.203 8 109743795.062 8      -169.594          51.000    20883537.945 8  85514661.800 8      -132.151          49.000  
G05  22356039.789 8 117481766.556 8     -3080.715          51.000    22356038.234 8  91544196.444 8     -2400.558          51.000  
R14  23276259.672 6 124075175.011 6      3813.000          38.000    23276263.695 6  96502931.92426      2965.667          37.000  
R02  19837472.031 8 105856157.607 8     -2432.703          50.000    19837473.594 7  82332568.979 7     -1892.103          46.000  
R13  19578065.469 6 104545395.714 6      1418.387          39.000    19578068.930 7  81313087.205 7      1103.190          45.000  
R12  20135161.297 6 107558050.274 6     -2528.719          38.000    20135164.914 6  83656256.039 6     -1966.779          39.000  
E01  23676153.648 8 124419013.195 8       847.023          51.000    23676154.969 8  95334085.523 8       648.994          51.000  
E19  25625201.086 7 134661332.496 7     -2148.352          46.000    25625205.906 8 103182067.062 8     -1646.245          50.000  
E21  24929090.125 7 131003232.764 7     -1869.480          47.000    24929091.500 7 100379128.893 7     -1432.418          43.000  
E04  23550840.141 8 123760498.499 8       579.316          51.000    23550840.969 8  94829472.302 8       443.871          51.000  
C24  21867573.945 8 113870221.970 8      -607.898          51.000                                                                  
C25  23485421.461 8 122294722.221 8      2245.926          50.000                                                                  
C14  22795034.617 8 118699734.836 8     -2444.949          50.000    22795033.688 8  91786154.444 8     -1890.714          51.000  
C26  24163185.672 5 125824090.983 5     -2701.359          31.000                                                                  
C05  39802906.305 5 207264177.699 5        19.562          35.000    39802903.867 6 160269796.904 6        14.789          39.000  
> 2020 05 17 04 09 30.0000000  0 17      -0.000000000000
G30  22014838.508 5 115688757.14225     -2372.566          35.000                                                                  
G13  20222851.961 8 106271798.036 8       590.352          49.000    20222849.828 7  82809168.462 7       460.014          47.000  
G28  20884579.594 8 109749256.347 8      -195.059          51.000    20884577.430 8  85518917.341 8      -151.991          50.000  
G05  22373674.867 8 117574438.347 8     -3097.953          51.000    22373672.383 8  91616408.168 8     -2413.993          51.000  
R14  23254839.453 6 123960996.174 6      3798.414          38.000    23254842.992 6  96414125.676 6      2954.323          38.000  
R02  19851224.375 8 105929543.619 8     -2460.309          50.000    19851227.156 8  82389647.018 8     -1913.571          49.000  
R13  19570170.836 6 104503238.414 6      1391.359          40.000    19570173.766 7  81280298.233 7      1082.169          45.000  
R12  20149419.000 7 107634214.331 7     -2549.262          42.000    20149424.594 6  83715494.779 6     -1982.760          40.000  
E01  23671370.953 8 124393880.454 8       827.734          51.000    23671372.547 8  95314827.953 8       634.268          51.000  
E19  25637506.211 8 134725992.171 8     -2162.973          48.000    25637510.242 8 103231611.437 8     -1657.350          49.000  
E21  24939804.938 7 131059538.598 7     -1884.867          46.000    24939806.125 7 100422272.305 7     -1444.331          43.000  
E04  23547579.383 8 123743362.639 8       562.320          51.000    23547579.836 8  94816342.223 8       430.872          51.000  
C24  21871126.734 8 113888722.046 8      -626.055          51.000                                                                  
C25  23472524.742 8 122227567.361 8      2230.602          50.000                                                                  
C14  22809171.836 8 118773348.026 8     -2463.059          51.000    22809170.000 8  91843076.803 8     -1904.651          51.000  
C26  24178776.180 4 125905293.270 4     -2712.172          28.000                                                                  
C05  39802811.391 6 207263683.579 6        12.801          36.000    39802809.023 6 160269414.767 6         9.660          39.000  
> 2020 05 17 04 10  0.0000000  0 15      -0.000000000000
G13  20219533.648 8 106254360.451 8       579.098          49.000    20219531.406 7  82795580.709 7       451.242          47.000  
G28  20885760.969 8 109755464.106 8      -211.801          51.000    20885759.102 8  85523754.544 8      -165.040          50.000  
G05  22391404.828 8 117667608.152 8     -3106.355          51.000    22391401.227 8  91689007.940 8     -2420.541          51.000  
R14  23233496.062 6 123847230.930 6      3792.973          38.000    23233497.547 6  96325641.617 6      2950.087          36.000  
R02  19865127.391 8 106003733.814 8     -2478.770          51.000    19865131.180 8  82447350.558 8     -1927.929          50.000  
R13  19562423.836 6 104461868.124 6      1373.547          40.000    19562426.320 7  81248121.337 7      1068.314          46.000  
R12  20163788.898 6 107710972.322 6     -2560.875          40.000    20163793.844 6  83775195.428 6     -1991.792          39.000  
E01  23666695.586 8 124369311.634 8       817.062          51.000    23666696.711 8  95296002.476 8       626.076          51.000  
E19  25649892.492 8 134791077.525 8     -2169.066          48.000    25649895.219 8 103281481.998 8     -1662.061          48.000  
E21  24950604.570 7 131116290.721 7     -1891.586          45.000    24950606.328 7 100465757.674 7     -1449.359          44.000  
E04  23544413.312 8 123726724.794 8       553.809          51.000    23544413.758 8  94803593.731 8       424.365          51.000  
C24  21874780.633 8 113907748.943 8      -635.492          51.000                                                                  
C25  23459713.289 8 122160855.465 8      2223.832          50.000                                                                  
C14  22823409.867 8 118847487.459 8     -2472.574          50.000    22823407.453 8  91900406.092 8     -1911.958          51.000  
C05  39802752.883 6 207263378.702 6        14.918          36.000    39802750.484 6 160269179.006 6        11.279          39.000  
> 2020 05 17 04 10 30.0000000  0 16      -0.000000000000
G30  22041992.445 5 115831450.946 5     -2383.070          32.000    22041997.906 5  90258286.751 5     -1856.935          32.000  
G13  20216260.680 8 106237160.640 8       566.605          50.000    20216258.305 7  82782178.265 7       441.511          47.000  
G28  20887018.570 8 109762073.101 8      -229.516          51.000    20887016.797 8  85528904.412 8      -178.843          50.000  
G05  22409163.227 8 117760928.117 8     -3115.750          51.000    22409159.180 8  91761724.731 8     -2427.861          51.000  
R14  23212164.844 6 123733531.417 6      3786.309          41.000    23212165.992 6  96237208.618 6      2944.907          36.000  
R02  19879115.516 8 106078376.343 8     -2498.234          51.000    19879119.445 8  82505405.886 8     -1943.072          51.000  
R13  19554758.398 6 104420934.289 6      1354.754          40.000    19554760.641 7  81216283.887 7      1053.698          46.000  
R12  20178203.586 6 107787970.614 6     -2573.277          41.000    20178206.109 6  83835082.940 6     -2001.441          39.000  
E01  23662062.023 8 124344962.099 8       805.363          51.000    23662062.680 8  95277345.026 8       617.085          51.000  
E19  25662294.023 8 134856243.280 8     -2176.141          49.000    25662296.109 8 103331414.135 8     -1667.472          48.000  
E21  24961423.430 7 131173143.015 7     -1899.281          45.000    24961425.719 7 100509319.827 7     -1455.363          43.000  
E04  23541276.578 8 123710241.310 8       544.203          51.000    23541277.242 8  94790963.517 8       416.975          51.000  
C24  21878469.914 8 113926960.154 8      -646.055          51.000                                                                  
C25  23446921.844 8 122094245.600 8      2216.000          50.000                                                                  
C14  22837682.422 8 118921810.220 8     -2483.078          48.000    22837680.086 8  91957877.142 8     -1920.116          51.000  
C05  39802665.078 6 207262921.729 6        14.992          36.000    39802662.812 6 160268825.594 6        11.726          39.000  
> 2020 05 17 04 11  0.0000000  0 17      -0.000000000000
G30  22055614.258 5 115903042.452 5     -2391.191          34.000    22055615.453 5  90314072.276 5     -1863.267          31.000  
G13  20213066.312 8 106220374.107 8       551.289          50.000    20213063.883 8  82769097.837 8       429.576          48.000  
G28  20888385.750 8 109769257.525 8      -250.457          51.000    20888384.047 8  85534502.641 8      -195.161          50.000  
G05  22426982.547 8 117854570.778 8     -3128.223          48.000    22426979.312 8  91834692.993 8     -2437.577          48.000  
R14  23190880.656 6 123620076.496 6      3776.461          39.000    23190882.336 6  96148965.874 6      2937.248          38.000  
R02  19893221.461 8 106153646.699 8     -2520.879          51.000    19893225.211 8  82563949.457 8     -1960.687          49.000  
R13  19547207.898 6 104380614.725 6      1332.340          40.000    19547209.633 7  81184924.198 7      1036.265          45.000  
R12  20192695.312 6 107865383.515 6     -2588.914          41.000    20192697.852 6  83895292.952 6     -2013.600          40.000  
E01  23657503.289 8 124321006.296 8       790.535          51.000    23657504.133 8  95258989.283 8       605.696          51.000  
E19  25674743.820 8 134921663.386 8     -2186.367          50.000    25674745.016 7 103381541.178 7     -1675.269          47.000  
E21  24972294.312 7 131230268.527 7     -1910.215          46.000    24972296.570 7 100553091.296 7     -1463.579          43.000  
E04  23538202.625 8 123694087.644 8       531.426          51.000    23538203.430 8  94778586.013 8       407.259          51.000  
C24  21882227.469 8 113946527.518 8      -659.645          51.000                                                                  
C25  23434182.836 8 122027911.210 8      2205.148          49.000                                                                  
C14  22852022.289 7 118996487.718 7     -2496.492          46.000    22852020.820 8  92015622.479 8     -1930.495          51.000  
C26  24225728.922 4 126149725.79924     -2722.480          29.000                                                                  
C05  39802581.305 6 207262485.504 6        12.969          36.000    39802579.078 6 160268488.263 6         9.950          39.000  
> 2020 05 17 04 11 30.0000000  0 15      -0.000000000000
G13  20209952.602 8 106204011.463 8       540.492          50.000    20209950.250 8  82756347.712 8       421.163          48.000  
G28  20889864.094 8 109777025.971 8      -266.508          51.000    20889862.539 8  85540555.963 8      -207.668          50.000  
G05  22444863.336 7 117948542.556 7     -3135.848          43.000    22444862.422 7  91907917.763 7     -2443.515          43.000  
R14  23169644.820 6 123506877.796 6      3771.098          41.000    23169647.891 6  96060922.442 6      2933.076          39.000  
R02  19907446.789 8 106229552.806 8     -2538.688          51.000    19907449.539 7  82622987.487 7     -1974.535          47.000  
R13  19539774.219 6 104340918.972 6      1315.094          39.000    19539775.500 7  81154049.737 7      1022.851          45.000  
R12  20207265.984 6 107943217.580 6     -2599.320          40.000    20207268.828 6  83955830.552 6     -2021.697          39.000  
E01  23653021.117 8 124297453.679 8       780.516          51.000    23653022.086 8  95240942.476 8       598.004          51.000  
E19  25687243.461 8 134987346.842 8     -2191.797          49.000    25687244.461 7 103431870.004 7     -1679.349          47.000  
E21  24983218.453 7 131287675.294 7     -1916.164          45.000    24983220.328 7 100597078.252 7     -1468.221          43.000  
E04  23535193.430 8 123678274.296 8       523.504          51.000    23535194.258 8  94766469.282 8       401.136          51.000  
C24  21886055.266 8 113966459.456 8      -668.316          51.000                                                                  
C25  23421498.383 8 121961862.194 8      2199.008          51.000                                                                  
C14  22866432.047 7 119071527.888 7     -2505.152          46.000    22866431.164 8  92073648.275 8     -1937.279          50.000  
C05  39802503.352 6 207262079.587 6        15.293          36.000    39802501.234 6 160268174.357 6        11.638          39.000  
> 2020 05 17 04 12  0.0000000  0 15      -0.000000000000
G13  20206909.016 8 106188017.380 8       526.699          50.000    20206906.820 8  82743884.778 8       410.415          49.000  
G28  20891442.609 8 109785321.245 8      -285.707          51.000    20891441.086 8  85547019.809 8      -222.629          50.000  
G05  22462794.711 7 118042783.904 7     -3146.320          42.000    22462796.656 7  91981352.654 7     -2451.676          42.000  
R14  23148447.453 6 123393879.770 6      3762.758          41.000    23148451.273 6  95973035.080 6      2926.590          40.000  
R02  19921780.336 8 106306035.507 8     -2559.512          51.000    19921781.961 7  82682473.980 7     -1990.732          47.000  
R13  19532446.648 6 104301789.459 6      1294.195          40.000    19532447.781 7  81123615.652 7      1006.597          45.000  
R12  20221903.656 6 108021412.070 6     -2612.910          40.000    20221906.781 6  84016648.490 6     -2032.264          39.000  
E01  23648604.914 8 124274247.650 8       767.309          51.000    23648605.539 8  95223161.202 8       587.989          51.000  
E19  25699782.000 8 135053236.929 8     -2200.148          48.000    25699783.227 7 103482357.179 7     -1685.766          47.000  
E21  24994184.898 7 131345305.195 7     -1925.188          42.000    24994186.508 7 100641236.208 7     -1475.067          43.000  
E04  23532238.508 8 123662745.640 8       512.531          51.000    23532239.250 8  94754570.700 8       392.686          51.000  
C24  21889942.242 8 113986698.918 8      -680.137          51.000                                                                  
C25  23408859.039 8 121896042.972 8      2189.684          51.000                                                                  
C14  22880900.828 7 119146873.184 7     -2517.219          45.000    22880899.734 8  92131910.047 8     -1946.259          49.000  
C05  39802420.469 6 207261648.014 6        14.277          36.000    39802418.367 6 160267840.594 6        11.273          39.000  
> 2020 05 17 04 12 30.0000000  0 15      -0.000000000000
G13  20203939.570 8 106172412.819 8       513.496          51.000    20203937.578 8  82731725.362 8       400.127          49.000  
G28  20893125.047 8 109794162.585 8      -303.938          51.000    20893123.539 8  85553909.153 8      -236.834          49.000  
G05  22480782.695 7 118137311.967 7     -3155.703          46.000    22480785.109 7  92055010.923 7     -2458.990          46.000  
R14  23127292.391 6 123281104.584 6      3755.402          41.000    23127296.391 6  95885321.010 6      2920.866          41.000  
R02  19936225.133 8 106383112.843 8     -2579.227          51.000    19936226.133 8  82742422.961 8     -2006.066          48.000  
R13  19525228.664 6 104263246.805 6      1274.898          39.000    19525230.664 7  81093638.010 7       991.585          46.000  
R12  20236612.773 7 108099984.535 7     -2625.359          43.000    20236615.617 6  84077760.338 6     -2041.947          38.000  
E01  23644258.523 8 124251408.078 8       755.246          51.000    23644259.219 8  95205660.735 8       578.651          51.000  
E19  25712362.898 7 135119352.763 7     -2207.652          47.000    25712365.227 8 103533017.326 8     -1691.456          48.000  
E21  25005197.234 6 131403176.701 6     -1933.152          41.000    25005198.977 7 100685579.320 7     -1481.167          43.000  
E04  23529341.766 8 123647522.603 8       502.277          51.000    23529342.453 8  94742906.277 8       384.898          51.000  
C24  21893891.562 8 114007264.620 8      -691.020          51.000                                                                  
C25  23396268.000 8 121830473.795 8      2181.344          51.000                                                                  
C14  22895431.945 7 119222541.872 7     -2527.738          46.000    22895430.625 8  92190421.875 8     -1954.536          50.000  
C05  39802336.562 6 207261210.495 6        14.215          36.000    39802334.375 6 160267502.249 6        11.152          39.000  
> 2020 05 17 04 13  0.0000000  0 16      -0.000000000000
G30  22110469.305 5 116191297.233 5     -2413.863          35.000    22110470.312 5  90538669.820 5     -1880.933          34.000  
G13  20201045.039 8 106157201.842 8       501.016          51.000    20201043.266 8  82719872.638 8       390.402          50.000  
G28  20894911.773 8 109803552.536 8      -321.586          51.000    20894910.266 8  85561225.999 8      -250.587          49.000  
G05  22498826.148 8 118232127.297 8     -3164.680          49.000    22498827.852 8  92128892.992 8     -2465.985          49.000  
R14  23106180.180 6 123168557.206 6      3748.578          41.000    23106183.828 6  95797784.109 6      2915.558          40.000  
R02  19950781.320 8 106460786.297 8     -2598.375          51.000    19950782.586 8  82802835.609 8     -2020.959          50.000  
R13  19518121.141 6 104225293.765 6      1255.855          40.000    19518123.664 7  81064118.968 7       976.774          45.000  
R12  20251392.594 6 108178934.732 6     -2637.117          38.000    20251395.047 6  84139166.029 6     -2051.089          37.000  
E01  23639982.344 8 124228937.929 8       743.398          51.000    23639983.453 8  95188443.359 8       569.638          51.000  
E19  25724987.406 7 135185697.165 7     -2214.719          46.000    25724990.766 8 103583852.617 8     -1696.990          48.000  
E21  25016256.008 6 131461291.464 6     -1940.609          40.000    25016257.961 7 100730108.790 7     -1486.994          42.000  
E04  23526503.852 8 123632609.174 8       492.445          51.000    23526504.523 8  94731479.094 8       377.361          51.000  
C24  21897903.898 8 114028158.557 8      -701.422          51.000                                                                  
C25  23383724.727 8 121765158.235 8      2173.527          51.000                                                                  
C14  22910026.211 8 119298535.488 8     -2537.961          48.000    22910024.406 8  92249184.949 8     -1962.486          50.000  
C05  39802251.984 6 207260770.090 6        15.379          36.000    39802249.836 6 160267161.682 6        11.693          39.000  
> 2020 05 17 04 13 30.0000000  0 16      -0.000000000000
G13  20198227.367 8 106142394.828 8       487.035          51.000    20198225.781 8  82708334.693 8       379.505          49.000  
G28  20896804.594 8 109813499.638 8      -340.734          51.000    20896802.984 8  85568976.974 8      -265.507          48.000  
G05  22516925.828 8 118327236.598 8     -3174.969          50.000    22516926.070 8  92203004.126 8     -2474.002          51.000  
R14  23085112.086 6 123056248.856 6      3739.891          41.000    23085115.320 6  95710433.111 6      2908.798          37.000  
R02  19965450.445 8 106539063.418 8     -2619.035          51.000    19965452.227 8  82863717.817 8     -2037.028          51.000  
R13  19511126.008 6 104187940.524 6      1235.215          40.000    19511128.523 7  81035066.455 7       960.726          45.000  
R12  20266243.992 7 108258268.954 7     -2650.766          43.000    20266246.195 6  84200870.376 6     -2061.710          37.000  
E01  23635778.328 8 124206846.411 8       730.223          51.000    23635779.500 8  95171516.089 8       559.516          51.000  
