     3.02           OBSERVATION DATA    M (MIXED)           RINEX VERSION / TYPE
SAVERINEX           SC600               20200502 225931 LCL PGM / RUN BY / DATE
       G = GPS       R = GLONASS       C = COMPASS          COMMENT
       S = SBAS      J = QZSS          E = GALILEO          COMMENT
BEAN                                                        MARKER NAME
1                                                           MARKER NUMBER
GEODETIC                                                    MARKER TYPE
Unige DICCA         GTER                                    OBSERVER / AGENCY
SC60291900056       SC600               2.12(191226)        REC # / TYPE / VERS
                    HEMA45          NONE                    ANT # / TYPE
  4509407.8091   693652.4678  4442337.6214                  APPROX POSITION XYZ
        0.0000        0.0000        0.0000                  ANTENNA: DELTA H/E/N
G    8 C1C L1C D1C S1C C2Y L2Y D2Y S2Y                      SYS / # / OBS TYPES
R    8 C1C L1C D1C S1C C2P L2P D2P S2P                      SYS / # / OBS TYPES
C    8 C1I L1I D1I S1I C7I L7I D7I S7I                      SYS / # / OBS TYPES
E    8 C1C L1C D1C S1C C7Q L7Q D7Q S7Q                      SYS / # / OBS TYPES
DBHZ                                                        COMMENT
     30.000                                                 INTERVAL
  2020    05    02    20    00    0.0000000     GPS         TIME OF FIRST OBS
  2020    05    02    20    59   30.0000000     GPS         TIME OF LAST OBS
     0                                                      RCV CLOCK OFFS APPL
G L1C  0.00000                                              SYS / PHASE SHIFT
G L2Y  0.00000                                              SYS / PHASE SHIFT
R L1C  0.00000                                              SYS / PHASE SHIFT
R L2P  0.25000                                              SYS / PHASE SHIFT
C L1I  0.00000                                              SYS / PHASE SHIFT
C L7I  0.00000                                              SYS / PHASE SHIFT
E L1C  0.50000                                              SYS / PHASE SHIFT
E L7Q -0.25000                                              SYS / PHASE SHIFT
 12 R01  1 R06 -4 R07  5 R08  6 R09 -2 R10 -5 R11  0 R12 -1 GLONASS SLOT / FRQ #
    R20  2 R21  4 R22 -3 R23  3                             GLONASS SLOT / FRQ #
 C1C   71.950 C2C   71.950 C2P   71.950                     GLONASS COD/PHS/BIS
    18                                                      LEAP SECONDS
*** Above antenna height is from mark to ANTENNA BOTTOM.    COMMENT
    17     4        0.0000        ANT MEASURE TYPE/HEIGT    COMMENT
    0.0000    0.0000    0.0458    0.0405    0.0000          COMMENT
                    BASE STATION                            COMMENT
                                                            END OF HEADER
> 2020 05 02 20 00  0.0000000  0 19        .000000000000
G01  20423924.508 6 107328449.023 6       822.441          40.000    20423928.281 6  83632580.643 6       640.866          40.000
G03  21670993.969 8 113881861.123 8      2368.539          48.000    21670997.156 8  88739157.712 8      1845.615          48.000
G08  22152872.750 8 116414131.917 8     -3045.387          49.000    22152876.422 8  90712296.742 8     -2373.026          49.000
G11  20038547.977 8 105303295.330 8     -1059.957          51.000    20038546.852 8  82054483.867 8      -825.944          50.000
G14  21900253.031 6 115086598.914 6        10.547          36.000    21900250.953 5  89677895.398 5         8.218          30.000
G22  20746135.969 8 109021708.256 8       764.758          51.000    20746133.117 8  84951967.833 8       595.915          51.000
G32  22385528.227 5 117636720.504 5     -1554.992          33.000    22385525.422 5  91664966.025 5     -1211.685          33.000
R01  20806506.406 8 111222682.389 8      3278.055          50.000    20806510.531 6  86506564.293 6      2549.598          39.000
R08  19218294.914 8 102913101.677 8       102.258          49.000    19218295.891 8  80043624.468 8        79.537          48.000
R22  21273043.133 8 113556934.262 8     -3007.348          50.000    21273046.555 7  88322055.710 7     -2339.048          47.000
R23  19261269.320 6 103034834.780 6      1189.570          41.000    19261276.594 5  80138222.507 5       925.224          32.000
C05                                                                  39660913.609 6 159698073.881 6       -22.884          38.000
C19  21836734.688 8 113709666.392 8     -1106.672          51.000
C20  25763469.383 5 134157160.087 5     -3047.832          33.000
C22  22734399.383 8 118383974.910 8      1982.484          50.000
C29  25260056.359 8 131535713.091 8     -3220.414          48.000
E19  25649451.164 7 134788794.217 7      2629.766          44.000    25649456.070 8 103279725.636 8      2014.958          48.000
E26  24853803.805 7 130607565.493 7     -2185.266          45.000    24853802.945 5 100075956.465 5     -1674.335          35.000
E33  23435099.203 8 123152281.769 8      -136.844          51.000    23435099.820 8  94363440.362 8      -104.875          51.000
> 2020 05 02 20 00 30.0000000  0 19        .000000000000
G01  20419267.102 6 107303972.150 6       810.090          40.000    20419270.594 6  83613507.778 6       631.242          40.000
G03  21657506.961 8 113810987.465 8      2356.871          49.000    21657510.234 8  88683931.512 8      1836.526          50.000
G08  22170292.758 8 116505673.274 8     -3056.930          50.000    22170295.914 8  90783627.698 8     -2382.023          50.000
G11  20044653.242 8 105335377.152 8     -1078.410          51.000    20044651.781 8  82079482.673 8      -840.320          50.000
G14  21900249.305 6 115086580.885 6        -8.684          41.000    21900249.664 4  89677881.314 4        -6.766          29.000
G22  20741810.000 8 108998974.703 8       751.293          51.000    20741806.773 8  84934253.388 8       585.423          51.000
G32  22394463.578 5 117683695.379 5     -1573.930          32.000    22394463.305 5  91701579.521 5     -1226.439          31.000
R01  20788158.023 8 111124598.885 8      3261.270          48.000    20788161.383 6  86430277.190 6      2536.543          38.000
R08  19217792.570 8 102910412.135 8        77.492          49.000    19217793.656 7  80041532.620 7        60.272          47.000
R22  21289985.367 8 113647375.398 8     -3021.617          49.000    21289989.047 7  88392398.820 7     -2350.147          47.000
R23  19254653.781 6 102999444.858 6      1170.160          41.000    19254661.258 5  80110696.978 5       910.122          33.000
C05                                                                  39661085.336 6 159698765.433 6       -23.083          38.000
C19  21843149.508 8 113743070.357 8     -1119.742          51.000
C20  25781039.023 5 134248650.729 5     -3052.074          32.000
C22  22723013.789 8 118324691.709 8      1970.152          51.000
C29  25278627.547 8 131632410.017 8     -3225.602          49.000
E19  25634463.156 7 134710033.647 7      2621.180          44.000    25634468.109 7 103219376.663 7      2008.463          47.000
E26  24866298.945 6 130673227.572 6     -2191.727          41.000
E33  23435908.102 8 123156533.061 8      -146.188          51.000    23435908.828 8  94366697.844 8      -111.990          51.000
> 2020 05 02 20 01  0.0000000  0 19        .000000000000
G01  20414678.406 6 107279857.016 6       797.988          40.000    20414679.234 6  83594716.764 6       621.806          39.000
G03  21644085.812 8 113740458.444 8      2345.316          50.000    21644088.375 8  88628973.872 8      1827.522          50.000
G08  22187776.656 8 116597549.384 8     -3068.062          50.000    22187779.078 8  90855219.478 8     -2390.698          50.000
G11  20050862.109 8 105368004.605 8     -1096.598          51.000    20050860.516 8  82104906.643 8      -854.492          51.000
G14  21900353.766 6 115087132.105 6       -27.965          39.000    21900357.172 5  89678310.820 5       -21.797          33.000
G22  20737558.891 8 108976634.986 8       738.184          51.000    20737555.477 8  84916845.846 8       575.208          51.000
G32  22403499.906 5 117731161.835 5     -1591.312          34.000    22403494.391 5  91738566.304 5     -1239.993          32.000
R01  20769900.734 7 111027009.761 7      3244.766          46.000    20769904.773 6  86354374.568 6      2523.707          37.000
R08  19217428.586 8 102908462.725 8        52.730          49.000    19217429.664 8  80040016.413 8        41.013          48.000
R22  21307006.609 8 113738236.529 8     -3035.688          51.000    21307010.250 7  88463068.619 7     -2361.087          47.000
R23  19248145.594 7 102964626.202 7      1150.980          43.000    19248152.477 5  80083615.817 5       895.207          34.000
C05                                                                  39661259.656 6 159699467.642 6       -23.588          37.000
C19  21849638.555 8 113776860.489 8     -1132.785          51.000
C20  25798625.781 5 134340230.932 5     -3054.293          32.000
C22  22711699.133 8 118265771.754 8      1957.973          51.000
C29  25297227.273 7 131729256.844 7     -3230.621          47.000
E19  25619521.750 7 134631516.702 7      2613.059          45.000    25619526.180 7 103159214.360 7      2002.229          47.000
E26  24878828.344 6 130739073.349 6     -2197.879          41.000
E33  23436769.273 8 123161058.571 8      -155.422          51.000    23436770.117 8  94370165.443 8      -119.066          51.000
> 2020 05 02 20 01 30.0000000  0 19        .000000000000
G01  20410155.250 6 107256088.339 6       787.379          39.000    20410154.094 6  83576195.705 6       613.539          39.000
G03  21630727.391 8 113670258.701 8      2335.023          50.000    21630729.625 8  88574272.834 8      1819.499          50.000
G08  22205320.945 8 116689742.420 8     -3077.938          51.000    22205322.281 8  90927058.168 8     -2398.393          51.000
G11  20057171.523 8 105401161.177 8     -1113.508          51.000    20057170.078 8  82130742.908 8      -867.668          50.000
G14  21900563.617 7 115088236.530 7       -45.680          43.000    21900565.852 5  89679171.274 5       -35.595          33.000
G22  20733379.453 8 108954672.861 8       726.328          51.000    20733376.453 8  84899732.510 8       565.970          51.000
G32  22412631.602 5 117779202.171 5     -1607.098          33.000
R01  20751733.266 7 110929900.949 7      3229.340          46.000    20751737.711 6  86278845.503 6      2511.712          36.000
R08  19217199.531 8 102907235.797 8        29.367          48.000    19217200.812 7  80039062.162 7        22.844          47.000
R22  21324102.977 8 113829499.930 8     -3048.316          49.000    21324106.617 7  88534051.226 7     -2370.913          45.000
R23  19241741.109 7 102930365.040 7      1133.207          43.000    19241747.758 5  80056968.251 5       881.383          34.000
C05                                                                  39661433.586 6 159700168.134 6       -22.950          38.000
C19  21856198.258 8 113811019.271 8     -1144.199          51.000
C20  25816226.516 5 134431883.271 5     -3055.820          32.000
C22  22700451.672 8 118207199.729 8      1947.117          51.000
C29  25315851.789 7 131826236.244 7     -3234.418          45.000
E19  25604624.250 7 134553228.674 7      2606.246          46.000    25604627.656 7 103099227.469 7      1997.018          47.000
E26  24891389.930 7 130805086.365 7     -2202.703          42.000    24891392.852 6 100227303.456 6     -1687.926          37.000
E33  23437679.594 8 123165842.811 8      -163.352          51.000    23437680.750 8  94373831.285 8      -125.145          51.000
> 2020 05 02 20 02  0.0000000  0 19        .000000000000
G01  20405697.227 6 107232661.493 6       775.293          41.000    20405695.508 7  83557941.020 7       604.124          42.000
G03  21617430.680 8 113600383.361 8      2323.980          50.000    21617432.945 8  88519824.574 8      1810.894          50.000
G08  22222923.914 8 116782244.436 8     -3088.336          51.000    22222924.352 8  90999137.607 8     -2406.499          51.000
G11  20063580.500 8 105434841.138 8     -1131.227          51.000    20063579.188 8  82156987.040 8      -881.475          50.000
G14  21900878.008 6 115089888.625 6       -63.984          40.000    21900880.008 6  89680458.653 6       -49.855          37.000
G22  20729270.867 8 108933082.442 8       713.656          51.000    20729268.055 8  84882908.797 8       556.096          51.000
G32  22421851.320 5 117827626.143 5     -1624.199          33.000
R01  20733656.516 7 110833269.301 7      3213.324          47.000    20733659.758 6  86203687.599 6      2499.252          36.000
R08  19217104.109 8 102906724.901 8         5.309          48.000    19217105.297 7  80038664.804 7         4.129          47.000
R22  21341273.484 8 113921158.513 8     -3061.711          50.000    21341276.078 7  88605341.186 7     -2381.331          43.000
R23  19235439.562 7 102896658.453 7      1114.492          42.000    19235445.773 5  80030752.023 5       866.827          34.000
C05                                                                  39661606.047 6 159700862.667 6       -22.778          37.000
C19  21862827.617 8 113845539.912 8     -1156.535          51.000
C20  25833840.391 5 134523600.663 5     -3057.871          34.000
C22  22689269.602 8 118148970.836 8      1935.426          51.000
C29  25334499.594 6 131923341.329 6     -3238.895          41.000
E19  25589769.672 7 134475165.322 7      2598.711          46.000    25589772.188 7 103039412.732 7      1991.196          47.000
E26  24903982.234 6 130871260.979 6     -2208.383          41.000    24903990.172 6 100278008.652 6     -1692.027          40.000
E33  23438638.109 8 123170880.922 8      -171.977          51.000    23438639.766 8  94377691.648 8      -131.759          51.000
> 2020 05 02 20 02 30.0000000  0 19        .000000000000
G01  20401306.141 7 107209585.393 7       763.336          43.000    20401304.797 7  83539959.678 7       594.810          43.000
G03  21604197.438 8 113530841.391 8      2312.340          50.000    21604199.617 8  88465636.055 8      1801.826          50.000
G08  22240586.727 8 116875061.503 8     -3099.234          51.000    22240587.172 8  91071462.562 8     -2414.988          51.000
G11  20070090.539 8 105469052.012 8     -1149.254          50.000    20070089.164 8  82183644.880 8      -895.523          50.000
G14  21901298.367 6 115092096.625 6       -82.816          39.000    21901298.047 6  89682179.177 6       -64.532          36.000
G22  20725234.492 8 108911871.305 8       700.613          51.000    20725231.508 8  84866380.658 8       545.935          51.000
G32  22431174.914 5 117876623.260 5     -1641.543          34.000
R01  20715671.320 7 110737125.288 7      3196.621          47.000    20715674.211 6  86128908.997 6      2486.264          38.000
R08  19217143.727 8 102906936.880 8       -19.230          48.000    19217144.742 7  80038829.684 7       -14.957          47.000
R22  21358520.055 8 114013219.189 8     -3075.477          51.000    21358521.484 7  88676943.903 7     -2392.037          44.000
R23  19229244.133 7 102863516.826 7      1095.305          44.000    19229249.516 5  80004975.222 5       851.907          35.000
C05                                                                  39661778.508 6 159701557.505 6       -23.279          37.000
C19  21869527.727 8 113880428.985 8     -1169.215          51.000
C20  25851468.086 5 134615389.642 5     -3061.398          35.000
C22  22678154.953 8 118091093.813 8      1923.266          51.000
C29  25353172.156 6 132020578.864 6     -3243.719          39.000
E19  25574959.531 7 134397336.212 7      2590.332          46.000    25574961.945 8 102979777.469 8      1984.806          48.000
E26  24916606.586 6 130937605.133 6     -2214.461          40.000    24916614.734 6 100328843.769 6     -1696.849          41.000
E33  23439646.641 8 123176181.713 8      -181.254          51.000    23439648.734 8  94381753.285 8      -138.880          51.000
> 2020 05 02 20 03  0.0000000  0 19        .000000000000
G01  20396983.273 7 107186868.024 7       752.598          42.000    20396982.602 7  83522257.865 7       586.443          42.000
G03  21591029.000 8 113461640.449 8      2302.387          50.000    21591030.992 8  88411713.271 8      1794.068          50.000
G08  22258310.195 8 116968198.190 8     -3108.473          50.000    22258311.102 8  91144036.582 8     -2422.186          50.000
G11  20076702.922 8 105503800.757 8     -1165.898          50.000    20076701.711 8  82210721.838 8      -908.492          50.000
G14  21901825.648 6 115094867.453 6      -100.395          38.000    21901825.539 5  89684338.326 5       -78.223          35.000
G22  20721271.602 8 108891046.343 8       689.145          51.000    20721268.211 8  84850153.459 8       536.996          51.000
R01  20697778.609 7 110641478.647 7      3181.250          45.000    20697782.391 6  86054517.244 6      2474.309          40.000
R07  21427226.562 4 114701605.375 4     -3446.562          29.000    21427228.812 5  89212374.448 5     -2680.660          31.000
R08  19217319.500 8 102907878.285 8       -42.129          48.000    19217320.523 7  80039561.909 7       -32.767          47.000
R22  21375843.375 8 114105687.599 8     -3087.664          51.000    21375844.359 7  88748863.762 7     -2401.516          47.000
R23  19223156.219 7 102830949.781 7      1077.340          45.000    19223161.500 6  79979645.284 6       837.931          36.000
C05                                                                  39661952.445 6 159702258.007 6       -22.355          38.000
C19  21876299.789 8 113915692.039 8     -1180.273          51.000
C20  25869110.242 5 134707255.518 5     -3062.324          35.000
C22  22667109.617 8 118033576.289 8      1912.590          51.000
C29  25371871.750 6 132117954.379 6     -3246.992          39.000
E19  25560195.383 7 134319749.522 7      2583.363          46.000    25560198.172 8 102920327.945 8      1979.457          48.000
E26  24929264.617 6 131004125.493 6     -2219.055          38.000    24929272.797 7 100379813.925 7     -1700.231          43.000
E33  23440706.695 8 123181752.836 8      -188.871          51.000    23440708.930 8  94386022.072 8      -144.803          51.000
> 2020 05 02 20 03 30.0000000  0 19        .000000000000
G01  20392726.383 7 107164498.980 7       739.844          42.000    20392726.688 7  83504827.459 7       576.502          42.000
G03  21577923.273 8 113392769.966 8      2290.090          49.000    21577925.281 8  88358047.998 8      1784.486          49.000
G08  22276091.734 8 117061640.826 8     -3119.828          50.000    22276092.875 8  91216849.020 8     -2431.035          50.000
G11  20083415.500 8 105539075.811 8     -1184.664          51.000    20083414.320 8  82238208.889 8      -923.112          50.000
G14  21902459.422 5 115098189.764 5      -119.676          34.000    21902456.977 5  89686927.122 5       -93.245          32.000
G22  20717380.094 8 108870596.042 8       675.371          51.000    20717376.312 8  84834218.170 8       526.263          51.000
R01  20679976.742 7 110546320.294 7      3163.773          45.000    20679982.055 7  85980505.249 7      2460.713          42.000
R07  21446572.820 4 114805192.260 4     -3458.730          27.000    21446581.711 5  89292938.004 5     -2690.118          30.000
R08  19217629.250 8 102909536.229 8       -67.230          48.000    19217629.766 7  80040851.423 7       -52.290          47.000
R22  21393240.359 8 114198550.868 8     -3102.094          49.000    21393241.906 8  88821090.722 8     -2412.740          48.000
R23  19217173.836 7 102798948.247 7      1057.125          45.000    19217178.938 6  79954755.196 6       822.208          36.000
C05                                                                  39662125.766 6 159702955.585 6       -23.461          37.000
C19  21883141.180 8 113951316.498 8     -1193.609          51.000
C20  25886764.562 5 134799185.535 5     -3065.141          33.000
C22  22656131.180 8 117976407.736 8      1899.680          51.000
C29  25390596.070 6 132215455.384 6     -3252.074          37.000
E19  25545475.633 7 134242395.281 7      2574.316          47.000    25545478.406 8 102861056.538 8      1972.522          48.000
E26  24941952.820 5 131070846.600 5     -2225.719          34.000    24941962.633 7 100430910.339 7     -1705.433          42.000
E33  23441816.352 8 123187583.680 8      -198.797          51.000    23441818.352 8  94390489.863 8      -152.361          51.000
> 2020 05 02 20 04  0.0000000  0 16        .000000000000
G01  20388537.758 7 107142489.023 7       728.562          42.000    20388538.977 6  83487676.858 6       567.711          41.000
G03  21564882.602 8 113324240.585 8      2279.527          50.000    21564884.680 8  88304648.522 8      1776.258          50.000
G08  22293932.805 8 117155397.456 8     -3129.570          48.000    22293934.172 8  91289906.118 8     -2438.629          49.000
G11  20090230.109 8 105574886.825 8     -1201.738          51.000    20090228.805 8  82266113.579 8      -936.419          49.000
G22  20713561.469 8 108850529.448 8       663.383          51.000    20713557.922 8  84818581.872 8       516.922          51.000
R01  20662268.898 7 110451662.530 7      3147.766          46.000    20662275.117 7  85906882.578 7      2448.262          43.000
R08  19218074.023 7 102911919.772 7       -90.586          47.000    19218074.828 7  80042705.316 7       -70.456          46.000
R22  21410711.938 7 114291817.361 7     -3114.699          46.000    21410714.688 7  88893631.387 7     -2422.541          47.000
R23  19211299.820 7 102767525.143 7      1038.801          46.000    19211304.602 6  79930315.022 6       807.956          36.000
C05                                                                  39662300.219 6 159703657.766 6       -22.615          37.000
C19  21890053.641 8 113987310.774 8     -1205.074          51.000
C20  25904433.219 5 134891188.106 5     -3067.156          32.000
C22  22645221.656 8 117919598.664 8      1888.590          51.000
E19  25530802.477 7 134165284.933 7      2567.285          47.000    25530804.906 8 102801972.011 8      1967.215          48.000
E26                                                                  24954685.531 7 100482140.484 7     -1709.246          42.000
E33  23442977.602 8 123193684.843 8      -206.898          51.000    23442979.141 8  94395164.784 8      -158.565          51.000
> 2020 05 02 20 04 30.0000000  0 17        .000000000000
G01  20384410.336 7 107120798.698 7       717.031          43.000    20384411.945 7  83470775.293 7       558.723          44.000
G03  21551899.328 8 113256012.504 8      2268.543          50.000    21551901.094 8  88251483.846 8      1767.696          50.000
G08  22311825.164 8 117249425.188 8     -3139.363          48.000    22311827.250 8  91363174.478 8     -2446.257          48.000
G11  20097138.953 8 105611193.001 8     -1219.082          50.000    20097137.570 8  82294404.109 8      -949.934          49.000
G22  20709808.227 8 108830806.153 8       651.066          51.000    20709805.055 8  84803213.101 8       507.324          51.000
G32  22469429.531 6 118077647.996 6     -1708.531          36.000    22469438.547 5  92008584.680 5     -1331.311          34.000
R01  20644647.656 7 110357466.785 7      3131.508          47.000    20644654.383 7  85833619.259 7      2435.620          43.000
R08  19218646.523 7 102914986.524 7      -114.246          47.000    19218647.375 7  80045090.564 7       -88.858          46.000
R22  21428250.719 8 114385444.825 8     -3127.602          48.000    21428254.750 7  88966452.845 7     -2432.579          46.000
R23  19205526.234 7 102736641.454 7      1019.633          47.000    19205530.680 6  79906294.385 6       793.048          36.000
C05                                                                  39662468.008 6 159704333.686 6       -22.857          37.000
C19  21897029.273 8 114023633.354 8     -1216.871          51.000
C22  22634373.734 8 117863109.618 8      1876.961          51.000
C29  25428120.203 5 132410902.392 5     -3259.488          32.000
E19  25516168.227 8 134088379.314 8      2559.504          48.000    25516170.078 8 102743044.391 8      1961.157          48.000
E26                                                                  24967433.086 6 100533473.196 6     -1713.469          40.000
E33  23444182.656 8 123200016.573 8      -215.664          51.000    23444183.852 8  94400016.372 8      -165.294          51.000
> 2020 05 02 20 05  0.0000000  0 17        .000000000000
G01  20380370.602 7 107099568.675 7       690.238          42.000    20380372.227 7  83454232.459 7       537.848          42.000
G03  21539000.031 8 113188226.457 8      2242.543          50.000    21539001.125 8  88198663.604 8      1747.439          50.000
G08  22329795.062 7 117343861.577 7     -3164.512          47.000    22329798.266 8  91436761.285 8     -2465.853          48.000
G11  20104168.375 8 105648133.809 8     -1251.750          50.000    20104167.070 8  82323189.165 8      -975.390          48.000
G22  20706147.039 8 108811565.723 8       623.484          51.000    20706143.812 8  84788220.570 8       485.832          51.000
G32  22479250.992 5 118129258.831 5     -1739.992          35.000    22479254.484 5  92048800.895 5     -1355.838          31.000
R01  20627140.148 8 110263877.660 8      3099.504          48.000    20627146.953 7  85760827.762 7      2410.725          43.000
R08  19219372.836 8 102918877.605 8      -153.445          48.000    19219373.711 7  80048116.972 7      -119.346          46.000
R22  21445884.336 8 114479574.167 8     -3155.898          50.000    21445888.266 7  89039664.485 7     -2454.591          44.000
R23  19199880.977 7 102706442.358 7       985.160          47.000    19199885.133 6  79882806.211 6       766.236          38.000
C05                                                                  39662655.875 6 159705090.586 6       -34.036          37.000
C19  21904093.836 8 114060421.473 8     -1243.707          51.000
C22  22623614.086 8 117807079.987 8      1850.273          51.000
C29  25446928.367 6 132508859.862 6     -3278.680          39.000
E19  25501599.523 8 134011819.780 8      2536.477          48.000    25501600.758 7 102684381.940 7      1943.645          47.000
E26                                                                  24980232.422 6 100585015.508 6     -1729.222          38.000
E33  23445458.289 8 123206719.492 8      -239.367          51.000    23445459.406 8  94405152.374 8      -183.447          51.000
> 2020 05 02 20 05 30.0000000  0 18        .000000000000
G01  20376372.773 6 107078560.945 6       691.734          40.000    20376374.438 6  83437862.811 6       539.014          41.000
G03  21526139.164 8 113120644.125 8      2244.508          48.000    21526140.547 8  88146002.088 8      1748.967          48.000
G08  22347796.859 8 117438465.020 8     -3160.957          48.000    22347800.992 8  91510478.257 8     -2463.083          48.000
G11  20111273.000 8 105685469.858 8     -1255.809          50.000    20111272.102 8  82352282.180 8      -978.552          48.000
G14  21906048.320 5 115117050.022 5      -195.000          33.000
G22  20702532.039 8 108792568.834 8       624.398          51.000    20702528.766 8  84773417.810 8       486.544          51.000
G32  22489141.711 5 118181237.852 5     -1743.980          33.000    22489145.750 5  92089303.966 5     -1358.952          33.000
R01  20609701.102 8 110170654.535 8      3096.348          48.000    20609707.461 6  85688320.940 6      2408.273          41.000
R08  19220207.844 8 102923348.618 8      -163.488          48.000    19220208.430 7  80051594.453 7      -127.158          46.000
R22  21463566.602 8 114573960.745 8     -3155.316          51.000    21463569.234 7  89113076.135 7     -2454.141          45.000
R23  19194318.625 8 102676686.543 8       979.633          48.000    19194322.938 6  79859662.794 6       761.937          39.000
C05                                                                  39662818.352 6 159705745.321 6       -23.727          38.000
C19  21911202.266 8 114097436.866 8     -1242.277          51.000
C22  22612896.695 8 117751273.563 8      1851.832          51.000
C29  25465737.609 6 132606808.931 6     -3269.449          40.000
E19  25487051.180 7 133935368.592 7      2541.848          47.000    25487051.805 7 102625802.536 7      1947.551          47.000
E26                                                                  24993038.469 5 100636584.153 5     -1722.910          35.000
E33  23446759.430 8 123213555.238 8      -234.742          51.000    23446760.406 8  94410390.152 8      -179.873          51.000
> 2020 05 02 20 06  0.0000000  0 17        .000000000000
G01  20372484.984 6 107058131.946 6       681.184          41.000    20372486.789 7  83421944.096 7       530.795          42.000
G03  21513384.812 8 113053621.721 8      2234.723          48.000    21513387.117 8  88093776.882 8      1741.345          48.000
G08  22365898.336 8 117533589.871 8     -3169.520          48.000    22365902.828 8  91584601.514 8     -2469.755          48.000
G11  20118520.547 8 105723556.213 8     -1272.195          50.000    20118519.820 8  82381959.855 8      -991.321          48.000
G14  21907235.344 6 115123313.075 6      -211.938          36.000    21907231.969 5  89706469.461 5      -165.140          32.000
G22  20699030.867 8 108774170.519 8       613.223          51.000    20699027.531 8  84759081.484 8       477.836          51.000
G32  22499170.164 6 118233938.565 6     -1758.938          37.000    22499174.227 6  92130369.357 6     -1370.604          37.000
R01  20592398.094 8 110078161.076 8      3081.051          48.000    20592403.938 6  85616381.642 6      2396.373          38.000
R08  19221218.141 8 102928760.341 8      -185.953          48.000    19221218.742 7  80055803.603 7      -144.630          45.000
R22  21481364.180 8 114668964.393 8     -3167.008          50.000    21481367.211 7  89186967.811 7     -2463.228          47.000
R23  19188907.359 8 102647738.536 8       961.566          49.000    19188911.750 6  79837147.702 6       747.885          39.000
C05                                                                  39663023.273 6 159706570.464 6       -22.784          37.000
C19  21918421.797 8 114135030.493 8     -1252.863          51.000
C22  22602289.289 8 117696043.314 8      1841.207          51.000
C29  25484612.469 6 132705100.667 6     -3272.367          39.000
E19  25472591.414 8 133859382.493 8      2534.816          48.000    25472591.430 7 102567579.478 7      1942.379          46.000
E33  23448153.688 8 123220880.070 8      -242.445          51.000    23448154.438 8  94416002.695 8      -185.788          51.000
> 2020 05 02 20 06 30.0000000  0 17        .000000000000
G01  20368631.500 6 107037882.788 6       671.875          41.000    20368633.562 7  83406165.553 7       523.539          42.000
G03  21500661.648 8 112986760.224 8      2226.098          50.000    21500664.359 8  88041677.074 8      1734.622          50.000
G08  22384022.797 8 117628833.404 8     -3176.766          49.000    22384027.180 8  91658817.246 8     -2475.402          49.000
G11  20125834.898 8 105761993.015 8     -1286.996          50.000    20125833.969 8  82411910.602 8     -1002.854          49.000
G14  21908497.289 5 115129930.063 5      -228.441          31.000    21908495.586 4  89711627.469 4      -178.009          28.000
G22  20695567.758 8 108755970.853 8       603.395          51.000    20695564.070 8  84744899.944 8       470.181          51.000
G32  22509260.148 5 118286959.443 5     -1771.848          35.000    22509264.453 5  92171684.347 5     -1380.661          31.000
R01  20575156.219 8 109985993.046 8      3066.855          48.000    20575160.781 6  85544695.480 6      2385.338          37.000
R08  19222327.789 8 102934704.508 8      -206.941          48.000    19222328.820 7  80060426.873 7      -160.954          45.000
R22  21499199.570 7 114764177.540 7     -3177.109          46.000    21499204.781 8  89261022.493 8     -2471.085          49.000
R23  19183571.102 8 102619194.208 8       944.727          49.000    19183575.977 6  79814946.552 6       734.787          39.000
C05                                                                  39663194.312 6 159707259.651 6       -20.443          38.000
C19  21925675.648 8 114172804.743 8     -1262.078          51.000
C22  22591717.148 8 117640993.775 8      1831.965          51.000
C29  25503475.805 6 132803337.561 6     -3273.574          38.000
E19  25458144.523 8 133783463.222 8      2529.633          48.000    25458144.258 7 102509407.659 7      1938.293          46.000
E33  23449564.945 8 123228294.915 8      -248.633          51.000    23449565.500 8  94421684.198 8      -190.469          51.000
> 2020 05 02 20 07  0.0000000  0 17        .000000000000
G01  20364854.219 7 107018032.930 7       653.961          42.000    20364856.242 6  83390698.108 6       509.580          41.000
G03  21488010.844 8 112920278.765 8      2208.523          48.000    21488013.172 8  87989873.414 8      1720.927          48.000
G08  22402211.117 8 117724412.007 8     -3192.496          48.000    22402215.023 8  91733294.079 8     -2487.656          48.000
G11  20133257.523 8 105800998.490 8     -1310.672          50.000    20133256.422 8  82442304.457 8     -1021.303          50.000
G14  21909874.688 5 115137163.268 5      -252.660          35.000    21909873.125 5  89717268.295 5      -196.878          32.000
G22  20692183.883 8 108738187.808 8       584.762          51.000    20692180.086 8  84731043.058 8       455.658          51.000
G32  22519434.391 5 118340426.019 5     -1795.668          32.000
R01  20558017.336 8 109894374.888 8      3043.660          48.000    20558021.180 6  85473437.013 6      2367.294          37.000
R08  19223578.070 8 102941402.044 8      -236.867          48.000    19223579.672 7  80065636.105 7      -184.227          45.000
R22  21517115.008 7 114859820.539 7     -3196.324          45.000    21517122.602 8  89335411.535 8     -2486.030          50.000
R23  19178352.359 8 102591277.770 8       919.055          49.000    19178357.305 6  79793233.795 6       714.820          39.000
C05                                                                  39663373.227 6 159707980.442 6       -25.524          37.000
C19  21933005.703 8 114210974.716 8     -1279.949          51.000
C22  22581222.438 8 117586342.056 8      1814.012          51.000
C29  25522369.703 6 132901734.788 6     -3283.551          39.000
E19  25443752.078 8 133707830.455 8      2515.352          48.000    25443752.148 7 102451455.352 7      1927.332          47.000
E33  23451035.094 8 123236018.929 8      -263.746          51.000    23451035.195 8  94427602.598 8      -202.076          51.000
> 2020 05 02 20 07 30.0000000  0 16        .000000000000
G01  20361142.875 7 106998530.211 7       644.734          42.000    20361145.148 7  83375501.154 7       502.390          42.000
G03  21475421.883 7 112854125.066 7      2199.906          45.000    21475424.008 7  87938325.101 7      1714.213          46.000
G08  22420452.602 8 117820270.394 8     -3199.633          49.000    22420456.328 8  91807988.931 8     -2493.217          49.000
G11  20140778.070 8 105840518.828 8     -1325.809          51.000    20140776.688 8  82473099.513 8     -1033.098          49.000
G14  21911355.094 6 115144940.743 6      -268.125          36.000    21911366.617 4  89723383.594 4      -208.929          27.000
G22  20688868.914 8 108720768.068 8       574.738          51.000    20688865.211 8  84717469.269 8       447.848          50.000
R01  20540970.938 7 109803255.146 7      3029.293          46.000    20540975.828 6  85402566.167 6      2356.117          39.000
R08  19224959.023 8 102948797.872 8      -257.949          48.000    19224960.562 7  80071388.432 7      -200.627          45.000
R22  21535102.594 8 114955838.311 8     -3206.645          48.000    21535110.289 8  89410092.057 8     -2494.054          50.000
R23  19173241.195 8 102563938.019 8       901.891          49.000    19173246.609 6  79771969.544 6       701.470          40.000
C05                                                                  39663549.977 6 159708679.172 6       -23.261          38.000
C19  21940401.508 8 114249486.477 8     -1289.156          51.000
C22  22570794.383 8 117532036.221 8      1804.652          51.000
C29  25541285.180 6 133000238.463 6     -3285.027          40.000
E19  25429404.023 7 133632432.828 7      2509.473          46.000    25429405.312 7 102393683.193 7      1922.959          47.000
E33  23452554.141 8 123243999.753 8      -270.059          51.000    23452553.766 8  94433717.787 8      -206.919          51.000
> 2020 05 02 20 08  0.0000000  0 18        .000000000000
G01  20357483.844 7 106979302.649 7       648.051          42.000    20357486.266 7  83360518.638 7       504.975          42.000
G03  21462881.625 7 112788226.875 7      2203.938          47.000    21462883.633 7  87886975.885 7      1717.354          47.000
G08  22438733.070 8 117916333.664 8     -3193.758          49.000    22438736.461 8  91882843.424 8     -2488.642          49.000
G11  20148382.562 8 105880480.819 8     -1327.707          50.000    20148380.953 8  82504238.725 8     -1034.577          50.000
G22  20685609.281 8 108703638.431 8       577.840          51.000    20685605.258 8  84704121.528 8       450.265          50.000
G32  22540097.859 5 118449019.618 5     -1810.605          35.000
R01  20524003.797 7 109712561.840 7      3027.918          46.000    20524010.172 6  85332026.963 6      2355.047          40.000
R07  21623480.352 5 115752151.975 5     -3538.426          31.000    21623487.461 4  90029489.233 4     -2752.112          25.000
R08  19226456.234 8 102956816.443 8      -265.777          49.000    19226458.242 7  80077625.143 7      -206.716          46.000
R22  21553147.047 8 115052154.940 8     -3203.617          49.000    21553153.719 8  89485005.033 8     -2491.702          48.000
R23  19168224.633 8 102537102.923 8       897.941          50.000    19168230.461 6  79751097.793 6       698.399          41.000
C05                                                                  39663710.602 6 159709326.108 6       -11.200          37.000
C19  21947848.664 8 114288266.303 8     -1285.406          50.000
C22  22560418.695 8 117478004.644 8      1808.145          51.000
C29  25560208.023 6 133098774.987 6     -3273.484          40.000
E19  25415086.578 7 133557198.563 7      2516.770          45.000    25415089.852 7 102336036.208 7      1928.404          47.000
E26  25057627.781 6 131678727.450 6     -2260.273          36.000    25057631.852 7 100896692.400 7     -1731.991          42.000
E33  23454108.102 8 123252165.200 8      -263.516          51.000    23454107.484 8  94439974.428 8      -201.882          51.000
> 2020 05 02 20 08 30.0000000  0 18        .000000000000
G01  20353917.195 7 106960560.919 7       611.629          43.000    20353919.812 7  83345914.705 7       476.594          43.000
G03  21450430.242 7 112722794.622 7      2168.133          46.000    21450432.234 7  87835989.782 7      1689.457          46.000
G08  22457092.047 8 118012808.684 8     -3227.695          50.000    22457094.719 8  91958018.757 8     -2515.087          50.000
G11  20156110.883 8 105921093.832 8     -1369.664          50.000    20156109.344 8  82535885.249 8     -1067.271          50.000
G14  21914626.727 6 115162160.717 6      -314.270          36.000
G22  20682444.578 8 108687008.322 8       540.934          51.000    20682440.547 8  84691163.041 8       421.510          50.000
G32  22550575.961 6 118504082.852 6     -1850.773          37.000    22550600.164 6  92340923.216 6     -1442.167          36.000
R01  20507157.961 8 109622510.827 8      2985.871          49.000    20507164.508 6  85261987.339 6      2322.344          41.000
R08  19228109.734 8 102965670.035 8      -314.285          48.000    19228111.547 7  80084511.288 7      -244.441          45.000
R22  21571287.094 8 115148982.388 8     -3241.199          49.000    21571292.875 7  89560315.254 7     -2520.933          45.000
R23  19163342.852 8 102510988.544 8       853.266          50.000    19163348.820 6  79730786.613 6       663.651          41.000
C05                                                                  39663894.992 6 159710069.058 6       -30.613          37.000
C19  21955386.953 8 114327520.681 8     -1321.445          50.000
C22  22550135.078 8 117424455.873 8      1771.906          51.000
C29  25579177.453 7 133197550.960 7     -3301.555          42.000
E19  25400840.422 7 133482338.825 7      2483.805          46.000    25400845.312 7 102278676.165 7      1903.175          46.000
E26  25070646.938 5 131747138.063 5     -2290.125          34.000    25070650.938 6 100949115.523 6     -1755.094          41.000
E33  23455737.141 8 123260725.735 8      -297.023          51.000    23455736.539 8  94446533.805 8      -227.586          51.000
> 2020 05 02 20 09  0.0000000  0 18        .000000000000
G01  20350411.648 7 106942139.452 7       609.656          43.000    20350414.391 7  83331560.358 7       475.057          43.000
G03  21438035.773 7 112657662.604 7      2167.203          44.000    21438037.891 7  87785237.582 7      1688.730          43.000
G08  22475497.547 8 118109527.463 8     -3227.238          50.000    22475499.344 8  92033384.013 8     -2514.731          50.000
G11  20163931.039 8 105962190.388 8     -1377.105          49.000    20163929.883 8  82567908.553 8     -1073.066          49.000
G14  21916423.945 5 115171597.165 5      -321.648          33.000    21916414.086 5  89744057.180 5      -250.635          30.000
G22  20679343.102 8 108670710.881 8       538.445          51.000    20679339.523 8  84678463.759 8       419.568          51.000
G32  22561140.312 6 118559593.385 6     -1857.047          37.000    22561169.219 5  92384178.199 5     -1447.053          34.000
R01  20490401.734 8 109532934.714 8      2978.613          50.000    20490407.281 6  85192317.083 6      2316.702          41.000
R08  19229887.148 8 102975187.551 8      -327.609          48.000    19229888.773 7  80091913.821 7      -254.807          46.000
R22  21589490.680 8 115246149.640 8     -3243.707          49.000    21589495.008 7  89635889.741 7     -2522.886          44.000
R23  19158564.438 8 102485427.648 8       843.562          50.000    19158570.312 6  79710905.924 6       656.104          41.000
C05                                                                  39664071.555 6 159710780.464 6       -22.545          37.000
C19  21962984.508 8 114367083.277 8     -1323.141          50.000
C22  22539911.914 8 117371225.571 8      1769.688          51.000
C29  25598161.641 7 133296400.092 7     -3295.488          44.000
E19  25386634.750 7 133407688.493 7      2485.562          47.000    25386639.961 7 102221476.578 7      1904.573          45.000
E26  25083689.352 6 131815679.342 6     -2286.152          40.000    25083694.984 6 101001634.147 6     -1751.667          41.000
E33  23457409.789 8 123269515.606 8      -296.043          51.000    23457409.289 8  94453268.904 8      -226.799          51.000
> 2020 05 02 20 09 30.0000000  0 17        .000000000000
G01  20346961.688 7 106924009.820 7       593.242          44.000    20346964.570 7  83317433.369 7       462.267          45.000
G03  21425693.000 7 112592802.072 7      2151.312          45.000    21425695.031 7  87734696.930 7      1676.350          44.000
G08  22493943.297 8 118206457.914 8     -3240.922          50.000    22493944.141 8  92108914.211 8     -2525.394          50.000
G11  20171837.797 8 106003741.281 8     -1399.016          50.000    20171836.898 8  82600285.877 8     -1090.142          50.000
G22  20676299.422 8 108654716.116 8       521.711          51.000    20676296.188 8  84666000.313 8       406.528          51.000
G32  22571784.430 5 118615519.756 5     -1877.105          32.000    22571775.469 5  92427671.850 5     -1462.680          33.000
R01  20473729.070 8 109443805.846 8      2957.059          49.000    20473733.766 6  85122994.708 6      2299.938          41.000
R08  19231782.547 7 102985337.413 7      -355.328          47.000    19231784.422 7  80099808.180 7      -276.366          47.000
R22  21607751.141 7 115343625.588 7     -3260.793          46.000    21607755.328 7  89711704.280 7     -2536.175          46.000
R23  19153884.609 8 102460392.728 8       819.301          50.000    19153890.242 6  79691434.330 6       637.234          41.000
C05                                                                  39664234.820 6 159711437.918 6       -25.530          37.000
C19  21970635.375 8 114406923.526 8     -1338.871          50.000
C22  22529744.148 8 117318285.195 8      1753.539          51.000
C29  25617154.453 7 133395291.836 7     -3303.305          46.000
E19  25372464.078 8 133333219.342 8      2473.082          48.000    25372468.555 7 102164415.827 7      1895.025          44.000
E26  25096751.242 6 131884315.471 6     -2295.535          41.000    25096757.539 6 101054225.547 6     -1759.009          40.000
E33  23459120.469 8 123278506.068 8      -309.363          51.000    23459119.891 8  94460157.704 8      -236.994          51.000
> 2020 05 02 20 10  0.0000000  0 16        .000000000000
G01  20343606.461 7 106906376.924 7       584.715          45.000    20343609.047 7  83303693.471 7       455.622          45.000
G03  21413441.141 7 112528417.683 7      2143.461          46.000    21413443.227 7  87684527.334 7      1670.232          46.000
G08  22512467.414 8 118303802.142 8     -3246.422          49.000    22512468.234 8  92184766.844 8     -2529.679          49.000
G11  20179870.047 8 106045950.014 8     -1412.695          51.000    20179868.844 8  82633175.788 8     -1100.802          49.000
G22  20673352.109 8 108639227.979 8       513.062          51.000    20673349.062 8  84653931.659 8       399.789          51.000
R01  20457178.492 7 109355334.069 7      2943.309          46.000    20457183.117 7  85054183.403 7      2289.243          42.000
R08  19233835.180 7 102996326.428 7      -374.918          45.000    19233836.719 7  80108355.182 7      -291.600          47.000
R22  21626107.266 7 115441615.644 7     -3269.535          45.000    21626112.562 8  89787918.764 8     -2542.972          48.000
R23  19149342.117 8 102436093.891 8       802.973          50.000    19149347.617 7  79672535.243 7       624.534          42.000
C05                                                                  39664423.633 6 159712196.790 6       -22.938          37.000
C19  21978377.992 8 114447242.161 8     -1346.766          50.000
C22  22519671.438 8 117265837.533 8      1745.270          51.000
C29  25636193.820 7 133494427.120 7     -3303.477          46.000
E19  25358366.984 8 133259136.623 8      2468.359          48.000    25358370.047 7 102107651.192 7      1891.230          43.000
E26  25109869.695 6 131953250.505 6     -2297.648          39.000    25109877.031 6 101107045.947 6     -1760.620          38.000
E33  23460908.312 8 123287901.876 8      -314.738          51.000    23460907.562 8  94467357.102 8      -241.148          51.000
> 2020 05 02 20 10 30.0000000  0 16        .000000000000
G01  20340304.219 7 106889022.436 7       572.074          46.000    20340306.359 7  83290170.478 7       445.772          46.000
G03  21401238.641 8 112464290.844 8      2131.363          48.000    21401240.672 8  87634558.429 8      1660.806          48.000
G08  22531027.586 8 118401337.825 8     -3256.188          48.000    22531029.062 8  92260768.693 8     -2537.286          48.000
G11  20187985.656 8 106088596.510 8     -1430.617          51.000    20187984.102 8  82666406.816 8     -1114.767          49.000
G22  20670459.367 8 108624026.945 8       500.102          51.000    20670456.078 8  84642086.728 8       389.693          51.000
R01  20440708.234 7 109267298.624 7      2925.469          45.000    20440714.438 7  84985711.445 7      2275.365          42.000
R08  19236002.086 7 103007929.699 7      -398.859          47.000    19236003.594 8  80117379.961 8      -310.224          48.000
R22  21644517.508 7 115539895.899 7     -3282.555          44.000    21644523.789 8  89864358.940 8     -2553.101          48.000
R23  19144896.109 8 102412310.136 8       782.348          51.000    19144901.570 7  79654036.754 7       608.493          42.000
C05                                                                  39664596.125 6 159712891.171 6       -23.427          37.000
C19  21986170.836 8 114487820.501 8     -1358.699          51.000
C22  22509652.820 8 117213665.872 8      1732.582          51.000
C29  25655237.352 7 133593587.259 7     -3307.660          45.000
E19  25344301.961 8 133185222.738 8      2459.121          49.000    25344303.430 7 102051015.928 7      1884.223          43.000
E26  25123003.234 6 132022264.770 6     -2303.598          37.000    25123011.625 5 101159927.122 5     -1765.340          34.000
E33  23462731.453 8 123297484.390 8      -324.391          51.000    23462731.062 8  94474699.557 8      -248.544          51.000
> 2020 05 02 20 11  0.0000000  0 19        .000000000000
G01  20337056.758 7 106871955.872 7       569.438          47.000    20337058.453 7  83276871.863 7       443.718          47.000
G03  21389087.016 8 112400430.863 8      2129.848          49.000    21389088.617 8  87584797.450 8      1659.622          49.000
G08  22549625.297 8 118499072.016 8     -3255.527          48.000    22549627.422 8  92336925.236 8     -2536.775          48.000
G11  20196186.070 8 106131689.081 8     -1438.203          51.000    20196184.602 8  82699985.411 8     -1120.678          49.000
G14  21924639.727 5 115214759.414 5      -386.637          30.000    21924626.008 4  89777684.729 4      -301.275          29.000
G22  20667622.734 8 108609121.006 8       497.543          51.000    20667619.188 8  84630471.718 8       387.696          51.000
G32  22604293.344 6 118786348.925 6     -1912.336          36.000    22604295.453 5  92560823.221 5     -1490.132          33.000
R01  20424322.148 7 109179710.081 7      2917.773          47.000    20424329.164 7  84917587.034 7      2269.382          42.000
R08  19238285.477 7 103020154.276 7      -411.984          46.000    19238286.586 8  80126887.967 8      -320.432          48.000
R22  21662983.586 7 115638473.157 7     -3285.367          45.000    21662990.273 7  89941030.206 7     -2555.280          47.000
R23  19140548.203 8 102389052.287 8       772.125          51.000    19140553.586 7  79635947.336 7       600.542          42.000
C05                                                                  39664754.008 6 159713526.705 6       -15.900          37.000
C19  21994014.891 8 114528665.647 8     -1360.441          51.000
C22  22499689.586 8 117161779.329 8      1730.328          51.000
C29  25674286.266 7 133692779.486 7     -3301.305          44.000
E07  26434362.086 5 138913509.132 5     -2318.543          31.000
E19  25330270.930 8 133111487.596 8      2460.328          49.000    25330271.289 7 101994517.649 7      1885.151          43.000
E26                                                                  25136163.055 5 101212911.578 5     -1761.757          30.000
E33  23464591.711 8 123307262.974 8      -323.707          51.000    23464592.070 8  94482192.235 8      -248.017          51.000
> 2020 05 02 20 11 30.0000000  0 18        .000000000000
G01  20333921.453 7 106855478.746 7       546.762          47.000    20333922.727 7  83264032.558 7       426.048          46.000
G03  21377043.500 8 112337138.972 8      2107.375          48.000    21377044.766 8  87535479.142 8      1642.113          48.000
G08  22568317.828 8 118597302.881 8     -3275.516          49.000    22568320.383 8  92413468.778 8     -2552.350          49.000
G11  20204528.414 8 106175527.790 8     -1466.508          51.000    20204527.195 8  82734145.410 8     -1142.733          49.000
G14  21926975.797 5 115227035.485 5      -416.430          35.000    21926975.242 5  89787297.713 5      -324.491          34.000
G22  20664899.227 8 108594810.492 8       474.301          51.000    20664895.852 8  84619320.677 8       369.585          51.000
G32  22615338.438 5 118844397.496 5     -1939.793          35.000    22615343.156 5  92606055.858 5     -1511.530          32.000
R01  20408078.641 8 109092876.698 8      2889.105          49.000    20408085.156 7  84850049.983 7      2247.082          42.000
R08  19240741.898 7 103033305.420 7      -446.586          46.000    19240742.508 8  80137116.630 8      -347.345          48.000
R22  21681562.523 7 115737651.282 7     -3308.664          45.000    21681569.555 7  90018168.826 7     -2573.405          46.000
R23  19136356.430 8 102366629.211 8       740.723          51.000    19136361.445 7  79618507.171 7       576.118          42.000
C05                                                                  39664954.414 6 159714333.871 6       -24.243          37.000
C19  22001966.891 8 114570074.057 8     -1382.586          51.000
C22  22489838.344 8 117110476.439 8      1707.469          51.000
C29  25693397.086 6 133792300.349 6     -3315.793          40.000
E19  25316331.195 8 133038232.937 8      2440.734          48.000    25316331.367 7 101938387.519 7      1870.284          45.000
E26                                                                  25149383.375 5 101266152.530 5     -1774.095          34.000
E33  23466546.953 8 123317538.891 8      -343.785          51.000    23466547.664 8  94490065.995 8      -263.459          51.000
> 2020 05 02 20 12  0.0000000  0 18        .000000000000
G01  20330828.570 8 106839224.752 8       535.105          48.000    20330829.656 8  83251367.118 8       416.965          48.000
G03  21365037.922 7 112274048.571 7      2096.805          47.000    21365039.422 7  87486317.851 7      1633.874          47.000
G08  22587034.703 8 118695660.974 8     -3283.539          49.000    22587037.344 8  92490111.446 8     -2558.602          49.000
G11  20212942.656 8 106219745.008 8     -1483.078          50.000    20212941.742 8  82768600.363 8     -1155.645          49.000
G14  21929398.922 6 115239763.979 6      -434.156          37.000    21929391.125 5  89797215.842 5      -338.307          34.000
G22  20662219.242 8 108580727.906 8       462.676          51.000    20662215.875 8  84608347.247 8       360.530          50.000
G32  22626447.547 5 118902779.398 5     -1954.406          32.000
R01  20391907.164 8 109006427.001 8      2872.312          50.000    20391912.477 6  84782811.383 6      2234.024          40.000
R08  19243300.234 7 103047006.764 7      -468.812          46.000    19243301.305 8  80147773.274 8      -364.632          48.000
R22  21700185.469 8 115837055.844 8     -3320.203          49.000    21700190.719 7  90095483.530 7     -2582.380          44.000
R23  19132251.203 8 102344668.644 8       721.270          51.000    19132256.055 7  79601426.736 7       560.987          42.000
C05                                                                  39665127.500 6 159715031.272 6       -23.446          37.000
C19  22009957.117 8 114611680.366 8     -1393.039          51.000
C22  22480028.453 8 117059393.807 8      1696.199          51.000
C29  25712499.703 6 133891784.582 6     -3318.496          37.000
E19  25302413.047 8 132965092.758 8      2433.305          48.000    25302413.789 7 101882345.121 7      1864.522          46.000
E26  25162607.516 5 132230395.282 5     -2320.273          32.000    25162606.695 6 101319414.170 6     -1777.668          36.000
E33  23468527.086 8 123327945.580 8      -351.973          51.000    23468528.117 8  94498039.961 8      -269.729          51.000
> 2020 05 02 20 12 30.0000000  0 17        .000000000000
G01  20327816.539 8 106823396.585 8       522.500          48.000    20327817.883 8  83239033.510 8       407.146          48.000
G03  21353108.391 7 112211362.171 7      2084.957          43.000    21353110.273 7  87437471.327 7      1624.642          43.000
G08  22605813.812 8 118794345.814 8     -3292.770          49.000    22605816.234 8  92567008.706 8     -2565.794          49.000
G11  20221467.016 8 106264541.812 8     -1500.879          49.000    20221466.305 8  82803506.972 8     -1169.513          48.000
G14  21931932.672 5 115253060.371 5      -453.207          32.000    21931931.141 5  89807570.732 5      -353.142          32.000
G22  20659621.203 8 108567074.528 8       449.969          51.000    20659617.781 8  84597708.269 8       350.625          51.000
R01  20375845.992 8 108920568.474 8      2854.090          48.000    20375849.938 6  84716032.597 6      2219.851          39.000
R08  19246000.078 7 103061462.508 7      -492.414          46.000    19246000.820 7  80159016.604 7      -382.989          47.000
R22  21718889.414 8 115936890.131 8     -3332.844          51.000    21718892.617 7  90173132.323 7     -2592.218          43.000
R23  19128271.367 8 102323378.626 8       700.488          51.000    19128275.953 7  79584867.838 7       544.824          42.000
C05                                                                  39665311.781 6 159715773.668 6       -24.071          37.000
C19  22018023.391 8 114653683.136 8     -1404.680          51.000
C22  22470298.633 8 117008731.952 8      1683.680          51.000
C29  25731634.023 6 133991430.732 6     -3322.184          39.000
E19  25288555.180 7 132892270.353 7      2424.141          47.000    25288556.789 7 101826546.196 7      1857.434          47.000
E26  25175878.664 6 132300131.396 6     -2325.797          36.000    25175874.000 5 101372846.120 5     -1782.478          34.000
E33  23470570.453 8 123338685.521 8      -361.531          51.000    23470572.109 8  94506269.260 8      -277.041          51.000
> 2020 05 02 20 13  0.0000000  0 17        .000000000000
G01  20324865.742 8 106807890.846 8       510.488          49.000    20324867.414 8  83226951.112 8       397.783          48.000
G03  21341236.398 7 112148976.050 7      2073.668          45.000    21341238.242 7  87388858.784 7      1615.845          45.000
G08  22624634.898 8 118893250.977 8     -3301.492          50.000    22624637.070 8  92644077.633 8     -2572.594          50.000
G11  20230081.672 8 106309813.122 8     -1517.973          50.000    20230081.000 8  82838783.343 8     -1182.836          48.000
G14  21934567.180 5 115266925.058 5      -470.250          35.000    21934564.000 5  89818356.434 5      -366.429          32.000
G22  20657084.797 8 108553745.349 8       437.988          51.000    20657081.531 8  84587321.913 8       341.290          51.000
R01  20359875.219 7 108835196.740 7      2836.539          45.000    20359879.000 6  84649632.447 6      2206.200          40.000
R08  19248820.055 7 103076564.806 7      -515.266          46.000    19248821.211 7  80170762.858 7      -400.762          47.000
R22  21737653.359 8 116037046.438 8     -3344.816          51.000    21737654.617 6  90251031.543 6     -2601.527          41.000
R23  19124397.281 8 102302654.954 8       680.371          51.000    19124401.781 7  79568749.441 7       529.178          42.000
C05                                                                  39665487.383 6 159716481.154 6       -23.802          37.000
C19  22026145.492 8 114695977.518 8     -1415.602          51.000
C22  22460630.055 8 116958388.009 8      1671.840          51.000
C29  25750781.156 6 134091134.199 6     -3325.402          40.000
