     3.02           OBSERVATION DATA    M (MIXED)           RINEX VERSION / TYPE
SAVERINEX           SC600               20200502 195931 LCL PGM / RUN BY / DATE
       G = GPS       R = GLONASS       C = COMPASS          COMMENT
       S = SBAS      J = QZSS          E = GALILEO          COMMENT
BEAN                                                        MARKER NAME
1                                                           MARKER NUMBER
GEODETIC                                                    MARKER TYPE
Unige DICCA         GTER                                    OBSERVER / AGENCY
SC60291900056       SC600               2.12(191226)        REC # / TYPE / VERS
                    HEMA45          NONE                    ANT # / TYPE
  4509407.8091   693652.4678  4442337.6214                  APPROX POSITION XYZ
        0.0000        0.0000        0.0000                  ANTENNA: DELTA H/E/N
G    8 C1C L1C D1C S1C C2Y L2Y D2Y S2Y                      SYS / # / OBS TYPES
R    8 C1C L1C D1C S1C C2P L2P D2P S2P                      SYS / # / OBS TYPES
C    8 C1I L1I D1I S1I C7I L7I D7I S7I                      SYS / # / OBS TYPES
E    8 C1C L1C D1C S1C C7Q L7Q D7Q S7Q                      SYS / # / OBS TYPES
DBHZ                                                        COMMENT
     30.000                                                 INTERVAL
  2020    05    02    17    00    0.0000000     GPS         TIME OF FIRST OBS
  2020    05    02    17    59   30.0000000     GPS         TIME OF LAST OBS
     0                                                      RCV CLOCK OFFS APPL
G L1C  0.00000                                              SYS / PHASE SHIFT
G L2Y  0.00000                                              SYS / PHASE SHIFT
R L1C  0.00000                                              SYS / PHASE SHIFT
R L2P  0.25000                                              SYS / PHASE SHIFT
C L1I  0.00000                                              SYS / PHASE SHIFT
C L7I  0.00000                                              SYS / PHASE SHIFT
E L1C  0.50000                                              SYS / PHASE SHIFT
E L7Q -0.25000                                              SYS / PHASE SHIFT
 12 R04  6 R05  1 R06 -4 R07  5 R09 -2 R10 -5 R11  0 R12 -1 GLONASS SLOT / FRQ #
    R19  3 R20  2 R21  4 R22 -3                             GLONASS SLOT / FRQ #
 C1C   71.950 C2C   71.950 C2P   71.950                     GLONASS COD/PHS/BIS
    18                                                      LEAP SECONDS
*** Above antenna height is from mark to ANTENNA BOTTOM.    COMMENT
    17     4        0.0000        ANT MEASURE TYPE/HEIGT    COMMENT
    0.0000    0.0000    0.0458    0.0405    0.0000          COMMENT
                    BASE STATION                            COMMENT
                                                            END OF HEADER
> 2020 05 02 17 00  0.0000000  0 14        .000000000000
G10  20928889.500 8 109982137.529 8       288.918          51.000    20928890.875 8  85700386.482 8       225.131          51.000
G16  21852889.664 8 114837709.406 8     -2825.754          48.000    21852889.703 7  89483923.267 7     -2201.886          42.000
G27  20285330.352 8 106600122.961 8       194.152          51.000    20285331.000 8  83065045.716 8       151.288          51.000
R05  22765156.453 6 121692798.570 6     -2935.090          37.000
R06  20459276.945 6 109174604.653 6      1147.977          37.000
R07  22254650.820 8 119130921.705 8      4126.309          48.000
R11  23028669.797 5 123058187.980 5     -4149.156          35.000    23028668.875 5  95712046.032 5     -3227.128          30.000
R12  21303084.766 6 113797244.182 6     -1835.363          36.000    21303097.312 5  88509017.715 5     -1427.508          31.000
R21  20292726.594 8 108590475.532 8     -1409.602          51.000    20292728.453 7  84459298.236 7     -1096.357          42.000
R22  20375556.742 4 108766109.992 4      1653.902          29.000    20375556.719 5  84595858.265 5      1286.368          30.000
C20  23039349.133 8 119972012.415 8      1359.801          51.000
C29  21586661.633 8 112407416.133 8       -91.996          51.000
E01  25314891.109 8 133030659.687 8     -2083.125          48.000    25314894.195 8 101932571.706 8     -1596.116          51.000
E26  22447526.250 8 117962552.886 8      -206.488          51.000    22447529.055 8  90386901.396 8      -158.221          51.000
> 2020 05 02 17 00 30.0000000  0 15        .000000000000
G10  20927320.836 8 109973894.374 8       263.691          51.000    20927322.406 8  85693963.251 8       205.477          51.000
G16  21869084.125 8 114922812.498 8     -2844.832          48.000    21869083.805 7  89550237.329 7     -2216.752          42.000
G26  23947923.469 5 125847186.429 5     -3674.633          33.000    23947929.016 5  98062748.180 5     -2863.356          34.000
G27  20284287.281 8 106594641.163 8       174.148          51.000    20284287.961 8  83060774.192 8       135.700          51.000
R05  22781707.477 6 121781281.967 6     -2960.508          39.000
R06  20452923.672 5 109140704.046 5      1115.082          35.000
R07  22231576.836 8 119007403.762 8      4111.309          49.000    22231588.086 5  92561329.988 5      3197.678          34.000
R11  23052000.758 5 123182869.384 5     -4160.328          32.000    23051999.836 5  95808925.271 5     -3235.814          31.000
R12  21313487.906 6 113852801.560 6     -1864.980          36.000    21313500.547 5  88552229.012 5     -1450.537          33.000
R21  20300681.023 8 108633042.645 8     -1425.102          50.000    20300683.789 7  84492405.970 7     -1108.412          42.000
R22  20366316.445 5 108716750.945 5      1640.504          31.000    20366310.844 5  84557471.512 5      1275.947          30.000
C20  23031586.367 8 119931589.621 8      1338.039          51.000
C29  21587242.086 8 112410438.796 8      -106.633          51.000
E01  25326839.758 8 133093452.032 8     -2100.055          48.000    25326843.758 8 101980685.313 8     -1609.130          51.000
E26  22448746.344 8 117968965.200 8      -217.980          51.000    22448749.320 8  90391814.727 8      -166.997          51.000
> 2020 05 02 17 01  0.0000000  0 16        .000000000000
G10  20925860.203 8 109966220.016 8       246.277          51.000    20925862.258 8  85687983.243 8       191.904          51.000
G11  23128783.320 5 121542582.980 5      3121.199          32.000
G16  21885350.625 8 115008292.971 8     -2855.789          49.000    21885350.062 7  89616845.453 7     -2225.290          44.000
G26  23968901.398 5 125957422.948 5     -3675.887          33.000    23968907.305 5  98148646.644 5     -2864.330          34.000
G27  20283322.281 8 106589569.923 8       162.098          51.000    20283323.078 8  83056822.582 8       126.310          51.000
R05  22798364.953 6 121870327.357 6     -2977.488          40.000    22798365.344 5  94788020.598 5     -2315.824          31.000
R07  22208551.664 8 118884146.884 8      4103.980          50.000    22208554.523 6  92465463.493 6      3191.988          41.000
R11  23075357.852 6 123307682.854 6     -4162.809          36.000    23075357.008 5  95906002.250 5     -3237.743          30.000
R12  21324019.305 5 113909054.766 5     -1886.590          35.000    21324030.430 5  88595981.573 5     -1467.345          33.000
R21  20308686.383 8 108675883.153 8     -1432.621          48.000    20308689.453 6  84525726.357 6     -1114.261          41.000
C20  23023913.250 8 119891633.783 8      1323.926          51.000
C29  21587871.688 8 112413717.302 8      -113.617          51.000
C30  24204820.117 5 126040874.952 5     -2347.551          31.000
E01  25338849.859 8 133156563.607 8     -2109.145          49.000    25338854.305 8 102029043.515 8     -1616.089          51.000
E07                                                                  26252201.086 5 105706732.713 5      1721.533          30.000
E26  22449996.250 8 117975534.238 8      -221.781          51.000    22449999.398 8  90396848.142 8      -169.882          51.000
> 2020 05 02 17 01 30.0000000  0 16        .000000000000
G10  20924521.953 8 109959189.133 8       225.355          51.000    20924524.570 8  85682504.637 8       175.602          51.000
G16  21901702.648 8 115094222.790 8     -2870.086          49.000    21901702.133 7  89683803.746 7     -2236.431          45.000
G26  23989906.703 5 126067803.500 5     -3680.023          35.000    23989910.406 5  98234657.324 5     -2867.551          34.000
G27  20282449.805 8 106584984.776 8       146.406          51.000    20282450.711 8  83053249.742 8       114.083          51.000
R05  22815141.750 5 121960007.085 5     -2998.348          33.000    22815143.109 5  94857771.498 5     -2332.051          31.000
R06  20440676.641 4 109075365.822 4      1061.434          29.000
R07  22185589.984 8 118761231.084 8      4093.152          48.000    22185594.023 7  92369862.423 7      3183.569          43.000
R11  23098754.594 6 123432700.057 6     -4168.723          37.000    23098753.086 4  96003237.662 4     -3242.349          29.000
R12  21334692.164 5 113966076.697 5     -1912.156          30.000    21334703.125 5  88640331.956 5     -1487.227          30.000
R21  20316757.367 7 108719072.945 7     -1443.621          47.000    20316760.742 6  84559318.434 6     -1122.816          41.000
C20  23016344.227 8 119852220.156 8      1306.445          51.000
C29  21588564.758 8 112417326.120 8      -124.117          51.000
C30  24218358.688 5 126111451.454 5     -2354.109          30.000
E01  25350935.031 8 133220067.518 8     -2121.613          50.000    25350939.250 8 102077702.313 8     -1625.700          51.000
E13  25879483.203 5 135997601.263 5     -2025.930          34.000
E26  22451290.219 8 117982334.500 8      -228.871          51.000    22451293.398 8  90402058.733 8      -175.369          51.000
> 2020 05 02 17 02  0.0000000  0 13        .000000000000
G10  20923278.766 8 109952657.981 8       209.219          51.000    20923281.812 8  85677415.420 8       163.028          51.000
G16  21918112.539 8 115180456.287 8     -2879.711          50.000    21918111.945 7  89750998.635 7     -2243.934          45.000
G26  24010911.188 5 126178181.894 5     -3679.707          34.000    24010913.922 5  98320666.399 5     -2867.307          34.000
G27  20281642.609 8 106580742.908 8       135.672          51.000    20281643.508 8  83049944.393 8       105.718          51.000
R06  20434764.805 5 109043806.462 5      1039.281          34.000
R07  22162664.945 7 118638514.830 7      4087.125          46.000    22162669.750 7  92274416.523 7      3178.878          44.000
R11  23122161.180 6 123557770.575 6     -4169.891          39.000    23122159.570 4  96100514.494 4     -3243.257          25.000
R21  20324866.055 7 108762465.850 7     -1449.988          43.000    20324869.492 6  84593068.471 6     -1127.769          41.000
C20  23008851.883 8 119813207.644 8      1293.586          49.000
C29  21589294.047 8 112421123.300 8      -129.910          50.000
E01  25363067.367 8 133283818.432 8     -2129.234          49.000    25363070.352 8 102126550.384 8     -1631.482          51.000
E13                                                                  25891038.344 5 104252479.766 5     -1551.282          31.000
E26  22452600.844 8 117989222.127 8      -231.156          51.000    22452603.930 8  90407336.261 8      -177.069          51.000
> 2020 05 02 17 02 30.0000000  0 16        .000000000000
G10  20922114.219 8 109946539.316 8       181.551          51.000    20922117.430 8  85672647.607 8       141.465          51.000
G16  21934563.234 8 115266903.594 8     -2900.621          51.000    21934562.141 7  89818360.131 7     -2260.227          44.000
G26  24031897.938 5 126288468.433 5     -3689.863          32.000    24031901.211 5  98406603.798 5     -2875.221          33.000
G27  20280884.289 8 106576757.998 8       112.898          51.000    20280885.125 8  83046839.264 8        87.970          51.000
R05  22848945.219 5 122140704.125 5     -3041.594          31.000
R06  20428977.781 5 109012920.011 5      1002.773          35.000
R07  22139759.492 7 118515913.482 7      4068.910          43.000    22139766.992 7  92179059.904 7      3164.705          45.000
R11  23145560.047 6 123682801.347 6     -4182.645          36.000    23145559.070 4  96197760.373 4     -3253.180          26.000
R21  20332996.602 7 108805972.849 7     -1467.957          45.000    20333000.148 6  84626907.210 6     -1141.744          40.000
C20  23001419.977 8 119774511.122 8      1269.113          48.000
C29  21590042.977 8 112425022.965 8      -147.137          50.000
C30  24245505.586 5 126252688.655 5     -2369.566          30.000
E01  25375229.086 8 133347727.561 8     -2148.504          48.000    25375230.875 8 102175519.656 8     -1646.232          51.000
E07  26213910.836 5 137755031.072 5      2214.918          32.000
E13                                                                  25902588.109 5 104298988.373 5     -1559.367          31.000
E26  22453911.352 8 117996109.736 8      -245.215          51.000    22453914.469 8  90412613.792 8      -187.931          51.000
> 2020 05 02 17 03  0.0000000  0 17        .000000000000
G10  20921124.023 8 109941336.286 8       170.211          51.000    20921127.320 8  85668593.298 8       132.635          51.000
G16  21951149.914 8 115354065.858 8     -2905.297          49.000    21951148.594 7  89886278.738 7     -2263.868          46.000
G21  24703088.398 5 129815598.322 5     -2605.609          32.000
G26  24052962.461 5 126399163.941 5     -3684.316          34.000    24052965.734 5  98492859.840 5     -2870.902          34.000
G27  20280270.750 8 106573534.111 8       106.836          51.000    20280271.484 8  83044327.138 8        83.249          51.000
R05  22866056.875 5 122232160.827 5     -3051.395          33.000
R06  20423407.180 6 108983182.400 6       984.594          37.000
R07  22116973.203 7 118393944.307 7      4067.383          44.000    22116982.344 7  92084194.988 7      3163.520          45.000
R11  23169045.938 5 123808299.851 5     -4178.789          35.000    23169046.266 4  96295387.112 4     -3250.175          26.000
R12  21367462.312 6 114141121.246 6     -1978.617          38.000
R21  20341243.984 7 108850106.240 7     -1469.184          42.000    20341247.078 6  84661233.219 6     -1142.695          40.000
C19  24644649.789 6 128331158.273 6      3325.992          40.000
C20  22994145.242 8 119736630.489 8      1261.031          49.000
C29  21590907.430 8 112429524.270 8      -148.164          50.000
E01  25387515.500 7 133412296.472 7     -2151.305          46.000    25387516.852 8 102224994.520 8     -1648.378          51.000
E07  26201285.531 6 137688682.931 6      2214.426          36.000    26201289.836 6 105501728.298 6      1696.798          37.000
E26  22455317.594 8 118003500.451 8      -242.727          51.000    22455320.852 8  90418276.809 8      -185.976          51.000
> 2020 05 02 17 03 30.0000000  0 18        .000000000000
G10  20920206.422 8 109936514.337 8       150.434          51.000    20920209.602 8  85664835.927 8       117.221          51.000
G16  21967770.008 7 115441406.046 7     -2918.051          47.000    21967769.234 7  89954335.989 7     -2273.806          46.000
G21  24717961.617 5 129893759.582 5     -2606.227          35.000
G26  24074002.477 5 126509731.407 5     -3687.941          32.000    24074005.016 4  98579016.208 4     -2873.724          29.000
G27  20279700.516 8 106570537.655 8        92.055          51.000    20279701.156 8  83041992.223 8        71.731          51.000
R05  22883234.930 4 122323970.487 4     -3070.145          29.000    22883234.977 5  95140881.932 5     -2387.896          30.000
R06  20417948.484 5 108954051.635 5       957.312          34.000
R07  22094206.367 7 118272067.122 7      4056.832          45.000    22094214.523 7  91989401.658 7      3155.317          45.000
R11  23192516.523 5 123933718.361 5     -4183.066          35.000    23192517.508 4  96392938.569 4     -3253.505          26.000
R12  21378637.992 6 114200816.147 6     -2001.535          38.000    21378629.180 4  88822848.045 4     -1556.747          28.000
R21  20349506.539 6 108894322.033 6     -1479.141          40.000    20349509.719 6  84695623.239 6     -1150.449          39.000
C19  24625501.633 7 128231443.744 7      3321.031          42.000
C20  22986925.961 8 119699037.340 8      1244.359          49.000
C29  21591785.711 8 112434098.072 8      -157.641          50.000
E01  25399823.859 7 133476989.071 7     -2162.336          45.000    25399826.852 8 102274564.205 8     -1656.930          51.000
E07  26188670.766 6 137622381.521 6      2205.145          37.000    26188674.297 6 105450925.947 6      1689.536          39.000
E26  22456717.898 8 118010859.625 8      -248.703          51.000    22456721.320 8  90423915.651 8      -190.580          51.000
E33  25349814.766 5 133214175.417 5      1719.504          32.000
> 2020 05 02 17 04  0.0000000  0 20        .000000000000
G10  20919403.531 8 109932294.346 8       131.066          51.000    20919406.258 8  85661547.614 8       102.130          51.000
G16  21984464.867 7 115529142.465 7     -2930.875          46.000    21984465.352 7  90022702.016 7     -2283.799          45.000
G21  24732837.938 5 129971940.887 5     -2605.680          33.000
G26  24095059.984 5 126620394.396 5     -3689.809          32.000    24095061.016 5  98665242.999 5     -2875.179          32.000
G27  20279215.742 8 106567990.461 8        77.977          51.000    20279216.398 8  83040007.391 8        60.761          51.000
R06  20412646.883 5 108925754.648 5       929.812          30.000
R07  22071499.633 7 118150511.647 7      4046.840          45.000    22071506.188 7  91894858.623 7      3147.545          43.000
R11  23216013.008 5 124059277.120 5     -4187.219          35.000    23216016.211 4  96490595.160 4     -3256.735          27.000
R12  21389946.383 5 114261222.445 5     -2025.070          35.000    21389938.125 4  88869830.518 4     -1575.061          26.000
R21  20357827.211 6 108938844.951 6     -1488.828          40.000    20357830.219 6  84730252.214 6     -1157.977          38.000
R22  20302849.656 5 108378010.978 5      1584.688          31.000    20302848.305 4  84293974.685 4      1232.529          27.000
C19  24606382.688 7 128131885.227 7      3316.395          44.000
C20  22979804.797 8 119661951.906 8      1228.121          51.000
C29  21592720.047 8 112438963.852 8      -166.516          49.000
C30  24286490.625 5 126466130.960 5     -2376.680          30.000
E01  25412199.492 8 133542024.833 8     -2173.062          49.000    25412203.062 8 102324396.810 8     -1665.086          51.000
E07  26176107.852 5 137556361.679 5      2197.023          32.000    26176110.430 6 105400339.293 6      1682.925          38.000
E13  25937379.781 6 136301843.913 6     -2033.320          37.000
E26  22458154.344 8 118018408.125 8      -254.289          51.000    22458157.844 8  90429699.566 8      -194.830          51.000
E33  25340008.648 5 133162644.319 5      1715.582          33.000
> 2020 05 02 17 04 30.0000000  0 16        .000000000000
G10  20918709.102 8 109928644.042 8       112.254          51.000    20918711.469 8  85658703.241 8        87.471          51.000
G16  22001228.758 7 115617240.607 7     -2942.480          46.000    22001230.266 7  90091349.923 7     -2292.842          46.000
G21  24747711.812 5 130050110.181 5     -2604.879          30.000
G26  24116127.992 5 126731107.176 5     -3690.754          30.000    24116129.062 5  98751513.309 5     -2875.921          31.000
G27  20278810.570 8 106565861.261 8        64.141          51.000    20278811.055 8  83038348.270 8        49.980          51.000
R07  22048847.594 7 118029249.689 7      4037.207          46.000    22048852.172 7  91800543.869 7      3140.053          43.000
R11  23239528.438 5 124184939.184 5     -4190.148          33.000    23239533.617 4  96588348.097 4     -3259.013          26.000
R21  20366198.945 6 108983642.353 6     -1497.652          37.000    20366201.945 6  84765094.701 6     -1164.841          38.000
C19  24587287.789 7 128032453.268 7      3312.371          45.000
C20  22972775.484 8 119625343.623 8      1212.457          51.000
C29  21593704.305 8 112444090.262 8      -175.109          49.000
C30  24300190.898 4 126537501.912 4     -2381.328          29.000
E01  25424634.828 8 133607370.042 8     -2183.305          50.000    25424638.633 8 102374466.484 8     -1672.907          51.000
E07                                                                  26163594.609 6 105349945.209 6      1676.741          36.000
E26  22459620.750 8 118026113.710 8      -259.441          51.000    22459624.211 8  90435603.842 8      -198.763          51.000
E33                                                                  25330231.273 5 101994344.783 5      1311.915          33.000
> 2020 05 02 17 05  0.0000000  0 16        .000000000000
G10  20918129.398 8 109925596.662 8        95.117          51.000    20918131.477 8  85656328.658 8        74.117          51.000
G16  22018068.125 8 115705731.376 8     -2952.512          48.000    22018069.773 7  90160303.741 7     -2300.658          45.000
G21  24762590.234 5 130128296.680 5     -2602.941          32.000
G26  24137211.164 4 126841900.313 4     -3690.652          29.000    24137213.977 4  98837855.830 4     -2875.833          28.000
G27  20278491.406 8 106564184.166 8        51.961          51.000    20278491.609 8  83037041.446 8        40.489          51.000
R07  22026257.648 7 117908319.539 7      4029.031          47.000    22026261.297 7  91706487.193 7      3133.694          44.000
R12  21412943.242 6 114384107.567 6     -2067.648          36.000
R21  20374628.281 6 109028748.259 6     -1504.773          37.000    20374631.883 6  84800177.036 6     -1170.382          37.000
C19  24568224.008 7 127933183.126 7      3309.648          45.000
C20  22965843.844 8 119589246.618 8      1198.316          51.000
C29  21594744.961 8 112449510.834 8      -182.051          49.000
C30  24313919.250 5 126608988.340 5     -2383.160          30.000
E01  25437135.320 8 133673056.297 8     -2191.641          50.000    25437139.094 8 102424797.483 8     -1679.294          51.000
E07                                                                  26151134.453 6 105299770.752 6      1671.518          36.000
E26  22461123.367 8 118034009.506 8      -262.754          51.000    22461126.742 8  90441653.866 8      -201.295          51.000
E33                                                                  25320470.578 5 101955044.871 5      1310.556          31.000
> 2020 05 02 17 05 30.0000000  0 17        .000000000000
G10  20917647.914 8 109923065.973 8        73.496          51.000    20917649.766 8  85654356.712 8        57.270          51.000
G16  22034965.898 8 115794526.329 8     -2967.254          49.000    22034966.719 7  90229494.549 7     -2312.146          45.000
G21  24777457.352 5 130206421.771 5     -2605.062          34.000
G26  24158295.453 5 126952702.707 5     -3695.547          31.000    24158298.016 5  98924194.969 5     -2879.650          31.000
G27  20278241.945 8 106562874.061 8        35.316          51.000    20278241.938 8  83036020.587 8        27.519          51.000
R06  20397641.508 5 108845740.052 5       848.766          32.000
R07  22003714.320 8 117787638.022 8      4016.238          48.000    22003717.391 7  91612623.891 7      3123.744          45.000
R11  23286613.773 5 124436608.389 5     -4198.340          30.000    23286623.156 4  96784065.847 4     -3265.375          26.000
R12  21424615.984 5 114446510.195 5     -2092.617          30.000
R21  20383099.680 6 109074074.965 6     -1516.941          36.000    20383102.617 5  84835431.099 5     -1179.843          35.000
C19  24549175.477 7 127833991.967 7      3302.910          46.000
C20  22958994.070 8 119553576.947 8      1179.574          51.000
C29  21595826.031 8 112455140.800 8      -193.359          50.000
C30  24327682.625 4 126680626.767 4     -2391.176          29.000
E01  25449683.641 8 133738995.953 8     -2204.434          50.000    25449687.508 8 102475322.641 8     -1689.108          51.000
E07  26138712.305 5 137359865.427 5      2169.863          33.000    26138712.555 6 105249751.471 6      1662.982          36.000
E26  22462645.773 8 118042009.400 8      -270.664          51.000    22462649.070 8  90447783.658 8      -207.371          51.000
> 2020 05 02 17 06  0.0000000  0 16        .000000000000
G10  20917275.250 8 109921107.287 8        57.203          51.000    20917276.633 8  85652830.457 8        44.574          51.000
G16  22051931.523 8 115883678.308 8     -2976.184          49.000    22051931.367 7  90298963.564 7     -2319.104          45.000
G21  24792322.992 5 130284536.449 5     -2602.145          33.000
G27  20278072.922 8 106561987.243 8        23.789          51.000    20278073.070 8  83035329.550 8        18.537          51.000
R05  22970645.234 5 122791249.993 5     -3157.297          31.000
R06  20392936.422 5 108820644.208 5       824.465          34.000
R07  21981228.891 8 117667266.121 8      4008.551          50.000    21981230.820 7  91519001.386 7      3117.765          45.000
R21  20391621.719 6 109119678.961 6     -1523.695          36.000    20391623.148 5  84870900.911 5     -1185.093          32.000
R22  20267603.297 5 108189784.891 5      1554.199          33.000
C19  24530152.742 7 127734937.136 7      3300.898          44.000
C20  22952236.836 8 119518390.735 8      1166.219          51.000
C29  21596957.898 8 112461035.685 8      -199.496          50.000
C30  24341457.438 5 126752395.968 5     -2394.070          31.000
E01  25462290.094 8 133805242.868 8     -2211.824          50.000    25462293.945 8 102526083.234 8     -1694.730          51.000
E07  26126334.766 5 137294814.990 5      2164.359          33.000    26126339.859 6 105199931.436 6      1658.860          36.000
E26  22464198.453 8 118050168.756 8      -273.137          51.000    22464201.742 8  90454035.626 8      -209.284          51.000
> 2020 05 02 17 06 30.0000000  0 16        .000000000000
G10  20917014.367 8 109919736.205 8        35.043          51.000    20917015.734 8  85651762.092 8        27.306          51.000
G16  22068967.477 8 115973201.027 8     -2991.332          49.000    22068966.742 7  90368721.485 7     -2330.908          45.000
G20  21793609.750 6 114526170.291 6     -2199.281          38.000
G21  24807189.539 5 130362656.713 5     -2605.328          35.000
G27  20277987.609 8 106561540.370 8         6.672          51.000    20277988.094 8  83034981.316 8         5.199          51.000
R06  20388389.914 5 108796375.852 5       794.004          34.000
R07  21958804.789 8 117547224.349 8      3994.980          49.000    21958805.930 7  91425635.651 7      3107.210          45.000
R21  20400198.461 5 109165576.221 5     -1535.957          34.000    20400199.328 5  84906598.786 5     -1194.636          33.000
C19  24511159.562 7 127636036.643 7      3293.328          44.000
C20  22945575.297 8 119483704.766 8      1146.965          51.000
C29  21598143.953 8 112467211.638 8      -211.414          51.000
C30  24355273.539 4 126824299.230 4     -2401.516          28.000
E01  25474957.797 8 133871811.266 8     -2225.184          50.000    25474961.430 8 102577090.134 8     -1705.026          51.000
E07                                                                  26114019.359 5 105150334.125 5      1649.456          31.000
E26  22465784.422 8 118058503.273 8      -281.555          51.000    22465787.695 8  90460421.822 8      -215.773          51.000
E33  25291280.609 5 132906576.427 5      1696.469          32.000
> 2020 05 02 17 07  0.0000000  0 14        .000000000000
G10  20916861.781 8 109918934.458 8        18.215          51.000    20916863.195 8  85651137.362 8        14.193          51.000
G16  22086069.930 8 116063073.460 8     -3000.727          50.000    22086069.070 7  90438751.928 7     -2338.228          45.000
G20  21806198.047 6 114592317.662 6     -2211.070          36.000
G21  24822053.461 5 130440764.025 5     -2602.441          33.000
G27  20277982.859 8 106561516.152 8        -5.242          51.000    20277983.555 8  83034962.441 8        -4.085          51.000
R06  20383993.273 5 108772917.386 5       769.016          35.000
R07  21936439.547 8 117427499.026 8      3986.445          50.000    21936440.203 7  91332516.039 7      3100.572          46.000
R21  20408827.258 6 109211748.440 6     -1542.836          37.000    20408828.406 5  84942510.500 5     -1199.987          34.000
R22  20250255.320 6 108097235.450 6      1535.887          36.000    20250247.188 4  84075597.419 4      1194.572          27.000
C19  24492192.992 7 127537274.972 7      3290.645          42.000
C20  22939007.039 8 119449502.324 8      1132.867          51.000
C29  21599380.836 8 112473651.263 8      -218.137          51.000
E01  25487683.188 8 133938681.400 8     -2233.109          51.000    25487686.602 8 102628328.235 8     -1711.111          51.000
E26  22467400.219 8 118066994.815 8      -284.777          51.000    22467403.461 8  90466928.317 8      -218.233          51.000
> 2020 05 02 17 07 30.0000000  0 13        .000000000000
G10  20916821.734 8 109918724.169 8        -3.418          51.000    20916823.156 8  85650973.514 8        -2.663          51.000
G16  22103242.750 8 116153315.618 8     -3014.750          51.000    22103241.703 7  90509070.461 7     -2349.156          45.000
G21  24836918.289 5 130518880.419 5     -2603.383          31.000
G26  24242738.188 5 127396442.875 5     -3702.641          32.000    24242734.930 5  99269945.396 5     -2885.184          33.000
G27  20278062.953 8 106561937.802 8       -22.055          51.000    20278063.883 8  83035290.989 8       -17.185          51.000
R06  20379753.094 4 108750293.447 4       740.051          29.000
R07  21914138.297 8 117308117.272 8      3973.066          50.000    21914138.492 7  91239663.610 7      3090.163          45.000
R21  20417511.562 6 109258218.526 6     -1554.469          38.000    20417512.438 5  84978653.892 5     -1209.031          33.000
C19  24473257.695 6 127438676.627 6      3282.906          41.000
C20  22932535.828 8 119415806.684 8      1114.188          50.000
C29  21600672.664 8 112480377.263 8      -229.535          51.000
E01  25500469.719 8 134005874.010 8     -2245.734          51.000    25500473.305 8 102679813.435 8     -1720.784          51.000
E26  22469050.117 8 118075665.605 8      -292.699          51.000    22469053.352 8  90473572.167 8      -224.252          51.000
> 2020 05 02 17 08  0.0000000  0 16        .000000000000
G10  20916886.359 8 109919063.719 8       -19.008          51.000    20916887.602 8  85651238.119 8       -14.811          51.000
G16  22120477.500 8 116243883.729 8     -3022.922          51.000    22120476.320 7  90579642.987 7     -2355.524          46.000
G21  24851776.984 5 130596964.301 5     -2601.355          30.000
G26  24263868.477 5 127507489.318 5     -3700.629          31.000
G27  20278220.273 8 106562764.793 8       -32.953          51.000    20278221.359 8  83035935.376 8       -25.681          51.000
R05  23042340.633 5 123174498.137 5     -3226.184          33.000    23042349.938 4  95802422.575 4     -2509.257          29.000
R06  20375662.336 5 108728462.913 5       715.766          31.000
R07  21891893.766 8 117189041.394 8      3965.551          49.000    21891894.094 7  91147049.099 7      3084.320          44.000
R12  21484913.617 5 114768569.398 5     -2199.523          32.000
R21  20426242.828 5 109304944.211 5     -1560.496          35.000    20426244.883 5  85014996.032 5     -1213.719          35.000
C19  24454346.969 6 127340202.940 6      3281.949          40.000
C20  22926154.031 8 119382577.978 8      1101.168          50.000
C29  21602011.609 8 112487349.106 8      -235.070          51.000
E01  25513308.891 8 134073346.040 8     -2252.316          49.000    25513312.758 8 102731512.745 8     -1725.756          51.000
E07  26077360.734 6 137037454.590 6      2129.062          37.000
E26  22470726.234 8 118084474.182 8      -294.422          51.000    22470729.570 8  90480321.588 8      -225.617          51.000
> 2020 05 02 17 08 30.0000000  0 15        .000000000000
G10  20917065.711 8 109920005.879 8       -41.504          51.000    20917066.359 8  85651972.284 8       -32.341          51.000
G16  22137783.766 8 116334828.446 8     -3037.875          51.000    22137782.695 7  90650508.960 7     -2367.175          46.000
G20  21844414.289 5 114793181.060 5     -2255.016          34.000
G21  24866639.656 5 130675068.505 5     -2603.281          33.000
G26  24285009.258 5 127618592.756 5     -3705.129          31.000
G27  20278464.977 8 106564050.953 8       -50.684          51.000    20278466.148 8  83036937.562 8       -39.494          51.000
R05  23060509.984 5 123271629.753 5     -3246.910          30.000    23060520.297 4  95877969.418 4     -2525.375          24.000
R07  21869717.109 8 117070330.201 8      3950.887          49.000    21869717.445 7  91054718.190 7      3072.912          42.000
R21  20435032.914 6 109351979.766 6     -1573.164          36.000    20435035.914 5  85051579.136 5     -1223.575          35.000
C19  24435471.375 6 127241908.907 6      3273.184          38.000
C20  22919872.719 8 119349869.891 8      1081.547          50.000
C29  21603407.898 8 112494619.904 8      -247.430          51.000
E01  25526210.672 8 134141148.902 8     -2265.641          50.000    25526214.602 8 102783465.576 8     -1736.025          51.000
E07  26065250.273 6 136973807.966 6      2116.234          38.000
E26  22472438.719 8 118093473.540 8      -303.285          51.000    22472442.133 8  90487217.191 8      -232.357          51.000
> 2020 05 02 17 09  0.0000000  0 17        .000000000000
G10  20917345.227 8 109921474.500 8       -57.012          51.000    20917345.445 8  85653116.684 8       -44.425          51.000
G11  22846502.539 6 120059180.175 6      3060.215          37.000
G16  22155146.539 8 116426071.442 8     -3045.770          50.000    22155146.016 7  90721607.364 7     -2373.327          47.000
G21  24881491.859 5 130753116.974 5     -2599.438          31.000
G27  20278782.789 8 106565721.230 8       -61.266          51.000    20278784.039 8  83038239.053 8       -47.739          51.000
R05  23078766.828 5 123369223.448 5     -3260.230          31.000
R06  20367946.242 5 108687242.766 5       661.895          32.000
R07  21847594.695 7 116951910.731 7      3943.133          47.000    21847595.109 6  90962614.194 6      3066.881          40.000
R12  21509885.156 5 114901951.706 5     -2243.180          34.000    21509893.828 5  89368209.839 5     -1744.695          34.000
R21  20443866.133 5 109399247.749 5     -1578.723          35.000    20443868.219 5  85088343.169 5     -1227.895          35.000
C19  24416616.438 6 127143721.632 6      3271.742          36.000
C20  22913677.000 8 119317608.439 8      1068.641          49.000
C29  21604847.102 8 112502115.057 8      -252.898          51.000
C30  24424759.344 4 127186134.072 4     -2421.930          29.000
E01  25539161.430 8 134209205.111 8     -2272.074          51.000    25539164.703 8 102835612.514 8     -1740.910          51.000
E07  26053182.156 6 136910388.664 6      2110.867          38.000    26053180.312 5 104905362.646 5      1617.412          34.000
E26  22474173.148 8 118102587.768 8      -305.086          51.000    22474176.453 8  90494200.814 8      -233.719          51.000
> 2020 05 02 17 09 30.0000000  0 16        .000000000000
G10  20917716.133 8 109923423.662 8       -58.133          51.000    20917716.680 8  85654635.533 8       -45.298          51.000
G11  22829037.852 5 119967396.741 5      3073.680          34.000
G16  22172556.805 8 116517564.304 8     -3039.297          49.000    22172556.906 7  90792900.467 7     -2368.286          47.000
G20  21870306.664 5 114929225.920 5     -2261.012          32.000
G21  24896324.352 5 130831063.699 5     -2581.086          30.000
G27  20279165.258 8 106567730.814 8       -57.891          51.000    20279166.688 8  83039804.949 8       -45.113          51.000
R06  20364295.562 5 108667761.461 5       652.656          31.000
R07  21825518.625 7 116833740.898 7      3949.832          46.000    21825518.367 6  90870704.438 6      3072.092          37.000
R12  21522542.273 6 114969516.782 6     -2246.363          38.000    21522546.773 5  89420760.341 5     -1747.174          33.000
C19  24397774.469 6 127045598.473 6      3284.324          36.000
C20  22907558.406 8 119285749.386 8      1069.902          50.000
C29  21606320.758 8 112509789.842 8      -244.156          51.000
C30  24438712.977 5 127258799.421 5     -2407.887          33.000
E01  25552151.898 8 134277467.401 8     -2264.004          51.000    25552154.523 8 102887917.338 8     -1734.717          51.000
E07  26041147.703 6 136847153.026 6      2119.555          40.000    26041148.250 6 104856909.460 6      1624.083          38.000
E26  22475920.758 8 118111771.145 8      -292.383          51.000    22475923.859 8  90501237.418 8      -224.075          51.000
> 2020 05 02 17 10  0.0000000  0 13        .000000000000
G10  20918202.766 8 109925981.642 8       -94.176          51.000    20918203.750 8  85656628.766 8       -73.384          51.000
G16  22190038.789 8 116609433.324 8     -3067.293          50.000    22190039.250 7  90864486.691 7     -2390.101          47.000
G20  21883347.773 5 114997767.725 5     -2291.047          30.000
G27  20279637.047 8 106570209.131 8       -89.227          51.000    20279638.508 8  83041736.080 8       -69.527          51.000
R06  20360805.883 5 108649139.742 5       607.680          35.000
R07  21803514.078 7 116715956.238 7      3920.898          43.000    21803515.195 6  90779094.275 6      3049.591          40.000
R12  21535315.234 6 115037763.273 6     -2284.777          36.000    21535327.195 5  89473840.836 5     -1777.055          30.000
C19  24378970.422 6 126947668.987 6      3262.566          36.000
C20  22901542.047 8 119254421.269 8      1036.578          50.000
C29  21607853.617 8 112517772.234 8      -270.047          51.000
E01  25565205.828 8 134346062.677 8     -2290.766          51.000    25565208.477 8 102940477.313 8     -1755.280          51.000
E07  26029173.281 6 136784231.641 6      2093.387          40.000    26029175.352 6 104808697.034 6      1604.009          39.000
E26  22477706.023 8 118121152.220 8      -314.727          51.000    22477708.930 8  90508425.506 8      -241.166          51.000
> 2020 05 02 17 10 30.0000000  0 14        .000000000000
G10  20918826.438 8 109929260.023 8      -125.496          51.000    20918827.750 8  85659183.350 8       -97.789          51.000
G16  22207613.297 8 116701787.732 8     -3090.770          50.000    22207613.812 7  90936451.139 7     -2408.392          46.000
G27  20280219.516 8 106573268.854 8      -115.742          51.000    20280220.758 8  83044120.273 8       -90.189          51.000
R06  20357497.219 5 108631492.031 5       567.824          33.000
R07  21781603.133 7 116598675.324 7      3896.652          43.000    21781607.766 7  90687875.864 7      3030.733          44.000
R12  21548233.859 6 115106801.188 6     -2318.605          36.000    21548255.820 4  89527597.043 4     -1803.357          26.000
R21  20470667.875 5 109542698.531 5     -1618.098          30.000    20470669.773 5  85199866.854 5     -1258.520          33.000
C19  24360224.547 5 126850046.687 5      3244.414          35.000
C20  22895649.273 8 119223736.034 8      1008.031          51.000
C29  21609466.969 8 112526173.692 8      -291.109          51.000
E01  25578343.922 8 134415101.224 8     -2312.781          51.000    25578347.016 8 102993376.946 8     -1772.185          51.000
E07  26017279.172 6 136721738.302 6      2071.531          40.000    26017282.820 6 104760812.556 6      1587.487          40.000
E13                                                                  26089064.844 5 105049840.622 5     -1582.024          33.000
E26  22479550.086 8 118130842.911 8      -332.383          51.000    22479552.961 8  90515850.833 8      -254.662          51.000
> 2020 05 02 17 11  0.0000000  0 15        .000000000000
G10  20919561.008 8 109933120.955 8      -140.516          51.000    20919563.133 8  85662191.865 8      -109.490          51.000
G11  22776867.328 5 119693250.460 5      3035.199          35.000
G16  22225253.586 8 116794487.745 8     -3097.867          49.000    22225253.914 7  91008684.873 7     -2413.926          45.000
G27  20280886.609 8 106576773.327 8      -126.289          51.000    20280887.758 8  83046851.022 8       -98.407          51.000
R06  20354346.469 5 108614680.258 5       544.582          30.000
R07  21759762.258 7 116481762.688 7      3888.840          43.000    21759769.148 7  90596943.846 7      3024.653          46.000
R12  21561275.148 6 115176486.955 6     -2335.320          36.000    21561299.977 4  89581797.127 4     -1816.366          29.000
C19  24341510.875 5 126752597.612 5      3243.805          35.000
C20  22889854.305 8 119193558.478 8       995.398          51.000
C29  21611134.875 8 112534858.480 8      -296.328          51.000
E01  25591539.453 8 134484443.886 8     -2318.582          51.000    25591542.859 8 103046509.597 8     -1776.600          51.000
E07  26005441.289 6 136659537.419 6      2066.359          41.000    26005446.930 6 104713152.198 6      1583.338          41.000
E13                                                                  26100821.961 5 105097193.660 5     -1580.345          32.000
E26  22481426.875 8 118140705.612 8      -333.742          51.000    22481429.711 8  90523407.967 8      -255.707          51.000
E33  25204836.828 6 132452344.989 6      1661.172          36.000
> 2020 05 02 17 11 30.0000000  0 18        .000000000000
G10  20920386.953 8 109937461.072 8      -151.477          51.000    20920389.414 8  85665573.779 8      -118.034          51.000
G16  22242939.547 8 116887427.789 8     -3100.926          49.000    22242939.469 7  91081105.631 7     -2416.309          45.000
G21  24955735.547 5 131143283.072 5     -2598.234          32.000
G27  20281618.797 8 106580620.318 8      -132.953          51.000    20281620.094 8  83049848.670 8      -103.600          51.000
R05  23171466.695 4 123864768.291 4     -3342.199          28.000
R06  20351332.633 5 108598600.312 5       525.121          35.000
R07  21737972.016 7 116365117.779 7      3884.895          42.000    21737979.656 7  90506220.056 7      3021.585          46.000
R12  21574419.375 5 115246712.661 5     -2348.863          30.000    21574444.258 4  89636417.076 4     -1826.894          28.000
R22  20174531.875 5 107693027.841 5      1461.078          33.000
C19  24322809.672 5 126655222.143 5      3246.000          35.000
C20  22884137.461 8 119163787.590 8       986.566          51.000
C29  21612837.930 8 112543725.106 8      -297.527          51.000
C30  24494884.742 4 127551291.793 4     -2443.504          29.000
E01  25604772.742 8 134553986.031 8     -2320.270          51.000    25604775.914 8 103099795.099 8     -1777.902          50.000
E07  25993640.539 6 136597527.964 6      2064.805          40.000    25993646.266 6 104665638.466 6      1582.249          38.000
E13                                                                  26112567.867 5 105144496.248 5     -1575.281          34.000
E26  22483316.742 8 118150637.311 8      -331.078          51.000    22483319.508 8  90531017.968 8      -253.701          51.000
E33  25195335.492 5 132402407.986 5      1665.613          35.000
> 2020 05 02 17 12  0.0000000  0 17        .000000000000
G10  20921314.688 8 109942336.047 8      -172.652          51.000    20921316.906 8  85669372.460 8      -134.534          51.000
G16  22260681.406 8 116980661.800 8     -3113.727          49.000    22260680.953 7  91153755.451 7     -2426.283          43.000
G21  24970573.117 5 131221246.893 5     -2599.766          32.000
G27  20282426.883 8 106584866.666 8      -149.488          51.000    20282428.422 8  83053157.489 8      -116.487          51.000
R05  23190279.734 5 123965270.544 5     -3360.363          31.000    23190279.148 4  96417479.695 4     -2613.616          25.000
R06  20348467.117 5 108583310.442 5       495.023          32.000
R07  21716243.031 6 116248802.325 6      3870.391          41.000    21716250.828 7  90415752.472 7      3010.301          45.000
R12  21587689.781 6 115317586.232 6     -2371.684          38.000
R22  20166360.039 5 107649375.413 5      1450.188          31.000
C19  24304131.953 6 126557978.180 6      3238.230          36.000
C20  22878509.719 8 119134479.925 8       967.938          51.000
C29  21614586.719 8 112552829.673 8      -308.758          51.000
C30  24508987.117 4 127624728.468 4     -2451.137          29.000
E01  25618053.945 8 134623782.052 8     -2332.012          51.000    25618057.336 8 103153275.118 8     -1786.779          50.000
E07  25981887.453 6 136535767.829 6      2053.426          40.000    25981891.141 5 104618315.802 5      1572.988          35.000
E13                                                                  26124316.984 5 105191812.467 5     -1578.522          35.000
E26  22485230.367 8 118160694.060 8      -338.531          51.000    22485233.047 8  90538723.789 8      -259.382          51.000
> 2020 05 02 17 12 30.0000000  0 15        .000000000000
G10  20922355.695 8 109947805.984 8      -192.566          51.000    20922358.000 8  85673634.759 8      -150.052          51.000
G16  22278489.938 7 117074247.189 7     -3125.543          47.000    22278489.383 7  91226679.080 7     -2435.488          44.000
G21  24985411.953 5 131299224.294 5     -2599.902          32.000
G27  20283322.656 8 106589573.693 8      -164.910          51.000    20283324.195 8  83056825.293 8      -128.501          51.000
R06  20345760.961 4 108568878.045 4       465.602          28.000
R07  21694589.867 7 116132882.373 7      3856.887          44.000    21694595.188 7  90325592.482 7      2999.801          43.000
R12  21601062.422 6 115389010.562 6     -2393.582          41.000
C19  24285492.109 6 126460928.053 6      3231.633          40.000
C20  22872982.656 8 119105696.474 8       950.320          51.000
C29  21616392.820 8 112562232.672 8      -318.750          51.000
E01  25631394.617 8 134693890.753 8     -2342.535          50.000    25631398.414 8 103206994.725 8     -1794.921          50.000
E07  25970193.680 6 136474319.488 6      2042.648          41.000    25970194.297 5 104571232.016 5      1565.269          33.000
E13                                                                  26136083.469 5 105239188.677 5     -1580.665          35.000
E26  22487179.383 8 118170936.348 8      -344.914          51.000    22487181.914 8  90546571.774 8      -264.276          51.000
E33  25176383.305 5 132302786.369 5      1655.414          34.000
> 2020 05 02 17 13  0.0000000  0 14        .000000000000
G10  20923511.203 8 109953877.919 8      -211.562          51.000    20923513.695 8  85678366.155 8      -164.854          51.000
G16  22296365.797 7 117168189.013 7     -3136.348          45.000    22296365.852 7  91299880.467 7     -2443.907          44.000
G21  25000254.461 5 131377222.956 5     -2599.496          30.000
G27  20284307.664 8 106594749.597 8      -179.379          51.000    20284308.852 8  83060858.470 8      -139.776          51.000
R07  21673012.625 7 116017369.719 7      3844.492          45.000    21673015.125 6  90235749.359 6      2990.164          41.000
R12  21614561.219 6 115461133.177 6     -2414.230          40.000
R21  20516462.297 5 109787739.566 5     -1655.168          32.000    20516435.984 4  85390409.391 4     -1287.353          29.000
C19  24266892.336 7 126364081.665 7      3225.652          43.000
C20  22867557.781 8 119077445.604 8       933.719          51.000
C29  21618257.523 8 112571942.081 8      -327.840          51.000
E01  25644795.789 8 134764317.935 8     -2351.914          49.000    25644799.453 8 103260958.385 8     -1802.146          49.000
E07  25958560.414 6 136413192.238 6      2033.246          37.000    25958559.180 5 104524394.355 5      1557.957          34.000
E13                                                                  26147868.008 5 105286630.536 5     -1581.713          34.000
E26  22489165.203 8 118181371.609 8      -350.043          51.000    22489167.586 8  90554567.617 8      -268.203          51.000
> 2020 05 02 17 13 30.0000000  0 15        .000000000000
G10  20924759.297 8 109960436.678 8      -230.180          51.000    20924761.820 8  85683476.884 8      -179.361          51.000
G11  22690396.359 5 119238837.051 5      3017.207          32.000
G16  22314286.992 7 117262370.198 7     -3147.047          45.000    22314288.203 7  91373268.417 7     -2452.244          45.000
G27  20285360.133 8 106600280.414 8      -193.719          51.000    20285361.039 8  83065168.209 8      -150.947          51.000
R07  21651489.742 7 115902152.375 7      3832.086          46.000    21651489.547 6  90146135.944 6      2980.514          37.000
R12  21628161.273 6 115533793.673 6     -2434.359          40.000    21628184.609 3  89859677.931 3     -1893.385          23.000
R22  20142121.828 5 107520024.655 5      1423.430          32.000    20142127.234 4  83626696.185 4      1107.112          29.000
C19  24248310.336 7 126267327.605 7      3220.230          43.000
C20  22862213.094 8 119049614.589 8       917.324          51.000
C29  21620158.984 8 112581844.735 8      -336.773          51.000
E01  25658235.414 8 134834947.172 8     -2361.102          48.000    25658239.023 8 103315076.885 8     -1809.246          49.000
E07                                                                  25946967.188 6 104477716.264 6      1550.597          36.000
E13                                                                  26159645.656 5 105334050.223 5     -1582.985          33.000
E26  22491165.906 8 118191885.113 8      -355.195          51.000    22491168.320 8  90562623.421 8      -272.190          51.000
E33  25157515.883 5 132203637.452 5      1647.656          33.000
> 2020 05 02 17 14  0.0000000  0 16        .000000000000
G10  20926120.641 8 109967590.587 8      -251.102          51.000    20926123.062 8  85689051.373 8      -195.664          51.000
G16  22332274.469 7 117356896.883 7     -3159.367          45.000    22332276.375 7  91446925.556 7     -2461.848          44.000
G20  21990587.352 4 115561284.741 4     -2403.383          27.000
G21  25029915.203 5 131533091.200 5     -2601.070          30.000
G27  20286500.938 8 106606275.730 8      -210.211          51.000    20286501.930 8  83069839.888 8      -163.801          51.000
R07  21630043.047 8 115787345.751 8      3817.246          48.000    21630040.312 6  90056841.973 6      2968.972          38.000
R12  21641882.430 6 115607096.091 6     -2456.703          41.000
R21  20535078.727 6 109887320.951 6     -1676.027          40.000    20535083.234 5  85467915.885 5     -1303.577          31.000
C19  24229767.180 7 126170776.170 7      3212.172          43.000
C20  22856969.938 8 119022312.233 8       898.594          51.000
C29  21622118.297 8 112592049.040 8      -347.801          50.000
E01  25671734.391 7 134905885.645 7     -2372.344          47.000    25671738.281 8 103369432.297 8     -1817.800          50.000
E07                                                                  25935438.258 6 104431282.553 6      1541.863          40.000
E13                                                                  26171436.469 5 105381531.145 5     -1585.655          33.000
E26  22493202.062 8 118202585.653 8      -362.449          51.000    22493204.883 8  90570822.531 8      -277.724          51.000
E33  25148110.602 5 132154213.038 5      1642.184          34.000
> 2020 05 02 17 14 30.0000000  0 16        .000000000000
G10  20927603.680 8 109975384.462 8      -265.980          51.000    20927606.023 8  85695124.534 8      -207.258          51.000
G11  22655995.477 5 119058059.513 5      3010.223          34.000
G16  22350336.594 7 117451812.068 7     -3165.949          47.000    22350338.414 7  91520885.411 7     -2466.973          44.000
G27  20287738.820 8 106612781.594 8      -220.953          51.000    20287740.078 8  83074909.389 8      -172.171          51.000
R07  21608682.375 8 115673000.368 8      3808.238          50.000    21608679.992 6  89967906.754 6      2961.966          40.000
R12  21655732.453 6 115681083.093 6     -2473.250          41.000    21655733.789 4  89974132.280 4     -1923.642          28.000
R21  20544495.969 6 109937718.240 6     -1681.004          37.000    20544496.109 5  85507113.654 5     -1307.447          32.000
C19  24211272.578 7 126074474.566 7      3210.199          42.000
C20  22851836.992 8 118995584.336 8       885.688          51.000
C29  21624144.422 8 112602600.398 8      -353.199          51.000
C30  24579933.070 5 127994160.977 5     -2472.805          31.000
E01  25685301.031 7 134977176.944 7     -2377.805          47.000    25685304.477 8 103424058.068 8     -1821.912          50.000
E07                                                                  25923978.648 7 104385129.416 7      1537.020          42.000
E13  26183249.281 6 137593896.153 6     -2067.320          37.000
E26  22495282.352 8 118213518.495 8      -363.781          51.000    22495285.766 8  90579199.628 8      -278.750          51.000
E33  25138738.516 6 132104971.464 6      1642.988          38.000
> 2020 05 02 17 15  0.0000000  0 14        .000000000000
G10  20929182.273 8 109983680.349 8      -288.895          51.000    20929184.289 8  85701588.859 8      -225.113          51.000
G11  22638831.250 5 118967882.393 5      3001.156          33.000
G16  22368446.320 8 117546975.575 8     -3180.137          48.000    22368447.578 7  91595038.733 7     -2478.032          44.000
G27  20289047.820 8 106619661.247 8      -239.500          51.000    20289049.172 8  83080270.147 8      -186.623          51.000
R07  21587382.633 8 115558980.444 8      3791.199          51.000    21587381.117 6  89879224.646 6      2948.714          41.000
R12  21669683.578 6 115755610.994 6     -2497.328          40.000    21669686.695 4  90032098.332 4     -1942.369          29.000
R21  20553952.047 6 109988328.748 6     -1694.258          36.000    20553953.547 5  85546477.316 5     -1317.762          30.000
C19  24192800.016 6 125978289.005 6      3200.387          40.000
C20  22846788.039 8 118969295.617 8       865.059          51.000
C29  21626211.359 8 112613363.133 8      -366.098          51.000
E01  25698908.641 7 135048681.929 7     -2390.809          47.000    25698911.562 8 103478847.569 8     -1831.942          50.000
E07                                                                  25912562.062 6 104339152.882 6      1526.631          40.000
E26  22497380.805 8 118224546.205 8      -372.945          51.000    22497384.641 8  90587649.418 8      -285.802          51.000
E33  25129376.742 6 132055774.461 6      1635.727          36.000
> 2020 05 02 17 15 30.0000000  0 15        .000000000000
G10  20930871.742 8 109992559.314 8      -302.477          51.000    20930873.719 8  85708507.543 8      -235.696          51.000
G11  22621699.156 5 118877834.132 5      3001.219          34.000
G16  22386618.336 8 117642466.426 8     -3185.289          48.000    22386619.047 7  91669447.144 7     -2482.043          43.000
G21  25074395.602 5 131766821.135 5     -2593.238          30.000
G27  20290443.688 8 106626997.025 8      -248.988          51.000    20290444.773 8  83085986.349 8      -194.017          51.000
R06  20332831.539 5 108499883.922 5       304.062          34.000
R07  21566160.188 8 115445373.908 8      3783.098          51.000    21566159.516 6  89790864.086 6      2942.412          41.000
R12  21683748.289 5 115830759.031 5     -2512.062          34.000    21683759.367 5  90090546.850 5     -1953.823          33.000
R21  20563465.992 6 110039235.674 6     -1698.707          39.000    20563462.797 5  85586071.611 5     -1321.214          30.000
C19  24174365.594 6 125882302.746 6      3199.367          37.000
C20  22841838.961 8 118943527.858 8       853.449          49.000
C29  21628334.594 8 112624418.700 8      -370.285          51.000
E01  25712571.922 8 135120480.532 8     -2394.941          49.000    25712575.258 8 103533862.026 8     -1835.049          51.000
E07                                                                  25901204.312 6 104293416.977 6      1523.042          40.000
E26  22499512.898 8 118235750.405 8      -373.250          51.000    22499516.938 8  90596234.438 8      -285.940          51.000
> 2020 05 02 17 16  0.0000000  0 14        .000000000000
G10  20932670.625 8 110002013.210 8      -321.566          51.000    20932672.703 8  85715874.221 8      -250.571          51.000
G16  22404850.680 8 117738274.872 8     -3195.648          48.000    22404851.422 7  91744103.020 7     -2490.116          44.000
G27  20291925.031 8 106634782.062 8      -263.801          51.000    20291925.805 8  83092052.616 8      -205.559          51.000
G32  24672805.398 6 129656477.831 6      3012.254          41.000    24672810.484 7 101031034.505 7      2347.214          42.000
R06  20331176.391 5 108491208.530 5       275.934          32.000
R07  21545013.773 8 115332177.527 8      3769.609          48.000    21545013.547 6  89702822.552 6      2931.921          41.000
R12  21697928.977 6 115906516.210 6     -2532.141          37.000    21697945.539 5  90149469.164 5     -1969.443          32.000
R21  20573031.758 6 110090431.342 6     -1708.074          36.000    20573030.688 5  85625890.499 5     -1328.505          33.000
C19  24155968.359 6 125786510.775 6      3192.754          38.000
C20  22836988.297 8 118918274.405 8       836.332          48.000
C29  21630512.695 8 112635760.059 8      -379.625          51.000
E01  25726289.484 8 135192563.364 8     -2404.297          50.000    25726293.164 8 103589094.276 8     -1842.295          51.000
E07  25889895.430 6 136052332.139 6      1977.254          36.000    25889905.273 6 104247917.324 6      1515.096          40.000
E26  22501677.195 8 118247123.439 8      -378.719          51.000    22501681.266 8  90604948.831 8      -290.202          51.000
> 2020 05 02 17 16 30.0000000  0 16        .000000000000
G10  20934585.086 8 110012073.860 8      -330.180          51.000    20934587.148 8  85723713.693 8      -257.283          51.000
G11  22587526.680 5 118698232.244 5      3000.977          33.000
G16  22423148.883 8 117834430.313 8     -3195.629          49.000    22423149.914 7  91819029.280 7     -2490.103          44.000
G27  20293498.180 8 106643049.449 8      -268.328          51.000    20293498.984 8  83098494.732 8      -209.087          51.000
G32  24655638.188 6 129566268.669 6      3020.547          38.000    24655643.008 6 100960741.767 6      2353.676          38.000
R06  20329724.000 6 108483465.479 6       259.129          39.000
R07  21523949.875 7 115219428.665 7      3766.414          45.000    21523951.320 6  89615129.072 6      2929.433          41.000
R12  21712230.523 6 115982911.505 6     -2541.512          37.000    21712250.742 4  90208887.759 4     -1976.731          29.000
R21  20582657.984 6 110141948.991 6     -1707.031          38.000    20582659.484 5  85665959.627 5     -1327.691          32.000
R22  20095063.766 5 107268767.246 5      1383.586          32.000
C19  24137616.102 6 125690947.322 6      3197.039          40.000
C20  22832243.250 8 118893568.218 8       829.484          50.000
C29  21632751.883 8 112647419.916 8      -378.852          51.000
