     3.02           OBSERVATION DATA    M (MIXED)           RINEX VERSION / TYPE
SAVERINEX           SC600               20200506 175932 LCL PGM / RUN BY / DATE
       G = GPS       R = GLONASS       C = COMPASS          COMMENT
       S = SBAS      J = QZSS          E = GALILEO          COMMENT
BEAN                                                        MARKER NAME
1                                                           MARKER NUMBER
GEODETIC                                                    MARKER TYPE
Unige DICCA         GTER                                    OBSERVER / AGENCY
SC60291900056       SC600               2.12(191226)        REC # / TYPE / VERS
                    HEMA45          NONE                    ANT # / TYPE
  4509407.8091   693652.4678  4442337.6214                  APPROX POSITION XYZ
        0.0000        0.0000        0.0000                  ANTENNA: DELTA H/E/N
G    8 C1C L1C D1C S1C C2Y L2Y D2Y S2Y                      SYS / # / OBS TYPES
R    8 C1C L1C D1C S1C C2P L2P D2P S2P                      SYS / # / OBS TYPES
C    8 C1I L1I D1I S1I C7I L7I D7I S7I                      SYS / # / OBS TYPES
E    8 C1C L1C D1C S1C C7Q L7Q D7Q S7Q                      SYS / # / OBS TYPES
DBHZ                                                        COMMENT
     30.000                                                 INTERVAL
  2020    05    06    15    00    0.0000000     GPS         TIME OF FIRST OBS
  2020    05    06    15    59   30.0000000     GPS         TIME OF LAST OBS
     0                                                      RCV CLOCK OFFS APPL
G L1C  0.00000                                              SYS / PHASE SHIFT
G L2Y  0.00000                                              SYS / PHASE SHIFT
R L1C  0.00000                                              SYS / PHASE SHIFT
R L2P  0.25000                                              SYS / PHASE SHIFT
C L1I  0.00000                                              SYS / PHASE SHIFT
C L7I  0.00000                                              SYS / PHASE SHIFT
E L1C  0.50000                                              SYS / PHASE SHIFT
E L7Q -0.25000                                              SYS / PHASE SHIFT
 12 R01  1 R02 -4 R07  5 R08  6 R10 -5 R12 -1 R13 -2 R14 -7 GLONASS SLOT / FRQ #
    R15  0 R17  4 R18 -3 R23  3                             GLONASS SLOT / FRQ #
 C1C   71.950 C2C   71.950 C2P   71.950                     GLONASS COD/PHS/BIS
    18                                                      LEAP SECONDS
*** Above antenna height is from mark to ANTENNA BOTTOM.    COMMENT
    17     4        0.0000        ANT MEASURE TYPE/HEIGT    COMMENT
    0.0000    0.0000    0.0458    0.0405    0.0000          COMMENT
                    BASE STATION                            COMMENT
                                                            END OF HEADER
> 2020 05 06 15 00  0.0000000  0 18        .000000000000
G10  23315645.180 7 122524602.145 7      3288.648          46.000    23315647.227 7  95473720.978 7      2562.583          46.000
G18  21388909.039 8 112399544.150 8     -2281.562          48.000    21388909.281 7  87584022.413 7     -1777.841          44.000
G20  21447814.789 8 112709051.336 8      1751.805          50.000    21447813.047 7  87825244.929 7      1365.043          47.000
G21  21739667.547 8 114242796.575 8     -2021.871          50.000    21739666.180 7  89020307.703 7     -1575.484          45.000
G26  20609858.656 8 108305535.490 8     -1434.578          51.000    20609861.359 8  84393922.451 8     -1117.853          51.000
R14  21562217.195 7 114938755.104 7     -4003.363          42.000    21562219.938 6  89396816.595 6     -3113.730          39.000
R15  19883472.688 5 106251235.121 5      -508.438          33.000    19883475.945 5  82639870.524 5      -395.467          34.000
R18  22565310.914 5 120455101.178 5      2889.477          30.000
R24  20802325.602 5 111239437.757 5     -2434.301          31.000    20802330.820 4  86519551.648 4     -1893.333          27.000
C05  39612517.008 5 206272770.084 5         3.547          34.000
C11  22862714.227 5 119052141.159 5      1535.336          31.000    22862698.773 5  92058662.696 5      1187.992          32.000
C12  21938443.719 8 114239363.257 8      -991.477          51.000    21938443.047 8  88337133.797 8      -766.470          51.000
C21  24952752.031 8 129935555.377 8      2731.090          48.000
C25  23446887.969 7 122094145.251 7     -1480.648          44.000
E13  25829797.805 7 135736516.416 7      2160.512          44.000    25829801.039 7 104005923.480 7      1655.508          44.000
E15  23055204.250 8 121155996.798 8       130.469          51.000    23055207.281 8  92833833.618 8       100.035          51.000
E27  23673079.500 8 124402870.622 8      -410.512          51.000    23673081.203 8  95321686.142 8      -314.548          51.000
E30  24394953.000 8 128196311.300 8     -2839.824          51.000    24394957.430 8  98228344.430 8     -2175.978          51.000
> 2020 05 06 15 00 30.0000000  0 18        .000000000000
G10  23296881.203 7 122426001.478 7      3282.625          46.000    23296884.219 7  95396889.273 7      2557.887          46.000
G18  21401958.625 8 112468119.574 8     -2292.227          48.000    21401958.555 7  87637457.800 7     -1786.154          43.000
G20  21437854.789 8 112656712.115 8      1735.395          50.000    21437853.727 7  87784461.123 7      1352.255          47.000
G21  21751224.477 8 114303529.028 8     -2029.039          50.000    21751223.195 7  89067631.688 7     -1581.069          45.000
G26  20618090.477 8 108348791.925 8     -1451.363          51.000    20618092.766 8  84427628.741 8     -1130.932          51.000
G27  21902019.750 6 115095879.953 6      2302.816          38.000
R14  21584773.242 5 115059006.459 5     -4015.684          35.000    21584778.578 6  89490345.345 6     -3123.312          41.000
R15  19886401.125 6 106266883.085 6      -536.344          38.000    19886403.672 5  82652041.196 5      -417.156          34.000
R18  22549084.016 4 120368487.424 4      2881.523          28.000    22549112.969 4  93620101.263 4      2241.185          28.000
C05  39612489.836 5 206272628.776 5         4.383          34.000
C11  22853871.562 5 119006109.533 5      1529.797          32.000    22853858.133 5  92023068.267 5      1183.359          32.000
C12  21944167.898 8 114269171.773 8      -997.945          51.000    21944167.414 8  88360183.642 8      -771.759          51.000
C21  24937030.320 8 129853687.690 8      2724.664          48.000
C25  23455454.742 7 122138753.501 7     -1495.191          45.000
E13  25817472.930 7 135671748.373 7      2155.426          43.000    25817475.273 7 103956296.115 7      1651.330          43.000
E15  23054476.133 8 121152171.107 8       122.500          51.000    23054479.406 8  92830902.248 8        93.840          51.000
E27  23675457.984 8 124415368.574 8      -424.801          51.000    23675459.242 8  95331262.480 8      -325.497          51.000
E30  24411178.211 8 128281573.907 8     -2846.391          51.000    24411182.555 8  98293675.475 8     -2181.031          51.000
> 2020 05 06 15 01  0.0000000  0 17        .000000000000
G10  23278170.961 7 122327684.601 7      3273.863          47.000    23278175.031 7  95320278.702 7      2551.065          47.000
G18  21415085.703 8 112537102.527 8     -2304.711          48.000    21415085.281 7  87691210.749 7     -1795.879          43.000
G20  21428006.188 8 112604958.265 8      1716.848          50.000    21428005.570 7  87744133.456 7      1337.806          47.000
G21  21762840.547 8 114364572.428 8     -2038.441          50.000    21762839.062 7  89115197.954 7     -1588.396          45.000
G26  20626435.930 8 108392647.505 8     -1470.402          51.000    20626438.312 8  84461801.879 8     -1145.768          51.000
G27  21888903.203 5 115026956.755 5      2294.469          35.000
R15  19889502.039 6 106283452.561 6      -566.164          38.000    19889505.844 6  82664928.442 6      -440.353          37.000
R24  20829716.484 4 111385853.927 4     -2448.816          29.000
C05  39612480.047 5 206272577.883 5         1.477          35.000
C11  22845079.094 5 118960351.831 5      1521.828          32.000    22845071.680 5  91987685.609 5      1176.982          32.000
C12  21949947.656 8 114299269.498 8     -1006.547          51.000    21949947.312 8  88383457.112 8      -778.359          51.000
C21  24921363.656 8 129772105.998 8      2715.996          49.000
C25  23464123.023 7 122183892.597 7     -1512.117          46.000
E13  25805194.523 6 135607228.606 6      2148.023          38.000    25805196.078 7 103906858.922 7      1645.816          43.000
E15  23053811.016 8 121148676.339 8       112.512          51.000    23053814.406 8  92828224.433 8        86.204          51.000
E27  23677934.977 8 124428383.318 8      -440.973          51.000    23677935.930 8  95341234.810 8      -337.864          51.000
E30  24427458.062 8 128367125.497 8     -2854.965          49.000    24427462.492 8  98359227.947 8     -2187.597          51.000
> 2020 05 06 15 01 30.0000000  0 18        .000000000000
G10  23259495.234 8 122229545.767 8      3268.246          49.000    23259499.539 8  95243806.927 8      2546.688          49.000
G18  21428269.172 8 112606382.379 8     -2314.383          48.000    21428268.906 6  87745195.040 6     -1803.415          41.000
G20  21418248.906 8 112553683.611 8      1701.008          50.000    21418248.305 7  87704179.191 7      1325.461          47.000
G21  21774494.992 8 114425817.352 8     -2045.004          50.000    21774493.406 7  89162921.253 7     -1593.510          45.000
G26  20634874.648 8 108436992.691 8     -1486.484          51.000    20634877.109 8  84496356.534 8     -1158.300          51.000
G27  21875824.922 4 114958244.213 4      2287.859          28.000
R14  21630134.023 6 115300802.291 6     -4040.156          38.000    21630130.562 7  89678368.150 7     -3142.344          42.000
R15  19892754.727 5 106300832.358 5      -592.949          35.000    19892758.312 5  82678446.135 5      -461.183          35.000
R24  20843463.641 5 111459390.023 5     -2455.074          31.000    20843464.625 4  86690619.672 4     -1909.502          28.000
C05  39612467.000 5 206272509.748 5         2.430          34.000
C11  22836322.094 4 118914760.405 4      1516.551          28.000    22836318.297 5  91952431.591 5      1173.104          30.000
C12  21955762.391 8 114329548.358 8     -1012.488          51.000    21955762.094 8  88406870.648 8      -782.911          51.000
C21  24905731.789 8 129690705.329 8      2710.176          49.000
C25  23472872.539 7 122229453.354 7     -1525.902          46.000
E13  25792941.961 6 135542848.632 6      2143.312          38.000    25792944.539 7 103857528.895 7      1642.467          44.000
E15  23053188.125 8 121145403.296 8       105.211          51.000    23053191.773 8  92825716.513 8        80.628          51.000
E27  23680489.516 8 124441806.380 8      -454.406          51.000    23680490.422 8  95351520.004 8      -348.199          51.000
E30  24443770.930 7 128452855.948 7     -2860.844          46.000    24443775.938 8  98424917.507 8     -2192.072          51.000
> 2020 05 06 15 02  0.0000000  0 17        .000000000000
G10  23240868.258 8 122131660.568 8      3266.480          49.000    23240871.742 8  95167532.822 8      2545.312          49.000
G18  21441522.602 7 112676029.663 7     -2319.527          47.000    21441522.367 6  87799465.623 6     -1807.424          41.000
G20  21408596.953 8 112502962.181 8      1689.422          50.000    21408596.266 7  87664656.000 7      1316.433          47.000
G21  21786201.188 8 114487334.155 8     -2047.031          50.000    21786199.867 7  89210856.414 7     -1595.089          45.000
G26  20643420.391 8 108481899.217 8     -1498.316          51.000    20643422.805 8  84531348.622 8     -1167.522          51.000
G27  21862793.820 5 114889752.259 5      2286.734          32.000
R14  21652912.695 7 115422238.538 7     -4046.473          42.000    21652909.852 6  89772818.467 6     -3147.260          40.000
R15  19896171.953 6 106319095.987 6      -615.586          37.000    19896176.203 6  82692651.230 6      -478.786          36.000
R18  22500683.078 4 120110209.601 4      2866.898          29.000    22500702.031 4  93419102.646 4      2229.810          27.000
C05  39612464.258 5 206272495.461 5         7.531          34.000
C12  21961625.781 8 114360079.865 8     -1014.102          51.000    21961625.461 8  88430479.518 8      -784.065          51.000
C21  24890148.727 8 129609560.198 8      2708.371          49.000
C25  23481716.250 7 122275506.289 7     -1535.469          45.000
E13  25780730.617 6 135478681.293 6      2143.508          38.000    25780733.633 7 103808361.723 7      1642.305          43.000
E15  23052621.195 8 121142424.014 8       102.465          51.000    23052625.172 8  92823433.685 8        78.515          51.000
E27  23683135.445 8 124455710.442 8      -463.469          51.000    23683136.320 8  95362173.759 8      -355.134          51.000
E30  24460129.977 7 128538836.452 7     -2862.148          45.000    24460135.891 8  98490798.679 8     -2193.153          48.000
> 2020 05 06 15 02 30.0000000  0 16        .000000000000
G10  23222258.383 8 122033863.673 8      3253.191          50.000    23222261.211 8  95091327.553 8      2534.957          50.000
G18  21454813.641 7 112745874.019 7     -2336.477          46.000    21454812.953 7  87853889.764 7     -1820.631          42.000
G20  21399018.602 8 112452628.206 8      1666.117          51.000    21399018.109 7  87625434.753 7      1298.273          47.000
G21  21797926.812 8 114548952.571 8     -2060.773          50.000    21797925.625 7  89258870.754 7     -1605.797          45.000
G26  20652040.250 8 108527197.985 8     -1521.668          51.000    20652042.891 8  84566646.353 8     -1185.715          51.000
R14  21675733.758 7 115543903.156 7     -4064.562          44.000    21675732.758 6  89867446.374 6     -3161.332          38.000
R15  19899722.977 6 106338071.775 6      -649.738          37.000    19899726.867 5  82707410.169 5      -505.352          32.000
R24  20871078.977 5 111607004.886 5     -2468.262          34.000    20871070.422 4  86805438.915 4     -1919.759          29.000
C05  39612439.906 5 206272368.842 5          .785          34.000
C12  21967505.570 8 114390696.933 8     -1027.113          51.000    21967505.266 8  88454154.558 8      -794.145          51.000
C21  24874582.969 8 129528506.481 8      2695.203          48.000
C25  23490622.078 7 122321883.119 7     -1556.363          45.000
E13  25768528.422 6 135414558.491 6      2131.770          41.000    25768531.695 7 103759228.678 7      1633.254          44.000
E15  23052078.055 8 121139569.681 8        87.914          51.000    23052082.102 8  92821246.600 8        67.363          51.000
E27  23685840.734 8 124469927.332 8      -484.215          51.000    23685841.852 8  95373067.209 8      -371.010          51.000
E30  24476505.789 7 128624897.411 7     -2875.168          47.000    24476509.992 7  98556741.417 7     -2203.069          47.000
> 2020 05 06 15 03  0.0000000  0 17        .000000000000
G10  23203714.711 8 121936413.487 8      3249.145          51.000    23203718.039 8  95015392.417 8      2531.804          51.000
G16  20539597.258 6 107936307.276 6       728.473          38.000    20539597.383 5  84106213.652 5       567.641          32.000
G18  21468190.375 7 112816168.881 7     -2344.008          45.000    21468189.562 6  87908664.961 6     -1826.500          41.000
G20  21389563.055 8 112402939.067 8      1652.027          51.000    21389562.430 7  87586715.978 7      1287.297          47.000
G21  21809720.086 8 114610926.449 8     -2065.164          50.000    21809718.742 7  89307162.074 7     -1609.219          44.000
G26  20660782.891 8 108573143.594 8     -1535.863          51.000    20660785.938 8  84602448.120 8     -1196.777          51.000
R14  21698646.094 7 115666051.181 7     -4072.953          43.000    21698648.164 6  89962450.296 6     -3167.852          39.000
R15  19903455.852 6 106358018.832 6      -674.395          38.000    19903457.602 4  82722921.983 4      -524.532          27.000
C05  39612442.664 5 206272383.050 5         3.637          34.000
C11  22810279.148 4 118779113.708 4      1499.395          29.000
C12  21973450.258 8 114421652.349 8     -1031.012          51.000    21973449.992 8  88478091.262 8      -797.147          51.000
C21  24859083.891 8 129447799.990 8      2690.797          49.000
C25  23499638.984 7 122368835.430 7     -1568.195          46.000
E13  25756383.758 6 135350735.949 6      2129.055          36.000    25756388.172 7 103710325.692 7      1631.321          45.000
E15  23051607.211 8 121137095.182 8        82.719          51.000    23051611.047 8  92819350.562 8        63.424          51.000
E27  23688654.195 8 124484712.582 8      -495.652          51.000    23688655.703 8  95384396.167 8      -379.798          51.000
E30  24492946.820 8 128711292.860 8     -2878.801          49.000    24492948.617 7  98622940.435 7     -2205.798          47.000
> 2020 05 06 15 03 30.0000000  0 17        .000000000000
G10  23185190.391 8 121839064.265 8      3240.324          51.000    23185194.250 8  94939535.923 8      2524.928          51.000
G16  20535489.516 6 107914718.543 6       709.695          37.000    20535489.219 5  84089391.253 5       553.009          34.000
G18  21481604.930 7 112886663.550 7     -2356.094          45.000    21481604.680 6  87963595.858 6     -1835.917          41.000
G20  21380183.109 8 112353647.214 8      1633.453          51.000    21380182.445 7  87548306.776 7      1272.824          47.000
G21  21821533.312 8 114673005.843 8     -2073.922          49.000    21821531.805 7  89355535.614 7     -1616.043          44.000
G26  20669601.367 8 108619486.420 8     -1554.340          51.000    20669604.555 8  84638559.411 8     -1211.174          51.000
R14  21721601.594 6 115788426.429 6     -4086.004          41.000    21721608.102 6  90057630.980 6     -3178.006          41.000
R15  19907323.391 6 106378683.346 6      -703.809          39.000    19907319.953 4  82738974.365 4      -547.407          26.000
R18  22452630.695 5 119853649.311 5      2840.199          33.000
C05  39612425.117 5 206272292.228 5         1.961          34.000
C12  21979412.531 8 114452699.324 8     -1039.262          51.000    21979412.266 8  88502098.725 8      -803.617          51.000
C21  24843604.797 8 129367196.915 8      2682.137          49.000
C25  23508718.531 7 122416115.288 7     -1584.340          44.000
E13  25744248.781 6 135286965.167 6      2122.543          36.000    25744254.109 7 103661462.357 7      1625.942          44.000
E15  23051161.359 8 121134751.316 8        73.094          51.000    23051164.875 8  92817554.606 8        56.001          51.000
E27  23691528.648 8 124499817.635 8      -511.734          51.000    23691530.344 8  95395970.169 8      -392.111          51.000
E30  24509404.312 8 128797772.687 8     -2887.012          50.000    24509405.695 8  98689204.106 8     -2212.033          48.000
> 2020 05 06 15 04  0.0000000  0 18        .000000000000
G10  23166715.250 8 121741974.329 8      3232.191          51.000    23166719.398 8  94863881.447 8      2518.591          51.000
G16  20531493.492 6 107893717.972 6       690.699          37.000    20531492.219 5  84073027.151 5       538.213          32.000
G18  21495086.602 7 112957511.299 7     -2367.363          44.000    21495086.969 6  88018801.902 6     -1844.699          41.000
G20  21370908.883 8 112304910.445 8      1615.570          51.000    21370908.398 7  87510330.092 7      1258.886          47.000
G21  21833395.836 8 114735344.201 8     -2082.039          50.000    21833394.227 7  89404110.952 7     -1622.368          43.000
G26  20678525.031 8 108666380.991 8     -1572.055          51.000    20678528.016 8  84675100.638 8     -1224.978          51.000
R14  21744629.391 6 115911182.331 6     -4097.949          41.000    21744638.633 6  90153107.765 6     -3187.294          41.000
R15  19911355.273 7 106400222.770 7      -732.230          42.000    19911358.641 4  82755740.697 4      -569.513          29.000
R18  22436688.578 5 119768567.369 5      2832.688          34.000
C05  39612417.023 5 206272249.942 5         1.043          34.000
C11  22793090.852 4 118689598.742 4      1484.008          28.000    22793085.477 4  91778314.222 4      1147.342          28.000
C12  21985421.812 8 114483991.393 8     -1046.922          51.000    21985421.578 8  88526295.729 8      -809.652          51.000
C21  24828175.773 8 129286853.766 8      2673.930          49.000
C25  23517889.555 7 122463875.099 7     -1599.633          44.000
E13  25732152.266 5 135223372.751 5      2115.672          30.000    25732157.992 7 103612757.916 7      1620.902          44.000
E15  23050769.711 8 121132692.882 8        64.078          51.000    23050773.188 8  92815977.366 8        49.027          51.000
E27  23694493.367 8 124515397.902 8      -527.125          51.000    23694495.398 8  95407908.275 8      -403.889          51.000
E30  24525907.023 8 128884490.803 8     -2894.340          50.000    24525909.297 8  98755650.393 8     -2217.801          50.000
> 2020 05 06 15 04 30.0000000  0 20        .000000000000
G10  23148273.641 8 121645061.816 8      3226.723          51.000    23148277.969 8  94788365.223 8      2514.332          51.000
G16  20527593.414 6 107873221.999 6       674.102          37.000    20527591.922 6  84057056.307 6       525.274          36.000
G18  21508619.102 7 113028625.290 7     -2375.590          46.000    21508619.414 6  88074215.386 6     -1851.109          39.000
G20  21361724.180 8 112256645.546 8      1600.176          51.000    21361724.070 7  87472721.118 7      1246.890          46.000
G21  21845291.250 8 114797855.145 8     -2087.277          51.000    21845289.555 7  89452820.770 7     -1626.450          43.000
G26  20687537.383 8 108713741.570 8     -1587.109          51.000    20687540.305 8  84712004.943 8     -1236.712          51.000
R14  21767712.117 6 116034228.861 6     -4106.867          40.000    21767722.656 6  90248810.556 6     -3194.233          41.000
R15  19915534.156 6 106422550.030 6      -757.918          38.000    19915535.227 4  82773119.346 4      -589.492          28.000
R17  19627622.219 4 105031370.361 4       504.973          29.000
R18  22420774.977 5 119683618.412 5      2826.949          33.000    22420783.133 4  93087284.770 4      2198.738          29.000
C05  39612402.078 5 206272171.884 5         2.312          35.000
C11  22784548.453 5 118645108.899 5      1480.469          30.000
C12  21991461.875 8 114515444.174 8     -1051.762          51.000    21991461.773 8  88550617.000 8      -813.286          51.000
C21  24812781.109 8 129206689.092 8      2668.508          48.000
C24  25716621.109 4 133913195.993 4     -3358.008          28.000
C25  23527136.578 7 122512029.227 7     -1612.320          45.000
E13  25720083.703 6 135159945.022 6      2111.895          37.000    25720083.867 7 103564147.451 7      1618.262          43.000
E15  23050416.008 8 121130834.424 8        57.938          51.000    23050419.539 8  92814553.357 8        44.412          51.000
E27  23697532.281 8 124531368.537 8      -539.539          51.000    23697534.859 8  95420145.492 8      -413.401          51.000
E30  24542438.281 8 128971360.919 8     -2898.844          49.000    24542441.922 8  98822213.149 8     -2221.216          51.000
> 2020 05 06 15 05  0.0000000  0 18        .000000000000
G10  23129883.242 8 121548419.659 8      3218.133          51.000    23129887.438 8  94713059.680 8      2507.639          51.000
G16  20523805.922 6 107853322.050 6       654.473          37.000    20523805.258 5  84041549.805 5       509.979          31.000
G18  21522219.125 7 113100093.521 7     -2386.934          45.000    21522219.242 6  88129904.880 6     -1859.951          39.000
G20  21352646.844 8 112208944.550 8      1581.891          51.000    21352647.086 7  87435551.519 7      1232.642          47.000
G21  21857236.445 8 114860627.331 8     -2095.449          51.000    21857234.781 7  89501734.136 7     -1632.818          43.000
G26  20696655.562 8 108761657.168 8     -1605.238          51.000    20696658.438 8  84749341.744 8     -1250.838          51.000
R14  21790866.617 6 116157653.239 6     -4119.234          40.000    21790876.914 6  90344807.282 6     -3203.849          41.000
R15  19919877.078 6 106445755.779 6      -786.910          39.000    19919877.281 4  82791165.285 4      -612.038          27.000
R18  22404910.453 5 119598951.580 5      2819.383          31.000    22404924.102 5  93021432.750 5      2192.853          33.000
R24  20940740.859 5 111979551.176 5     -2498.691          32.000    20940731.156 5  87095166.430 5     -1943.427          31.000
C05  39612397.578 5 206272148.601 5         1.109          35.000
C12  21997549.898 8 114547146.443 8     -1059.691          51.000    21997549.922 8  88575131.191 8      -819.339          51.000
C21  24797438.438 8 129126794.729 8      2659.906          48.000
C25  23536476.352 7 122560665.262 7     -1627.973          45.000
E13  25708051.914 6 135096717.146 6      2105.441          38.000    25708050.984 7 103515700.161 7      1613.260          44.000
E15  23050117.555 8 121129265.436 8        48.773          51.000    23050120.734 8  92813351.142 8        37.444          51.000
E27  23700662.656 8 124547819.598 8      -555.027          51.000    23700665.688 8  95432750.838 8      -425.272          51.000
E30  24559014.844 8 129058471.638 8     -2906.363          48.000    24559020.172 8  98888960.299 8     -2226.966          51.000
> 2020 05 06 15 05 30.0000000  0 18        .000000000000
G10  23111525.617 8 121451949.665 8      3210.570          51.000    23111529.141 8  94637888.294 8      2501.746          51.000
G16  20520112.805 6 107833918.180 6       636.410          37.000    20520113.008 5  84026429.845 5       495.901          35.000
G18  21535866.945 7 113171812.798 7     -2397.023          45.000    21535866.961 6  88185790.017 6     -1867.810          39.000
G20  21343658.055 8 112161708.445 8      1564.609          50.000    21343658.414 7  87398744.168 7      1219.176          47.000
G21  21869211.766 8 114923557.815 8     -2102.477          50.000    21869210.258 7  89550770.869 7     -1638.293          44.000
G26  20705859.875 8 108810025.695 8     -1621.941          51.000    20705862.867 8  84787031.473 8     -1263.850          51.000
R14  21814072.398 6 116281348.632 6     -4129.844          40.000    21814082.109 6  90441014.786 6     -3212.104          41.000
R15  19924365.266 6 106469736.509 6      -813.926          38.000    19924364.617 5  82809810.900 5      -633.059          31.000
C05  39612384.125 5 206272078.148 5          .531          34.000
C11                                                                  22767571.961 5  91675569.756 5      1133.127          31.000
C12  22003666.641 8 114578997.647 8     -1066.324          51.000    22003666.688 8  88599760.541 8      -824.395          51.000
C21  24782128.875 8 129047073.041 8      2652.336          48.000
C24  25755340.625 4 134114796.757 4     -3360.129          29.000
C25  23545888.664 7 122609681.406 7     -1642.387          44.000
E13  25696043.344 7 135033601.371 7      2099.949          43.000    25696040.844 7 103467338.699 7      1609.043          44.000
E15  23049854.906 8 121127884.203 8        40.848          51.000    23049857.641 8  92812292.795 8        31.386          51.000
E27  23703865.062 8 124564649.980 8      -569.383          51.000    23703868.492 8  95445646.834 8      -436.256          51.000
E30  24575617.367 7 129145720.404 7     -2912.719          47.000    24575624.328 8  98955813.225 8     -2231.764          51.000
> 2020 05 06 15 06  0.0000000  0 17        .000000000000
G10  23093215.000 8 121355726.535 8      3204.375          51.000    23093218.250 8  94562909.314 8      2496.919          51.000
G16  20516528.570 6 107815083.289 6       619.004          36.000    20516527.086 5  84011753.368 5       482.341          35.000
G18  21549575.781 7 113243852.832 7     -2405.625          45.000    21549575.977 6  88241925.097 6     -1874.516          38.000
G20  21334771.523 8 112115010.588 8      1548.727          50.000    21334772.023 7  87362356.222 7      1206.800          46.000
G21  21881230.570 8 114986716.986 8     -2107.902          50.000    21881229.047 7  89599985.787 7     -1642.521          44.000
G26  20715163.828 8 108858917.911 8     -1637.285          51.000    20715167.055 8  84825129.274 8     -1275.807          51.000
R14  21837342.086 6 116405384.124 6     -4139.129          39.000    21837351.438 6  90537486.803 6     -3219.322          39.000
R15  19929011.508 6 106494563.961 6      -840.258          38.000    19929012.430 5  82829121.104 5      -653.537          31.000
C05  39612375.375 5 206272032.534 5         2.379          35.000
C11                                                                  22759142.758 5  91641616.363 5      1130.070          34.000
C12  22009825.602 8 114611068.531 8     -1071.555          51.000    22009825.594 8  88624559.783 8      -828.609          51.000
C21  24766866.781 8 128967597.801 8      2645.992          48.000
C25  23555387.914 7 122659147.157 7     -1654.992          46.000
E13  25684069.984 7 134970669.468 7      2095.832          43.000    25684067.258 7 103419118.189 7      1605.819          46.000
E15  23049641.453 8 121126761.961 8        34.242          51.000    23049644.289 8  92811432.903 8        26.244          51.000
E27  23707153.477 8 124581931.431 8      -582.461          51.000    23707157.047 8  95458888.457 8      -446.304          51.000
E30  24592259.422 7 129233177.509 7     -2917.598          46.000    24592267.539 8  99022825.800 8     -2235.496          51.000
> 2020 05 06 15 06 30.0000000  0 18        .000000000000
G10  23074940.320 8 121259692.840 8      3196.559          50.000    23074943.977 8  94488077.946 8      2490.828          50.000
G16  20513041.422 6 107796758.511 6       600.754          38.000    20513039.695 5  83997474.334 5       468.126          34.000
G18  21563333.680 7 113316151.182 7     -2415.625          46.000    21563334.125 6  88298261.475 6     -1882.302          38.000
G20  21325976.508 8 112068792.631 8      1531.324          51.000    21325976.734 7  87326342.229 7      1193.240          46.000
G21  21893281.023 8 115050042.357 8     -2114.965          51.000    21893279.414 7  89649330.226 7     -1648.025          44.000
G26  20724555.867 8 108908272.396 8     -1654.184          51.000    20724558.867 8  84863587.298 8     -1288.974          51.000
R14  21860662.984 6 116529694.145 6     -4149.566          39.000    21860672.289 6  90634172.357 6     -3227.441          38.000
R15  19933804.008 6 106520176.143 6      -868.406          39.000    19933804.750 5  82849041.586 5      -675.427          32.000
C05  39612359.844 5 206271952.632 5         1.812          34.000
C11  22750742.008 4 118469090.606 4      1454.180          29.000    22750741.859 5  91607778.982 5      1124.826          32.000
C12  22016015.180 8 114643298.942 8     -1078.320          51.000    22016015.148 8  88649482.380 8      -833.789          51.000
C21  24751641.133 8 128888311.719 8      2638.434          49.000
C24  25794070.617 5 134316438.927 5     -3362.496          32.000
C25  23564962.633 8 122709001.094 8     -1669.496          48.000
E13  25672120.578 7 134907861.392 7      2090.000          42.000    25672117.648 7 103370992.520 7      1601.569          46.000
E15  23049465.438 8 121125837.706 8        26.203          51.000    23049468.711 8  92810724.713 8        20.075          51.000
E27  23710516.445 8 124599603.579 8      -596.898          51.000    23710519.883 8  95472429.436 8      -457.337          51.000
E30  24608929.406 7 129320781.080 7     -2923.781          46.000    24608938.258 8  99089950.628 8     -2240.375          51.000
> 2020 05 06 15 07  0.0000000  0 18        .000000000000
G10  23056711.062 8 121163899.356 8      3188.312          50.000    23056715.477 8  94413433.742 8      2484.402          49.000
G16  20509660.680 6 107778992.544 6       581.914          38.000    20509658.938 6  83983630.678 6       453.440          36.000
G18  21577149.406 7 113388753.525 7     -2426.133          46.000    21577149.812 6  88354834.712 6     -1890.493          36.000
G20  21317282.477 8 112023103.779 8      1513.188          51.000    21317282.258 7  87290740.555 7      1179.110          46.000
G21  21905371.898 8 115113580.229 8     -2122.391          51.000    21905370.312 7  89698840.248 7     -1653.811          45.000
G26  20734044.562 8 108958135.824 8     -1671.602          50.000    20734047.258 8  84902441.897 8     -1302.547          50.000
R14  21884042.891 5 116654322.967 5     -4160.172          35.000    21884052.664 6  90731105.814 6     -3235.692          36.000
R15  19938752.734 6 106546620.105 6      -896.316          38.000    19938753.953 5  82869609.143 5      -697.135          35.000
C05  39612346.656 5 206271883.265 5          .945          34.000
C11                                                                  22742377.953 5  91574093.992 5      1119.649          32.000
C12  22022244.453 8 114675735.712 8     -1085.617          51.000    22022244.336 8  88674564.532 8      -839.480          51.000
C21  24736460.953 8 128809264.641 8      2629.977          48.000
C24  25813436.359 5 134417309.268 5     -3363.516          30.000
C25  23574620.766 8 122759288.796 8     -1684.398          48.000
E13  25660202.383 6 134845224.846 6      2084.148          39.000    25660199.773 7 103322998.331 7      1596.933          44.000
E15  23049335.891 8 121125158.567 8        17.594          51.000    23049339.281 8  92810204.332 8        13.457          51.000
E27  23713962.797 8 124617714.074 8      -611.969          51.000    23713965.984 8  95486306.287 8      -468.935          51.000
E30  24625636.812 8 129408577.414 8     -2930.762          48.000    24625645.523 8  99157223.142 8     -2245.616          51.000
> 2020 05 06 15 07 30.0000000  0 18        .000000000000
G10  23038534.992 8 121068384.919 8      3180.625          49.000    23038539.758 8  94339006.974 8      2478.412          49.000
G16  20506393.414 6 107761822.745 6       563.727          39.000    20506391.375 6  83970251.652 6       439.270          38.000
G18  21591029.547 7 113461694.151 7     -2435.375          46.000    21591029.773 6  88411671.519 6     -1897.698          36.000
G20  21308696.477 8 111977982.457 8      1496.188          51.000    21308695.836 7  87255581.144 7      1165.863          46.000
G21  21917509.852 8 115177365.554 8     -2128.676          51.000    21917508.391 7  89748543.097 7     -1658.708          45.000
G26  20743636.617 8 109008543.486 8     -1687.625          50.000    20743639.086 8  84941720.534 8     -1315.036          50.000
R14  21907509.367 4 116779340.035 4     -4171.387          29.000    21907497.547 5  90828333.645 5     -3244.412          35.000
R15  19943862.961 6 106573931.922 6      -923.203          38.000    19943865.133 5  82890851.635 5      -718.047          35.000
C05  39612342.859 5 206271863.433 5         1.477          34.000
C11                                                                  22734058.906 5  91540589.389 5      1115.490          32.000
C12  22028520.219 8 114708414.498 8     -1091.762          51.000    22028520.023 8  88699833.824 8      -844.159          51.000
C21  24721333.656 7 128730495.120 7      2622.551          47.000
C24  25832813.141 5 134518268.132 5     -3364.324          30.000
C25  23584368.508 8 122810044.553 8     -1698.145          48.000
E13                                                                  25648319.539 7 103275163.605 7      1593.105          42.000
E15  23049259.969 8 121124760.257 8        10.254          51.000    23049262.961 8  92809899.125 8         7.869          51.000
E27  23717499.672 8 124636299.146 8      -625.750          51.000    23717502.320 8  95500546.777 8      -479.486          51.000
E30  24642388.219 8 129496601.339 8     -2936.262          50.000    24642395.812 8  99224670.016 8     -2249.860          51.000
> 2020 05 06 15 08  0.0000000  0 18        .000000000000
G10  23020402.055 8 120973096.302 8      3173.051          49.000    23020406.531 8  94264756.166 8      2472.510          49.000
G16  20503229.062 6 107745194.058 6       545.496          39.000    20503227.484 6  83957294.219 6       425.062          38.000
G18  21604963.078 7 113534914.623 7     -2444.754          44.000    21604963.078 6  88468726.416 6     -1905.003          37.000
G20  21300207.898 8 111933373.700 8      1478.781          51.000    21300206.688 7  87220821.090 7      1152.297          46.000
G21  21929683.797 8 115241339.671 8     -2135.160          51.000    21929682.266 7  89798393.050 7     -1663.761          44.000
G26  20753321.508 8 109059438.023 8     -1704.125          50.000    20753324.102 8  84981378.550 8     -1327.893          50.000
R14  21931004.492 5 116904610.211 5     -4179.879          35.000    21930999.234 5  90925766.116 5     -3251.026          35.000
R15  19949125.336 6 106602053.108 6      -950.402          39.000    19949128.195 6  82912723.697 6      -739.202          37.000
R18  22310520.078 5 119095093.954 5      2777.152          30.000    22310541.164 4  92629553.769 4      2160.001          29.000
C11                                                                  22725773.031 5  91507222.141 5      1109.935          33.000
C12  22034831.688 8 114741279.140 8     -1098.176          51.000    22034831.367 8  88725246.841 8      -849.218          51.000
C21  24706249.227 8 128651949.918 8      2614.707          48.000
C24  25852197.391 5 134619225.399 5     -3365.375          33.000
C25  23594194.375 8 122861210.884 8     -1712.090          48.000
E13                                                                  25636465.922 7 103227445.299 7      1588.873          42.000
E15  23049226.859 8 121124585.912 8         2.461          51.000    23049229.695 8  92809765.530 8         1.838          51.000
E27  23721116.039 8 124655302.426 8      -640.102          51.000    23721118.477 8  95515107.714 8      -490.438          51.000
E30  24659172.094 8 129584795.086 8     -2942.270          51.000    24659178.141 8  99292246.995 8     -2254.436          49.000
> 2020 05 06 15 08 30.0000000  0 20        .000000000000
G10  23002311.539 8 120878029.367 8      3165.000          48.000    23002314.234 8  94190678.159 8      2466.237          48.000
G16  20500166.688 6 107729100.637 6       527.484          40.000    20500165.680 6  83944753.909 6       411.030          38.000
G18  21618948.086 7 113608405.879 7     -2454.383          43.000    21618948.133 6  88525992.322 6     -1912.506          37.000
G20  21291815.641 8 111889272.154 8      1461.371          51.000    21291814.383 7  87186456.275 7      1138.731          47.000
G21  21941892.109 8 115305494.642 8     -2141.711          51.000    21941890.445 7  89848383.923 7     -1668.869          43.000
G26  20763097.742 8 109110811.272 8     -1720.590          51.000    20763100.438 8  85021409.630 8     -1340.719          51.000
R14  21954553.336 6 117030159.994 6     -4189.922          38.000    21954551.164 5  91023415.801 5     -3258.834          35.000
R15  19954536.625 6 106630975.603 6      -977.770          38.000    19954540.898 6  82935218.949 6      -760.487          39.000
R18  22294929.914 5 119011845.979 5      2771.078          30.000    22294946.453 4  92564808.087 4      2155.283          28.000
R24  21039651.398 5 112508371.416 5     -2538.523          35.000    21039621.672 4  87506464.742 4     -1974.398          27.000
C05  39612330.055 5 206271797.370 5         1.012          35.000
C11                                                                  22717517.430 5  91473986.902 5      1105.072          32.000
C12  22041177.430 8 114774322.277 8     -1104.621          51.000    22041177.000 8  88750797.886 8      -854.205          51.000
C21  24691207.422 8 128573624.628 8      2606.984          48.000
C24  25871584.984 5 134720187.756 5     -3364.848          32.000
C25  23604097.320 8 122912779.088 8     -1725.848          49.000
E13  25624636.555 6 134658379.648 6      2068.348          37.000    25624641.086 7 103179838.189 7      1584.766          43.000
E15  23049234.836 8 121124627.826 8        -5.223          51.000    23049237.945 8  92809797.651 8        -4.011          51.000
E27  23724810.398 8 124674716.785 8      -654.203          51.000    23724813.156 8  95529983.638 8      -501.287          51.000
E30  24675986.469 8 129673150.081 8     -2948.059          51.000    24675990.680 7  99359947.511 7     -2258.863          47.000
> 2020 05 06 15 09  0.0000000  0 19        .000000000000
G10  22984266.508 7 120783201.262 7      3157.727          46.000    22984266.312 7  94116786.296 7      2460.572          46.000
G16  20497209.031 6 107713558.057 6       509.992          39.000    20497208.359 6  83932642.767 6       397.393          39.000
G18  21632986.984 7 113682180.093 7     -2462.824          44.000    21632986.836 6  88583478.692 6     -1919.084          36.000
G20  21283522.758 8 111845694.085 8      1444.742          51.000    21283522.359 8  87152499.388 8      1125.776          48.000
G21  21954137.062 8 115369842.426 8     -2147.242          51.000    21954135.359 7  89898525.037 7     -1673.176          43.000
G26  20772967.500 8 109162676.356 8     -1736.180          51.000    20772970.281 8  85061823.970 8     -1352.867          51.000
R14  21978157.766 6 117155999.046 6     -4198.273          37.000    21978157.953 6  91121290.561 6     -3265.327          37.000
R15  19960100.031 5 106660712.389 5     -1003.594          34.000    19960106.148 6  82958347.564 6      -780.573          40.000
R24  21053889.938 5 112584616.535 5     -2542.898          32.000    21053885.992 4  87565811.551 4     -1977.807          29.000
C05  39612322.164 5 206271755.300 5         2.109          34.000
C11  22709302.773 5 118253302.956 5      1423.750          32.000    22709297.648 5  91440894.650 5      1101.783          30.000
C12  22047559.969 8 114807557.604 8     -1110.133          51.000    22047559.594 8  88776497.539 8      -858.452          51.000
C21  24676211.484 8 128495535.893 8      2599.828          48.000
C24  25890981.078 5 134821124.482 5     -3366.301          30.000
C25  23614079.945 8 122964761.579 8     -1738.699          48.000
E13  25612846.812 6 134596407.710 6      2063.930          39.000    25612847.562 7 103132353.200 7      1581.366          44.000
E15  23049286.664 8 121124899.631 8       -11.988          51.000    23049289.766 8  92810005.918 8        -9.177          51.000
E27  23728585.562 8 124694556.346 8      -667.465          51.000    23728588.672 8  95545185.377 8      -511.446          51.000
E30  24692833.586 8 129761679.033 8     -2952.902          51.000    24692836.023 7  99427781.307 7     -2262.658          46.000
> 2020 05 06 15 09 30.0000000  0 18        .000000000000
G10  22966263.695 7 120688597.245 7      3149.027          45.000    22966264.414 7  94043068.948 7      2453.788          45.000
G16  20494352.875 6 107698549.650 6       490.797          41.000    20494352.477 6  83920947.891 6       382.439          39.000
G18  21647076.062 7 113756217.638 7     -2473.188          43.000    21647075.734 6  88641170.218 6     -1927.159          36.000
G20  21275326.344 8 111802623.496 8      1426.539          51.000    21275326.680 7  87118937.902 7      1111.592          47.000
G21  21966415.141 8 115434364.193 8     -2154.203          50.000    21966413.586 7  89948801.720 7     -1678.600          42.000
G26  20782926.992 8 109215014.482 8     -1753.125          51.000    20782930.273 8  85102606.902 8     -1366.071          51.000
R14  22001811.180 5 117282105.514 5     -4208.645          31.000    22001816.117 6  91219373.254 6     -3273.396          38.000
R15  19965812.219 5 106691244.548 5     -1031.430          35.000    19965820.367 6  82982094.829 6      -802.223          41.000
C05  39612311.164 5 206271698.900 5         1.691          34.000
C11                                                                  22701112.453 4  91407932.139 4      1096.557          28.000
C12  22053975.977 8 114840967.364 8     -1117.250          51.000    22053975.672 8  88802332.079 8      -863.835          51.000
C21  24661257.820 7 128417668.764 7      2591.137          47.000
C24  25910378.195 5 134922124.485 5     -3366.582          30.000
C25  23624138.578 8 123017139.141 8     -1753.156          48.000
E13  25601083.102 6 134534577.586 6      2058.109          41.000    25601081.633 7 103084976.952 7      1576.981          44.000
E15  23049378.820 8 121125383.143 8       -20.273          51.000    23049381.641 8  92810376.394 8       -15.477          51.000
E27  23732438.297 8 124714803.379 8      -682.266          51.000    23732441.406 8  95560699.332 8      -522.775          51.000
E30  24709709.602 8 129850362.842 8     -2959.320          50.000    24709710.766 7  99495733.733 7     -2267.411          44.000
> 2020 05 06 15 10  0.0000000  0 17        .000000000000
G10  22948314.602 7 120594281.238 7      3137.895          42.000    22948318.422 7  93969575.938 7      2445.110          43.000
G16  20491610.242 6 107684137.191 6       468.762          41.000    20491609.906 6  83909717.402 6       365.269          41.000
G18  21661226.320 6 113830577.324 6     -2485.359          39.000    21661226.273 6  88699112.816 6     -1936.644          37.000
G20  21267238.344 8 111760122.801 8      1405.660          50.000    21267238.914 7  87085820.474 7      1095.320          47.000
G21  21978737.594 8 115499119.352 8     -2163.910          50.000    21978736.008 7  89999260.272 7     -1686.164          42.000
G26  20792987.945 8 109267885.527 8     -1772.895          51.000    20792991.312 8  85143805.103 8     -1381.476          51.000
R02  23489625.422 7 125345145.164 7      3974.418          42.000    23489629.625 6  97490678.200 6      3091.220          40.000
R15  19971686.586 6 106722632.481 6     -1061.855          39.000    19971694.609 6  83006507.664 6      -825.888          40.000
R18  22248380.875 5 118763364.663 5      2747.840          33.000
R24  21082493.531 5 112737577.231 5     -2557.984          32.000    21082493.859 4  87684782.508 4     -1989.534          27.000
C12  22060437.078 8 114874611.578 8     -1126.934          51.000    22060436.688 8  88828347.925 8      -871.389          51.000
C21  24646358.625 7 128340086.300 7      2579.832          46.000
C25  23634283.750 7 123069970.452 7     -1770.215          47.000
E13  25589356.930 6 134472950.610 6      2049.262          37.000    25589354.391 7 103037756.333 7      1570.196          44.000
E15  23049522.648 8 121126138.680 8       -31.238          51.000    23049525.414 8  92810955.318 8       -23.918          51.000
E27  23736380.375 8 124735518.690 8      -699.848          51.000    23736383.172 8  95576572.097 8      -536.259          51.000
E30  24726625.969 8 129939260.933 8     -2968.352          48.000    24726626.617 7  99563850.391 7     -2274.451          44.000
> 2020 05 06 15 10 30.0000000  0 17        .000000000000
G10  22930415.531 7 120500226.562 7      3132.887          44.000    22930421.750 7  93896286.546 7      2441.207          44.000
G16  20488975.688 7 107670292.287 7       454.039          42.000    20488975.805 6  83898929.157 6       353.797          41.000
G18  21675431.438 6 113905227.564 6     -2490.887          38.000    21675431.320 5  88757281.840 5     -1940.954          35.000
G20  21259253.773 8 111718164.225 8      1391.789          51.000    21259254.086 7  87053125.471 7      1084.511          47.000
G21  21991098.609 8 115564077.015 8     -2166.500          50.000    21991096.750 7  90049876.605 7     -1688.182          42.000
G26  20803144.633 8 109321258.705 8     -1785.238          51.000    20803147.625 8  85185394.586 8     -1391.095          51.000
R02  23467277.477 6 125225906.341 6      3975.426          39.000    23467284.531 6  97397937.038 6      3092.001          40.000
R15  19977715.484 6 106754844.945 6     -1085.152          38.000    19977722.258 6  83031561.801 6      -844.013          40.000
R24  21096848.586 5 112814359.771 5     -2560.180          31.000    21096855.336 4  87744492.284 4     -1991.248          29.000
C05  39612308.047 5 206271681.702 5         2.215          35.000
C12  22066937.414 8 114908460.601 8     -1129.516          51.000    22066936.930 8  88854522.138 8      -873.380          51.000
C21  24631508.781 7 128262761.690 7      2575.316          46.000
C25  23644509.984 7 123123224.471 7     -1779.941          47.000
E13  25577663.461 6 134411497.268 6      2047.758          40.000    25577660.461 7 102990668.731 7      1569.103          44.000
E15  23049712.547 8 121127136.095 8       -35.066          51.000    23049715.430 8  92811719.577 8       -26.881          51.000
E27  23740406.164 8 124756672.620 8      -710.234          51.000    23740408.492 8  95592780.930 8      -544.218          51.000
E30  24743576.773 7 130028342.270 7     -2970.258          46.000    24743577.828 7  99632107.476 7     -2275.894          44.000
> 2020 05 06 15 11  0.0000000  0 19        .000000000000
G10  22912558.203 7 120406384.061 7      3127.465          47.000    22912564.672 7  93823162.523 7      2436.989          47.000
G16  20486439.461 7 107656964.150 7       438.762          43.000    20486439.922 7  83888543.557 7       341.892          42.000
G18  21689681.398 6 113980114.464 6     -2497.121          39.000    21689681.430 6  88815635.288 6     -1945.809          37.000
G20  21251362.938 8 111676697.273 8      1376.887          50.000    21251363.242 7  87020813.589 7      1072.902          46.000
G21  22003487.867 8 115629182.832 8     -2169.766          50.000    22003485.969 7  90100608.384 7     -1690.726          43.000
G26  20813386.836 8 109375080.961 8     -1798.672          51.000    20813389.484 8  85227333.994 8     -1401.562          51.000
R02  23444937.867 5 125106719.510 5      3974.992          35.000    23444947.602 6  97305236.184 6      3091.658          38.000
R14  22073123.648 5 117662193.059 5     -4232.742          32.000    22073129.570 6  91515034.918 6     -3292.133          37.000
R15  19983888.523 6 106787828.097 6     -1109.145          41.000    19983894.188 6  83057215.306 6      -862.668          40.000
R18  22217552.438 5 118598769.824 5      2739.902          31.000    22217562.000 4  92243524.657 4      2131.029          29.000
C05  39612300.664 5 206271643.357 5         4.836          34.000
C12  22073467.078 8 114942462.672 8     -1133.070          51.000    22073466.539 8  88880814.688 8      -876.110          51.000
C21  24616698.852 7 128185646.064 7      2569.855          45.000
C24  25968589.062 4 135225257.044 4     -3363.230          28.000
C25  23654807.766 8 123176848.010 8     -1790.754          48.000
E13  25565993.258 7 134350165.739 7      2045.355          43.000    25565989.961 7 102943674.487 7      1567.170          43.000
E15  23049938.477 8 121128322.889 8       -39.750          51.000    23049941.430 8  92812628.944 8       -30.467          51.000
E27  23744505.148 8 124778213.082 8      -721.516          51.000    23744507.375 8  95609285.919 8      -552.811          51.000
E30  24760552.125 7 130117553.435 7     -2972.930          45.000    24760554.305 7  99700464.038 7     -2277.869          44.000
> 2020 05 06 15 11 30.0000000  0 19        .000000000000
G10  22894740.242 8 120312745.551 8      3114.520          50.000    22894746.219 8  93750197.491 8      2426.898          50.000
G16  20483999.633 7 107644142.448 7       415.773          43.000    20484000.195 7  83878552.599 7       323.976          43.000
G18  21703974.266 6 114055224.856 6     -2510.867          38.000    21703974.406 6  88874162.829 6     -1956.523          36.000
G20  21243563.953 8 111635712.826 8      1354.785          51.000    21243564.070 7  86988877.694 7      1055.677          46.000
G21  22015903.008 8 115694424.449 8     -2180.242          49.000    22015901.469 7  90151446.002 7     -1698.890          44.000
G26  20823712.188 8 109429339.987 8     -1819.254          51.000    20823714.695 8  85269613.735 8     -1417.600          51.000
G27  21622509.078 5 113627067.569 5      2146.645          32.000
R02  23422609.719 6 124987577.448 6      3967.316          40.000    23422619.641 6  97212570.172 6      3085.694          37.000
R14  22096983.102 5 117789368.541 5     -4246.676          34.000    22096990.438 5  91613949.162 5     -3302.973          32.000
R15  19990203.391 7 106821568.716 7     -1140.742          43.000    19990208.281 6  83083457.965 6      -887.247          41.000
R18  22202185.023 5 118516722.704 5      2728.957          34.000    22202191.305 4  92179735.263 4      2122.528          28.000
C05  39612283.961 5 206271556.428 5          .543          34.000
C12  22080023.898 8 114976606.328 8     -1143.836          51.000    22080023.312 8  88907216.719 8      -884.384          51.000
C21  24601927.164 7 128108730.908 7      2557.270          45.000
C25  23665174.562 8 123230828.219 8     -1808.641          49.000
E13  25554344.297 6 134288945.130 6      2035.793          41.000    25554340.758 7 102896765.203 7      1559.875          43.000
E15  23050198.164 8 121129687.312 8       -51.688          51.000    23050200.906 8  92813674.415 8       -39.587          51.000
E27  23748675.227 8 124800128.756 8      -740.020          51.000    23748677.539 8  95626078.420 8      -567.070          51.000
E30  24777550.219 7 130206881.787 7     -2982.863          45.000    24777553.820 7  99768910.398 7     -2285.493          45.000
> 2020 05 06 15 12  0.0000000  0 19        .000000000000
G10  22876992.109 8 120219473.867 8      3106.699          51.000    22876997.203 8  93677518.315 8      2420.808          51.000
G16  20481686.938 7 107631988.270 7       397.762          45.000    20481687.531 7  83869081.800 7       309.944          43.000
G18  21718339.867 6 114130716.612 6     -2519.148          40.000    21718339.992 6  88932987.638 6     -1962.967          37.000
G20  21235887.523 8 111595372.079 8      1337.688          51.000    21235887.094 7  86957443.376 7      1042.357          44.000
G21  22028374.180 8 115759960.332 8     -2185.656          49.000    22028372.914 7  90202512.920 7     -1703.109          43.000
G26  20834151.000 8 109484194.477 8     -1834.676          51.000    20834153.398 8  85312357.474 8     -1429.617          51.000
R02  23400323.555 6 124868646.994 6      3964.625          40.000    23400332.266 6  97120068.849 6      3083.600          38.000
R14  22120911.711 6 117916921.122 6     -4254.371          37.000    22120897.766 4  91713115.425 4     -3308.958          28.000
R15  19996690.805 7 106856228.374 7     -1166.945          44.000    19996694.531 7  83110415.446 7      -907.624          42.000
R18  22186878.766 5 118434997.028 5      2722.766          31.000
R24  21140095.680 5 113045590.894 5     -2577.219          34.000
C05  39612288.391 5 206271579.675 5         1.004          34.000
C12  22086638.336 8 115011049.758 8     -1149.441          50.000    22086637.672 8  88933850.562 8      -888.773          51.000
C21  24587225.141 7 128032177.339 7      2549.465          44.000
C25  23675639.891 8 123285321.834 8     -1821.281          49.000
E13  25542746.531 6 134227995.463 6      2031.086          39.000    25542742.875 6 102850063.560 6      1556.179          41.000
E15  23050521.930 8 121131388.737 8       -58.555          51.000    23050524.250 8  92814978.103 8       -44.831          51.000
E27  23752947.164 8 124822579.407 8      -753.516          51.000    23752949.453 8  95643280.857 8      -577.309          51.000
E30  24794601.359 7 130296485.781 7     -2987.594          45.000    24794606.203 7  99837567.973 7     -2289.153          45.000
> 2020 05 06 15 12 30.0000000  0 19        .000000000000
G10  22859282.609 8 120126405.901 8      3097.324          51.000    22859286.516 8  93604997.866 8      2413.499          51.000
G16  20479469.992 7 107620336.791 7       378.543          46.000    20479469.969 7  83860002.722 7       294.969          43.000
G18  21732746.492 6 114206421.738 6     -2528.363          38.000    21732745.734 6  88991978.584 6     -1970.150          36.000
G20  21228302.164 8 111555510.687 8      1319.227          50.000    21228301.211 7  86926382.577 7      1027.969          43.000
G21  22040869.398 8 115825623.155 8     -2192.289          48.000    22040868.219 7  90253678.740 7     -1708.277          43.000
G26  20844671.203 8 109539477.191 8     -1851.289          51.000    20844673.602 8  85355434.879 8     -1442.566          51.000
R02  23378047.250 6 124749763.790 6      3960.336          41.000    23378054.805 6  97027604.272 6      3080.267          40.000
R14  22144879.047 5 118044678.274 5     -4263.383          35.000    22144869.664 5  91812459.864 5     -3315.974          34.000
R15  20003317.148 7 106891636.536 7     -1194.461          43.000    20003320.469 7  83137955.100 7      -929.028          43.000
R24  21154564.672 5 113122985.304 5     -2582.477          30.000    21154559.695 4  87984509.486 4     -2008.587          25.000
C05  39612282.453 5 206271548.551 5          .184          34.000
C11                                                                  22652784.148 6  91213329.853 6      1066.454          36.000
C12  22093278.703 8 115045628.167 8     -1156.438          50.000    22093277.984 8  88960588.767 8      -894.134          51.000
C21  24572561.977 7 127955823.243 7      2540.273          45.000
C25  23686171.711 8 123340162.530 8     -1835.324          50.000
E13  25531170.250 6 134167199.665 6      2025.023          36.000    25531163.359 6 102803442.365 6      1551.540          41.000
E15  23050877.930 8 121133260.508 8       -66.719          51.000    23050880.227 8  92816412.320 8       -51.134          51.000
E27  23757289.391 8 124845398.857 8      -768.273          51.000    23757292.023 8  95660765.879 8      -588.689          51.000
E30  24811673.609 7 130386197.884 7     -2993.715          46.000    24811679.203 7  99906308.378 7     -2293.918          46.000
> 2020 05 06 15 13  0.0000000  0 18        .000000000000
G10  22841624.531 8 120033608.536 8      3088.910          51.000    22841627.367 8  93532688.274 8      2406.946          51.000
G16  20477361.102 7 107609252.974 7       360.117          47.000    20477360.938 7  83851365.984 7       280.611          43.000
G18  21747205.727 6 114282402.143 6     -2537.137          38.000    21747204.266 6  89051184.096 6     -1976.990          37.000
G20  21220820.211 8 111516194.098 8      1301.680          49.000    21220819.094 7  86895746.318 7      1014.296          43.000
G21  22053400.461 8 115891474.885 8     -2198.059          48.000    22053399.453 7  90304991.778 7     -1712.773          43.000
G26  20855284.617 8 109595250.920 8     -1867.160          51.000    20855286.930 8  85398894.895 8     -1454.930          51.000
R02  23355792.094 7 124630997.903 7      3956.891          42.000    23355798.938 6  96935230.955 6      3077.588          40.000
R14  22168895.250 6 118172700.738 6     -4271.711          37.000    22168890.078 6  91912032.771 6     -3322.445          36.000
R15  20010095.477 7 106927856.982 7     -1220.711          46.000    20010098.656 7  83166126.537 7      -949.442          44.000
