     3.02           OBSERVATION DATA    M (MIXED)           RINEX VERSION / TYPE
SAVERINEX           SC600               20200519 045931 LCL PGM / RUN BY / DATE
       G = GPS       R = GLONASS       C = COMPASS          COMMENT
       S = SBAS      J = QZSS          E = GALILEO          COMMENT
BEAN                                                        MARKER NAME
1                                                           MARKER NUMBER
GEODETIC                                                    MARKER TYPE
Unige DICCA         GTER                                    OBSERVER / AGENCY
SC60291900056       SC600               2.12(191202)        REC # / TYPE / VERS
                    HEMA45          NONE                    ANT # / TYPE
  4509407.8091   693652.4678  4442337.6214                  APPROX POSITION XYZ
        0.0000        0.0000        0.0000                  ANTENNA: DELTA H/E/N
G    8 C1C L1C D1C S1C C2Y L2Y D2Y S2Y                      SYS / # / OBS TYPES
R    8 C1C L1C D1C S1C C2P L2P D2P S2P                      SYS / # / OBS TYPES
C    8 C1I L1I D1I S1I C7I L7I D7I S7I                      SYS / # / OBS TYPES
E    8 C1C L1C D1C S1C C7Q L7Q D7Q S7Q                      SYS / # / OBS TYPES
DBHZ                                                        COMMENT
     30.000                                                 INTERVAL
  2020    05    19    02    00    0.0000000     GPS         TIME OF FIRST OBS
  2020    05    19    02    59   30.0000000     GPS         TIME OF LAST OBS
     0                                                      RCV CLOCK OFFS APPL
G L1C  0.00000                                              SYS / PHASE SHIFT
G L2Y  0.00000                                              SYS / PHASE SHIFT
R L1C  0.00000                                              SYS / PHASE SHIFT
R L2P  0.25000                                              SYS / PHASE SHIFT
C L1I  0.00000                                              SYS / PHASE SHIFT
C L7I  0.00000                                              SYS / PHASE SHIFT
E L1C  0.50000                                              SYS / PHASE SHIFT
E L7Q -0.25000                                              SYS / PHASE SHIFT
 14 R01  1 R02 -4 R03  5 R04  6 R08  6 R10 -5 R11  0 R12 -1 GLONASS SLOT / FRQ #
    R13 -2 R14 -7 R15  0 R17  4 R18 -3 R23  3               GLONASS SLOT / FRQ #
 C1C   71.950 C2C   71.950 C2P   71.950                     GLONASS COD/PHS/BIS
    18                                                      LEAP SECONDS
*** Above antenna height is from mark to ANTENNA BOTTOM.    COMMENT
    17     4        0.0000        ANT MEASURE TYPE/HEIGT    COMMENT
    0.0000    0.0000    0.0458    0.0405    0.0000          COMMENT
                    BASE STATION                            COMMENT
                                                            END OF HEADER
> 2020 05 19 02 00  0.0000000  0 13        .000000000000
G02  23879034.500 7 125485202.263 7     -2527.691          45.000    23879030.609 7  97780654.851 7     -1969.630          44.000
G05  20722579.023 5 108897876.889 5      1037.977          34.000    20722578.008 5  84855498.522 5       808.807          35.000
G07  21302804.164 8 111946989.168 8     -1555.812          49.000    21302802.664 8  87231424.524 8     -1212.321          49.000
G30  20396528.461 8 107184475.322 8       449.047          51.000    20396528.078 8  83520433.363 8       349.907          51.000
R03  19905428.938 8 106555388.840 8     -1461.359          51.000    19905429.414 7  82876373.200 7     -1136.616          45.000
R13  19819210.219 7 105833455.373 7     -1578.805          42.000    19819212.375 7  82314928.889 7     -1227.959          46.000
R14  20073816.023 8 107004749.944 8      2748.961          50.000    20073818.555 7  83225982.990 7      2138.084          44.000
C05  39814221.859 5 207323099.879 5        -5.078          35.000    39814219.430 6 160315357.804 6        -3.770          40.000
C19  23458558.336 8 122154862.221 8     -2473.730          50.000
C22  21808086.742 8 113560419.068 8       183.961          51.000
E05  23552789.828 8 123770738.335 8      -464.203          51.000    23552791.633 8  94837313.882 8      -355.667          51.000
E24  22505141.898 8 118265343.886 8       570.133          51.000    22505154.844 8  90618926.419 8       436.909          51.000
E25  25861750.711 8 135904470.593 8      2915.035          51.000    25861748.367 7 104134575.014 7      2233.763          45.000
> 2020 05 19 02 00 30.0000000  0 14        .000000000000
G02  23893471.734 7 125561070.629 7     -2529.984          44.000    23893468.906 7  97839773.036 7     -1971.416          44.000
G05  20716694.414 5 108866954.351 5      1023.793          33.000    20716693.328 5  84831402.988 5       797.761          33.000
G07  21311707.219 7 111993775.303 7     -1563.035          47.000    21311705.492 7  87267881.244 7     -1217.949          47.000
G13  22692764.094 5 119251284.634 5      2661.754          35.000
G30  20393998.391 8 107171179.495 8       437.633          51.000    20393998.438 8  83510073.008 8       341.013          51.000
R03  19913651.570 8 106599405.248 8     -1472.840          51.000    19913652.078 7  82910608.160 7     -1145.545          46.000
R13  19828136.523 7 105881120.899 7     -1598.305          43.000    19828138.617 7  82352002.096 7     -1243.126          46.000
R14  20058391.273 8 106922526.204 8      2732.816          51.000    20058392.773 7  83162031.249 7      2125.527          44.000
C05  39814238.125 6 207323185.059 6         -.598          36.000    39814235.844 6 160315423.697 6         -.453          40.000
C19  23472822.133 8 122229137.125 8     -2477.695          50.000
C22  21807051.352 8 113555026.953 8       175.723          51.000
E05  23555448.047 8 123784707.592 8      -466.793          51.000    23555449.922 8  94848017.593 8      -357.637          51.000
E24  22501917.359 8 118248398.059 8       559.875          51.000    22501930.055 8  90605941.962 8       428.956          51.000
E25  25845114.938 8 135817050.281 8      2913.230          50.000    25845112.164 7 104067590.670 7      2232.287          46.000
> 2020 05 19 02 01  0.0000000  0 14        .000000000000
G02  23907957.336 7 125637192.125 7     -2541.766          42.000    23907955.117 7  97899088.465 7     -1980.600          43.000
G05  20710919.414 6 108836606.950 6      1002.285          38.000    20710917.320 6  84807755.694 6       781.004          38.000
G07  21320683.742 8 112040947.558 8     -1578.781          48.000    21320682.336 8  87304638.845 8     -1230.219          48.000
G13  22677608.273 5 119171628.150 5      2652.477          35.000
G30  20391567.070 8 107158403.157 8       417.223          51.000    20391567.227 8  83500117.428 8       325.109          51.000
R03  19921971.703 8 106643946.929 8     -1493.465          50.000    19921973.141 8  82945251.679 8     -1161.584          48.000
R13  19837205.195 7 105929547.607 7     -1626.891          43.000    19837207.523 7  82389667.321 7     -1265.356          46.000
R14  20043091.367 8 106840967.900 8      2707.598          51.000    20043092.953 7  83098597.060 7      2105.909          46.000
C05  39814262.133 5 207323310.123 5        -5.074          35.000    39814259.844 6 160315520.392 6        -3.872          40.000
C19  23487142.062 8 122303704.772 8     -2490.422          50.000
C22  21806096.867 8 113550056.305 8       158.664          51.000
E05  23558154.172 8 123798928.388 8      -478.230          51.000    23558156.094 8  94858914.049 8      -366.439          51.000
E24  22498785.039 8 118231936.071 8       540.652          51.000    22498797.766 8  90593328.244 8       414.278          51.000
E25  25828522.797 8 135729860.765 8      2902.559          50.000    25828520.805 8 104000783.154 8      2224.038          48.000
> 2020 05 19 02 01 30.0000000  0 14        .000000000000
G02  23922485.703 7 125713537.975 7     -2548.031          42.000    23922483.750 7  97958578.724 7     -1985.479          42.000
G05  20705249.836 6 108806811.504 6       984.844          38.000    20705246.031 6  84784538.470 6       767.411          38.000
G07  21329728.680 7 112088479.366 7     -1589.750          47.000    21329727.289 7  87341676.606 7     -1238.766          47.000
G13  22662482.094 5 119092136.624 5      2647.031          34.000
G30  20389229.727 8 107146120.851 8       401.895          51.000    20389230.070 8  83490546.794 8       313.165          51.000
R03  19930385.906 8 106688988.720 8     -1509.152          50.000    19930387.508 8  82980284.210 8     -1173.785          49.000
R13  19846411.102 7 105978706.695 7     -1650.188          43.000    19846413.500 7  82427902.174 7     -1283.476          46.000
R14  20027912.086 8 106760051.965 8      2687.023          51.000    20027913.766 8  83035662.460 8      2089.907          48.000
C05  39814289.109 5 207323450.106 5        -4.395          35.000    39814286.742 6 160315628.655 6        -3.311          40.000
C19  23501513.297 8 122378539.545 8     -2498.320          50.000
C22  21805218.555 8 113545483.101 8       146.398          51.000
E05  23560903.531 8 123813376.015 8      -484.789          51.000    23560905.414 8  94869984.292 8      -371.477          51.000
E24  22495740.312 8 118215933.125 8       526.367          51.000    22495753.078 8  90581066.253 8       403.356          51.000
E25  25811970.234 8 135642878.656 8      2896.547          49.000    25811970.141 8 103934134.533 8      2219.390          50.000
> 2020 05 19 02 02  0.0000000  0 13        .000000000000
G02  23937063.922 6 125790147.425 6     -2561.652          41.000    23937062.203 7  98018274.417 7     -1996.093          42.000
G05  20699693.289 6 108777610.224 6       960.039          37.000    20699688.328 6  84761784.284 6       748.082          36.000
G07  21338849.508 7 112136410.304 7     -1608.000          47.000    21338848.023 8  87379025.399 8     -1252.987          48.000
G30  20386994.180 8 107134373.316 8       379.078          51.000    20386995.008 8  83481392.881 8       295.386          51.000
R03  19938901.516 8 106734572.511 8     -1532.270          51.000    19938903.125 8  83015738.269 8     -1191.765          50.000
R13  19855761.539 7 106028637.546 7     -1680.734          44.000    19855763.977 7  82466737.298 7     -1307.238          46.000
R14  20012861.594 8 106679822.737 8      2659.066          51.000    20012863.148 8  82973261.934 8      2068.160          49.000
C05                                                                  39814324.414 6 160315780.071 6        -8.482          40.000
C19  23515943.281 8 122453681.417 8     -2513.375          49.000
C22  21804424.625 8 113541348.924 8       126.824          51.000
E05  23563704.039 8 123828091.911 8      -498.691          51.000    23563705.734 8  94881260.114 8      -382.114          51.000
E24  22492790.484 8 118200430.524 8       504.781          51.000    22492803.281 8  90569187.660 8       386.742          51.000
E25  25795465.328 8 135556146.782 8      2883.273          48.000    25795467.414 8 103867677.646 8      2209.297          51.000
> 2020 05 19 02 02 30.0000000  0 14        .000000000000
G02  23951672.516 6 125866919.926 6     -2560.965          41.000    23951671.438 6  98078097.185 6     -1995.557          40.000
G05  20694231.383 6 108748907.418 6       949.438          36.000    20694226.617 6  84739418.425 6       739.824          37.000
G07  21348027.594 8 112184641.401 8     -1611.688          48.000    21348026.383 8  87416608.074 8     -1255.860          48.000
G28  23309648.641 5 122493031.521 5      3215.562          34.000
G30  20384841.789 8 107123062.815 8       370.574          51.000    20384842.867 8  83472579.503 8       288.759          51.000
R03  19947500.062 8 106780599.287 8     -1540.738          51.000    19947501.469 8  83051536.875 8     -1198.352          50.000
R13  19865237.523 7 106079238.211 7     -1696.914          44.000    19865240.016 7  82506093.367 7     -1319.822          46.000
R14  19997921.609 8 106600184.180 8      2645.664          51.000    19997923.094 8  82911320.819 8      2057.736          49.000
C05  39814356.461 5 207323801.042 5        -3.727          35.000    39814354.188 6 160315899.998 6        -2.607          40.000
C19  23530413.219 7 122529033.172 7     -2514.336          47.000
C22  21803696.680 8 113537558.126 8       121.559          51.000
E05  23566537.000 8 123842979.151 8      -498.121          51.000    23566538.594 8  94892667.219 8      -381.713          51.000
E24  22489917.273 8 118185331.134 8       497.516          51.000    22489929.992 8  90557617.998 8       381.216          51.000
E25  25778989.906 8 135469569.564 8      2884.238          49.000    25778993.914 8 103801339.245 8      2209.983          51.000
> 2020 05 19 02 03  0.0000000  0 14        .000000000000
G02  23966314.484 6 125943868.546 6     -2568.133          41.000    23966314.305 6  98138057.169 6     -2001.142          41.000
G05  20688867.289 6 108720719.811 6       930.629          36.000    20688863.867 6  84717454.059 6       725.168          37.000
G07  21357265.578 7 112233186.967 7     -1623.641          47.000    21357264.422 7  87454435.798 7     -1265.171          47.000
G28  23291311.359 5 122396672.532 5      3209.043          35.000
G30  20382775.602 8 107112204.975 8       354.133          51.000    20382776.594 8  83464118.847 8       275.948          51.000
R03  19956184.125 8 106827085.623 8     -1557.379          51.000    19956185.391 8  83087692.896 8     -1211.298          49.000
R13  19874841.211 7 106130522.573 7     -1721.000          44.000    19874843.953 7  82545981.225 7     -1338.556          45.000
R14  19983095.531 8 106521155.193 8      2623.926          51.000    19983097.445 8  82849853.824 8      2040.831          49.000
C05  39814381.414 5 207323931.284 5        -4.156          35.000    39814379.227 6 160316000.735 6        -3.326          40.000
C19  23544926.328 7 122604609.962 7     -2523.266          47.000
C22  21803037.719 8 113534127.447 8       108.137          51.000
E05  23569405.531 8 123858054.147 8      -505.801          51.000    23569407.211 8  94904218.178 8      -387.624          51.000
E24  22487123.898 8 118170651.157 8       482.137          51.000    22487136.680 8  90546369.711 8       369.441          51.000
E25  25762547.516 8 135383164.688 8      2876.996          49.000    25762552.797 8 103735132.886 8      2204.452          51.000
> 2020 05 19 02 03 30.0000000  0 15        .000000000000
G02  23980992.062 6 126021001.915 6     -2576.805          39.000    23980992.484 6  98198161.081 6     -2007.903          40.000
G05  20683603.289 5 108693060.637 5       910.496          31.000    20683600.875 4  84695901.441 4       709.474          29.000
G07  21366564.977 7 112282056.242 7     -1636.641          47.000    21366563.656 7  87492515.780 7     -1275.304          47.000
G13  22602264.891 5 118775699.952 5      2625.758          33.000
G28  23273002.070 6 122300463.525 6      3202.449          37.000
G30  20380797.719 8 107101810.643 8       336.410          51.000    20380798.539 8  83456019.371 8       262.138          51.000
R03  19964956.023 8 106874042.698 8     -1575.516          50.000    19964957.234 8  83124215.055 8     -1225.404          48.000
R13  19884574.656 7 106182498.180 7     -1746.324          43.000    19884577.000 7  82586406.690 7     -1358.252          45.000
R14  19968386.930 8 106442749.719 8      2600.727          51.000    19968388.992 8  82788871.790 8      2022.787          49.000
C05  39814403.742 5 207324047.843 5        -5.914          35.000    39814401.594 6 160316090.847 6        -4.712          40.000
C19  23559485.516 8 122680422.180 8     -2533.211          48.000
C22  21802450.148 8 113531068.867 8        93.441          51.000
E05  23572312.062 8 123873328.500 8      -514.863          51.000    23572313.992 8  94915921.885 8      -394.500          51.000
E24  22484412.273 8 118156402.046 8       465.461          51.000    22484425.336 8  90535451.573 8       356.625          51.000
E25  25746140.664 8 135296945.072 8      2868.633          50.000    25746146.516 8 103669068.493 8      2198.028          51.000
> 2020 05 19 02 04  0.0000000  0 15        .000000000000
G02  23995713.109 6 126098359.389 6     -2580.926          41.000    23995713.594 6  98258439.644 6     -2011.111          41.000
G05  20678448.758 6 108665973.734 6       895.113          36.000    20678447.344 6  84674794.705 6       697.491          37.000
G07  21375933.891 7 112331290.574 7     -1645.949          46.000    21375932.570 7  87530880.197 7     -1282.558          46.000
G13  22587288.859 5 118697026.070 5      2622.848          34.000
G28  23254730.195 6 122204449.891 6      3198.695          38.000
G30  20378915.953 8 107091921.595 8       322.535          51.000    20378916.781 8  83448313.638 8       251.326          51.000
R03  19973824.086 8 106921513.921 8     -1589.621          50.000    19973825.016 7  83161137.120 7     -1236.372          47.000
R13  19894445.008 7 106235205.896 7     -1767.660          44.000    19894447.547 7  82627401.607 7     -1374.847          45.000
R14  19953803.773 8 106365012.907 8      2581.324          51.000    19953806.234 8  82728409.848 8      2007.700          49.000
C05  39814431.609 5 207324192.527 5        -3.926          35.000    39814429.398 6 160316202.727 6        -3.015          40.000
C19  23574097.906 8 122756510.890 8     -2539.602          48.000
C22  21801942.367 8 113528424.986 8        82.516          51.000
E05  23575264.906 8 123888844.796 8      -519.910          51.000    23575266.930 8  94927810.981 8      -398.361          51.000
E24  22481790.680 8 118142626.194 8       452.641          51.000    22481803.898 8  90524896.050 8       346.879          51.000
E25  25729777.531 8 135210954.669 8      2863.797          50.000    25729783.461 8 103603179.737 8      2194.386          51.000
> 2020 05 19 02 04 30.0000000  0 15        .000000000000
G02  24010465.719 7 126175880.940 7     -2585.016          42.000    24010466.008 7  98318846.048 7     -2014.298          43.000
G05  20673392.914 6 108639402.991 6       878.828          38.000    20673391.664 6  84654090.242 6       684.798          38.000
G07  21385361.055 7 112380830.720 7     -1654.949          45.000    21385359.773 7  87569482.920 7     -1289.568          45.000
G13  22572327.523 5 118618423.161 5      2619.758          31.000
G28  23236485.578 6 122108577.083 6      3195.066          36.000
G30  20377119.398 8 107082480.247 8       308.910          51.000    20377120.148 8  83440956.755 8       240.709          51.000
R03  19982777.055 8 106969441.001 8     -1603.508          49.000    19982778.109 7  83198413.709 7     -1247.176          47.000
R13  19904441.289 7 106288584.314 7     -1788.863          44.000    19904443.570 7  82668918.138 7     -1391.338          45.000
R14  19939335.250 8 106287889.462 8      2562.195          50.000    19939337.992 8  82668424.984 8      1992.819          48.000
C05  39814454.000 5 207324308.757 5        -1.910          35.000    39814451.734 6 160316292.601 6        -1.492          40.000
C19  23588751.953 7 122832818.601 7     -2545.555          47.000
C22  21801503.336 8 113526139.970 8        71.742          51.000
E05  23578253.086 8 123904546.234 8      -524.895          51.000    23578254.938 8  94939841.943 8      -402.135          51.000
E24  22479248.461 8 118129266.577 8       439.969          51.000    22479261.664 8  90514659.451 8       337.164          51.000
E25  25713447.461 8 135125138.028 8      2859.348          50.000    25713453.188 8 103537424.125 8      2190.887          51.000
> 2020 05 19 02 05  0.0000000  0 15        .000000000000
G02  24025254.148 7 126253591.214 7     -2593.414          44.000    24025253.977 7  98379399.514 7     -2020.842          42.000
G05  20668440.836 6 108613377.213 6       858.605          39.000    20668439.750 6  84633810.397 6       669.043          38.000
G07  21394851.500 7 112430702.756 7     -1667.613          45.000    21394849.914 7  87608344.277 7     -1299.436          45.000
G13  22557391.648 4 118539877.934 4      2612.410          29.000
G28  23218273.852 5 122012875.913 5      3187.305          33.000
G30  20375413.109 8 107073513.804 8       290.996          51.000    20375413.711 8  83433969.912 8       226.750          51.000
R03  19991820.500 8 107017852.205 8     -1621.621          50.000    19991821.312 7  83236066.851 7     -1261.261          46.000
R13  19914567.586 7 106342658.595 7     -1814.047          44.000    19914570.117 7  82710975.932 7     -1410.925          44.000
R14  19924987.562 8 106211409.820 8      2538.598          50.000    19924990.633 8  82608940.844 8      1974.465          49.000
C05  39814476.188 5 207324424.873 5        -3.801          35.000    39814473.805 6 160316381.627 6        -3.045          40.000
C19  23603452.875 7 122909372.028 7     -2555.762          46.000
C22  21801138.609 8 113524242.044 8        56.871          51.000
E05  23581281.773 8 123920460.826 8      -533.914          51.000    23581283.547 8  94952036.228 8      -409.085          51.000
E24  22476790.664 8 118116350.942 8       423.188          51.000    22476804.109 8  90504763.083 8       324.305          51.000
E25  25697156.000 8 135039524.525 8      2850.465          50.000    25697161.359 8 103471824.152 8      2184.137          51.000
> 2020 05 19 02 05 30.0000000  0 15        .000000000000
G02  24040070.164 7 126331447.567 7     -2599.930          45.000    24040069.414 6  98440066.816 6     -2025.919          40.000
G05  20663585.195 6 108587857.962 6       839.973          40.000    20663584.023 6  84613925.245 6       654.521          40.000
G07  21404397.203 7 112480865.116 7     -1679.051          46.000    21404395.547 7  87647431.824 7     -1308.351          46.000
G13  22542487.406 5 118461573.867 5      2607.410          32.000
G28  23200087.398 5 121917281.393 5      3180.969          30.000
G30  20373789.367 8 107064981.718 8       274.961          51.000    20373790.156 8  83427321.537 8       214.258          51.000
R03  20000946.812 8 107066706.551 8     -1638.078          50.000    20000947.469 7  83274064.664 7     -1274.061          47.000
R13  19924815.945 7 106397384.661 7     -1837.016          43.000    19924818.570 7  82753540.652 7     -1428.787          44.000
R14  19910753.883 8 106135535.873 8      2516.828          51.000    19910757.211 8  82549927.773 8      1957.530          49.000
C05  39814490.406 5 207324498.266 5        -3.516          35.000    39814488.094 6 160316439.161 6        -3.220          40.000
C19  23618193.344 7 122986130.638 7     -2564.219          47.000
C22  21800840.883 8 113522692.263 8        43.723          51.000
E05  23584343.289 8 123936548.956 8      -541.375          51.000    23584345.297 8  94964363.482 8      -414.886          51.000
E24  22474409.844 8 118103839.434 8       408.027          51.000    22474422.938 8  90495176.351 8       312.674          51.000
E25  25680895.781 8 134954075.767 8      2843.223          50.000    25680900.500 8 103406350.419 8      2178.588          51.000
> 2020 05 19 02 06  0.0000000  0 15        .000000000000
G02  24054936.969 7 126409572.083 7     -2604.598          44.000    24054935.812 6  98500943.072 6     -2029.557          38.000
G05  20658849.656 6 108562971.246 6       823.062          39.000    20658848.156 6  84594533.012 6       641.347          38.000
G07  21414021.453 7 112531440.896 7     -1688.570          45.000    21414019.945 7  87686841.514 7     -1315.769          45.000
G28  23181951.781 5 121821977.874 5      3177.238          33.000
G30  20372272.008 8 107057008.320 8       260.375          51.000    20372272.992 8  83421108.502 8       202.890          51.000
R03  20010179.625 8 107116131.366 8     -1652.969          50.000    20010181.055 8  83312506.160 8     -1285.642          48.000
R13  19935209.734 7 106452887.040 7     -1858.820          43.000    19935212.180 7  82796709.169 7     -1445.749          44.000
R14  19896658.383 8 106060396.860 8      2496.398          51.000    19896661.305 8  82491486.280 8      1941.643          49.000
C05  39814520.531 5 207324655.549 5        -2.512          35.000    39814518.250 6 160316560.774 6        -1.945          40.000
C19  23632997.250 8 123063217.240 8     -2571.176          48.000
C22  21800634.008 8 113521615.103 8        31.883          51.000
E05  23587461.422 8 123952935.732 8      -547.250          51.000    23587463.719 8  94976919.567 8      -419.354          51.000
E09  24814366.055 5 130400374.856 5     -2233.648          32.000
E24  22472129.633 8 118091856.901 8       394.566          51.000    22472142.117 8  90485994.937 8       302.336          51.000
E25  25664691.000 8 134868918.189 8      2837.699          51.000    25664694.695 8 103341099.799 8      2174.392          51.000
> 2020 05 19 02 06 30.0000000  0 15        .000000000000
G02  24069828.836 7 126487828.855 7     -2611.812          43.000    24069827.383 6  98561922.387 6     -2035.179          40.000
G05  20654209.258 6 108538585.339 6       803.285          40.000    20654207.516 6  84575530.994 6       625.940          40.000
G07  21423698.758 7 112582295.432 7     -1701.062          46.000    21423697.039 7  87726468.425 7     -1325.503          45.000
G28  23163840.297 6 121726805.507 6      3168.855          36.000
G30  20370835.539 8 107049460.154 8       243.168          51.000    20370836.594 8  83415226.819 8       189.482          51.000
R03  20019493.234 8 107165990.947 8     -1670.535          49.000    20019495.547 8  83351285.830 8     -1299.308          49.000
R13  19945722.883 7 106509027.333 7     -1883.316          43.000    19945725.453 7  82840373.856 7     -1464.802          44.000
R14  19882675.680 8 105985859.890 8      2473.160          51.000    19882678.211 8  82433513.105 8      1923.569          49.000
C05  39814541.328 5 207324764.045 5        -4.246          35.000    39814539.031 6 160316644.660 6        -3.141          40.000
C19  23647838.461 8 123140499.328 8     -2580.578          49.000
C22  21800492.625 8 113520879.584 8        17.617          51.000
E05  23590611.148 8 123969488.593 8      -555.754          51.000    23590613.539 8  94989602.917 8      -425.870          51.000
E09  24827129.844 5 130467446.944 5     -2239.078          32.000
E24  22469924.734 8 118080270.477 8       378.426          51.000    22469937.156 8  90477117.065 8       289.951          51.000
E25  25648516.766 8 134783920.623 8      2829.309          50.000    25648519.336 8 103275971.794 8      2167.903          50.000
> 2020 05 19 02 07  0.0000000  0 14        .000000000000
G02  24084755.312 7 126566267.629 7     -2618.406          42.000    24084753.656 6  98623043.507 6     -2040.317          41.000
G05  20649674.039 6 108514754.402 6       784.223          38.000    20649672.000 6  84556961.469 6       611.080          37.000
G07  21433438.898 7 112633479.849 7     -1712.387          46.000    21433436.922 7  87766352.363 7     -1334.327          46.000
G28  23145763.594 6 121631821.113 6      3161.969          37.000
G30  20369489.992 8 107042389.635 8       226.992          51.000    20369490.961 8  83409717.323 8       176.877          51.000
R03  20028898.797 8 107216339.468 8     -1687.098          51.000    20028901.102 8  83390445.795 8     -1312.187          49.000
R13  19956365.227 7 106565856.263 7     -1906.207          42.000    19956367.852 7  82884574.139 7     -1482.602          44.000
R14  19868816.031 8 105911981.159 8      2450.938          51.000    19868818.758 8  82376051.921 8      1906.288          49.000
C05  39814562.984 6 207324876.120 6        -4.758          36.000    39814560.570 6 160316731.318 6        -3.495          40.000
C19  23662727.203 8 123218028.501 8     -2589.137          49.000
C22  21800427.023 8 113520538.860 8         4.078          51.000
E05  23593802.758 8 123986260.796 8      -563.387          51.000    23593805.180 8  95002454.345 8      -431.683          51.000
E24  22467805.445 8 118069133.196 8       363.016          51.000    22467817.625 8  90468583.340 8       278.227          50.000
E25  25632383.133 8 134699137.580 8      2821.848          51.000    25632384.633 8 103211008.167 8      2162.186          49.000
> 2020 05 19 02 07 30.0000000  0 14        .000000000000
G02  24099713.930 7 126644875.680 7     -2623.262          43.000    24099711.906 6  98684296.486 6     -2044.103          38.000
G05  20645242.938 6 108491469.938 6       766.641          40.000    20645241.039 6  84538817.701 6       597.382          40.000
G07  21443239.781 7 112684982.820 7     -1722.242          46.000    21443237.875 7  87806484.554 7     -1342.007          46.000
G28  23127720.641 6 121537017.838 6      3156.934          40.000    23127732.305 5  94704166.199 5      2459.954          31.000
G30  20368233.383 8 107035786.167 8       212.246          51.000    20368234.289 8  83404571.772 8       165.387          51.000
R03  20038394.125 8 107267166.432 8     -1702.391          51.000    20038396.195 8  83429977.882 8     -1324.082          49.000
R13  19967133.781 7 106623359.815 7     -1928.121          42.000    19967136.273 7  82929299.126 7     -1499.650          45.000
R14  19855078.352 8 105838752.744 8      2429.848          51.000    19855081.828 8  82319096.507 8      1889.885          50.000
C05  39814583.211 6 207324981.710 6        -3.219          36.000    39814580.898 6 160316813.002 6        -2.749          40.000
C19  23677661.414 7 123295794.009 7     -2596.203          47.000
C22  21800435.570 8 113520583.752 8        -8.164          51.000
E05  23597034.461 8 124003242.669 8      -569.746          51.000    23597036.812 8  95015466.431 8      -436.592          51.000
E24  22465769.430 8 118058435.029 8       349.051          51.000    22465781.234 8  90460386.075 8       267.487          50.000
E25  25616288.797 8 134614560.714 8      2815.570          51.000    25616288.969 8 103146202.531 8      2157.382          48.000
> 2020 05 19 02 08  0.0000000  0 14        .000000000000
G02  24114703.539 7 126723646.221 7     -2628.887          44.000    24114700.391 6  98745676.066 6     -2048.486          37.000
G05  20640915.453 6 108468728.890 6       748.387          41.000    20640913.555 6  84521097.404 6       583.158          41.000
G07  21453100.133 7 112736798.504 7     -1732.883          47.000    21453098.297 7  87846860.400 7     -1350.298          47.000
G28  23109713.109 6 121442394.633 6      3150.266          41.000    23109723.547 5  94630433.765 5      2454.759          32.000
G30  20367064.656 8 107029645.278 8       196.520          51.000    20367065.711 8  83399786.678 8       153.132          51.000
R03  20047978.062 8 107318467.856 8     -1718.426          51.000    20047979.352 7  83469878.959 7     -1336.553          47.000
R13  19978027.648 7 106681531.832 7     -1950.703          42.000    19978030.008 7  82974544.034 7     -1517.214          45.000
R14  19841462.547 8 105766173.343 8      2408.020          50.000    19841466.773 8  82262645.853 8      1872.904          51.000
C05                                                                  39814599.219 6 160316886.741 6        -2.728          40.000
C19  23692639.805 7 123373791.094 7     -2604.266          47.000
C22  21800517.516 8 113521011.083 8       -21.102          51.000
E05  23600305.336 8 124020430.617 8      -576.852          51.000    23600307.672 8  95028636.414 8      -442.048          51.000
E24  22463816.211 8 118048172.071 8       334.336          51.000    22463828.250 8  90452522.277 8       256.203          51.000
E25  25600233.430 8 134530187.725 8      2808.473          51.000    25600232.688 8 103081553.113 8      2151.977          48.000
> 2020 05 19 02 08 30.0000000  0 15        .000000000000
G02  24129728.922 7 126802605.095 7     -2633.523          44.000    24129723.797 6  98807202.375 6     -2052.099          36.000
G05  20636697.062 6 108446560.956 6       731.035          41.000    20636695.578 6  84503823.673 6       569.638          41.000
G07  21463025.023 7 112788953.781 7     -1742.598          46.000    21463022.953 7  87887500.874 7     -1357.868          46.000
G13  22453716.578 5 117995087.034 5      2577.203          32.000
G28  23091746.352 6 121347982.768 6      3144.848          41.000    23091755.273 5  94556866.063 5      2450.531          34.000
G30  20365989.328 8 107023994.979 8       181.855          51.000    20365990.492 8  83395383.839 8       141.706          51.000
R03  20057656.250 8 107370272.810 8     -1733.602          51.000    20057656.508 7  83510171.675 7     -1348.357          47.000
R13  19989051.555 6 106740398.561 6     -1972.059          41.000    19989053.961 7  83020329.276 7     -1533.820          45.000
R14  19827973.867 8 105694273.916 8      2386.867          49.000    19827979.273 8  82206724.045 8      1856.452          51.000
C05  39814623.219 5 207325191.002 5        -2.770          35.000    39814621.000 6 160316974.447 6        -2.102          40.000
C19  23707668.234 7 123452047.184 7     -2611.164          46.000
C22  21800678.523 8 113521849.854 8       -33.277          51.000
E05  23603620.867 8 124037853.536 8      -583.152          51.000    23603623.266 8  95041986.434 8      -446.840          51.000
E24  22461951.422 8 118038372.928 8       320.500          51.000    22461964.094 8  90445013.870 8       245.596          51.000
E25  25584222.617 8 134446048.839 8      2802.312          51.000    25584221.664 8 103017083.071 8      2147.235          49.000
> 2020 05 19 02 09  0.0000000  0 14        .000000000000
G02  24144780.820 7 126881703.619 7     -2643.410          44.000    24144774.047 6  98868837.535 6     -2059.803          36.000
G05  20632579.492 7 108424921.647 7       708.043          44.000    20632578.312 7  84486961.878 7       551.722          44.000
G07  21473005.297 7 112841401.286 7     -1757.559          47.000    21473003.445 7  87928369.059 7     -1369.526          47.000
G28  23073812.109 7 121253739.270 7      3134.332          42.000    23073819.797 5  94483429.560 5      2442.337          35.000
G30  20364998.523 8 107018788.858 8       161.848          51.000    20364999.828 8  83391327.127 8       126.115          51.000
R03  20067419.312 8 107422534.597 8     -1754.223          51.000    20067419.281 7  83550819.682 7     -1364.395          46.000
R13  20000195.844 7 106799908.842 7     -1998.859          42.000    20000198.305 7  83066615.050 7     -1554.668          46.000
R14  19814604.375 8 105623010.261 8      2360.395          51.000    19814610.336 8  82151296.711 8      1835.862          51.000
C05  39814639.812 5 207325276.467 5        -6.848          35.000    39814637.391 6 160317040.917 6        -5.223          40.000
C19  23722736.898 7 123530516.123 7     -2623.523          47.000
C22  21800910.219 8 113523055.412 8       -50.742          51.000
E05  23606972.453 8 124055466.008 8      -594.688          51.000    23606975.008 8  95055481.695 8      -455.676          51.000
E24  22460165.820 8 118028991.830 8       301.156          50.000    22460178.914 8  90437825.768 8       230.831          51.000
E25  25568247.781 8 134362099.896 8      2790.562          51.000    25568247.102 8 102952758.573 8      2138.220          49.000
> 2020 05 19 02 09 30.0000000  0 14        .000000000000
G02  24159870.734 7 126961002.961 7     -2645.102          42.000    24159864.117 6  98930629.213 6     -2061.118          39.000
G05  20628574.664 7 108403876.297 7       693.105          42.000    20628573.406 7  84470562.898 7       540.079          42.000
G07  21483053.109 7 112894203.684 7     -1764.402          47.000    21483051.844 7  87969513.783 7     -1374.859          47.000
G28  23055923.023 6 121159731.717 6      3131.152          41.000    23055929.148 6  94410176.906 6      2439.862          37.000
G30  20364104.461 8 107014090.643 8       149.859          51.000    20364105.859 8  83387666.178 8       116.774          51.000
R03  20077279.664 8 107475318.291 8     -1766.480          51.000    20077279.562 7  83591873.648 7     -1373.929          46.000
R13  20011472.453 6 106860125.706 6     -2017.316          41.000    20011474.758 7  83113450.378 7     -1569.024          45.000
R14  19801367.391 8 105552449.633 8      2341.918          51.000    19801372.914 8  82096416.217 8      1821.492          51.000
C05  39814663.234 5 207325398.786 5        -3.461          35.000    39814660.898 6 160317135.501 6        -2.404          40.000
C19  23737859.133 8 123609260.655 8     -2627.730          48.000
C22  21801224.812 8 113524692.140 8       -60.102          51.000
E05  23610372.453 8 124073332.636 8      -598.098          51.000    23610374.758 8  95069171.689 8      -458.265          51.000
E24  22458472.016 8 118020092.990 8       290.234          50.000    22458485.422 8  90431007.188 8       222.420          51.000
E25  25552321.375 8 134278406.805 8      2787.207          51.000    25552321.594 8 102888630.097 8      2135.742          50.000
> 2020 05 19 02 10  0.0000000  0 14        .000000000000
G02  24174986.609 7 127040438.996 7     -2650.473          42.000    24174980.984 6  98992527.457 6     -2065.300          38.000
G05  20624671.258 7 108383365.106 7       674.559          42.000    20624669.844 7  84454580.111 7       525.627          42.000
G07  21493156.383 7 112947297.871 7     -1774.777          47.000    21493155.438 7  88010885.881 7     -1382.943          47.000
G28  23038067.609 6 121065901.445 6      3124.707          37.000    23038072.852 5  94337062.390 5      2434.840          35.000
G30  20363295.258 8 107009838.429 8       134.199          51.000    20363296.734 8  83384352.775 8       104.571          51.000
R03  20087225.336 8 107528561.482 8     -1782.746          49.000    20087226.062 7  83633285.013 7     -1386.580          47.000
R13  20022869.031 6 106920983.504 6     -2039.340          41.000    20022871.742 7  83160784.235 7     -1586.153          46.000
R14  19788251.398 8 105482532.302 8      2319.594          51.000    19788255.719 8  82042036.086 8      1804.128          50.000
C05  39814682.094 6 207325496.626 6        -3.047          36.000    39814679.680 6 160317211.151 6        -2.274          40.000
C19  23753022.711 8 123688219.308 8     -2635.812          49.000
C22  21801610.617 8 113526700.055 8       -73.340          51.000
E05  23613809.344 8 124091392.494 8      -605.355          51.000    23613810.953 8  95083009.772 8      -463.844          51.000
E24  22456858.656 8 118011615.193 8       275.426          50.000    22456872.508 8  90424511.206 8       211.055          51.000
E25  25536432.156 8 134194909.965 8      2779.762          51.000    25536433.617 8 102824652.006 8      2129.932          50.000
> 2020 05 19 02 10 30.0000000  0 14        .000000000000
G02  24190130.320 7 127120020.101 7     -2650.070          42.000    24190125.828 6  99054538.706 6     -2064.990          37.000
G05  20620871.898 7 108363400.266 7       661.098          43.000    20620869.648 7  84439023.102 7       515.141          43.000
G07  21503317.148 7 113000693.247 7     -1779.965          47.000    21503315.852 7  88052492.661 7     -1386.986          47.000
G13  22395142.688 5 117687267.340 5      2560.340          34.000
G30  20362573.039 8 107006042.695 8       123.879          51.000    20362574.375 8  83381395.046 8        96.529          51.000
R03  20097258.961 8 107582275.166 8     -1793.301          50.000    20097260.680 7  83675062.335 7     -1394.789          47.000
R13  20034387.328 6 106982490.107 6     -2056.172          41.000    20034389.852 7  83208622.691 7     -1599.245          45.000
R14  19775258.359 8 105413271.608 8      2302.734          51.000    19775261.594 8  81988166.660 8      1791.016          49.000
C05  39814698.297 5 207325581.036 5         1.816          35.000    39814695.852 6 160317276.433 6         1.785          40.000
C19  23768229.602 8 123767402.093 8     -2638.199          50.000
C22  21802070.016 8 113529090.766 8       -81.148          51.000
E05  23617285.023 8 124109657.006 8      -607.301          51.000    23617286.156 8  95097004.662 8      -465.394          51.000
E24  22455327.469 8 118003569.423 8       265.922          48.000    22455341.750 8  90418346.258 8       203.761          51.000
E25  25520582.570 8 134111622.030 8      2777.637          51.000    25520584.633 8 102760833.974 8      2128.343          50.000
> 2020 05 19 02 11  0.0000000  0 16        .000000000000
G02  24205297.656 6 127199723.758 6     -2667.070          39.000    24205293.844 6  99116645.442 6     -2078.237          39.000
G05  20617172.875 7 108343962.806 7       630.496          43.000    20617170.359 7  84423877.031 7       491.296          43.000
G07  21513531.250 8 113054368.618 8     -1802.223          48.000    21513529.852 8  88094317.632 8     -1404.329          48.000
G13  22380569.695 5 117610687.019 5      2542.078          30.000
G28  23002460.688 5 120878738.092 5      3104.625          34.000    23002464.562 5  94191247.124 5      2419.188          34.000
G30  20361933.852 8 107002683.057 8        96.305          51.000    20361935.219 8  83378777.150 8        75.043          51.000
R03  20107377.094 8 107636439.290 8     -1821.680          51.000    20107379.039 8  83717189.987 8     -1416.862          48.000
R13  20046022.695 6 107044622.804 6     -2090.199          40.000    20046025.266 7  83256948.148 7     -1625.707          45.000
R14  19762385.406 8 105344649.804 8      2268.145          51.000    19762388.203 8  81934794.125 8      1764.112          49.000
C05  39814708.055 5 207325632.378 5        -9.469          35.000    39814705.781 6 160317316.148 6        -7.328          40.000
C19  23783475.570 8 123846788.601 8     -2657.992          50.000
C22  21802599.086 8 113531845.423 8      -106.277          51.000
E05  23620795.797 8 124128106.794 8      -626.590          51.000    23620796.680 8  95111141.507 8      -480.078          51.000
E09  24942981.172 5 131076244.127 5     -2278.035          33.000    24942985.766 6 100435065.695 6     -1745.747          37.000
E24  22453875.000 8 117995935.925 8       239.094          49.000    22453889.250 8  90412497.216 8       183.238          51.000
E25  25504769.242 8 134028524.929 8      2758.375          51.000    25504771.211 8 102697162.179 8      2113.548          49.000
> 2020 05 19 02 11 30.0000000  0 15        .000000000000
G02  24220510.281 5 127279664.586 5     -2664.988          34.000    24220506.461 5  99178937.044 5     -2076.611          34.000
G05  20613596.984 7 108325171.892 7       618.926          43.000    20613594.648 7  84409234.758 7       482.280          43.000
G07  21523820.773 8 113108439.957 8     -1805.570          49.000    21523819.438 8  88136451.132 8     -1406.938          48.000
G28  22984732.797 6 120785569.276 6      3103.664          41.000    22984734.359 6  94118648.052 6      2418.440          36.000
G30  20361399.945 8 106999876.667 8        87.688          51.000    20361401.422 8  83376590.353 8        68.328          51.000
R03  20117602.070 8 107691173.653 8     -1830.578          51.000    20117603.977 8  83759761.150 8     -1423.783          48.000
R13  20057797.156 6 107107497.182 6     -2104.824          40.000    20057799.500 7  83305850.448 7     -1637.086          45.000
R14  19749654.766 8 105276788.338 8      2252.809          51.000    19749657.875 8  81882012.999 8      1752.184          48.000
C05  39814734.000 6 207325767.394 6        -3.129          36.000    39814731.727 6 160317420.515 6        -2.027          40.000
C19  23798782.648 8 123926494.611 8     -2658.859          50.000
C22  21803220.352 8 113535081.388 8      -112.543          51.000
E05  23624364.273 8 124146859.968 8      -626.695          51.000    23624364.961 8  95125510.814 8      -480.186          51.000
E09                                                                  24955972.164 6 100487361.277 6     -1743.430          36.000
E24  22452523.453 8 117988832.387 8       231.375          48.000    22452537.359 8  90407054.225 8       177.275          51.000
E25  25489015.234 8 133945738.055 8      2757.766          51.000    25489016.469 8 102633728.091 8      2113.147          49.000
> 2020 05 19 02 12  0.0000000  0 14        .000000000000
G05  20610118.602 7 108306892.970 7       599.555          44.000    20610116.555 7  84394991.446 7       467.185          44.000
G07  21534159.609 8 113162770.293 8     -1816.500          50.000    21534157.953 8  88178786.441 8     -1415.455          50.000
G28  22967035.773 7 120692563.259 7      3096.027          44.000    22967035.625 6  94046175.823 6      2412.486          37.000
G30  20360945.391 8 106997487.479 8        71.414          51.000    20360946.695 8  83374728.650 8        55.647          51.000
R03  20127907.656 8 107746339.956 8     -1847.320          51.000    20127909.414 8  83802668.279 8     -1436.802          49.000
R13  20069684.281 6 107170972.762 6     -2126.680          40.000    20069685.906 7  83355220.336 7     -1654.084          46.000
R14  19737040.805 8 105209551.850 8      2229.367          50.000    19737044.172 7  81829717.983 7      1733.952          47.000
C05                                                                  39814747.938 6 160317485.812 6        -2.438          40.000
C19  23814124.578 8 124006385.114 8     -2667.363          48.000
C22  21803908.453 8 113538665.111 8      -126.492          51.000
E05  23627964.875 8 124165781.465 8      -634.781          51.000    23627965.461 8  95140009.096 8      -486.340          51.000
E09                                                                  24968968.703 5 100539704.393 5     -1746.564          34.000
E24  22451247.070 8 117982123.334 8       215.789          49.000    22451260.391 8  90401913.518 8       165.381          51.000
E25  25473294.977 8 133863127.579 8      2749.512          51.000    25473295.242 8 102570429.188 8      2106.694          49.000
> 2020 05 19 02 12 30.0000000  0 14        .000000000000
G05  20606750.984 7 108289195.832 7       581.242          44.000    20606748.820 7  84381201.455 7       452.913          44.000
G07  21544560.391 8 113217426.475 8     -1826.137          49.000    21544558.320 8  88221375.660 8     -1422.964          49.000
G28  22949382.836 7 120599791.746 7      3089.727          46.000    22949380.898 6  93973886.334 6      2407.579          38.000
G30  20360583.039 8 106995583.383 8        56.488          51.000    20360584.242 8  83373244.933 8        44.017          51.000
R03  20138307.141 8 107802007.895 8     -1862.812          51.000    20138308.836 8  83845965.561 8     -1448.854          49.000
R13  20081696.531 6 107235116.326 6     -2148.102          40.000    20081698.289 7  83405109.792 7     -1670.746          46.000
R14  19724557.867 8 105143012.122 8      2207.430          51.000    19724561.125 7  81777964.880 7      1716.890          47.000
C05  39814769.766 5 207325953.668 5        -2.684          35.000    39814767.516 6 160317564.599 6        -2.145          40.000
C19  23829514.281 7 124086527.095 7     -2674.547          46.000
C22  21804676.633 8 113542665.237 8      -139.176          51.000
E05  23631610.688 8 124184940.208 8      -641.559          51.000    23631611.305 8  95154689.168 8      -491.596          51.000
E09                                                                  24981990.734 5 100592147.466 5     -1749.276          35.000
E24  22450059.117 8 117975877.275 8       201.535          50.000    22450072.023 8  90397127.587 8       154.387          51.000
E25  25457621.594 8 133780763.748 8      2742.355          51.000    25457621.398 8 102507319.247 8      2101.297          49.000
> 2020 05 19 02 13  0.0000000  0 15        .000000000000
G02  24266288.086 6 127520215.513 6     -2680.656          36.000    24266289.125 5  99366395.640 5     -2088.817          35.000
G05  20603488.883 7 108272052.716 7       561.574          45.000    20603486.469 7  84367843.172 7       437.590          45.000
G07  21555017.398 8 113272378.199 8     -1837.336          48.000    21555015.281 8  88264195.181 8     -1431.690          48.000
G28  22931769.312 7 120507228.771 7      3081.227          47.000    22931766.172 6  93901759.362 6      2400.956          40.000
G30  20360307.414 8 106994134.979 8        39.969          51.000    20360308.609 8  83372116.303 8        31.144          51.000
R03  20148794.883 8 107858147.886 8     -1880.012          51.000    20148796.305 8  83889630.018 8     -1462.231          49.000
R13  20093827.367 6 107299894.397 6     -2170.301          39.000    20093829.289 7  83455492.728 7     -1688.012          46.000
R14  19712201.102 8 105077141.802 8      2183.820          51.000    19712204.125 8  81726732.400 8      1698.527          48.000
C05  39814787.250 5 207326044.523 5        -3.680          35.000    39814784.930 6 160317634.833 6        -2.595          40.000
C19  23844945.352 7 124166891.224 7     -2683.254          43.000
C22  21805519.312 8 113547053.891 8      -153.438          51.000
E05  23635296.234 8 124204307.762 8      -649.855          51.000    23635296.953 8  95169529.226 8      -497.932          51.000
E09                                                                  24995032.852 5 100644668.239 5     -1752.496          33.000
E24  22448953.539 8 117970065.329 8       185.805          51.000    22448966.102 8  90392674.283 8       142.364          51.000
E25  25441989.766 8 133698619.409 8      2733.707          50.000    25441990.102 8 102444377.479 8      2094.644          51.000
> 2020 05 19 02 13 30.0000000  0 16        .000000000000
G02  24281596.680 6 127600663.542 6     -2686.164          39.000    24281597.305 5  99429082.446 5     -2093.115          34.000
G05  20600328.680 7 108255444.774 7       541.387          46.000    20600326.164 7  84354901.929 7       421.863          46.000
G07  21565526.438 8 113327603.582 8     -1848.578          50.000    21565524.531 8  88307227.959 8     -1440.450          50.000
G13  22308188.297 5 117230320.601 5      2520.590          32.000
G28  22914191.922 8 120414857.156 8      3072.762          48.000    22914188.242 6  93829781.503 6      2394.357          40.000
G30  20360114.609 8 106993121.715 8        23.383          51.000    20360115.617 8  83371326.742 8        18.220          51.000
R03  20159366.844 8 107914739.720 8     -1897.164          51.000    20159368.430 8  83933645.867 8     -1475.572          49.000
R13  20106072.820 6 107365284.162 6     -2192.832          38.000    20106074.664 7  83506351.477 7     -1705.533          46.000
R14  19699966.445 8 105011922.776 8      2159.867          51.000    19699969.719 8  81676006.509 8      1679.897          49.000
C05  39814798.797 5 207326104.569 5        -4.789          35.000    39814796.508 6 160317681.280 6        -3.561          40.000
C19  23860415.492 7 124247456.927 7     -2692.102          44.000
C22  21806432.867 8 113551812.071 8      -167.879          51.000
E05  23639017.797 8 124223864.661 8      -658.285          51.000    23639018.625 8  95184514.369 8      -504.314          51.000
E09                                                                  25008089.984 5 100697215.667 5     -1756.732          31.000
E24  22447926.469 8 117964667.561 8       169.848          51.000    22447938.398 8  90388538.341 8       130.098          51.000
E25  25426395.859 8 133616676.327 8      2724.969          49.000    25426397.844 8 102381589.902 8      2087.948          51.000
> 2020 05 19 02 14  0.0000000  0 15        .000000000000
G02  24296940.672 6 127681292.822 6     -2687.883          39.000    24296941.758 6  99491910.466 6     -2094.454          37.000
G05  20597284.273 7 108239446.719 7       525.750          45.000    20597281.719 7  84342435.906 7       409.675          45.000
G07  21576101.367 8 113383174.938 8     -1855.570          50.000    21576099.562 8  88350530.294 8     -1445.899          50.000
G28  22896665.227 8 120322753.722 8      3068.074          48.000    22896661.773 7  93758012.609 7      2390.707          42.000
G30  20360018.609 8 106992616.572 8        11.016          51.000    20360019.156 8  83370933.120 8         8.584          51.000
R03  20170037.211 8 107971858.139 8     -1910.070          51.000    20170038.844 8  83978071.294 8     -1485.613          49.000
R13  20118445.930 6 107431356.598 6     -2211.012          40.000    20118447.820 7  83557741.143 7     -1719.676          45.000
R14  19687868.375 8 104947431.874 8      2140.172          51.000    19687871.703 8  81625846.955 8      1664.578          49.000
C05  39814818.242 5 207326205.851 5        -1.852          35.000    39814816.109 6 160317760.361 6        -1.093          40.000
C19  23875939.469 7 124328296.348 7     -2696.711          46.000
C22  21807431.867 8 113557013.391 8      -178.258          51.000
E05  23642789.523 8 124243684.902 8      -662.453          51.000    23642790.344 8  95199701.309 8      -507.597          51.000
E09                                                                  25021178.930 5 100749916.837 5     -1756.549          31.000
E24  22446992.352 8 117959757.526 8       158.070          51.000    22447004.133 8  90384776.118 8       121.176          51.000
E25  25410854.492 8 133535009.825 8      2720.105          48.000    25410858.297 8 102319014.227 8      2084.252          51.000
> 2020 05 19 02 14 30.0000000  0 15        .000000000000
G02  24312303.867 6 127762022.827 6     -2693.938          41.000    24312304.523 6  99554816.960 6     -2099.175          37.000
G05  20594341.117 7 108223981.717 7       505.395          45.000    20594339.094 7  84330385.241 7       393.814          45.000
G07  21586726.969 8 113439012.854 8     -1866.789          50.000    21586725.156 8  88394040.351 8     -1454.641          50.000
G28  22879175.078 8 120230844.030 8      3059.344          48.000    22879172.281 7  93686394.673 7      2383.904          43.000
G30  20360004.344 8 106992541.259 8        -5.750          51.000    20360004.797 8  83370874.445 8        -4.477          51.000
R03  20180791.055 8 108029423.622 8     -1927.352          51.000    20180792.438 8  84022844.423 8     -1499.051          48.000
R13  20130931.648 6 107498030.075 6     -2233.461          37.000    20130933.461 7  83609598.292 7     -1737.133          45.000
R14  19675892.453 8 104883592.318 8      2116.078          51.000    19675895.453 8  81576194.008 8      1645.839          48.000
C05  39814831.297 6 207326273.518 6        -2.250          36.000    39814829.102 6 160317812.716 6        -2.335          40.000
C19  23891502.141 8 124409331.598 8     -2705.582          48.000
C22  21808501.367 8 113562581.559 8      -192.789          51.000
E05  23646596.547 8 124263691.235 8      -670.984          51.000    23646597.250 8  95215030.825 8      -514.098          51.000
E09                                                                  25034282.844 5 100802680.314 5     -1760.437          32.000
E24  22446136.016 8 117955257.460 8       142.105          51.000    22446148.047 8  90381328.045 8       108.925          51.000
E25  25395351.812 8 133453543.833 8      2711.207          49.000    25395356.516 8 102256592.209 8      2077.436          51.000
> 2020 05 19 02 15  0.0000000  0 14        .000000000000
G02  24327689.984 7 127842872.828 7     -2699.242          42.000    24327690.203 6  99617816.963 6     -2103.303          37.000
G05  20591503.984 7 108209072.943 7       485.336          46.000    20591502.438 7  84318768.011 7       378.184          46.000
G07  21597407.156 8 113495137.890 8     -1878.043          50.000    21597405.281 8  88437774.165 8     -1463.410          50.000
G28  22861726.438 7 120139152.575 7      3050.234          47.000    22861724.422 7  93614946.758 7      2376.806          44.000
G30  20360075.969 8 106992917.109 8       -22.434          51.000    20360076.469 8  83371167.331 8       -17.481          51.000
R03  20191632.773 8 108087458.276 8     -1944.734          51.000    20191633.719 7  84067982.448 7     -1512.571          47.000
R13  20143533.531 6 107565323.210 6     -2255.922          38.000    20143535.336 7  83661937.413 7     -1754.606          45.000
R14  19664043.242 8 104820428.315 8      2091.676          51.000    19664045.805 8  81527066.456 8      1626.859          48.000
C05  39814841.695 6 207326328.367 6        -3.695          36.000    39814839.680 6 160317855.157 6        -2.984          40.000
C19  23907106.953 8 124490583.669 8     -2714.375          49.000
C22  21809645.430 8 113568539.069 8      -207.449          51.000
E05  23650443.133 8 124283906.107 8      -679.742          51.000    23650443.758 8  95230520.139 8      -520.829          51.000
E24  22445361.727 8 117951189.354 8       126.016          51.000    22445373.539 8  90378210.933 8        96.611          51.000
E25  25379892.461 8 133372302.039 8      2702.004          50.000    25379896.883 8 102194342.011 8      2070.331          51.000
> 2020 05 19 02 15 30.0000000  0 14        .000000000000
G02  24343106.727 7 127923884.036 7     -2701.605          42.000    24343105.906 6  99680942.594 6     -2105.147          36.000
G05  20588781.391 7 108194765.786 7       468.168          45.000    20588779.680 7  84307619.578 7       364.806          45.000
G07  21608150.141 8 113551592.800 8     -1885.875          51.000    21608148.188 8  88481765.008 8     -1469.513          50.000
G28  22844328.203 7 120047726.620 7      3044.473          47.000    22844327.250 7  93543705.722 7      2372.316          44.000
G30  20360241.664 8 106993787.654 8       -35.852          51.000    20360241.828 8  83371845.694 8       -27.936          51.000
R03  20202570.500 8 108146007.141 8     -1958.773          51.000    20202570.961 7  84113520.436 7     -1523.490          47.000
R13  20156259.414 6 107633278.169 6     -2274.680          36.000    20156261.375 7  83714791.276 7     -1769.195          45.000
R14  19652329.156 8 104757986.683 8      2070.727          51.000    19652332.039 8  81478500.749 8      1610.565          49.000
C05  39814858.289 5 207326414.348 5        -1.949          35.000    39814856.180 6 160317921.617 6        -1.565          40.000
C19  23922761.477 8 124572095.452 8     -2720.078          48.000
C22  21810872.688 8 113574930.381 8      -218.926          51.000
E05  23654337.945 8 124304374.075 8      -685.113          51.000    23654338.938 8  95246203.381 8      -524.954          51.000
E24  22444678.016 8 117947597.227 8       113.145          51.000    22444689.648 8  90375458.536 8        86.710          51.000
E25  25364484.773 8 133291330.284 8      2695.848          51.000    25364488.258 8 102132298.750 8      2065.676          51.000
> 2020 05 19 02 16  0.0000000  0 14        .000000000000
G02  24358542.820 7 128004998.331 7     -2706.156          42.000    24358541.227 6  99744148.552 6     -2108.690          37.000
G05  20586162.719 7 108181005.875 7       448.977          45.000    20586161.469 7  84296897.568 7       349.849          45.000
G07  21618945.016 8 113608320.351 8     -1896.133          51.000    21618943.117 8  88525968.289 8     -1477.506          51.000
G28  22826970.266 7 119956514.056 7      3036.305          46.000    22826970.477 7  93472630.957 7      2365.952          44.000
G30  20360490.805 8 106995096.992 8       -51.527          51.000    20360490.789 8  83372865.955 8       -40.151          51.000
R03  20213593.328 8 108205013.655 8     -1975.188          51.000    20213593.766 8  84159414.361 8     -1536.257          48.000
