     3.02           OBSERVATION DATA    M (MIXED)           RINEX VERSION / TYPE
SAVERINEX           SC600               20200517 215931 LCL PGM / RUN BY / DATE
       G = GPS       R = GLONASS       C = COMPASS          COMMENT
       S = SBAS      J = QZSS          E = GALILEO          COMMENT
BEAN                                                        MARKER NAME
1                                                           MARKER NUMBER
GEODETIC                                                    MARKER TYPE
Unige DICCA         GTER                                    OBSERVER / AGENCY
SC60291900056       SC600               2.12(191202)        REC # / TYPE / VERS
                    HEMA45          NONE                    ANT # / TYPE
  4509407.8091   693652.4678  4442337.6214                  APPROX POSITION XYZ
        0.0000        0.0000        0.0000                  ANTENNA: DELTA H/E/N
G    8 C1C L1C D1C S1C C2Y L2Y D2Y S2Y                      SYS / # / OBS TYPES
R    8 C1C L1C D1C S1C C2P L2P D2P S2P                      SYS / # / OBS TYPES
C    8 C1I L1I D1I S1I C7I L7I D7I S7I                      SYS / # / OBS TYPES
E    8 C1C L1C D1C S1C C7Q L7Q D7Q S7Q                      SYS / # / OBS TYPES
DBHZ                                                        COMMENT
     30.000                                                 INTERVAL
  2020    05    17    19    00    0.0000000     GPS         TIME OF FIRST OBS
  2020    05    17    19    59   30.0000000     GPS         TIME OF LAST OBS
     0                                                      RCV CLOCK OFFS APPL
G L1C  0.00000                                              SYS / PHASE SHIFT
G L2Y  0.00000                                              SYS / PHASE SHIFT
R L1C  0.00000                                              SYS / PHASE SHIFT
R L2P  0.25000                                              SYS / PHASE SHIFT
C L1I  0.00000                                              SYS / PHASE SHIFT
C L7I  0.00000                                              SYS / PHASE SHIFT
E L1C  0.50000                                              SYS / PHASE SHIFT
E L7Q -0.25000                                              SYS / PHASE SHIFT
 13 R01  1 R05  1 R06 -4 R07  5 R08  6 R09 -2 R10 -5 R11  0 GLONASS SLOT / FRQ #
    R16 -1 R19  3 R20  2 R21  4 R22 -3                      GLONASS SLOT / FRQ #
 C1C   71.950 C2C   71.950 C2P   71.950                     GLONASS COD/PHS/BIS
    18                                                      LEAP SECONDS
*** Above antenna height is from mark to ANTENNA BOTTOM.    COMMENT
    17     4        0.0000        ANT MEASURE TYPE/HEIGT    COMMENT
    0.0000    0.0000    0.0458    0.0405    0.0000          COMMENT
                    BASE STATION                            COMMENT
                                                            END OF HEADER
> 2020 05 17 19 00  0.0000000  0 19        .000000000000
G01  20405444.344 6 107231326.440 6       771.188          41.000    20405445.125 6  83556883.298 6       600.928          41.000
G03  21581112.422 8 113409528.725 8      2298.539          49.000    21581114.195 8  88371062.666 8      1791.069          49.000
G08  22203556.281 8 116680459.867 8     -3077.699          51.000    22203557.523 8  90919837.050 8     -2398.210          51.000
G11  20042259.461 8 105322800.221 8     -1087.852          51.000    20042257.641 8  82069667.423 8      -847.677          50.000
G14  21908492.938 7 115129893.917 7       -57.070          43.000    21908494.375 5  89711608.331 5       -44.467          34.000
G22  20703177.844 8 108795949.644 8       650.637          51.000    20703175.156 8  84776058.095 8       506.990          51.000
G32  22395961.766 6 117691549.737 6     -1588.473          38.000    22395959.742 5  91707700.796 5     -1237.768          33.000
R07  19214883.898 8 102858805.205 8       309.531          50.000    19214885.602 8  80001307.241 8       240.747          48.000
R08  21462266.188 8 114929525.743 8      3624.574          49.000    21462268.508 7  89389573.314 7      2819.113          44.000
R21  21437899.031 8 114718517.721 8     -3169.551          51.000    21437902.062 7  89225516.557 7     -2465.209          42.000
R22  19255738.945 8 102788442.552 8       429.953          50.000    19255741.453 8  79946567.694 8       334.408          50.000
C05                                                                  39679624.594 6 159773404.086 6       -25.167          36.000
C19  22794327.539 8 118696010.245 8      2275.281          48.000
C20  21963754.383 8 114371033.553 8      -615.480          51.000
C29  21627231.562 8 112618656.259 8      -839.688          51.000
C30  24683986.102 7 128535967.458 7     -3116.668          47.000
E03  25636502.680 8 134720722.512 8      2769.332          50.000    25636508.656 8 103227604.778 8      2121.971          51.000
E05  23818905.258 8 125169201.374 8       412.441          51.000    23818907.820 8  95908878.707 8       316.027          51.000
E36  25736994.031 6 135248814.803 6     -2212.551          38.000    25737001.531 6 103632194.485 6     -1695.361          39.000
> 2020 05 17 19 00 30.0000000  0 19        .000000000000
G01  20401077.305 7 107208376.373 7       759.430          43.000    20401078.422 7  83539000.135 7       591.763          42.000
G03  21568023.945 8 113340749.187 8      2287.301          50.000    21568025.773 8  88317468.256 8      1782.312          50.000
G08  22221158.750 8 116772958.304 8     -3088.113          51.000    22221159.500 8  90991913.702 8     -2406.322          51.000
G11  20048521.078 8 105355704.620 8     -1105.402          51.000    20048519.250 8  82095307.171 8      -861.356          50.000
G14  21908871.758 7 115131887.628 7       -75.191          42.000    21908871.984 5  89713161.834 5       -58.597          35.000
G22  20699501.109 8 108776627.887 8       638.027          51.000    20699498.469 8  84761002.187 8       497.164          51.000
G32  22405080.883 6 117739464.761 6     -1605.512          37.000    22405066.695 5  91745036.972 5     -1251.060          34.000
R07  19213218.289 8 102849888.131 8       285.531          51.000    19213219.617 7  79994371.758 7       222.080          47.000
R08  21441998.258 8 114820995.137 8      3611.285          50.000    21442000.336 7  89305160.645 7      2808.780          45.000
R21  21455708.117 8 114813812.477 8     -3182.770          50.000    21455711.070 7  89299634.634 7     -2475.487          46.000
R22  19253379.016 8 102775846.067 8       410.387          49.000    19253381.547 8  79936770.444 8       319.187          50.000
C05                                                                  39679814.844 6 159774170.325 6       -25.131          37.000
C19  22781249.227 8 118627914.719 8      2264.906          48.000
C20  21967339.836 8 114389704.258 8      -628.750          51.000
C29  21632112.477 8 112644073.929 8      -854.238          51.000
C30  24701958.078 7 128629558.631 7     -3122.281          46.000
E03  25620712.734 8 134637746.641 8      2762.852          50.000    25620718.578 8 103164025.878 8      2116.966          51.000
E05  23816591.422 8 125157041.582 8       398.820          51.000    23816594.531 8  95899561.487 8       305.587          51.000
E36  25749643.617 6 135315291.497 6     -2218.477          37.000    25749652.430 6 103683131.204 6     -1699.926          40.000
> 2020 05 17 19 01  0.0000000  0 19        .000000000000
G01  20396774.844 7 107185765.654 7       747.684          42.000    20396776.523 7  83521381.407 7       582.611          42.000
G03  21554997.570 8 113272294.962 8      2276.086          50.000    21554999.109 8  88264127.330 8      1773.573          50.000
G08  22238818.445 8 116865759.064 8     -3098.801          50.000    22238819.430 8  91064225.936 8     -2414.650          50.000
G11  20054881.617 8 105389129.340 8     -1123.215          51.000    20054879.703 8  82121352.391 8      -875.232          50.000
G14  21909354.109 6 115134424.250 6       -93.945          40.000    21909354.906 6  89715138.452 6       -73.201          36.000
G22  20695894.539 8 108757674.339 8       625.297          51.000    20695891.516 8  84746233.184 8       487.244          51.000
G32  22414295.398 5 117787881.014 5     -1622.629          34.000    22414269.492 5  91782763.579 5     -1264.395          33.000
R07  19211685.664 8 102841684.199 8       261.258          51.000    19211686.414 7  79987990.932 7       203.201          47.000
R08  21421803.477 8 114712854.925 8      3597.777          50.000    21421805.367 7  89221051.642 7      2798.271          45.000
R21  21473589.219 8 114909495.381 8     -3196.254          51.000    21473593.062 8  89374054.628 8     -2485.975          48.000
R22  19251127.352 8 102763827.548 8       390.543          48.000    19251130.219 8  79927422.711 8       303.756          50.000
C05                                                                  39680002.859 6 159774927.433 6       -25.207          37.000
C19  22768230.391 8 118560120.627 8      2254.426          51.000
C20  21971000.000 8 114408764.903 8      -642.199          51.000
C29  21637075.398 8 112669918.257 8      -868.922          51.000
C30  24719961.008 7 128723310.539 7     -3128.070          45.000
E03  25604958.734 8 134554956.924 8      2756.207          51.000    25604963.758 8 103100589.623 8      2111.899          51.000
E05  23814353.055 8 125145278.298 8       385.152          51.000    23814356.422 8  95890548.079 8       295.117          51.000
E36                                                                  25762333.258 6 103734188.168 6     -1704.167          41.000
> 2020 05 17 19 01 30.0000000  0 19        .000000000000
G01  20392540.602 7 107163514.313 7       736.215          42.000    20392543.234 6  83504042.731 6       573.677          41.000
G03  21542036.805 8 113204186.123 8      2264.891          49.000    21542038.148 8  88211055.535 8      1764.850          49.000
G08  22256538.859 8 116958879.724 8     -3109.137          50.000    22256540.227 8  91136787.448 8     -2422.704          49.000
G11  20061344.820 8 105423093.578 8     -1140.832          51.000    20061342.773 8  82147818.029 8      -888.960          50.000
G14  21909943.758 5 115137531.143 5      -113.859          31.000    21909943.445 5  89717553.274 5       -88.722          33.000
G22  20692361.633 8 108739108.178 8       612.730          51.000    20692358.359 8  84731766.046 8       477.452          51.000
G32  22423601.797 5 117836801.925 5     -1639.262          31.000
R07  19210289.961 8 102834212.716 8       237.148          51.000    19210290.812 8  79982179.798 8       184.452          48.000
R08  21401685.734 8 114605127.802 8      3584.371          50.000    21401687.750 7  89137263.943 7      2787.844          45.000
R21  21491546.055 8 115005584.645 8     -3209.426          51.000    21491550.477 8  89448790.701 8     -2496.220          48.000
R22  19248987.953 8 102752408.420 8       370.953          48.000    19248991.133 8  79918541.187 8       288.519          49.000
C05                                                                  39680192.273 6 159775690.239 6       -25.424          37.000
C19  22755274.242 8 118492648.063 8      2243.996          51.000
C20  21974738.875 8 114428233.568 8      -655.504          51.000
C29  21642124.234 8 112696208.379 8      -883.512          51.000
C30  24737998.766 7 128817240.972 7     -3133.590          46.000
E03  25589244.438 8 134472374.162 8      2749.645          51.000    25589248.297 8 103037311.957 8      2106.790          51.000
E05  23812193.719 8 125133930.847 8       371.609          51.000    23812197.266 8  95881853.306 8       284.761          51.000
E36                                                                  25775047.281 6 103785380.050 6     -1708.513          39.000
> 2020 05 17 19 02  0.0000000  0 19        .000000000000
G01  20388375.039 7 107141624.355 7       723.730          43.000    20388377.891 7  83486985.619 7       563.946          43.000
G03  21529141.750 8 113136424.114 8      2252.836          48.000    21529143.828 8  88158254.024 8      1755.460          48.000
G08  22274319.586 8 117052318.401 8     -3119.918          49.000    22274321.141 8  91209596.769 8     -2431.105          49.000
G11  20067910.508 8 105457597.525 8     -1159.125          50.000    20067908.781 8  82174704.218 8      -903.214          50.000
G14  21910638.961 5 115141133.552 5      -131.125          32.000
G22  20688902.570 8 108720929.822 8       599.434          51.000    20688899.195 8  84717601.101 8       467.094          51.000
G32  22433010.320 5 117886254.772 5     -1656.402          30.000    22433007.844 5  91859426.501 5     -1290.718          30.000
R07  19209030.727 8 102827473.073 8       212.371          51.000    19209031.906 8  79976937.868 8       165.178          48.000
R08  21381645.742 8 114497817.106 8      3569.941          51.000    21381648.359 7  89053800.123 7      2776.621          45.000
R21  21509578.492 8 115102079.346 8     -3223.285          50.000    21509582.930 7  89523842.139 7     -2507.000          47.000
R22  19246960.898 7 102741591.205 7       350.539          47.000    19246964.789 8  79910127.805 8       272.641          49.000
C05                                                                  39680383.297 6 159776459.343 6       -25.651          37.000
C19  22742379.891 8 118425498.630 8      2232.895          51.000
C20  21978555.945 8 114448109.895 8      -669.391          51.000
C29  21647258.656 8 112722945.106 8      -898.695          51.000
C30  24756070.711 7 128911349.398 7     -3139.875          44.000
E03  25573570.094 8 134390000.504 8      2742.109          51.000    25573572.773 8 102974194.512 8      2101.094          51.000
E05  23810113.555 8 125122999.913 8       357.465          51.000    23810117.258 8  95873477.688 8       273.854          51.000
E36                                                                  25787792.758 5 103836707.299 5     -1713.053          35.000
> 2020 05 17 19 02 30.0000000  0 17        .000000000000
G01  20384275.039 7 107120078.632 7       711.426          43.000    20384277.602 7  83470196.728 7       554.358          43.000
G03  21516309.641 8 113068991.868 8      2241.289          49.000    21516312.445 8  88105709.421 8      1746.456          49.000
G08  22292156.867 8 117146055.168 8     -3130.391          48.000    22292158.711 8  91282638.361 8     -2439.268          48.000
G11  20074575.305 8 105492623.014 8     -1177.219          49.000    20074574.070 8  82201996.785 8      -917.313          50.000
G22  20685513.891 8 108703121.195 8       586.574          51.000    20685510.242 8  84703724.253 8       457.071          51.000
R07  19207904.914 8 102821446.711 8       188.020          50.000    19207906.203 8  79972250.696 8       146.237          48.000
R08  21361681.172 8 114390907.229 8      3556.059          50.000    21361684.086 7  88970648.045 7      2765.823          46.000
R21  21527683.047 8 115198959.728 8     -3236.672          49.000    21527687.422 7  89599193.531 7     -2517.411          46.000
R22  19245043.898 7 102731359.735 7       330.383          47.000    19245048.242 8  79902169.982 8       256.964          48.000
C05                                                                  39680572.367 6 159777221.144 6       -25.856          37.000
C19  22729543.773 8 118358655.547 8      2222.172          50.000
C20  21982447.539 8 114468375.093 8      -682.871          51.000
C29  21652475.422 8 112750110.733 8      -913.598          51.000
C30  24774172.531 7 129005616.866 7     -3145.750          44.000
E03  25557932.430 8 134307819.493 8      2735.320          51.000    25557934.445 8 102911224.686 8      2095.907          51.000
E05  23808109.164 8 125112467.591 8       343.578          51.000    23808112.812 8  95865407.492 8       263.303          51.000
E36                                                                  25800565.039 5 103888184.123 5     -1717.740          30.000
> 2020 05 17 19 03  0.0000000  0 18        .000000000000
G01  20380230.594 7 107098824.723 7       702.125          42.000    20380232.750 7  83453635.257 7       547.110          42.000
G03  21503530.703 8 113001836.746 8      2232.441          50.000    21503533.578 8  88053380.758 8      1739.565          50.000
G08  22310040.062 8 117240034.547 8     -3138.105          48.000    22310042.477 7  91355869.008 7     -2445.277          47.000
G11  20081329.312 8 105528116.763 8     -1192.227          50.000    20081328.188 8  82229654.245 8      -929.008          50.000
G14  21912341.797 5 115150145.759 5      -166.512          35.000    21912339.555 5  89727358.981 5      -129.749          31.000
G22  20682184.969 8 108685628.015 8       576.438          51.000    20682181.250 8  84690093.212 8       449.172          50.000
R06  21210258.820 4 113181893.835 4     -3386.117          29.000
R07  19206901.727 8 102816078.567 8       166.594          51.000    19206903.664 8  79968075.499 8       129.573          48.000
R08  21341781.836 8 114284346.744 8      3544.801          49.000    21341785.141 7  88887767.702 7      2757.067          45.000
R21  21545848.945 8 115296169.922 8     -3247.164          48.000    21545853.430 7  89674801.413 7     -2525.572          44.000
R22  19243227.203 8 102721661.404 8       312.984          49.000    19243231.234 7  79894626.852 7       243.432          47.000
C05                                                                  39680749.664 6 159777934.840 6       -23.757          37.000
C19  22716755.062 8 118292066.911 8      2214.043          48.000
C20  21986403.656 8 114488975.227 8      -693.605          51.000
C29  21657764.797 8 112777652.422 8      -925.625          51.000
C30  24792295.648 7 129099989.125 7     -3148.914          44.000
E03  25542321.344 8 134225779.303 8      2731.129          51.000    25542323.297 8 102848362.768 8      2092.668          51.000
E05  23806170.461 8 125102280.543 8       332.480          51.000    23806174.008 8  95857601.856 8       254.761          51.000
> 2020 05 17 19 03 30.0000000  0 19        .000000000000
G01  20376270.594 7 107078015.760 7       695.922          42.000    20376272.539 7  83437420.449 7       542.277          42.000
G03  21490833.656 8 112935111.572 8      2226.637          50.000    21490835.992 8  88001387.164 8      1735.045          50.000
G08  22327997.719 7 117334406.675 7     -3142.621          47.000    22328001.219 7  91429405.714 7     -2448.796          47.000
G11  20088201.422 8 105564230.524 8     -1204.426          51.000    20088200.305 8  82257794.840 8      -938.514          49.000
G14  21913354.836 6 115155487.569 6      -178.984          38.000    21913350.945 5  89731497.460 5      -139.465          33.000
G22  20678945.008 8 108668602.457 8       569.410          51.000    20678941.266 8  84676826.564 8       443.696          50.000
G32  22461798.461 5 118037519.575 5     -1699.738          33.000
R07  19206050.664 8 102811522.679 8       148.195          50.000    19206052.617 8  79964532.039 8       115.263          48.000
R08  21321976.945 7 114178293.123 7      3536.434          47.000    21321980.562 7  88805281.559 7      2750.559          45.000
R21  21564105.305 8 115393863.433 8     -3254.656          49.000    21564108.766 7  89750785.200 7     -2531.399          43.000
R22  19241539.594 8 102712652.648 8       298.586          50.000    19241543.586 8  79887620.032 8       232.230          48.000
C05                                                                  39680944.023 6 159778717.089 6       -20.102          37.000
C19  22704043.578 8 118225884.335 8      2208.883          48.000
C20  21990452.703 8 114510059.969 8      -701.348          51.000
C29  21663155.172 8 112805721.011 8      -934.812          50.000
C30  24810468.422 7 129194615.828 7     -3148.770          46.000
E03  25526765.805 8 134144033.534 8      2729.535          51.000    25526768.211 8 102785726.435 8      2091.459          51.000
E05  23804326.359 8 125092590.855 8       324.223          51.000    23804329.945 8  95850177.315 8       248.439          51.000
E09  24276779.227 5 127575313.077 5     -2220.418          34.000
> 2020 05 17 19 04  0.0000000  0 20        .000000000000
G01  20372363.336 6 107057484.014 6       676.828          41.000    20372364.945 6  83421421.671 6       527.399          41.000
G03  21478186.070 8 112868648.534 8      2207.906          48.000    21478188.172 8  87949597.826 8      1720.446          48.000
G08  22345997.898 8 117429000.444 8     -3160.004          48.000    22346002.203 8  91503115.124 8     -2462.341          48.000
G11  20095159.289 8 105600795.436 8     -1229.602          50.000    20095158.352 8  82286286.975 8      -958.131          49.000
G14  21914459.320 6 115161304.321 6      -205.184          36.000    21914455.594 5  89736030.022 5      -159.880          34.000
G22  20675762.023 8 108651875.644 8       549.457          51.000    20675758.320 8  84663792.695 8       428.148          51.000
G32  22471587.492 5 118088931.098 5     -1724.027          30.000    22471590.258 4  92017382.232 4     -1343.401          29.000
R07  19205319.234 8 102807606.599 8       116.688          51.000    19205321.180 8  79961486.211 8        90.757          49.000
R08  21302235.359 8 114072577.448 8      3514.926          48.000    21302238.008 7  88723058.289 7      2733.831          42.000
R21  21582419.867 7 115491866.838 7     -3275.105          47.000    21582422.578 7  89827009.988 7     -2547.307          42.000
R22  19239949.695 8 102704164.252 8       270.984          51.000    19239953.352 7  79881017.934 7       210.766          47.000
C05                                                                  39681123.297 6 159779438.758 6       -25.557          37.000
C19  22691379.773 8 118159941.615 8      2190.930          50.000
C20  21994562.570 8 114531461.174 8      -721.754          51.000
C29  21668614.555 8 112834149.425 8      -956.680          51.000
C30  24828657.906 7 129289328.530 7     -3161.637          46.000
E03  25511233.977 8 134062415.033 8      2715.316          51.000    25511237.219 8 102723187.607 8      2080.576          51.000
E05  23802544.914 8 125083229.879 8       303.449          51.000    23802548.250 8  95843004.641 8       232.492          51.000
E09  24289510.922 6 127642235.974 6     -2236.086          36.000
E36  25839077.000 5 135785265.864 5     -2257.863          35.000    25839082.758 5 104043255.408 5     -1730.243          33.000
> 2020 05 17 19 04 30.0000000  0 20        .000000000000
G01  20368534.359 7 107037363.009 7       664.430          43.000    20368535.984 7  83405742.946 7       517.737          43.000
G03  21465613.688 8 112802580.912 8      2196.164          48.000    21465616.008 8  87898116.570 8      1711.297          48.000
G08  22364065.641 8 117523946.416 8     -3170.238          48.000    22364070.070 8  91577098.958 8     -2470.319          48.000
G11  20102228.250 8 105637943.540 8     -1247.492          50.000    20102227.555 8  82315233.516 8      -972.075          50.000
G14  21915680.070 6 115167728.317 6      -223.969          38.000    21915676.195 5  89741026.683 5      -174.515          32.000
G22  20672660.906 8 108635579.912 8       536.578          51.000    20672657.688 8  84651094.738 8       418.116          51.000
G32  22481477.570 5 118140958.513 5     -1741.383          32.000    22481477.508 5  92057875.384 5     -1356.928          32.000
R07  19204732.750 8 102804464.575 8        92.484          50.000    19204734.508 8  79959042.435 8        71.932          48.000
R08  21282583.461 8 113967337.184 8      3500.652          50.000    21282583.523 7  88641204.833 7      2722.733          42.000
R21  21600817.227 7 115590313.675 7     -3288.457          47.000    21600819.180 7  89903579.699 7     -2557.692          44.000
R22  19238482.969 8 102696332.355 8       250.691          51.000    19238486.328 7  79874926.438 7       194.979          47.000
C05                                                                  39681312.711 6 159780201.442 6       -25.518          37.000
C19  22678788.523 8 118094370.890 8      2180.055          51.000
C20  21998758.367 8 114553309.055 8      -735.156          51.000
C29  21674168.555 8 112863068.963 8      -971.660          51.000
C30  24846888.797 7 129384257.272 7     -3167.379          46.000
E03  25495751.742 8 133981057.780 8      2708.195          51.000    25495755.625 8 102660848.948 8      2075.102          51.000
E05  23800851.203 8 125074330.105 8       289.605          51.000    23800854.461 8  95836185.345 8       221.929          51.000
E09  24302298.984 6 127709430.216 6     -2244.070          36.000
E36  25851981.414 5 135853081.139 5     -2264.105          32.000    25851981.172 5 104095218.564 5     -1734.340          35.000
> 2020 05 17 19 05  0.0000000  0 20        .000000000000
G01  20364773.508 7 107017600.560 7       652.836          43.000    20364775.461 7  83390343.637 7       508.706          43.000
G03  21453106.922 8 112736856.381 8      2185.398          48.000    21453108.992 8  87846902.666 8      1702.908          48.000
G08  22382190.172 8 117619189.351 8     -3179.332          49.000    22382194.578 8  91651314.188 8     -2477.402          49.000
G11  20109398.172 8 105675621.370 8     -1264.504          50.000    20109397.492 8  82344592.858 8      -985.328          49.000
G14  21917007.062 6 115174706.319 6      -241.473          37.000    21917006.594 5  89746477.100 5      -188.170          33.000
G22  20669631.484 8 108619661.555 8       524.668          51.000    20669628.711 8  84638690.832 8       408.832          51.000
G32  22491461.828 6 118193424.507 6     -1756.465          38.000    22491460.508 6  92098757.915 6     -1368.677          37.000
R07  19204280.258 8 102802041.374 8        69.051          49.000    19204281.703 8  79957157.719 8        53.706          48.000
R08  21263010.453 8 113862520.764 8      3487.117          49.000    21263009.594 7  88559681.027 7      2712.202          44.000
R21  21619286.328 7 115689148.317 7     -3300.527          43.000    21619288.117 7  89980451.069 7     -2567.077          42.000
R22  19237129.234 8 102689104.809 8       231.047          51.000    19237132.750 8  79869304.991 8       179.703          48.000
C05                                                                  39681501.977 6 159780964.636 6       -25.285          36.000
C19  22666258.867 8 118029120.489 8      2169.996          51.000
C20  22003029.398 8 114575549.941 8      -747.590          51.000
C29  21679806.664 8 112892427.056 8      -985.652          51.000
C30  24865150.992 7 129479348.197 7     -3172.082          47.000
E03  25480309.656 8 133899910.156 8      2701.742          51.000    25480313.484 8 102598670.916 8      2070.175          51.000
E05  23799235.109 8 125065838.375 8       276.590          51.000    23799238.492 8  95829678.705 8       211.956          51.000
E09  24315132.055 6 127776864.225 6     -2251.469          36.000
E36  25864915.023 5 135921048.013 5     -2268.812          35.000    25864915.984 6 104147310.080 6     -1738.330          40.000
> 2020 05 17 19 05 30.0000000  0 20        .000000000000
G01  20361080.555 6 106998195.518 6       640.715          40.000    20361083.164 6  83375222.781 6       499.258          40.000
G03  21440664.977 7 112671473.335 7      2173.402          47.000    21440666.914 7  87795954.859 7      1693.560          47.000
G08  22400370.258 8 117714724.539 8     -3189.586          48.000    22400374.602 8  91725757.157 8     -2485.392          48.000
G11  20116668.477 8 105713826.763 8     -1282.512          50.000    20116667.648 8  82374363.262 8      -999.360          49.000
G14  21918439.438 6 115182236.410 6      -260.312          39.000    21918440.078 5  89752344.663 5      -202.844          30.000
G22  20666673.609 8 108604118.146 8       511.645          51.000    20666670.648 8  84626579.080 8       398.684          51.000
G32  22501540.430 6 118246386.322 6     -1773.980          36.000    22501541.383 6  92140026.880 6     -1382.316          36.000
R07  19203961.273 8 102800334.121 8        44.703          49.000    19203962.922 8  79955829.868 8        34.769          48.000
R08  21243515.008 7 113758128.837 7      3472.535          46.000    21243516.047 7  88478487.351 7      2700.861          45.000
R21  21637824.688 6 115788367.028 6     -3313.961          37.000    21637827.805 6  90057621.216 6     -2577.519          40.000
R22  19235888.617 8 102682481.077 8       210.527          51.000    19235891.672 7  79864153.174 7       163.743          47.000
C05                                                                  39681691.156 6 159781726.665 6       -25.451          37.000
C19  22653789.984 8 117964189.184 8      2158.770          51.000
C20  22007375.477 8 114598180.597 8      -761.047          51.000
C29  21685528.500 8 112922221.573 8     -1000.672          51.000
C30  24883443.836 8 129574597.929 8     -3177.871          48.000
E03  25464907.625 8 133818971.458 8      2694.180          51.000    25464910.703 8 102536652.992 8      2064.386          51.000
E05  23797696.484 8 125057752.487 8       262.562          51.000    23797699.492 8  95823483.027 8       201.154          51.000
E09  24328009.289 5 127844551.391 5     -2259.422          35.000
E36  25877882.992 6 135989196.955 6     -2274.508          39.000    25877885.555 7 104199528.055 7     -1742.820          42.000
> 2020 05 17 19 06  0.0000000  0 19        .000000000000
G01  20357458.320 6 106979161.898 6       628.855          41.000    20357461.398 6  83360391.341 6       490.017          41.000
G03  21428290.375 7 112606445.696 7      2162.352          46.000    21428292.656 7  87745283.996 7      1684.952          46.000
G08  22418607.781 8 117810562.999 8     -3199.016          48.000    22418612.438 8  91800436.469 8     -2492.739          48.000
G11  20124041.570 8 105752572.209 8     -1299.805          50.000    20124040.539 8  82404554.499 8     -1012.835          50.000
G14  21919979.531 6 115190331.561 6      -277.984          36.000    21919981.266 4  89758652.423 4      -216.626          25.000
G22  20663789.438 8 108588962.377 8       499.465          51.000    20663786.430 8  84614769.402 8       389.193          51.000
R07  19203778.539 8 102799355.344 8        21.215          49.000    19203780.055 7  79955068.593 7        16.500          47.000
R08  21224099.445 7 113654177.154 7      3458.387          42.000    21224104.305 7  88397636.045 7      2689.853          44.000
R21  21656437.133 7 115887981.307 7     -3326.484          44.000    21656440.992 6  90135099.001 6     -2587.266          38.000
R22  19234764.000 8 102676476.324 8       190.566          51.000    19234766.477 8  79859482.810 8       148.218          48.000
C05                                                                  39681882.484 6 159782497.772 6       -25.346          36.000
C19  22641384.328 8 117899590.864 8      2148.414          51.000
C20  22011798.664 8 114621212.868 8      -773.742          51.000
C29  21691336.680 8 112952465.427 8     -1014.934          51.000
C30  24901769.344 8 129670018.099 8     -3182.848          48.000
E03  25449548.078 8 133738256.228 8      2687.574          51.000    25449550.156 8 102474806.296 8      2059.286          50.000
E05  23796237.539 8 125050085.491 8       249.301          50.000    23796240.477 8  95817608.297 8       191.038          51.000
E09  24340933.625 5 127912469.342 5     -2267.363          35.000    24340935.922 5  98010854.607 5     -1737.037          31.000
E36  25890885.359 6 136057523.973 6     -2279.848          40.000    25890888.656 6 104251882.518 6     -1746.797          41.000
> 2020 05 17 19 06 30.0000000  0 19        .000000000000
G01  20353903.289 6 106960480.585 6       616.336          41.000    20353906.383 6  83345834.490 6       480.265          41.000
G03  21415979.969 7 112541754.165 7      2150.133          47.000    21415982.609 7  87694875.043 7      1675.428          47.000
G08  22436898.727 8 117906682.704 8     -3209.117          48.000    22436903.547 8  91875334.931 8     -2500.611          48.000
G11  20131513.539 8 105791837.472 8     -1317.945          51.000    20131512.336 8  82435150.778 8     -1026.970          50.000
G14  21921623.477 5 115198909.337 5      -297.996          33.000
G22  20660974.984 8 108574173.850 8       486.355          50.000    20660972.211 8  84603245.885 8       378.978          50.000
R07  19203727.508 8 102799083.448 8        -3.184          50.000    19203729.094 7  79954857.112 7        -2.476          46.000
R08  21204765.688 7 113550648.026 7      3443.398          43.000    21204770.492 7  88317113.364 7      2678.199          43.000
R21  21675123.344 7 115987969.598 7     -3339.637          47.000    21675125.062 6  90212867.612 6     -2597.498          38.000
R22  19233751.672 8 102671071.995 8       169.605          51.000    19233754.336 8  79855279.424 8       131.915          49.000
C05                                                                  39682072.406 6 159783262.650 6       -25.808          37.000
C19  22629038.617 8 117835306.589 8      2137.055          51.000
C20  22016294.727 8 114644625.881 8      -787.219          51.000
C29  21697227.219 8 112983138.801 8     -1030.105          51.000
C30  24920123.109 7 129765587.672 7     -3188.656          47.000
E03  25434227.227 8 133657745.974 8      2679.863          50.000    25434228.695 8 102413116.661 8      2053.342          50.000
E05  23794854.117 8 125042817.294 8       235.152          49.000    23794857.703 8  95812039.156 8       180.209          51.000
E09  24353901.219 5 127980613.481 5     -2275.887          35.000    24353904.180 4  98063079.932 4     -1743.727          29.000
E36  25903917.922 7 136126008.948 7     -2285.969          42.000    25903921.852 6 104304358.033 6     -1751.551          40.000
> 2020 05 17 19 07  0.0000000  0 19        .000000000000
G01  20350417.883 6 106942165.191 6       604.734          41.000    20350420.750 7  83331562.742 7       471.219          42.000
G03  21403736.328 8 112477412.042 8      2139.312          48.000    21403739.039 8  87644738.339 8      1666.997          48.000
G08  22455245.336 8 118003093.974 8     -3218.148          49.000    22455249.852 8  91950460.585 8     -2507.648          49.000
G11  20139086.852 8 105831634.792 8     -1335.051          51.000    20139085.398 8  82466161.667 8     -1040.302          50.000
G14  21923374.039 5 115208106.608 5      -315.480          33.000    21923381.414 5  89772579.340 5      -245.829          31.000
G22  20658232.945 8 108559765.110 8       474.336          50.000    20658230.148 8  84592018.297 8       369.612          50.000
R07  19203811.234 8 102799530.545 8       -26.500          50.000    19203812.617 7  79955204.864 7       -20.608          46.000
R08  21185516.484 7 113447556.757 7      3429.410          46.000    21185518.516 7  88236931.316 7      2667.322          43.000
R21  21693882.336 8 116088342.862 8     -3351.793          50.000    21693883.125 6  90290935.678 6     -2606.950          40.000
R22  19232854.516 8 102666282.241 8       149.781          51.000    19232857.398 8  79851554.056 8       116.493          50.000
C05                                                                  39682263.000 6 159784031.052 6       -25.409          37.000
C19  22616756.312 8 117771349.594 8      2126.723          51.000
C20  22020866.422 8 114668430.963 8      -799.633          51.000
C29  21703202.312 8 113014254.068 8     -1044.141          51.000
C30  24938507.492 7 129861317.791 7     -3193.402          46.000
E03  25418947.789 8 133577454.703 8      2673.039          50.000    25418949.148 8 102351594.811 8      2048.167          49.000
E05  23793548.984 8 125035960.325 8       221.992          49.000    23793553.062 8  95806785.120 8       170.134          51.000
E09  24366913.938 5 128048994.920 5     -2283.531          35.000
E36  25916983.320 6 136194664.282 6     -2290.957          39.000    25916987.305 6 104356964.138 6     -1755.463          38.000
> 2020 05 17 19 07 30.0000000  0 19        .000000000000
G01  20346996.898 7 106924187.093 7       592.531          44.000    20346999.500 7  83317553.837 7       461.713          44.000
G03  21391553.539 8 112413390.606 8      2127.738          48.000    21391556.102 8  87594851.511 8      1657.978          48.000
G08  22473641.703 8 118099765.137 8     -3227.676          50.000    22473645.227 8  92025788.722 8     -2515.075          50.000
G11  20146755.641 8 105871933.912 8     -1352.723          51.000    20146754.125 8  82497563.572 8     -1054.070          50.000
G22  20655557.680 8 108545706.173 8       461.773          51.000    20655554.719 8  84581063.269 8       359.823          51.000
G32  22542796.016 6 118463135.905 6     -1839.312          36.000    22542791.883 5  92308963.882 5     -1433.231          32.000
R07  19204023.445 8 102800665.314 8       -50.352          51.000    19204024.477 7  79956087.474 7       -39.162          46.000
R08  21166343.594 8 113344876.347 8      3414.781          48.000    21166343.977 7  88157068.832 7      2655.941          44.000
R21  21712706.938 8 116189069.483 8     -3364.438          49.000    21712708.961 7  90369278.565 7     -2616.788          44.000
R22  19232066.930 8 102662079.154 8       129.293          51.000    19232070.094 8  79848284.976 8       100.561          49.000
C05                                                                  39682449.070 6 159784780.433 6       -25.128          36.000
C19  22604532.180 8 117707691.556 8      2115.914          51.000
C20  22025507.477 8 114692597.779 8      -812.562          51.000
C29  21709256.641 8 113045781.995 8     -1058.844          51.000
C30  24956916.352 7 129957177.983 7     -3198.793          43.000
E03  25403704.672 8 133497354.366 8      2665.734          50.000    25403706.211 8 102290219.260 8      2042.519          49.000
E05  23792316.977 8 125029485.074 8       208.406          50.000    23792320.719 8  95801823.539 8       159.694          51.000
E09  24379965.797 6 128117582.635 6     -2290.832          36.000
E36  25930075.273 5 136263464.423 5     -2296.582          33.000    25930081.148 6 104409678.073 6     -1759.904          36.000
> 2020 05 17 19 08  0.0000000  0 19        .000000000000
G01  20343650.516 7 106906600.514 7       580.305          45.000    20343652.828 7  83303849.991 7       452.182          45.000
G03  21379441.969 8 112349743.670 8      2115.871          48.000    21379443.961 8  87545256.503 8      1648.731          48.000
G08  22492097.320 8 118196747.065 8     -3237.207          51.000    22492099.305 8  92101359.016 8     -2522.502          51.000
G11  20154529.820 8 105912787.920 8     -1370.422          50.000    20154528.531 8  82529397.862 8     -1067.861          50.000
G22  20652959.070 8 108532049.622 8       449.121          51.000    20652956.180 8  84570421.805 8       349.964          51.000
G32  22553345.656 6 118518568.434 6     -1856.094          38.000    22553336.602 6  92352158.012 6     -1446.304          37.000
R07  19204373.992 8 102802540.899 8       -74.148          51.000    19204374.641 7  79957546.279 7       -57.671          46.000
R08  21147257.461 8 113242663.133 8      3399.887          50.000    21147256.922 7  88077569.723 7      2644.359          45.000
R21  21731607.047 8 116290202.017 8     -3377.262          48.000    21731610.414 7  90447937.160 7     -2626.759          46.000
R22  19231399.805 8 102658518.047 8       108.680          51.000    19231402.625 8  79845515.251 8        84.529          50.000
C05                                                                  39682640.664 6 159785551.758 6       -25.509          36.000
C19  22592375.617 8 117644386.022 8      2104.922          51.000
C20  22030227.758 8 114717177.931 8      -825.574          51.000
C29  21715400.414 8 113077775.222 8     -1073.578          51.000
C30  24975359.078 6 130053219.625 6     -3203.863          39.000
E03  25388508.438 8 133417499.560 8      2658.445          50.000    25388510.359 8 102229031.841 8      2036.970          48.000
E05  23791167.797 8 125023444.565 8       194.688          51.000    23791171.141 8  95797195.085 8       149.185          51.000
E09  24393066.828 6 128186430.348 6     -2298.574          36.000
E36                                                                  25943211.320 5 104462540.491 5     -1764.355          34.000
> 2020 05 17 19 08 30.0000000  0 20        .000000000000
G01  20340372.633 7 106889373.504 7       567.184          47.000    20340374.562 7  83290426.339 7       441.958          47.000
G03  21367395.594 8 112286439.080 8      2103.426          48.000    21367397.789 8  87495928.257 8      1639.033          48.000
G08  22510605.453 8 118294004.785 8     -3247.582          51.000    22510606.594 8  92177144.213 8     -2530.586          51.000
G11  20162403.297 8 105954163.640 8     -1388.902          50.000    20162402.156 8  82561638.674 8     -1082.262          50.000
G22  20650430.695 8 108518762.375 8       435.680          51.000    20650427.852 8  84560068.108 8       339.491          51.000
G32  22563986.688 6 118574482.904 6     -1872.992          37.000    22563976.336 6  92395727.659 6     -1459.477          38.000
R06  21423635.312 5 114320567.749 5     -3511.039          31.000
R07  19204856.727 8 102805123.134 8       -98.938          51.000    19204857.172 7  79959554.715 7       -76.951          47.000
R08  21128252.133 8 113140886.234 8      3384.156          49.000    21128251.320 7  87998409.969 7      2632.122          45.000
R21  21750576.680 8 116391705.396 8     -3390.668          50.000    21750580.469 7  90526884.234 7     -2637.186          46.000
R22  19230846.828 8 102655567.318 8        87.164          50.000    19230850.008 8  79843220.246 8        67.794          51.000
C05                                                                  39682831.375 6 159786316.841 6       -26.614          36.000
C19  22580279.766 8 117581401.323 8      2093.152          51.000
C20  22035021.008 8 114742137.764 8      -839.340          51.000
C29  21721627.211 8 113110201.097 8     -1089.062          51.000
C30  24993829.672 6 130149408.924 6     -3209.750          39.000
E03  25373353.148 8 133337858.930 8      2650.102          50.000    25373355.398 8 102168008.546 8      2030.615          48.000
E05  23790094.898 8 125017805.817 8       180.227          51.000    23790098.180 8  95792874.500 8       138.132          51.000
E09  24406210.398 5 128255500.771 5     -2307.020          32.000
E36                                                                  25956370.812 5 104515526.013 5     -1769.222          35.000
> 2020 05 17 19 09  0.0000000  0 18        .000000000000
G01  20337186.914 7 106872631.000 7       557.695          47.000    20337188.336 7  83277380.234 7       434.568          47.000
G03  21355438.039 8 112223601.565 8      2094.461          48.000    21355440.734 8  87446963.966 8      1632.047          48.000
G08  22529188.961 8 118391660.097 8     -3254.105          50.000    22529190.000 8  92253239.237 8     -2535.667          50.000
G11  20170399.656 8 105996184.594 8     -1403.727          51.000    20170398.516 8  82594382.273 8     -1093.813          49.000
G22  20647996.070 8 108505968.080 8       425.996          51.000    20647993.102 8  84550098.531 8       331.945          51.000
R06  21443413.375 5 114426129.477 5     -3517.969          30.000
R07  19205494.422 8 102808536.995 8      -119.793          51.000    19205495.008 7  79962209.978 7       -93.172          46.000
R08  21109350.812 7 113039674.627 7      3372.086          47.000    21109350.984 7  87919689.834 7      2622.734          44.000
R21  21769638.422 8 116493703.957 8     -3400.250          49.000    21769642.484 7  90606216.438 7     -2644.639          45.000
R22  19230432.164 8 102653354.580 8        69.262          49.000    19230435.570 8  79841499.245 8        53.870          50.000
C05                                                                  39683044.984 6 159787176.828 6       -24.352          36.000
C19  22568268.508 8 117518861.125 8      2084.852          49.000
C20  22039910.750 8 114767598.986 8      -849.426          51.000
C29  21727960.797 8 113143182.437 8     -1100.996          51.000
C30  25012351.930 6 130245867.472 6     -3212.180          39.000
E03  25358262.641 8 133258557.897 8      2645.250          51.000    25358264.836 7 102107245.462 7      2026.877          47.000
E05  23789122.172 8 125012692.752 8       169.355          51.000    23789125.109 8  95788956.695 8       129.769          51.000
E36                                                                  25969582.156 6 104568729.550 6     -1771.194          36.000
> 2020 05 17 19 09 30.0000000  0 18        .000000000000
G01  20334033.250 7 106856057.483 7       545.621          46.000    20334034.352 7  83264465.805 7       425.159          47.000
G03  21343509.555 8 112160915.227 8      2083.043          48.000    21343511.984 8  87398117.445 8      1623.150          48.000
G08  22547786.953 8 118489394.155 8     -3263.121          49.000    22547788.281 8  92329395.634 8     -2542.692          49.000
G11  20178458.531 8 106038533.632 8     -1421.129          51.000    20178457.398 8  82627381.515 8     -1107.373          49.000
G14  21933707.320 5 115262405.191 5      -405.844          32.000
G22  20645594.977 8 108493349.821 8       413.762          51.000    20645591.750 8  84540266.124 8       322.412          51.000
R07  19206226.922 8 102812458.707 8      -143.184          51.000    19206227.625 7  79965260.207 7      -111.365          47.000
R08  21090494.008 7 112938708.312 7      3357.344          46.000    21090496.586 7  87841160.461 7      2611.267          45.000
R21  21788731.406 8 116595874.015 8     -3412.504          48.000    21788735.125 7  90685681.998 7     -2654.170          42.000
R22  19230095.516 8 102651559.795 8        48.793          48.000    19230099.117 8  79840103.330 8        37.950          50.000
C05                                                                  39683221.031 6 159787886.279 6       -24.155          36.000
C19  22556283.008 8 117456452.616 8      2074.109          50.000
C20  22044835.977 8 114793246.783 8      -861.961          51.000
C29  21734340.938 8 113176405.445 8     -1115.434          51.000
C30  25030865.555 6 130342280.297 6     -3217.043          38.000
E03  25343176.961 8 133179281.381 8      2638.008          50.000    25343178.586 8 102046501.156 8      2021.426          48.000
E05  23788189.156 8 125007788.665 8       155.961          51.000    23788191.773 8  95785199.025 8       119.523          51.000
E36                                                                  25982787.578 6 104621908.438 6     -1775.370          37.000
> 2020 05 17 19 10  0.0000000  0 19        .000000000000
G01  20330958.461 8 106839899.157 8       532.188          48.000    20330959.719 8  83251874.908 8       414.692          48.000
G03  21331656.633 7 112098626.016 7      2070.129          47.000    21331658.609 7  87349580.421 7      1613.087          47.000
G08  22566445.984 8 118587450.146 8     -3273.449          48.000    22566447.820 8  92405802.887 8     -2550.740          48.000
G11  20186626.227 8 106081455.794 8     -1439.914          51.000    20186625.406 8  82660827.316 8     -1122.014          49.000
G22  20643274.125 8 108481152.376 8       400.016          51.000    20643270.359 8  84530761.621 8       311.700          51.000
R06  21483077.109 4 114637799.169 4     -3538.656          29.000
R07  19207100.570 8 102817137.413 8      -168.141          50.000    19207101.734 7  79968899.227 7      -130.776          47.000
R08  21071731.062 8 112838239.983 8      3341.184          48.000    21071734.852 7  87763018.463 7      2598.701          44.000
R21  21807902.625 7 116698463.805 7     -3426.180          46.000    21807904.906 6  90765474.049 6     -2664.806          41.000
R22  19229884.617 8 102650433.825 8        26.750          49.000    19229888.195 8  79839227.618 8        20.809          51.000
C05                                                                  39683406.547 6 159788633.335 6       -25.240          36.000
C19  22544370.227 8 117394419.668 8      2061.949          51.000
C20  22049843.875 8 114819323.154 8      -875.926          51.000
C29  21740814.430 8 113210113.151 8     -1131.262          51.000
C30  25049418.016 6 130438889.259 6     -3223.484          39.000
E03  25328142.719 8 133100276.131 8      2629.484          50.000    25328144.188 8 101985964.723 8      2014.734          48.000
E05  23787342.406 8 125003338.761 8       141.117          51.000    23787345.203 8  95781789.382 8       108.168          51.000
E09  24445900.328 5 128464072.980 5     -2327.746          34.000
E36                                                                  25996034.062 5 104675250.537 5     -1780.560          35.000
> 2020 05 17 19 10 30.0000000  0 19        .000000000000
G01  20327960.953 7 106824147.419 7       518.617          47.000    20327962.734 7  83239600.832 7       404.117          47.000
G03  21319877.250 7 112036725.013 7      2057.535          46.000    21319879.469 7  87301345.930 7      1603.274          46.000
G08  22585163.602 7 118685815.778 7     -3283.469          47.000    22585166.195 7  92482451.416 7     -2558.547          47.000
G11  20194901.109 8 106124940.887 8     -1458.375          51.000    20194900.492 8  82694711.760 8     -1136.396          49.000
G22  20641031.492 8 108469366.132 8       386.492          51.000    20641027.406 8  84521577.541 8       301.163          51.000
R06  21503009.359 5 114744122.977 5     -3549.816          30.000
R07  19208113.672 8 102822562.042 8      -192.781          51.000    19208115.047 7  79973118.390 7      -149.944          47.000
R08  21053060.648 8 112738261.971 8      3324.879          48.000    21053063.875 7  87685257.838 7      2586.020          44.000
R21  21827148.445 7 116801461.601 7     -3439.492          43.000    21827151.422 7  90845583.404 7     -2675.164          42.000
R22  19229797.281 8 102649968.472 8         4.945          49.000    19229801.320 8  79838865.673 8         3.846          51.000
C05                                                                  39683599.602 6 159789410.706 6       -25.983          36.000
C19  22532528.219 8 117332753.675 8      2049.922          51.000
C20  22054932.125 8 114845817.468 8      -889.652          51.000
C29  21747379.180 8 113244295.900 8     -1146.816          51.000
C30  25068007.609 6 130535683.505 6     -3228.957          41.000
E03  25313158.305 8 133021534.051 8      2620.992          50.000    25313160.180 8 101925629.910 8      2008.218          49.000
E05  23786580.312 8 124999333.305 8       126.664          51.000    23786583.266 8  95778720.281 8        97.033          51.000
E09  24459214.594 5 128534047.621 5     -2336.273          35.000
E36  26009317.961 5 136679890.969 5     -2329.816          34.000    26009318.438 6 104728748.416 6     -1785.142          36.000
> 2020 05 17 19 11  0.0000000  0 19        .000000000000
G01  20325038.359 8 106808789.442 8       506.461          48.000    20325040.680 8  83227633.571 8       394.645          48.000
G03  21308169.031 7 111975199.325 7      2045.664          45.000    21308171.375 7  87253403.811 7      1594.021          45.000
G08  22603937.523 8 118784475.579 8     -3292.480          48.000    22603940.430 8  92559329.165 8     -2565.569          48.000
G11  20203280.453 8 106168974.730 8     -1475.918          50.000    20203279.812 8  82729023.806 8     -1150.066          49.000
G14  21941161.031 5 115301600.641 5      -463.590          31.000    21941159.070 4  89845386.473 4      -361.214          27.000
G22  20638864.195 8 108457976.566 8       374.016          51.000    20638860.398 8  84512702.563 8       291.444          51.000
R07  19209263.594 8 102828717.496 8      -216.293          51.000    19209265.039 8  79977905.974 8      -168.228          48.000
R08  21034479.766 8 112638763.013 8      3309.695          48.000    21034482.164 7  87607869.831 7      2574.207          44.000
R21  21846468.305 7 116904851.843 7     -3451.891          47.000    21846472.562 7  90925998.022 7     -2684.804          43.000
R22  19229831.242 8 102650151.197 8       -15.879          51.000    19229835.625 8  79839007.778 8       -12.350          50.000
C05                                                                  39683797.531 6 159790208.009 6       -26.312          36.000
C19  22520754.633 8 117271441.799 8      2038.754          51.000
C20  22060097.359 8 114872714.952 8      -902.250          51.000
C29  21754032.523 8 113278939.944 8     -1161.465          51.000
C30  25086629.984 6 130632648.244 6     -3233.855          41.000
E03  25298221.734 8 132943042.837 8      2613.070          49.000    25298224.195 8 101865487.294 8      2002.312          49.000
E05  23785900.031 8 124995758.380 8       113.066          51.000    23785903.180 8  95775981.072 8        86.635          51.000
E09  24472575.883 6 128604269.998 6     -2343.816          36.000
E36  26022635.500 6 136749899.601 6     -2335.680          38.000    26022638.242 6 104782391.353 6     -1789.847          37.000
> 2020 05 17 19 11 30.0000000  0 19        .000000000000
G01  20322177.469 8 106793755.258 8       493.852          49.000    20322179.898 8  83215918.608 8       384.819          49.000
G03  21296518.742 7 111913978.501 7      2034.016          46.000    21296520.625 7  87205699.248 7      1584.947          45.000
G08  22622753.750 8 118883356.223 8     -3301.582          48.000    22622756.836 8  92636378.981 8     -2572.661          49.000
G11  20211750.570 8 106213485.866 8     -1493.508          50.000    20211749.852 8  82763707.770 8     -1163.775          48.000
G14  21943850.273 5 115315740.206 5      -481.984          32.000
G22  20636758.859 8 108446912.512 8       361.582          51.000    20636755.289 8  84504081.226 8       281.752          51.000
R07  19210536.430 8 102835530.041 8      -239.883          51.000    19210537.945 7  79983204.639 7      -186.576          47.000
R08  21015975.094 7 112539673.145 7      3294.352          47.000    21015977.922 7  87530799.970 7      2562.273          46.000
R21  21865849.578 8 117008560.644 8     -3464.043          50.000    21865853.766 7  91006660.406 7     -2694.256          44.000
R22  19229973.844 8 102650911.582 8       -36.789          51.000    19229977.758 8  79839599.189 8       -28.614          50.000
C05                                                                  39683987.047 6 159790970.927 6       -26.270          37.000
C19  22509035.492 8 117210414.478 8      2027.660          51.000
C20  22065326.594 8 114899944.144 8      -914.934          51.000
C29  21760760.742 8 113313974.827 8     -1176.195          51.000
C30  25105270.836 6 130729711.841 6     -3239.004          40.000
E03  25283319.719 8 132864732.861 8      2605.492          49.000    25283322.898 8 101805483.563 8      1996.437          50.000
E05  23785288.055 8 124992542.839 8        99.387          51.000    23785291.328 8  95773517.236 8        76.177          51.000
E09  24485970.695 5 128674665.624 5     -2351.355          35.000
E36  26035979.656 6 136820026.376 6     -2341.473          39.000    26035981.664 6 104836124.769 6     -1793.891          39.000
> 2020 05 17 19 12  0.0000000  0 18        .000000000000
G01  20319391.664 8 106779115.417 8       482.395          49.000    20319393.922 8  83204510.964 8       375.892          49.000
G03  21284939.984 7 111853132.906 7      2022.957          46.000    21284940.969 7  87158287.108 7      1576.330          46.000
G08  22641624.891 8 118982524.816 8     -3309.340          48.000    22641628.062 8  92713653.143 8     -2578.706          48.000
G11  20220324.641 8 106258543.415 8     -1510.102          49.000    20220323.867 8  82798817.562 8     -1176.699          48.000
G22  20634728.641 8 108436243.241 8       350.051          51.000    20634725.047 8  84495767.506 8       272.767          51.000
R07  19211945.117 8 102843069.292 8      -262.398          51.000    19211946.211 8  79989068.497 8      -204.088          48.000
R08  20997560.234 7 112441065.947 7      3279.844          46.000    20997564.812 8  87454105.495 8      2550.993          48.000
R21  21885303.594 8 117112657.216 8     -3475.363          49.000    21885307.148 7  91087624.390 7     -2703.063          44.000
R22  19230238.172 8 102652321.896 8       -56.785          51.000    19230242.141 8  79840696.093 8       -44.166          49.000
C05                                                                  39684181.172 6 159791752.995 6       -25.279          36.000
C19  22497383.430 8 117149741.666 8      2017.398          50.000
C20  22070632.547 8 114927572.950 8      -926.594          51.000
C29  21767577.195 8 113349469.417 8     -1189.770          51.000
C30  25123943.055 6 130826941.988 6     -3242.664          41.000
E03  25268465.930 8 132786675.293 8      2598.754          49.000    25268469.789 8 101745673.232 8      1991.262          50.000
E05  23784757.812 8 124989756.226 8        86.703          51.000    23784760.883 8  95771382.048 8        66.456          51.000
E09  24499411.906 5 128745302.682 5     -2357.438          34.000
E36  26049359.992 6 136890340.824 6     -2345.770          40.000    26049362.000 6 104890001.963 6     -1797.575          39.000
> 2020 05 17 19 12 30.0000000  0 19        .000000000000
G01  20316674.117 8 106764834.052 8       470.016          51.000    20316676.297 8  83193382.646 8       366.246          51.000
G03  21273425.984 7 111792626.332 7      2011.195          47.000    21273426.375 7  87111139.157 7      1567.165          47.000
G08  22660543.586 8 119081943.120 8     -3318.055          48.000    22660546.641 8  92791121.880 8     -2585.500          48.000
G11  20228995.539 8 106304109.941 8     -1527.328          50.000    20228995.305 8  82834323.934 8     -1190.129          50.000
G14  21949560.734 5 115345749.389 5      -517.477          30.000
G22  20632766.141 8 108425931.493 8       337.719          51.000    20632762.695 8  84487732.388 8       263.157          51.000
R07  19213482.297 8 102851296.723 8      -285.859          51.000    19213483.383 8  79995467.626 8      -222.335          48.000
R08  20979229.406 7 112342906.500 7      3264.535          47.000    20979234.914 8  87377759.266 8      2539.083          48.000
R21  21904822.172 8 117217102.191 8     -3487.316          49.000    21904825.359 7  91168859.326 7     -2712.357          42.000
R22  19230617.695 8 102654346.022 8       -77.742          51.000    19230621.242 8  79842270.387 8       -60.466          48.000
C05                                                                  39684373.102 6 159792526.166 6       -25.566          36.000
C19  22485792.102 8 117089387.580 8      2006.461          50.000
C20  22076007.586 8 114955563.659 8      -939.027          51.000
C29  21774474.789 8 113385387.082 8     -1204.406          50.000
C30  25142639.852 7 130924300.920 7     -3247.359          42.000
E03  25253653.570 8 132708834.715 8      2591.113          50.000    25253657.961 8 101686029.173 8      1985.351          51.000
E05  23784301.914 8 124987361.490 8        73.242          51.000    23784304.906 8  95769547.148 8        56.130          51.000
E09  24512892.117 5 128816116.977 5     -2364.383          33.000
