     3.02           OBSERVATION DATA    M (MIXED)           RINEX VERSION / TYPE
SAVERINEX           SC600               20200506 025931 LCL PGM / RUN BY / DATE
       G = GPS       R = GLONASS       C = COMPASS          COMMENT
       S = SBAS      J = QZSS          E = GALILEO          COMMENT
BEAN                                                        MARKER NAME
1                                                           MARKER NUMBER
GEODETIC                                                    MARKER TYPE
Unige DICCA         GTER                                    OBSERVER / AGENCY
SC60291900056       SC600               2.12(191226)        REC # / TYPE / VERS
                    HEMA45          NONE                    ANT # / TYPE
  4509407.8091   693652.4678  4442337.6214                  APPROX POSITION XYZ
        0.0000        0.0000        0.0000                  ANTENNA: DELTA H/E/N
G    8 C1C L1C D1C S1C C2Y L2Y D2Y S2Y                      SYS / # / OBS TYPES
R    8 C1C L1C D1C S1C C2P L2P D2P S2P                      SYS / # / OBS TYPES
C    8 C1I L1I D1I S1I C7I L7I D7I S7I                      SYS / # / OBS TYPES
E    8 C1C L1C D1C S1C C7Q L7Q D7Q S7Q                      SYS / # / OBS TYPES
DBHZ                                                        COMMENT
     30.000                                                 INTERVAL
  2020    05    06    00    00    0.0000000     GPS         TIME OF FIRST OBS
  2020    05    06    00    59   30.0000000     GPS         TIME OF LAST OBS
     0                                                      RCV CLOCK OFFS APPL
G L1C  0.00000                                              SYS / PHASE SHIFT
G L2Y  0.00000                                              SYS / PHASE SHIFT
R L1C  0.00000                                              SYS / PHASE SHIFT
R L2P  0.25000                                              SYS / PHASE SHIFT
C L1I  0.00000                                              SYS / PHASE SHIFT
C L7I  0.00000                                              SYS / PHASE SHIFT
E L1C  0.50000                                              SYS / PHASE SHIFT
E L7Q -0.25000                                              SYS / PHASE SHIFT
 14 R02 -4 R03  5 R04  6 R05  1 R10 -5 R12 -1 R13 -2 R14 -7 GLONASS SLOT / FRQ #
    R15  0 R16 -1 R18 -3 R19  3 R20  2 R21  4               GLONASS SLOT / FRQ #
 C1C   71.950 C2C   71.950 C2P   71.950                     GLONASS COD/PHS/BIS
    18                                                      LEAP SECONDS
*** Above antenna height is from mark to ANTENNA BOTTOM.    COMMENT
    17     4        0.0000        ANT MEASURE TYPE/HEIGT    COMMENT
    0.0000    0.0000    0.0458    0.0405    0.0000          COMMENT
                    BASE STATION                            COMMENT
                                                            END OF HEADER
> 2020 05 06 00 00  0.0000000  0 14        .000000000000
G04  21000656.031 8 110359203.287 8     -1833.617          51.000    21000656.102 7  85994241.827 7     -1428.793          46.000
G07  23174868.391 7 121784739.112 7      3175.680          44.000    23174864.625 7  94897180.551 7      2474.556          44.000
G09  20291888.852 8 106634675.091 8       374.176          51.000    20291889.898 8  83091945.977 8       291.569          51.000
G19  24183666.891 7 127086018.536 7     -3090.660          43.000    24183663.773 7  99028047.149 7     -2408.307          42.000
R05  19725120.305 6 105442064.115 6      -596.473          38.000    19725121.266 5  82010476.741 5      -463.923          31.000
R15  21578420.891 6 115308522.535 6      2980.707          38.000    21578419.297 5  89684416.271 5      2318.331          34.000
R20  21353656.305 6 114187586.352 6     -3483.184          40.000    21353657.867 7  88812580.168 7     -2709.146          42.000
C20  22310408.289 5 116176084.281 5      1007.871          31.000
C23  23981176.531 5 124876294.142 5       219.531          33.000
C29  24072675.734 6 125352779.917 6     -1648.129          39.000
C30  25661924.578 5 133628356.743 5     -3209.102          35.000
E04  24049649.992 8 126381858.789 8     -1201.770          51.000    24049650.430 8  96838024.665 8      -920.818          51.000
E09  22185190.938 6 116583951.836 6      1121.734          39.000    22185191.461 6  89330546.252 6       859.568          41.000
E11  24313689.875 8 127769292.183 8     -2573.477          51.000    24313686.875 7  97901131.928 7     -1971.974          47.000
> 2020 05 06 00 00 30.0000000  0 15        .000000000000
G03  22895569.109 5 120317013.587 5     -2726.449          35.000    22895566.414 5  93753527.198 5     -2124.506          35.000
G04  21011129.320 8 110414240.839 8     -1839.816          51.000    21011129.258 7  86037128.219 7     -1433.626          45.000
G07  23156734.117 7 121689439.629 7      3173.207          46.000    23156731.547 7  94822921.204 7      2472.629          46.000
G09  20289769.180 8 106623535.858 8       364.266          51.000    20289770.148 8  83083266.051 8       283.843          51.000
G19  24201305.531 7 127178708.753 7     -3092.988          45.000    24201301.594 7  99100273.240 7     -2410.121          42.000
R05  19728473.078 6 105459981.516 6      -602.273          39.000    19728472.727 5  82024412.436 5      -468.438          31.000
R14  21729341.734 4 115829565.443 4      -644.141          29.000    21729343.102 4  90089668.090 4      -501.004          28.000
R15  21561713.391 6 115219244.547 6      2966.930          40.000    21561711.648 5  89614977.858 5      2307.612          34.000
R20  21373222.375 6 114292212.396 6     -3496.043          39.000    21373221.961 7  88893955.929 7     -2719.148          43.000
C23  23979935.883 5 124869833.697 5       207.023          31.000
C29  24082185.594 6 125402305.895 6     -1658.074          37.000
C30  25680389.656 5 133724522.245 5     -3205.691          35.000
E04  24056501.477 8 126417863.628 8     -1202.855          51.000    24056502.047 8  96865612.775 8      -921.671          51.000
E09  22178780.742 6 116550271.211 6      1119.391          36.000    22178782.797 6  89304739.023 6       857.823          41.000
E11  24328384.000 8 127846510.529 8     -2578.527          49.000    24328380.852 7  97960299.209 7     -1975.800          47.000
> 2020 05 06 00 01  0.0000000  0 13        .000000000000
G04  21021682.430 8 110469697.944 8     -1855.418          51.000    21021682.188 7  86080341.562 7     -1445.780          45.000
G07  23138660.523 7 121594458.840 7      3160.766          47.000    23138658.625 7  94748910.197 7      2462.934          47.000
G09  20287749.695 8 106612923.321 8       345.078          51.000    20287750.758 8  83074996.558 8       268.892          51.000
G19  24219000.438 7 127271694.281 7     -3104.172          46.000    24218996.062 7  99172729.446 7     -2418.835          44.000
R05  19731903.469 5 105478319.723 5      -618.055          31.000    19731903.070 5  82038675.412 5      -480.709          32.000
R15  21545127.992 6 115130617.109 6      2943.484          41.000    21545128.844 6  89546045.449 6      2289.380          38.000
R20  21392902.844 6 114397450.283 6     -3517.930          39.000    21392901.672 7  88975807.585 7     -2736.168          44.000
C20  22298836.828 6 116115862.551 6       992.812          36.000
C29  24091795.422 6 125452350.339 6     -1676.719          36.000
C30  25698878.281 6 133820810.358 6     -3211.234          36.000
E04  24063402.539 8 126454128.846 8     -1213.133          51.000    24063403.148 8  96893400.396 8      -929.528          51.000
E09  22172425.000 5 116516881.349 5      1107.934          33.000    22172430.984 6  89279157.641 6       849.023          41.000
E11  24343148.383 7 127924102.623 7     -2592.590          46.000    24343146.086 7  98019752.878 7     -1986.575          47.000
> 2020 05 06 00 01 30.0000000  0 13        .000000000000
G04  21032292.609 8 110525454.951 8     -1861.957          51.000    21032292.195 7  86123788.584 7     -1450.879          44.000
G07  23120625.305 8 121499681.122 8      3157.180          48.000    23120623.875 8  94675057.432 8      2460.140          48.000
G09  20285807.898 8 106602719.017 8       334.766          51.000    20285809.086 8  83067045.158 8       260.856          51.000
G19  24236728.281 7 127364853.751 7     -3106.848          44.000    24236723.953 7  99245321.193 7     -2420.920          43.000
R15  21528642.250 6 115042524.684 6      2928.930          40.000    21528645.742 5  89477529.094 5      2278.053          34.000
R20  21412674.094 6 114503175.191 6     -3530.891          37.000    21412674.086 7  89058038.099 7     -2746.248          46.000
C20  22293125.953 5 116086120.277 5       989.332          35.000
C23  23977793.758 5 124858640.361 5       170.758          34.000
C29  24101483.727 6 125502794.494 6     -1686.793          36.000
C30  25717368.039 5 133917101.951 5     -3208.539          35.000
E04  24070330.625 8 126490535.924 8     -1214.469          51.000    24070331.148 8  96921296.713 8      -930.525          51.000
E09  22166105.594 6 116483672.104 6      1105.523          38.000    22166111.805 6  89253711.554 6       847.050          39.000
E11  24357959.859 7 128001948.766 7     -2597.809          44.000    24357959.555 7  98079401.225 7     -1990.427          46.000
> 2020 05 06 00 02  0.0000000  0 13        .000000000000
G04  21042954.469 8 110581483.515 8     -1873.039          50.000    21042954.250 7  86167447.196 7     -1459.511          45.000
G07  23102623.828 8 121405082.062 8      3149.590          48.000    23102622.852 8  94601343.871 8      2454.226          48.000
G09  20283938.539 8 106592895.701 8       320.223          51.000    20283939.719 8  83059390.624 8       249.524          51.000
G19  24254483.305 7 127458156.854 7     -3113.180          44.000    24254479.172 7  99318024.884 7     -2425.854          43.000
R15  21512251.188 6 114954944.275 6      2910.109          36.000    21512258.234 5  89409410.919 5      2263.415          32.000
R20  21432529.664 6 114609355.888 6     -3547.676          36.000    21432532.148 7  89140623.092 7     -2759.303          46.000
C20  22287444.664 5 116056553.866 5       981.695          32.000
C23  23976857.031 5 124853775.061 5       153.137          34.000
C29  24111243.555 6 125553610.004 6     -1700.621          39.000
C30  25735853.305 5 134013367.988 5     -3208.898          31.000
E04  24077280.430 8 126527057.528 8     -1220.066          51.000    24077280.891 8  96949280.793 8      -934.895          51.000
E09  22159816.047 6 116450612.614 6      1098.906          40.000    22159820.125 6  89228380.210 6       841.675          37.000
E11  24372815.062 7 128080020.583 7     -2607.051          44.000    24372815.844 7  98139222.501 7     -1997.556          46.000
> 2020 05 06 00 02 30.0000000  0 14        .000000000000
G04  21053675.281 8 110637821.696 8     -1882.629          49.000    21053675.523 7  86211347.095 7     -1466.984          45.000
G07  23084663.977 8 121310703.626 8      3142.859          48.000    23084663.438 8  94527802.241 8      2448.981          48.000
G09  20282149.102 8 106583492.641 8       306.938          51.000    20282150.188 8  83052063.577 8       239.172          51.000
G19  24272272.180 7 127551639.804 7     -3118.449          42.000    24272268.258 7  99390868.749 7     -2429.960          42.000
R05  19742520.711 5 105535095.029 5      -645.484          33.000    19742519.695 4  82082851.340 4      -502.040          28.000
R14  21745093.188 5 115913582.448 5      -751.941          33.000
R15  21495963.461 5 114867920.124 5      2891.969          33.000
R20  21452477.484 5 114716028.253 5     -3563.180          35.000    21452480.711 7  89223590.499 7     -2771.362          44.000
C20  22281808.867 6 116027203.334 6       975.461          36.000
C29  24121082.008 6 125604834.350 6     -1713.434          40.000
C30  25754340.734 4 134109645.465 4     -3207.781          27.000
E04  24084259.438 8 126563732.911 8     -1224.516          51.000    24084259.828 8  96977382.704 8      -938.280          51.000
E09  22153562.641 6 116417742.454 6      1093.070          40.000    22153564.055 5  89203193.948 5       837.781          35.000
E11  24387722.211 7 128158356.265 7     -2615.094          47.000    24387722.531 7  98199245.926 7     -2003.713          46.000
> 2020 05 06 00 03  0.0000000  0 14        .000000000000
G04  21064454.211 8 110694465.387 8     -1894.805          49.000    21064454.648 7  86255485.050 7     -1476.471          45.000
G07  23066746.031 8 121216546.710 8      3133.480          48.000    23066745.883 8  94454433.221 8      2441.673          48.000
G09  20280439.203 8 106574506.852 8       291.168          51.000    20280440.188 8  83045061.664 8       226.884          51.000
G19  24290094.172 7 127645296.917 7     -3126.156          43.000    24290089.891 6  99463848.305 6     -2435.969          41.000
R05  19746175.414 6 105554629.103 6      -657.746          38.000    19746168.742 4  82098016.966 4      -511.580          27.000
R15  21479783.016 6 114781454.374 6      2871.180          40.000
R20  21472514.711 5 114823185.418 5     -3581.512          33.000    21472519.086 7  89306934.930 7     -2785.620          43.000
C20  22276214.352 5 115998066.743 5       965.863          31.000
C23  23975287.633 5 124845627.753 5       117.645          33.000
C29  24130997.500 6 125656463.124 6     -1728.750          39.000
C30  25772830.555 4 134205893.994 4     -3211.188          29.000
E04  24091267.023 8 126600559.008 8     -1231.504          51.000    24091267.453 8  97005600.100 8      -943.581          51.000
E09  22147344.422 6 116385059.041 6      1084.746          41.000    22147343.555 5  89178150.931 5       831.091          34.000
E11  24402679.445 8 128236951.594 8     -2625.719          48.000    24402679.266 7  98259468.284 7     -2011.855          47.000
> 2020 05 06 00 03 30.0000000  0 14        .000000000000
G04  21075293.125 8 110751423.706 8     -1903.504          49.000    21075293.266 7  86299868.143 7     -1483.250          45.000
G07  23048872.914 8 121122623.798 8      3127.367          49.000    23048872.734 8  94381246.530 8      2436.909          49.000
G09  20278810.688 8 106565948.567 8       278.586          51.000    20278811.578 8  83038392.871 8       217.080          51.000
G19  24307950.930 7 127739135.949 7     -3130.555          44.000    24307946.039 6  99536969.605 6     -2439.393          39.000
R05  19749891.305 6 105574483.381 6      -666.758          39.000    19749883.945 4  82113459.121 4      -518.589          28.000
R15  21463711.711 6 114695561.913 6      2853.957          40.000    21463720.438 5  89207678.350 5      2219.747          30.000
R20  21492645.039 6 114930834.123 6     -3595.961          36.000    21492649.305 7  89390661.646 7     -2796.859          43.000
C20  22270661.758 5 115969155.074 5       959.855          30.000
C23  23974644.430 4 124842314.845 4       102.023          28.000
C29  24140991.336 6 125708505.079 6     -1741.250          39.000
C30  25791325.148 4 134302194.468 4     -3209.832          29.000
E04  24098305.219 8 126637546.034 8     -1235.105          51.000    24098305.750 8  97033940.811 8      -946.436          51.000
E09  22141163.633 6 116352572.971 6      1079.949          40.000    22141161.328 6  89153259.068 6       827.760          36.000
E11  24417687.812 7 128315815.587 7     -2632.961          47.000    24417687.773 8  98319896.512 8     -2017.374          49.000
> 2020 05 06 00 04  0.0000000  0 12        .000000000000
G04  21086173.375 8 110808599.323 8     -1911.289          49.000    21086173.305 7  86344420.568 7     -1489.316          45.000
G07  23031026.914 8 121028841.613 8      3121.797          50.000    23031026.156 8  94308169.532 8      2432.569          50.000
G09  20277245.180 8 106557721.601 8       266.902          51.000    20277245.938 8  83031982.244 8       207.976          51.000
G19  24325823.766 7 127833057.766 7     -3133.547          43.000    24325818.312 6  99610155.384 6     -2441.725          40.000
R05  19753647.773 6 105594560.158 6      -675.016          40.000    19753645.555 5  82129085.924 5      -525.012          32.000
R14  21758481.664 5 115984897.095 5      -830.707          34.000
R15  21447729.203 5 114610149.588 5      2836.609          33.000    21447733.750 5  89141246.540 5      2206.264          31.000
R20  21512849.352 6 115038872.416 6     -3609.656          38.000    21512852.234 7  89474691.387 7     -2807.510          44.000
C29  24151045.812 6 125760863.462 6     -1752.477          41.000
E04  24105355.820 8 126674597.781 8     -1238.012          50.000    24105356.414 8  97062331.118 8      -948.621          51.000
E09  22135001.211 6 116320188.374 6      1076.164          39.000    22134998.852 6  89128444.965 6       824.740          37.000
E11  24432728.445 7 128394850.907 7     -2639.258          47.000    24432728.656 8  98380456.055 8     -2022.291          49.000
> 2020 05 06 00 04 30.0000000  0 13        .000000000000
G04  21097123.586 8 110866143.077 8     -1922.262          49.000    21097123.758 7  86389259.864 7     -1497.866          46.000
G07  23013237.219 8 120935355.174 8      3113.227          50.000    23013235.633 8  94235323.005 8      2425.894          50.000
G09  20275771.648 8 106549977.932 8       252.066          51.000    20275772.172 8  83025948.214 8       196.415          51.000
G19  24343740.992 6 127927211.336 6     -3140.152          41.000    24343735.203 6  99683521.784 6     -2446.875          40.000
R04  22535436.906 6 120676180.395 6     -2877.852          37.000
R05  19757474.328 6 105615014.565 6      -686.211          39.000    19757478.812 5  82144994.901 5      -533.717          35.000
R15  21431867.312 5 114525376.692 5      2817.727          34.000    21431870.492 5  89075312.099 5      2191.565          33.000
R20  21533154.586 6 115147450.987 6     -3626.484          38.000    21533157.297 7  89559141.335 7     -2820.599          46.000
C20  22259656.664 5 115911864.303 5       947.359          31.000
C29  24161190.305 7 125813687.465 7     -1766.496          42.000
E04  24112447.758 8 126711866.205 8     -1243.867          50.000    24112448.461 8  97090887.455 8      -953.138          51.000
E09  22128886.164 6 116288057.770 6      1068.645          37.000    22128884.555 6  89103825.391 6       818.906          38.000
E11  24447830.055 7 128474208.317 7     -2648.535          46.000    24447830.156 8  98441262.402 8     -2029.448          49.000
> 2020 05 06 00 05  0.0000000  0 13        .000000000000
G04  21108127.625 8 110923969.819 8     -1932.598          49.000    21108128.008 7  86434319.656 7     -1505.923          45.000
G07  22995488.031 8 120842083.265 8      3105.094          50.000    22995486.211 8  94162643.637 8      2419.554          50.000
G09  20274374.047 8 106542633.386 8       237.793          51.000    20274374.453 8  83020225.194 8       185.293          51.000
G19  24361685.430 6 128021509.596 6     -3145.488          37.000    24361680.039 5  99757000.942 5     -2451.030          34.000
R04  22551575.812 4 120762572.447 4     -2881.391          29.000
R05  19761355.516 6 105635760.910 6      -696.832          41.000    19761362.359 5  82161130.993 5      -541.980          34.000
R15  21416110.031 5 114441162.684 5      2797.461          34.000    21416109.867 5  89009812.238 5      2175.794          31.000
R20  21553543.742 6 115256480.415 6     -3642.031          39.000    21553547.070 7  89643942.006 7     -2832.691          47.000
C20  22254226.219 5 115883564.614 5       939.668          34.000
C29  24171407.961 7 125866892.316 7     -1780.188          42.000
E04  24119565.008 8 126749267.262 8     -1249.352          51.000    24119565.906 8  97119545.406 8      -957.256          51.000
E09  22122802.508 5 116256097.417 5      1062.785          35.000    22122803.805 6  89079336.243 6       813.740          40.000
E11  24462976.336 7 128553802.634 7     -2657.332          45.000    24462976.289 8  98502250.280 8     -2036.155          49.000
> 2020 05 06 00 05 30.0000000  0 13        .000000000000
G04  21119196.953 8 110982139.146 8     -1941.906          50.000    21119197.078 7  86479646.396 7     -1513.174          46.000
G07  22977791.484 8 120749089.472 8      3097.906          50.000    22977790.102 8  94090180.948 8      2413.953          50.000
G09  20273063.906 8 106535748.748 8       224.508          51.000    20273064.438 8  83014860.549 8       174.941          51.000
G19  24379667.414 5 128116018.836 5     -3149.988          30.000    24379663.656 5  99830638.289 5     -2454.539          30.000
R05  19765302.461 6 105656860.954 6      -706.121          41.000    19765308.766 5  82177542.153 5      -549.205          32.000
R15  21400465.680 5 114357573.473 5      2778.309          34.000    21400467.930 5  88944798.376 5      2160.904          30.000
R20  21574028.477 6 115366018.746 6     -3656.742          40.000    21574032.078 8  89729138.481 8     -2844.133          48.000
R21  20901606.711 5 111848691.402 5       359.336          32.000
C20  22248844.031 5 115855525.593 5       933.004          35.000
C29  24181709.680 7 125920536.704 7     -1792.707          42.000
E04  24126719.133 8 126786861.637 8     -1253.703          51.000    24126720.148 8  97148351.490 8      -960.672          51.000
E09  22116764.914 6 116224368.416 6      1056.449          40.000    22116767.438 6  89055024.354 6       809.454          40.000
E11  24478178.508 7 128633693.327 7     -2665.008          44.000    24478178.422 8  98563465.268 8     -2042.118          48.000
> 2020 05 06 00 06  0.0000000  0 14        .000000000000
G04  21130304.656 8 111040509.714 8     -1951.199          50.000    21130304.398 7  86525129.940 7     -1520.415          47.000
G07  22960121.805 8 120656236.770 8      3090.605          51.000    22960121.102 8  94017828.199 8      2408.264          51.000
G09  20271814.648 8 106529183.754 8       211.391          51.000    20271815.094 8  83009744.961 8       164.720          51.000
R04  22583887.812 5 120935636.341 5     -2885.535          31.000    22583888.383 4  94061095.493 4     -2244.308          29.000
R05  19769289.125 6 105678172.499 6      -715.910          40.000    19769294.109 5  82194117.779 5      -556.819          30.000
R14  21778405.414 5 116091141.265 5      -936.695          32.000
R20  21594581.594 6 115475919.296 6     -3671.574          39.000    21594584.586 7  89814616.681 7     -2855.669          47.000
R21  20899659.094 5 111838296.180 5       331.047          30.000
C20  22243484.297 5 115827609.187 5       926.195          31.000
C23  23972925.297 5 124833254.316 5        17.922          31.000
C29  24192068.609 7 125974480.266 7     -1805.402          42.000
E04  24133883.305 8 126824509.093 8     -1257.902          51.000    24133884.328 8  97177198.244 8      -963.820          51.000
E09  22110746.070 7 116192730.773 7      1050.875          42.000    22110747.820 6  89030782.567 6       805.419          39.000
E11  24493410.250 7 128713739.045 7     -2672.719          45.000    24493409.891 8  98624799.011 8     -2047.912          48.000
> 2020 05 06 00 06 30.0000000  0 13        .000000000000
G04  21141473.016 8 111099199.223 8     -1964.984          51.000    21141472.734 7  86570862.015 7     -1531.154          47.000
G07  22942502.336 8 120563646.860 8      3078.656          51.000    22942502.250 8  93945680.235 8      2398.953          51.000
G09  20270648.766 8 106523057.134 8       193.691          51.000    20270649.031 8  83004970.972 8       150.928          51.000
G19  24415688.914 5 128305307.636 5     -3164.168          34.000    24415686.359 5  99978151.887 5     -2465.588          33.000
R04  22600060.664 4 121022297.365 4     -2893.898          29.000    22600062.047 4  94128459.855 4     -2250.810          28.000
R05  19773337.922 6 105699816.494 6      -730.445          38.000    19773340.211 5  82210951.935 5      -568.130          30.000
R15  21369478.461 5 114191977.063 5      2736.191          35.000    21369479.938 5  88815997.951 5      2128.152          33.000
R20  21615223.133 6 115586298.830 6     -3690.629          37.000    21615225.828 7  89900467.433 7     -2870.489          46.000
C23  23972868.523 4 124832970.766 4        -3.242          29.000
C29  24202507.930 7 126028839.173 7     -1822.062          42.000
E04  24141080.219 8 126862328.452 8     -1266.715          50.000    24141081.117 8  97206176.720 8      -970.615          51.000
E09  22104767.461 7 116161303.811 7      1040.742          42.000    22104766.703 6  89006702.185 6       797.865          36.000
E11  24508694.367 7 128794057.405 7     -2684.914          46.000    24508693.625 7  98686341.658 7     -2057.233          47.000
> 2020 05 06 00 07  0.0000000  0 13        .000000000000
G04  21152697.305 8 111158183.309 8     -1970.062          51.000    21152697.336 8  86616823.632 8     -1535.114          48.000
G07  22924929.250 8 120471299.198 8      3075.164          51.000    22924929.281 8  93873721.024 8      2396.232          51.000
G09  20269561.805 8 106517345.652 8       184.320          51.000    20269562.188 8  83000520.470 8       143.626          51.000
G19  24433745.961 6 128400194.709 6     -3164.098          38.000    24433740.219 4 100052089.792 4     -2465.522          28.000
R04  22616264.547 4 121109032.424 4     -2891.727          29.000
R05  19777444.312 5 105721769.262 5      -736.078          32.000    19777446.039 5  82228026.295 5      -572.502          33.000
R15  21354151.734 6 114110080.761 6      2720.777          39.000    21354154.141 4  88752301.067 4      2116.166          29.000
R20  21635948.797 6 115697130.011 6     -3700.867          38.000    21635951.352 7  89986669.490 7     -2878.449          47.000
C23  23972902.664 5 124833189.204 5       -15.895          31.000
C29  24213022.367 6 126083589.002 6     -1830.723          40.000
E04  24148305.398 8 126900296.507 8     -1267.090          50.000    24148306.195 8  97235269.119 8      -970.896          51.000
E09  22098823.547 6 116130064.600 6      1039.363          38.000    22098818.578 5  88982765.707 5       796.159          33.000
E11  24524025.891 7 128874623.945 7     -2688.520          46.000    24524024.750 7  98748074.461 7     -2060.049          47.000
> 2020 05 06 00 07 30.0000000  0 14        .000000000000
G04  21163976.617 8 111217456.983 8     -1979.637          51.000    21163976.969 7  86663010.911 7     -1542.574          47.000
G07  22907402.398 8 120379192.526 8      3067.152          51.000    22907401.578 8  93801949.624 8      2389.989          51.000
G09  20268553.086 8 106512045.297 8       170.848          51.000    20268553.547 8  82996390.325 8       133.128          51.000
G19  24451830.805 6 128495225.177 6     -3168.617          41.000    24451824.008 5 100126139.509 5     -2469.046          33.000
R05  19781607.781 5 105744027.036 5      -746.059          34.000    19781610.828 5  82245337.930 5      -580.262          33.000
R14  21794884.266 5 116178943.298 5     -1013.910          30.000
R15  21338938.500 7 114028778.656 7      2701.254          42.000
R20  21656757.922 6 115808405.044 6     -3715.676          38.000    21656760.578 7  90073216.723 7     -2889.973          47.000
C20  22227661.227 5 115745257.753 5       905.602          32.000
C23  23973049.211 5 124833937.054 5       -32.555          33.000
C29  24223610.719 6 126138724.358 6     -1843.262          39.000
E04  24155558.070 8 126938409.355 8     -1271.906          50.000    24155558.812 8  97264472.454 8      -974.482          51.000
E09  22092913.805 6 116099009.704 6      1033.285          38.000    22092906.125 5  88958980.453 5       791.660          31.000
E11  24539403.461 7 128955433.561 7     -2696.488          46.000    24539401.844 7  98809993.496 7     -2066.149          47.000
> 2020 05 06 00 08  0.0000000  0 15        .000000000000
G04  21175304.969 8 111276988.796 8     -1986.078          51.000    21175305.438 7  86709399.331 7     -1547.593          47.000
G07  22889916.461 8 120287300.094 8      3062.082          51.000    22889914.133 8  93730345.181 8      2386.041          51.000
G09  20267616.797 8 106507125.683 8       160.234          51.000    20267617.234 8  82992556.858 8       124.858          51.000
G19  24469936.492 7 128590366.573 7     -3170.219          42.000    24469930.172 5 100200275.574 5     -2470.297          31.000
R04  22648699.078 5 121282728.085 5     -2894.352          32.000    22648702.156 4  94331030.797 4     -2251.165          29.000
R05  19785822.391 6 105766559.347 6      -753.160          38.000    19785825.633 5  82262863.068 5      -585.791          31.000
R14  21800674.961 5 116209831.241 5     -1037.312          31.000
R15  21323830.414 6 113948044.013 6      2684.395          39.000    21323832.320 5  88626257.562 5      2087.868          35.000
R20  21677643.492 6 115920088.911 6     -3726.910          37.000    21677646.141 7  90160081.966 7     -2898.705          46.000
C20  22222469.344 5 115718205.814 5       901.738          34.000
C23  23973284.898 5 124835168.338 5       -46.816          31.000
C29  24234267.062 6 126194213.636 6     -1852.941          39.000
E04  24162832.406 8 126976636.589 8     -1273.535          49.000    24162833.047 8  97293763.446 8      -975.760          50.000
E09  22087033.164 6 116068109.164 6      1030.391          37.000    22087024.062 5  88935294.488 5       789.245          31.000
E11  24554821.273 7 129036454.664 7     -2701.609          46.000    24554819.133 7  98872074.585 7     -2069.915          47.000
> 2020 05 06 00 08 30.0000000  0 15        .000000000000
G04  21186687.789 8 111336806.503 8     -1999.324          51.000    21186688.211 7  86756010.525 7     -1557.915          46.000
G07  22872477.156 8 120195653.423 8      3050.117          51.000    22872473.625 8  93658932.228 8      2376.715          51.000
G09  20266758.555 8 106502615.629 8       143.020          51.000    20266759.086 8  82989042.536 8       111.444          51.000
G19  24488067.781 7 128685643.453 7     -3178.770          43.000    24488062.797 4 100274517.268 4     -2476.969          28.000
R04  22664943.672 4 121369698.669 4     -2900.598          29.000
R05  19790094.867 7 105789395.382 7      -766.867          42.000    19790096.578 5  82280624.460 5      -596.452          30.000
R14  21806606.180 5 116241453.276 5     -1067.258          34.000
R15  21308835.594 6 113867911.143 6      2660.414          40.000    21308837.625 6  88563932.036 6      2069.208          37.000
R20  21698609.836 6 116032206.979 6     -3744.773          36.000    21698612.766 7  90247284.922 7     -2912.602          45.000
C20  22217316.547 5 115691370.747 5       890.566          31.000
C23  23973618.672 5 124836915.011 5       -67.645          35.000
C29  24244996.016 5 126250083.923 5     -1869.184          34.000
E04  24170133.820 8 127015007.159 8     -1282.055          48.000    24170134.609 8  97323164.285 8      -982.363          49.000
E09  22081186.250 5 116037392.227 5      1020.527          34.000    22081178.664 5  88911755.147 5       781.705          32.000
E11  24570285.023 7 129117714.976 7     -2713.301          47.000    24570282.297 7  98934338.974 7     -2079.095          47.000
> 2020 05 06 00 09  0.0000000  0 16        .000000000000
G04  21198129.609 8 111396933.541 8     -2009.262          51.000    21198129.875 7  86802862.753 7     -1565.658          45.000
G07  22855089.398 8 120104279.690 8      3041.398          51.000    22855085.844 8  93587731.931 8      2369.921          51.000
G09  20265982.883 8 106498539.599 8       128.754          51.000    20265983.617 8  82985866.417 8       100.328          51.000
G19  24506228.695 7 128781077.860 7     -3183.500          42.000    24506223.203 5 100348881.770 5     -2480.643          30.000
R04  22681205.797 5 121456782.543 5     -2904.254          33.000
R05  19794428.484 6 105812560.452 6      -777.871          38.000    19794430.742 4  82298641.754 4      -605.011          28.000
R14  21812667.359 5 116273790.526 5     -1094.285          31.000
R15  21293958.367 5 113788409.386 5      2639.301          35.000    21293960.156 6  88502097.332 6      2052.789          38.000
R20  21719661.203 6 116144780.596 6     -3760.082          37.000    21719665.219 7  90334842.157 7     -2924.508          45.000
R21  20891382.359 5 111794005.898 5       159.875          31.000
C20  22212205.359 5 115664769.685 5       882.586          31.000
C23  23974051.258 5 124839200.379 5       -85.035          34.000
C29  24255800.109 5 126306358.213 5     -1882.875          33.000
E04  24177467.125 8 127053545.611 8     -1287.242          48.000    24177468.180 8  97352693.754 8      -986.406          48.000
E09  22075378.375 5 116006905.837 5      1013.219          35.000    22075375.609 6  88888378.578 6       776.790          36.000
E11  24585799.008 8 129199237.839 8     -2721.840          49.000    24585795.781 8  98996804.519 8     -2085.542          49.000
> 2020 05 06 00 09 30.0000000  0 16        .000000000000
G02  23386985.281 6 122899436.946 6      2290.098          36.000
G04  21209623.383 8 111457333.413 8     -2012.109          50.000    21209623.477 7  86849927.585 7     -1567.877          45.000
G07  22837747.070 8 120013146.772 8      3039.461          50.000    22837744.312 8  93516719.248 8      2368.411          50.000
G09  20265283.000 8 106494862.073 8       121.625          51.000    20265283.734 8  82983000.816 8        94.773          51.000
G19  24524412.055 6 128876631.843 6     -3181.242          41.000    24524405.508 4 100423339.341 4     -2478.890          29.000
R04  22697483.297 5 121543943.562 5     -2900.320          30.000
R05  19798816.805 6 105836018.865 6      -780.766          38.000
R14  21818927.234 5 116307132.751 5     -1114.613          31.000
R15  21279192.727 5 113709507.138 5      2626.082          33.000    21279194.047 5  88440728.862 5      2042.499          33.000
R20  21740790.414 6 116257769.703 6     -3767.492          36.000    21740795.469 7  90422722.586 7     -2930.272          44.000
C20  22207146.336 5 115638384.477 5       882.355          31.000
C23  23974587.125 5 124841990.429 5       -95.992          34.000
C29  24266675.477 5 126362999.521 5     -1888.582          31.000
E04  24184825.844 8 127092216.555 8     -1285.496          48.000    24184826.992 7  97382324.725 7      -985.107          47.000
E09  22069605.180 6 115976570.880 6      1014.023          38.000    22069606.961 6  88865134.890 6       776.922          40.000
E11  24601356.094 8 129280986.534 8     -2723.176          50.000    24601352.609 8  99059443.115 8     -2086.535          50.000
> 2020 05 06 00 10  0.0000000  0 16        .000000000000
G04  21221161.617 8 111517967.305 8     -2027.082          50.000    21221161.695 7  86897174.766 7     -1579.544          45.000
G07  22820443.914 8 119922219.494 8      3025.406          50.000    22820442.008 8  93445866.801 8      2357.459          50.000
G09  20264651.812 8 106491545.206 8       102.602          51.000    20264652.453 8  82980416.257 8        79.949          51.000
G19  24542610.359 6 128972265.255 6     -3191.117          38.000    24542603.641 4 100497858.930 4     -2486.582          29.000
R04  22713765.008 5 121631143.541 5     -2909.391          33.000    22713758.984 4  94602008.213 4     -2262.856          27.000
R05  19803253.102 6 105859731.968 6      -796.914          39.000    19803249.398 4  82335335.206 4      -619.816          26.000
R14  21825280.156 5 116341053.482 5     -1145.574          31.000
R15  21264530.516 5 113631170.450 5      2599.574          35.000    21264531.812 4  88379800.325 4      2021.891          29.000
R20  21761989.195 6 116371131.662 6     -3786.863          36.000    21761995.094 7  90510892.982 7     -2945.338          42.000
R21  20889889.039 5 111785986.628 5       104.082          31.000
C20  22202114.781 5 115612171.021 5       869.113          34.000
C23  23975212.180 6 124845248.072 6      -118.184          37.000
C29  24277615.086 5 126419969.046 5     -1906.953          32.000
E04  24192202.891 7 127130982.241 7     -1295.883          47.000    24192203.727 7  97412028.295 7      -992.835          46.000
E09  22063859.766 6 115946372.049 6      1002.359          40.000    22063864.047 6  88841995.491 6       767.964          41.000
E11  24616948.539 8 129362922.154 8     -2736.496          50.000    24616945.227 8  99122224.930 8     -2096.766          51.000
> 2020 05 06 00 10 30.0000000  0 15        .000000000000
G04  21232760.867 8 111578922.055 8     -2036.312          51.000    21232760.922 7  86944671.958 7     -1586.737          44.000
G07  22803197.492 8 119831588.666 8      3017.160          51.000    22803195.898 8  93375245.371 8      2351.034          51.000
G09  20264106.094 8 106488676.865 8        89.184          51.000    20264106.711 8  82978181.192 8        69.494          51.000
G19  24560839.664 5 129068063.025 5     -3195.387          34.000    24560832.906 5 100572506.505 5     -2489.909          32.000
R04  22730070.633 5 121718458.037 5     -2911.625          30.000    22730071.359 4  94669934.368 4     -2264.603          26.000
R05  19807753.633 6 105883789.958 6      -806.887          37.000    19807758.547 5  82354060.470 5      -627.579          30.000
R14  21831799.414 5 116375813.163 5     -1171.168          33.000
R15  21249991.766 5 113553493.244 5      2580.051          32.000    21249994.406 5  88319384.834 5      2006.715          30.000
R20  21783274.477 5 116484952.002 5     -3800.793          35.000    21783279.414 6  90599419.838 6     -2956.178          40.000
C20  22197132.750 5 115586217.112 5       862.562          32.000
C23  23975944.336 5 124849061.240 5      -135.668          32.000
C29  24288634.320 6 126477352.338 6     -1918.480          37.000
E04  24199614.828 7 127169930.660 7     -1300.395          46.000    24199614.734 7  97441871.900 7      -996.466          46.000
E09  22058157.109 6 115916397.581 6       996.734          39.000    22058161.359 6  88819028.000 6       763.627          39.000
E11  24632592.828 8 129445131.328 8     -2743.988          51.000    24632589.758 8  99185216.360 8     -2102.530          51.000
> 2020 05 06 00 11  0.0000000  0 11        .000000000000
G04  21244423.352 8 111640208.822 8     -2055.141          50.000    21244423.289 7  86992427.870 7     -1601.411          44.000
G07  22786010.656 8 119741269.568 8      2998.684          51.000    22786008.984 8  93304866.877 8      2336.640          51.000
G09  20263647.969 8 106486269.256 8        65.910          51.000    20263648.727 8  82976305.146 8        51.359          51.000
R05  19812321.680 6 105908204.973 6      -826.832          39.000    19812327.734 5  82373049.877 5      -643.095          30.000
R20  21804646.914 5 116599239.281 5     -3824.004          32.000    21804650.602 6  90688309.846 6     -2974.228          41.000
C20  22192197.070 5 115560536.056 5       845.445          33.000
C23  23976786.203 6 124853442.333 6      -162.281          36.000
C29  24299735.109 5 126535160.091 5     -1940.746          33.000
E04  24207063.773 7 127209074.113 7     -1314.812          46.000    24207062.820 7  97471864.961 7     -1007.445          46.000
E09  22052497.773 6 115886660.156 6       980.648          36.000    22052501.273 6  88796242.197 6       751.289          38.000
E11  24648291.117 8 129527625.216 8     -2761.461          51.000    24648288.258 8  99248425.957 8     -2115.922          51.000
> 2020 05 06 00 11 30.0000000  0 13        .000000000000
G04  21256133.086 8 111701743.781 8     -2054.957          50.000    21256133.055 7  87040377.179 7     -1601.265          45.000
G07  22768867.766 8 119651181.849 8      2999.523          51.000    22768865.797 8  93234668.692 8      2337.291          51.000
G09  20263261.641 8 106484239.468 8        61.730          51.000    20263262.539 8  82974723.501 8        48.102          51.000
R04  22762752.289 5 121893498.494 5     -2918.004          31.000    22762751.820 5  94806056.943 5     -2269.559          31.000
R05  19816941.570 6 105932893.325 6      -827.016          40.000    19816942.547 5  82392251.866 5      -643.237          30.000
R20  21826090.008 5 116713905.310 5     -3827.324          30.000    21826094.438 7  90777494.564 7     -2976.808          43.000
R21  20888866.383 5 111780558.072 5        18.809          31.000
C20  22187300.023 5 115535046.674 5       846.703          30.000
C23  23977720.945 5 124858310.305 5      -169.637          35.000
C29  24310900.883 5 126593308.543 5     -1943.434          31.000
E04  24214534.055 7 127248329.916 7     -1309.969          45.000    24214532.812 7  97501944.096 7     -1003.772          46.000
E09  22046866.680 5 115857066.462 5       983.781          33.000    22046871.242 6  88773574.952 6       754.004          38.000
E11  24664026.977 8 129610319.725 8     -2759.484          50.000    24664024.914 8  99311789.267 8     -2114.338          51.000
> 2020 05 06 00 12  0.0000000  0 12        .000000000000
G04  21267867.852 8 111763410.242 8     -2062.887          50.000    21267867.914 7  87088428.956 7     -1607.444          45.000
G07  22751747.359 8 119561213.655 8      2991.824          50.000    22751745.266 8  93164563.626 8      2331.295          50.000
G09  20262925.227 8 106482471.815 8        49.445          51.000    20262926.203 8  82973346.096 8        38.529          51.000
R05  19821590.312 6 105957737.612 6      -836.176          39.000    19821585.969 5  82411575.137 5      -650.365          32.000
R14  21852232.672 5 116484656.934 5     -1248.027          34.000    21852236.344 5  90599197.995 5      -970.682          30.000
R15  21207078.859 6 113324192.365 6      2517.219          37.000    21207083.734 6  88141054.827 6      1957.837          37.000
C20  22182417.438 5 115509635.414 5       840.359          32.000
C23  23978727.883 5 124863550.832 5      -186.000          32.000
C29  24322113.203 5 126651621.662 5     -1954.371          30.000
E04  24222003.625 7 127287582.465 7     -1313.582          46.000    24222002.555 7  97532020.723 7     -1006.409          46.000
E09  22041243.125 5 115827515.317 5       978.977          34.000    22041249.305 6  88750938.012 6       750.134          36.000
E11  24679777.961 8 129693098.031 8     -2765.812          48.000    24679777.352 8  99375216.821 8     -2119.295          51.000
> 2020 05 06 00 12 30.0000000  0 13        .000000000000
G04  21279666.945 8 111825414.782 8     -2071.418          50.000    21279666.961 7  87136744.179 7     -1614.092          45.000
G07  22734689.320 8 119471574.913 8      2983.703          48.000    22734687.648 8  93094715.284 8      2324.967          48.000
G09  20262678.180 8 106481173.786 8        36.645          51.000    20262679.391 8  82972334.648 8        28.554          51.000
R05  19826306.648 6 105982949.122 6      -845.332          38.000    19826301.250 5  82431184.096 5      -657.484          32.000
R14  21859330.883 4 116522469.382 4     -1272.898          29.000    21859331.789 5  90628607.804 5      -990.032          30.000
R15  21192997.648 6 113248970.437 6      2496.969          37.000    21193004.711 5  88082548.996 5      1942.090          33.000
C20  22177590.039 5 115484509.135 5       833.922          32.000
C23  23979845.172 5 124869370.227 5      -202.203          35.000
C29  24333407.781 6 126710423.676 6     -1965.992          37.000
E04  24229512.133 7 127327039.432 7     -1317.488          46.000    24229511.281 7  97562253.989 7     -1009.459          47.000
E09  22035667.617 6 115798219.749 6       973.590          37.000    22035674.461 6  88728490.739 6       746.198          36.000
E11  24695583.586 7 129776166.514 7     -2772.500          47.000    24695584.586 8  99438866.721 8     -2124.356          51.000
E31  27953737.391 7 146897879.927 7      2958.828          42.000    27953743.641 7 112558138.452 7      2267.100          46.000
> 2020 05 06 00 13  0.0000000  0 15        .000000000000
G04  21291510.430 8 111887652.569 8     -2081.633          49.000    21291510.344 7  87185241.156 7     -1622.052          45.000
G07  22717674.422 7 119382164.544 7      2973.250          47.000    22717673.531 8  93025044.880 8      2316.818          48.000
G09  20262500.805 8 106480241.533 8        21.781          51.000    20262502.164 8  82971608.229 8        16.972          51.000
R04  22811821.539 5 122156252.177 5     -2925.988          35.000    22811822.094 5  95010431.526 5     -2275.772          31.000
R05  19831070.906 6 106008422.613 6      -857.000          37.000    19831067.023 5  82450996.829 5      -666.556          33.000
R14  21866563.312 5 116561016.055 5     -1300.652          32.000    21866561.094 5  90658588.573 5     -1011.615          32.000
R15  21179033.320 6 113174346.796 6      2474.336          37.000    21179039.188 6  88024508.289 6      1924.480          36.000
R21  20889221.805 5 111782408.098 5       -65.957          32.000    20889218.898 4  86941887.144 4       -51.288          25.000
C20  22172798.383 5 115459565.895 5       825.492          34.000
C23  23981055.023 5 124875666.306 5      -220.547          34.000
C29  24344764.266 6 126769550.152 6     -1979.621          38.000
E04  24237039.922 7 127366597.163 7     -1323.375          46.000    24237038.969 7  97592564.476 7     -1014.077          47.000
E09  22030120.602 6 115769068.343 6       966.168          40.000    22030127.195 6  88706153.940 6       740.367          38.000
E11  24711425.250 8 129859420.194 8     -2781.141          48.000    24711426.977 8  99502658.519 8     -2130.986          51.000
E31  27936838.898 6 146809079.088 6      2957.730          40.000    27936845.562 7 112490096.225 7      2266.247          47.000
> 2020 05 06 00 13 30.0000000  0 14        .000000000000
G04  21303416.578 8 111950219.763 8     -2088.730          50.000    21303416.477 7  87233994.819 7     -1627.582          45.000
G07  22700721.984 7 119293083.127 7      2966.410          46.000    22700721.891 7  92955630.779 7      2311.488          45.000
G09  20262411.570 8 106479772.110 8        10.254          51.000    20262412.766 8  82971242.443 8         7.990          51.000
R04  22828215.758 5 122244061.213 5     -2926.641          32.000    22828214.102 5  95078727.362 5     -2276.273          31.000
R05  19835897.531 6 106034247.299 6      -864.340          36.000    19835902.258 5  82471089.891 5      -672.258          31.000
R14  21873951.211 5 116600467.027 5     -1324.957          30.000    21873947.688 4  90689237.965 4     -1030.525          27.000
R15  21165197.922 5 113100424.268 5      2454.336          30.000    21165206.266 6  87967013.047 6      1908.934          36.000
C20  22168060.766 5 115434902.960 5       819.797          33.000
C23  23982375.977 5 124882535.794 5      -236.398          31.000
C29  24356201.164 6 126829095.638 6     -1989.469          40.000
E04  24244605.273 7 127406352.869 7     -1326.094          45.000    24244604.195 7  97623026.658 7     -1016.137          47.000
E09  22024620.836 6 115740158.674 6       962.000          41.000    22024625.719 6  88684002.363 6       737.042          39.000
E11  24727321.484 8 129942955.053 8     -2786.719          50.000    24727323.062 8  99566665.757 8     -2135.284          50.000
E31  27919950.633 6 146720330.928 6      2959.469          39.000    27919957.133 7 112422094.348 7      2267.786          46.000
> 2020 05 06 00 14  0.0000000  0 14        .000000000000
G04  21315366.805 8 112013018.548 8     -2097.055          50.000    21315366.750 7  87282928.931 7     -1634.069          44.000
G07  22683814.438 7 119204236.738 7      2957.781          46.000    22683814.898 7  92886399.829 7      2304.768          46.000
G09  20262391.859 8 106479668.672 8        -2.477          51.000    20262392.914 8  82971161.840 8        -1.930          51.000
R04  22844619.086 5 122331916.868 5     -2928.613          34.000    22844624.148 5  95147059.544 5     -2277.813          33.000
R05  19840779.508 6 106060335.434 6      -874.238          38.000    19840788.578 5  82491400.996 5      -679.963          30.000
R14  21881477.047 4 116640577.023 4     -1348.336          29.000    21881478.016 4  90720457.780 4     -1048.709          28.000
R15  21151476.984 6 113027080.193 6      2434.156          36.000    21151485.016 5  87909987.419 5      1893.230          35.000
C20  22163358.867 5 115410425.547 5       812.895          31.000
C23  23983787.977 5 124889883.254 5      -252.945          30.000
C29  24367699.398 6 126888962.758 6     -2000.695          41.000
E04  24252189.844 7 127446209.924 7     -1330.102          44.000    24252188.531 7  97653566.480 7     -1019.139          47.000
E09  22019148.891 6 115711394.367 6       956.355          40.000    22019151.430 6  88661962.157 6       732.950          40.000
E11  24743253.266 8 130026673.118 8     -2793.391          50.000    24743253.977 8  99630813.351 8     -2140.369          50.000
E31  27903055.078 6 146631541.161 6      2960.609          39.000    27903060.305 7 112354060.637 7      2268.420          45.000
> 2020 05 06 00 14 30.0000000  0 15        .000000000000
G04  21327375.594 8 112076125.276 8     -2106.477          49.000    21327375.461 7  87332103.011 7     -1641.410          43.000
G06  21078180.727 6 110766578.032 6       272.094          36.000    21078180.258 6  86311627.687 6       212.021          36.000
G07  22666967.406 8 119115705.432 8      2947.988          48.000    22666967.938 8  92817414.406 8      2297.134          48.000
G09  20262456.547 8 106480008.458 8       -16.484          51.000    20262457.586 8  82971426.615 8       -12.845          51.000
R04  22861050.398 5 122419898.453 5     -2932.699          34.000    22861056.109 5  95215489.615 5     -2280.988          34.000
R05  19845729.695 6 106086783.299 6      -884.359          39.000    19845729.203 4  82511962.451 4      -687.832          29.000
R15  21137886.250 6 112954454.124 6      2411.461          37.000    21137893.523 5  87853500.521 5      1875.584          35.000
R20  21956203.188 5 117409703.600 5     -3903.371          34.000    21956195.922 5  91318624.591 5     -3035.958          33.000
C20  22158707.734 4 115386211.156 4       805.227          29.000
C23  23985308.141 5 124897785.882 5      -270.176          30.000
C29  24379274.117 7 126949226.620 7     -2012.996          43.000
E04  24259808.133 7 127486245.742 7     -1335.230          43.000    24259806.805 7  97684243.303 7     -1023.185          46.000
E09  22013718.461 6 115682853.294 6       949.758          41.000    22013719.984 7  88640093.009 7       727.766          42.000
E11  24759234.500 8 130110650.558 8     -2801.172          51.000    24759234.094 8  99695159.688 8     -2146.433          49.000
E31  27886166.922 6 146542789.883 6      2960.059          41.000    27886170.336 7 112286056.446 7      2268.010          44.000
> 2020 05 06 00 15  0.0000000  0 15        .000000000000
G04  21339437.508 8 112139511.244 8     -2118.652          49.000    21339437.078 7  87381494.677 7     -1650.898          42.000
G06  21076694.484 6 110758770.645 6       248.570          37.000    21076696.133 6  86305544.033 6       193.691          36.000
G07  22650176.016 8 119027464.224 8      2935.371          49.000    22650176.438 8  92748655.041 8      2287.302          49.000
G09  20262600.352 8 106480763.665 8       -33.109          51.000    20262601.406 8  82972015.093 8       -25.800          51.000
R04  22877498.070 4 122507977.881 4     -2938.066          28.000    22877503.930 5  95283995.877 5     -2285.166          32.000
R05  19850735.461 6 106113536.772 6      -898.289          40.000    19850733.227 5  82532770.748 5      -698.669          31.000
R15  21124420.578 6 112882494.061 6      2386.391          41.000    21124426.305 5  87797531.575 5      1856.079          32.000
R20  21978150.062 6 117527055.458 6     -3919.535          36.000    21978141.938 5  91409898.169 5     -3048.533          31.000
C20  22154111.984 6 115362236.925 6       794.449          36.000
C23  23986959.273 5 124906410.159 5      -290.711          32.000
C29  24390919.109 7 127009858.112 7     -2028.238          44.000
E04  24267455.164 6 127526432.802 6     -1343.316          41.000    24267453.875 7  97715035.984 7     -1029.312          46.000
E09  22008323.984 6 115654508.123 6       940.617          39.000    22008326.016 7  88618374.006 7       720.607          42.000
E11  24775259.414 8 130194858.417 8     -2811.777          51.000    24775257.742 8  99759682.581 8     -2154.581          48.000
E31  27869280.891 7 146454052.012 7      2956.711          43.000    27869282.742 7 112218062.548 7      2265.388          43.000
> 2020 05 06 00 15 30.0000000  0 16        .000000000000
G04  21351543.961 8 112203131.198 8     -2121.418          49.000    21351543.453 7  87431068.622 7     -1653.056          42.000
G06  21075319.906 6 110751543.553 6       234.426          38.000    21075322.219 6  86299912.529 6       182.669          38.000
G07  22633432.047 8 118939472.009 8      2931.820          50.000    22633432.109 8  92680089.700 8      2284.535          49.000
G09  20262814.734 8 106481889.972 8       -40.660          51.000    20262815.758 8  82972892.729 8       -31.686          51.000
R04  22893958.359 5 122596085.192 5     -2935.871          32.000    22893960.914 4  95352519.210 4     -2283.449          29.000
R05  19855790.469 7 106140558.960 7      -902.230          42.000    19855790.547 5  82553788.038 5      -701.735          35.000
R15  21111071.555 6 112811159.273 6      2370.188          39.000    21111075.172 5  87742048.948 5      1843.482          30.000
R20  22000160.180 5 117644748.255 5     -3925.555          34.000    22000152.406 5  91501436.902 5     -3053.212          33.000
R21  20893044.141 5 111802881.253 5      -203.578          31.000    20893037.203 4  86957795.108 4      -158.332          24.000
C20  22149545.805 6 115338453.385 6       792.621          37.000
C23  23988662.633 5 124915325.717 5      -302.410          33.000
C29  24402625.500 7 127070811.794 7     -2034.316          43.000
E04  24275122.812 6 127566726.890 6     -1342.027          40.000    24275121.508 7  97745910.672 7     -1028.169          46.000
E09  22002958.219 6 115626315.115 6       940.410          37.000    22002960.828 7  88596771.580 7       720.493          43.000
E11  24791319.164 8 130279251.184 8     -2813.090          50.000    24791316.156 7  99824347.143 7     -2155.568          47.000
E31  27852389.617 7 146365285.947 7      2962.355          44.000    27852390.180 7 112150047.037 7      2269.791          43.000
> 2020 05 06 00 16  0.0000000  0 15        .000000000000
G04  21363688.539 8 112266951.376 8     -2132.559          48.000    21363688.469 7  87480798.608 7     -1661.734          42.000
G06  21074049.414 6 110744865.275 6       211.629          36.000    21074050.648 6  86294708.680 6       164.906          36.000
G07  22616729.773 8 118851698.965 8      2920.145          50.000    22616728.984 8  92611695.127 8      2275.437          50.000
G09  20263093.477 8 106483354.474 8       -56.418          51.000    20263094.359 8  82974033.898 8       -43.962          51.000
R04  22910420.352 5 122684237.487 5     -2940.703          34.000    22910423.227 4  95421082.114 4     -2287.211          29.000
R05  19860889.570 7 106167817.507 7      -914.559          44.000    19860889.711 6  82574989.132 6      -711.323          36.000
R15  21097834.523 6 112740420.557 6      2346.188          39.000    21097838.375 5  87687029.983 5      1824.809          31.000
R20  22022226.859 5 117762744.964 5     -3940.156          30.000    22022219.773 5  91593212.039 5     -3064.566          34.000
C20  22145007.312 5 115314832.396 5       783.188          34.000
C23  23990440.094 5 124924693.719 5      -321.598          35.000
C29  24414386.609 7 127132053.664 7     -2048.168          43.000
E04  24282804.766 6 127607095.426 6     -1348.688          39.000    24282803.555 7  97776842.408 7     -1033.371          46.000
E09  21997614.992 6 115598241.994 6       931.648          37.000    21997618.281 7  88575260.966 7       714.121          42.000
E11  24807407.180 8 130363794.936 8     -2822.617          49.000    24807403.234 7  99889127.393 7     -2162.806          46.000
E31  27835487.273 7 146276461.609 7      2959.738          45.000    27835487.172 7 112081986.863 7      2267.881          43.000
> 2020 05 06 00 16 30.0000000  0 15        .000000000000
G04  21375883.539 7 112331036.757 7     -2138.199          47.000    21375884.031 7  87530735.268 7     -1666.129          43.000
G06  21072895.477 6 110738802.886 6       194.562          38.000    21072897.461 6  86289984.692 6       151.604          38.000
G07  22600082.125 8 118764213.576 8      2913.852          50.000    22600080.633 8  92543524.712 8      2270.534          50.000
G09  20263449.055 8 106485223.060 8       -66.812          51.000    20263449.930 8  82975489.947 8       -52.062          51.000
R04  22926897.109 5 122772477.365 5     -2940.203          32.000
R05  19866045.758 7 106195379.582 7      -921.473          43.000    19866046.500 6  82596426.261 6      -716.704          39.000
R14  21921261.938 5 116852631.670 5     -1473.961          33.000    21921268.492 4  90885433.197 4     -1146.414          27.000
R15  21084721.297 6 112670349.272 6      2326.766          37.000    21084727.711 5  87632530.318 5      1809.716          33.000
C20  22140510.711 5 115291440.303 5       778.516          34.000
C23  23992326.906 5 124934580.403 5      -336.566          32.000
C29  24426215.664 7 127193647.404 7     -2056.605          44.000
E04  24290513.422 6 127647604.501 6     -1350.238          39.000    24290512.305 7  97807881.832 7     -1034.541          46.000
E09  21992307.453 6 115570355.127 6       928.809          38.000    21992311.344 7  88553893.095 7       711.753          42.000
E11  24823535.984 8 130448554.430 8     -2826.637          48.000    24823532.023 7  99954072.951 7     -2165.942          46.000
E31  27818586.781 7 146187647.638 7      2962.684          45.000    27818586.547 7 112013934.602 7      2270.075          43.000
> 2020 05 06 00 17  0.0000000  0 15        .000000000000
G04  21388135.633 8 112395421.726 8     -2151.371          48.000    21388136.227 7  87580905.376 7     -1676.393          44.000
G06  21071866.242 6 110733392.799 6       169.469          40.000    21071868.547 6  86285769.016 6       132.051          40.000
G07  22583496.188 8 118677054.187 8      2899.586          49.000    22583494.375 8  92475608.320 8      2259.418          48.000
G09  20263888.266 8 106487530.975 8       -84.312          51.000    20263889.148 8  82977288.324 8       -65.698          51.000
R05  19871265.992 7 106223281.563 7      -935.953          44.000    19871266.781 6  82618127.769 6      -727.964          39.000
R14  21929634.844 5 116897292.473 5     -1503.914          31.000    21929640.461 4  90920140.294 4     -1169.711          29.000
R15  21071741.250 6 112600985.862 6      2300.414          36.000    21071747.172 5  87578580.958 5      1789.211          31.000
R21  20897225.938 5 111825276.248 5      -292.945          30.000
C20  22136066.695 5 115268313.358 5       766.426          35.000
C23  23994325.383 5 124945020.820 5      -357.586          33.000
C29  24438118.961 7 127255626.477 7     -2072.520          45.000
E04  24298255.578 6 127688289.604 6     -1359.219          38.000    24298254.461 7  97839056.166 7     -1041.575          46.000
