     3.02           OBSERVATION DATA    M (MIXED)           RINEX VERSION / TYPE
SAVERINEX           SC600               20200510 195931 LCL PGM / RUN BY / DATE
       G = GPS       R = GLONASS       C = COMPASS          COMMENT
       S = SBAS      J = QZSS          E = GALILEO          COMMENT
BEAN                                                        MARKER NAME
1                                                           MARKER NUMBER
GEODETIC                                                    MARKER TYPE
Unige DICCA         GTER                                    OBSERVER / AGENCY
SC60291900056       SC600               2.12(191226)        REC # / TYPE / VERS
                    HEMA45          NONE                    ANT # / TYPE
  4509407.8091   693652.4678  4442337.6214                  APPROX POSITION XYZ
        0.0000        0.0000        0.0000                  ANTENNA: DELTA H/E/N
G    8 C1C L1C D1C S1C C2Y L2Y D2Y S2Y                      SYS / # / OBS TYPES
R    8 C1C L1C D1C S1C C2P L2P D2P S2P                      SYS / # / OBS TYPES
C    8 C1I L1I D1I S1I C7I L7I D7I S7I                      SYS / # / OBS TYPES
E    8 C1C L1C D1C S1C C7Q L7Q D7Q S7Q                      SYS / # / OBS TYPES
DBHZ                                                        COMMENT
     30.000                                                 INTERVAL
  2020    05    10    17    00    0.0000000     GPS         TIME OF FIRST OBS
  2020    05    10    17    59    0.0000000     GPS         TIME OF LAST OBS
     0                                                      RCV CLOCK OFFS APPL
G L1C  0.00000                                              SYS / PHASE SHIFT
G L2Y  0.00000                                              SYS / PHASE SHIFT
R L1C  0.00000                                              SYS / PHASE SHIFT
R L2P  0.25000                                              SYS / PHASE SHIFT
C L1I  0.00000                                              SYS / PHASE SHIFT
C L7I  0.00000                                              SYS / PHASE SHIFT
E L1C  0.50000                                              SYS / PHASE SHIFT
E L7Q -0.25000                                              SYS / PHASE SHIFT
 13 R04  6 R05  1 R06 -4 R07  5 R08  6 R09 -2 R10 -5 R11  0 GLONASS SLOT / FRQ #
    R12 -1 R19  3 R20  2 R21  4 R22 -3                      GLONASS SLOT / FRQ #
 C1C   71.950 C2C   71.950 C2P   71.950                     GLONASS COD/PHS/BIS
    18                                                      LEAP SECONDS
*** Above antenna height is from mark to ANTENNA BOTTOM.    COMMENT
    17     4        0.0000        ANT MEASURE TYPE/HEIGT    COMMENT
    0.0000    0.0000    0.0458    0.0405    0.0000          COMMENT
                    BASE STATION                            COMMENT
                                                            END OF HEADER
> 2020 05 10 17 00  0.0000000  0 11        .000000000000
G10  21058327.922 8 110662282.226 8      -936.746          51.000    21058329.195 8  86230369.513 8      -729.932          51.000
G16  23025454.891 7 120999560.453 7     -3475.648          45.000    23025451.734 5  94285373.835 5     -2708.301          34.000
G27  20390857.562 8 107154678.889 8      -764.723          51.000    20390859.719 8  83497142.824 8      -595.888          51.000
G32  24108237.750 7 126689644.407 7      2912.625          46.000    24108241.945 7  98719211.422 7      2269.581          46.000
R07  20891890.688 8 111835967.006 8      3245.164          51.000    20891891.844 7  86983480.021 7      2524.016          47.000
R12  22223907.266 6 118716146.471 6     -3112.953          40.000    22223914.023 6  92334756.468 6     -2421.186          40.000
C05  39627328.828 5 206349910.843 5       -17.844          34.000    39627332.047 5 159562844.613 5       -13.722          35.000
C20  24501679.617 6 127586781.972 6      3206.504          40.000
C30  21576195.414 8 112352901.966 8      -344.023          51.000
E05  25681551.633 7 134957497.821 7      2050.191          43.000    25681558.203 7 103409016.064 7      1570.848          47.000
E30  24452115.078 8 128496696.448 8     -2340.414          48.000    24452118.047 8  98458519.360 8     -1793.322          51.000
> 2020 05 10 17 00 30.0000000  0 13        .000000000000
G10  21063717.445 8 110690604.524 8      -949.555          51.000    21063719.031 8  86252438.842 8      -739.910          51.000
G16  23045309.570 7 121103893.979 7     -3477.910          44.000    23045306.602 5  94366672.628 5     -2710.060          35.000
G27  20395257.406 8 107177800.019 8      -774.820          51.000    20395259.852 8  83515159.276 8      -603.756          51.000
G32  24091614.281 7 126602288.670 7      2912.695          47.000    24091618.531 7  98651142.074 7      2269.633          47.000
R07  20873745.938 8 111738837.387 8      3231.934          48.000    20873747.086 7  86907934.784 7      2513.729          46.000
R12  22241423.164 6 118809708.476 6     -3122.887          41.000    22241428.531 6  92407526.909 6     -2428.915          39.000
R21  20926490.852 5 111981811.252 5     -2016.672          34.000    20926484.531 5  87096967.083 5     -1568.523          31.000
C05  39627425.117 5 206350399.158 5       -13.305          34.000    39627427.062 5 159563227.622 5       -10.448          35.000
C20  24483215.930 7 127490637.207 7      3204.953          43.000
C27  24525939.516 5 127713007.381 5     -2491.219          31.000
C30  21578196.328 8 112363321.030 8      -348.863          51.000
E05  25669867.219 7 134896097.561 7      2044.945          42.000    25669874.047 8 103361969.060 8      1566.978          48.000
E30  24465493.273 8 128566998.092 8     -2344.613          49.000    24465494.539 8  98512386.814 8     -1796.543          50.000
> 2020 05 10 17 01  0.0000000  0 13        .000000000000
G10  21069211.023 8 110719473.803 8      -970.902          51.000    21069212.992 8  86274934.392 8      -756.547          51.000
G16  23065208.102 6 121208460.158 6     -3488.758          41.000    23065205.523 6  94448152.676 6     -2718.516          39.000
G27  20399747.305 8 107201393.665 8      -793.770          51.000    20399749.906 8  83533543.916 8      -618.522          51.000
G32  24075021.742 7 126515094.491 7      2904.371          47.000    24075025.344 8  98583198.620 8      2263.149          48.000
R06  20373314.789 5 108715913.178 5      -693.953          35.000
R07  20855705.477 7 111642274.007 7      3209.770          45.000    20855707.617 7  86832829.964 7      2496.487          44.000
R12  22259027.312 7 118903743.223 7     -3141.848          42.000    22259031.273 6  92480664.929 6     -2443.665          39.000
R22  19860779.711 5 106018182.928 5      1051.512          35.000
C05  39627524.961 5 206350920.019 5       -17.195          34.000    39627526.719 6 159563628.836 6       -13.538          36.000
C20  24464794.344 7 127394705.682 7      3194.781          45.000
C30  21580257.148 8 112374050.647 8      -362.277          51.000
E05  25658244.008 6 134835015.374 6      2031.301          41.000    25658249.812 7 103315165.839 7      1556.481          47.000
E30  24478927.398 8 128637592.175 8     -2357.445          50.000    24478927.250 8  98566478.326 8     -1806.387          51.000
> 2020 05 10 17 01 30.0000000  0 13        .000000000000
G10  21074810.180 8 110748897.696 8      -987.676          50.000    21074812.016 8  86297862.065 8      -769.617          50.000
G16  23085151.562 6 121313264.345 6     -3495.172          41.000    23085149.672 6  94529818.254 6     -2723.514          36.000
G27  20404328.945 8 107225468.961 8      -808.273          51.000    20404331.500 8  83552303.883 8      -629.823          51.000
G32  24058462.203 7 126428073.872 7      2899.938          46.000    24058464.398 7  98515390.400 7      2259.692          46.000
R06  20377297.188 4 108737172.966 4      -721.105          26.000
R07  20837773.359 7 111546289.991 7      3192.055          45.000    20837776.453 7  86758175.753 7      2482.709          44.000
R12  22276720.414 6 118998255.216 6     -3155.930          41.000    22276723.750 6  92554174.133 6     -2454.615          40.000
R22  19854908.312 5 105986829.046 5      1041.621          35.000    19854925.875 4  82434286.900 4       810.150          25.000
C05  39627630.656 5 206351470.337 5       -16.488          34.000    39627632.500 6 159564054.155 6       -13.176          36.000
C20  24446416.172 7 127298998.523 7      3188.672          45.000
C30  21582379.484 8 112385100.194 8      -371.410          51.000
E05  25646683.547 7 134774261.991 7      2021.844          45.000    25646688.203 7 103268614.575 7      1549.226          47.000
E30  24492418.586 8 128708485.801 8     -2365.891          50.000    24492417.891 8  98620799.363 8     -1812.798          50.000
> 2020 05 10 17 02  0.0000000  0 13        .000000000000
G10  21080505.734 8 110778828.056 8     -1006.383          50.000    21080507.820 8  86321184.451 8      -784.191          50.000
G16  23105130.320 6 121418257.498 6     -3503.070          39.000    23105130.219 6  94611631.145 6     -2729.659          36.000
G27  20408993.320 8 107249979.452 8      -824.543          51.000    20408995.688 8  83571402.939 8      -642.501          51.000
G32  24041927.289 7 126341183.080 7      2894.031          46.000    24041928.398 7  98447683.353 7      2255.089          46.000
R06  20381432.211 6 108759199.781 6      -749.051          37.000
R07  20819942.305 7 111450841.921 7      3172.441          46.000    20819945.695 7  86683938.396 7      2467.454          45.000
R12  22294493.305 7 119093192.711 7     -3171.812          42.000    22294495.734 6  92628014.315 6     -2466.968          40.000
R22  19849076.000 5 105955704.257 5      1031.402          32.000
C05  39627734.008 5 206352007.803 5       -17.664          34.000    39627735.641 6 159564469.733 6       -13.882          36.000
C20  24428072.383 7 127203471.594 7      3180.977          46.000
C30  21584554.117 8 112396423.856 8      -382.266          51.000
E05  25635177.031 7 134713792.416 7      2010.680          46.000    25635181.102 7 103222280.800 7      1540.633          46.000
E30  24505957.031 8 128779630.365 8     -2375.797          49.000    24505956.867 8  98675312.698 8     -1820.509          51.000
> 2020 05 10 17 02 30.0000000  0 13        .000000000000
G10  21086298.680 8 110809269.412 8     -1023.359          51.000    21086300.781 8  86344904.962 8      -797.423          51.000
G16  23125145.938 6 121523442.922 6     -3509.516          41.000    23125147.227 6  94693593.794 6     -2734.691          38.000
G27  20413741.617 8 107274931.007 8      -839.086          51.000    20413743.570 8  83590845.705 8      -653.833          51.000
G32  24025418.742 7 126254431.042 7      2889.352          47.000    24025419.789 7  98380084.425 7      2251.443          47.000
R07  20802213.414 7 111355939.407 7      3154.152          45.000    20802217.328 7  86610125.323 7      2453.227          46.000
R12  22312345.992 6 119188556.990 6     -3185.941          41.000    22312348.352 6  92702186.470 6     -2477.954          41.000
R21  20972226.547 5 112226597.170 5     -2057.684          34.000    20972249.297 4  87287450.396 4     -1600.418          26.000
R22  19843314.023 5 105924951.510 5      1021.156          34.000    19843315.234 3  82386081.370 3       794.233          23.000
C05  39627835.648 5 206352538.708 5       -17.371          35.000    39627837.148 6 159564879.098 6       -13.375          36.000
C20  24409763.969 7 127108132.851 7      3174.758          45.000
C30  21586782.547 8 112408027.885 8      -391.516          51.000
E05  25623725.812 7 134653614.170 7      2001.004          47.000    25623729.352 7 103176170.219 7      1533.410          46.000
E30  24519543.328 7 128851029.798 7     -2384.137          47.000    24519544.242 8  98730021.349 8     -1826.827          50.000
> 2020 05 10 17 03  0.0000000  0 13        .000000000000
G10  21092189.086 8 110840223.218 8     -1040.406          50.000    21092191.023 8  86369024.817 8      -810.703          50.000
G16  23145198.648 6 121628820.311 6     -3515.648          41.000    23145200.609 6  94775706.056 6     -2739.466          37.000
G27  20418574.453 8 107300326.839 8      -854.004          51.000    20418576.125 8  83610634.661 8      -665.458          51.000
G32  24008937.859 7 126167823.727 7      2884.332          47.000    24008939.562 7  98312598.252 7      2247.531          47.000
R06  20390148.977 5 108805732.599 5      -802.457          35.000
R07  20784587.602 7 111261589.423 7      3135.699          47.000    20784592.422 7  86536742.011 7      2438.877          45.000
R12  22330277.438 6 119284346.915 6     -3200.426          41.000    22330280.531 7  92776689.710 7     -2489.220          42.000
R22  19837609.461 6 105894461.579 6      1011.473          37.000
C05  39627936.367 5 206353062.597 5       -17.781          34.000    39627937.898 6 159565284.570 6       -13.641          36.000
C20  24391492.008 7 127012987.440 7      3168.250          45.000
C30  21589065.539 8 112419915.704 8      -401.164          51.000
E05  25612331.250 7 134593731.942 7      1990.984          46.000    25612333.883 7 103130286.496 7      1525.577          45.000
E30  24533178.164 8 128922685.288 8     -2392.848          48.000    24533180.023 8  98784926.195 8     -1833.576          50.000
> 2020 05 10 17 03 30.0000000  0 16        .000000000000
G10  21098181.773 8 110871714.580 8     -1057.973          51.000    21098183.648 8  86393563.549 8      -824.397          51.000
G11  21948326.266 6 115339202.418 6      2775.270          36.000
G16  23165292.891 6 121734413.626 6     -3522.594          41.000    23165294.062 5  94857986.513 5     -2744.878          33.000
G27  20423496.805 8 107326193.527 8      -869.410          51.000    20423498.484 8  83630790.512 8      -677.466          51.000
G32  23992489.984 7 126081390.617 7      2878.941          46.000    23992492.719 7  98245247.842 7      2243.334          46.000
R06  20394739.203 5 108830233.102 5      -829.914          30.000
R07  20767071.477 8 111167822.648 8      3116.520          50.000    20767075.359 7  86463812.317 7      2423.963          43.000
R12  22348291.820 6 119380584.587 6     -3214.613          40.000    22348297.398 7  92851541.204 7     -2500.252          42.000
R21  20995410.445 6 112350634.324 6     -2076.188          36.000
R22  19831952.461 5 105864292.435 5      1001.430          31.000
C05  39628041.156 5 206353608.149 5       -17.680          35.000    39628042.750 5 159565706.463 5       -14.227          35.000
C20  24373262.625 7 126918063.763 7      3161.168          46.000
C27  24612680.289 4 128164678.038 4     -2523.707          27.000
C30  21591407.977 8 112432114.006 8      -411.055          51.000
E05  25600997.875 7 134534173.821 7      1980.684          46.000    25600999.742 7 103084651.119 7      1517.511          44.000
E30  24546867.078 8 128994621.343 8     -2401.863          50.000    24546869.375 8  98840046.010 8     -1840.350          49.000
> 2020 05 10 17 04  0.0000000  0 14        .000000000000
G10  21104251.578 8 110903611.072 8     -1086.891          50.000    21104253.586 8  86418417.962 8      -846.928          50.000
G16  23185402.672 6 121840088.766 6     -3540.988          39.000    23185403.391 5  94940330.740 5     -2759.209          32.000
G27  20428483.703 8 107352400.196 8      -896.230          51.000    20428485.203 8  83651211.285 8      -698.361          51.000
G32  23976050.969 7 125995003.831 7      2861.676          46.000    23976054.484 7  98177933.521 7      2229.880          46.000
R06  20399460.867 5 108855431.144 5      -869.148          33.000
R07  20749640.586 8 111074509.753 8      3085.430          51.000    20749642.047 6  86391235.674 6      2399.782          41.000
R12  22366364.211 6 119477132.716 6     -3240.691          37.000    22366372.555 7  92926634.147 7     -2520.544          42.000
R22  19826331.117 5 105834312.206 5       978.949          34.000
C05  39628125.031 5 206354045.084 5       -29.562          35.000    39628126.602 6 159566044.291 6       -22.938          36.000
C20  24355051.734 7 126823234.101 7      3142.496          47.000
C27  24627214.453 5 128240358.094 5     -2540.070          30.000
C30  21593785.328 8 112444493.443 8      -432.539          51.000
E05  25589701.609 7 134474810.559 7      1958.496          46.000    25589703.031 7 103039165.046 7      1500.561          43.000
E30  24560584.352 8 129066705.088 8     -2422.266          50.000    24560586.852 8  98895278.960 8     -1856.049          50.000
> 2020 05 10 17 04 30.0000000  0 17        .000000000000
G10  21110452.516 8 110936197.324 8     -1087.645          48.000    21110454.219 8  86443809.883 8      -847.512          48.000
G11  21916696.930 5 115173020.043 5      2767.809          31.000
G16  23205582.219 5 121946129.485 5     -3530.684          32.000
G27  20433589.797 8 107379233.108 8      -894.707          51.000    20433591.133 8  83672120.053 8      -697.174          51.000
G32  23959675.953 7 125908952.525 7      2872.910          47.000    23959679.594 7  98110880.607 7      2238.631          47.000
R06  20404368.375 5 108881615.825 5      -879.008          33.000
R07  20732349.703 8 110981946.074 8      3083.305          51.000    20732348.797 6  86319241.828 6      2398.129          40.000
R12  22384549.562 6 119574277.710 6     -3237.723          40.000    22384558.836 6  93002191.336 6     -2518.229          41.000
R21  21018776.703 5 112475727.354 5     -2089.203          33.000    21018783.734 5  87481133.288 5     -1624.936          30.000
R22  19820804.328 6 105804812.612 6       985.336          36.000    19820825.562 4  82292691.319 4       766.372          27.000
C05  39628242.555 5 206354657.046 5       -13.195          35.000    39628244.141 5 159566517.474 5       -10.282          35.000
C20  24336914.008 8 126728784.208 8      3152.098          48.000
C27  24641817.469 5 128316354.555 5     -2528.004          32.000
C30  21596251.930 8 112457338.074 8      -425.773          50.000
E05  25578496.977 7 134415929.965 7      1964.637          45.000    25578498.539 7 102994048.798 7      1505.314          43.000
E30  24574383.781 8 129139220.803 8     -2414.293          51.000    24574386.227 8  98950842.904 8     -1849.874          49.000
E36  25788727.344 5 135520643.151 5     -1960.188          33.000
> 2020 05 10 17 05  0.0000000  0 15        .000000000000
G10  21116730.281 8 110969187.382 8     -1110.988          49.000    21116731.625 8  86469516.414 8      -865.705          49.000
G11  21900937.898 6 115090198.659 6      2754.988          36.000
G16  23225788.906 5 122052346.638 5     -3542.758          30.000
G27  20438760.898 8 107406407.825 8      -916.020          51.000    20438762.359 8  83693295.152 8      -713.781          51.000
G32  23943311.492 8 125822955.165 8      2861.168          49.000    23943314.789 8  98043869.733 8      2229.485          49.000
R07  20715144.703 8 110889845.547 8      3057.664          48.000    20715143.000 7  86247608.141 7      2378.186          42.000
R12  22402792.906 7 119671725.818 7     -3257.746          42.000    22402801.281 6  93077984.216 6     -2533.806          41.000
R21  21030532.633 4 112538634.417 4     -2106.145          28.000    21030531.422 4  87530049.089 4     -1638.112          27.000
R22  19815314.336 5 105775505.723 5       968.738          34.000    19815332.812 4  82269907.121 4       753.463          26.000
C05  39628339.484 5 206355160.920 5       -19.473          35.000    39628341.062 6 159566907.864 6       -15.088          36.000
C20  24318795.766 8 126634434.311 8      3138.762          48.000
C27  24656427.703 5 128392384.665 5     -2539.258          30.000
C30  21598753.547 8 112470366.345 8      -441.852          50.000
E05  25567330.117 7 134357249.098 7      1948.191          43.000    25567331.891 7 102949085.568 7      1492.761          42.000
E30  24588210.898 8 129211881.971 8     -2428.945          51.000    24588213.586 8  99006518.313 8     -1861.140          49.000
> 2020 05 10 17 05 30.0000000  0 15        .000000000000
G10  21123110.539 7 111002716.307 7     -1125.023          47.000    21123112.414 7  86495642.869 7      -876.639          47.000
G11  21885222.805 5 115007600.666 5      2751.500          32.000
G16  23246021.812 6 122158677.229 6     -3546.445          36.000
G20  22745188.180 5 119526776.235 5     -2931.578          33.000    22745189.891 5  93137761.450 5     -2284.347          30.000
G27  20444023.000 8 107434061.051 8      -928.191          51.000    20444024.547 8  83714843.100 8      -723.266          51.000
G32  23926983.992 8 125737151.418 8      2858.434          49.000    23926987.078 8  97977009.723 8      2227.354          49.000
R07  20698051.633 7 110798351.227 7      3041.199          46.000    20698052.477 7  86176445.896 7      2365.374          44.000
R12  22421118.680 7 119769611.539 7     -3268.574          45.000    22421125.492 6  93154117.495 6     -2542.224          41.000
R21  21042365.391 5 112601908.553 5     -2110.758          35.000    21042355.953 5  87579256.329 5     -1641.704          32.000
R22  19809886.078 5 105746530.956 5       961.176          32.000    19809900.422 4  82247371.438 4       747.593          29.000
C05  39628441.898 5 206355694.207 5       -17.070          35.000    39628443.555 6 159567320.210 6       -12.704          36.000
C20  24300722.469 7 126540321.858 7      3134.621          46.000
C30  21601316.586 8 112483714.091 8      -448.766          50.000
E05  25556226.523 6 134298906.283 6      1940.785          40.000    25556230.328 7 102904381.325 7      1486.942          44.000
E30  24602091.258 8 129284823.300 8     -2434.484          51.000    24602094.930 8  99062408.369 8     -1865.414          50.000
> 2020 05 10 17 06  0.0000000  0 14        .000000000000
G10  21129588.078 7 111036756.618 7     -1143.488          46.000    21129590.125 7  86522167.794 7      -891.030          46.000
G11  21869544.641 4 114925200.850 4      2742.707          29.000
G16  23266289.062 6 122265191.016 6     -3553.926          38.000    23266275.820 4  95271503.934 4     -2769.299          28.000
G20  22761963.039 5 119614925.465 5     -2942.844          32.000
G27  20449371.305 8 107462166.849 8      -944.777          51.000    20449372.844 8  83736743.701 8      -736.190          51.000
G32  23910688.836 8 125651518.337 8      2851.188          49.000    23910692.094 8  97910282.716 8      2221.705          49.000
R07  20681067.539 8 110707440.491 8      3020.301          48.000    20681071.117 7  86105737.591 7      2349.126          47.000
R12  22439520.125 7 119867903.877 7     -3283.500          46.000    22439526.039 7  93230567.067 7     -2553.833          42.000
R22  19804518.719 5 105717857.446 5       950.059          35.000    19804524.234 5  82225020.496 5       738.934          31.000
C05  39628544.742 5 206356231.089 5       -17.906          35.000    39628546.484 6 159567734.614 6       -14.049          36.000
C20  24282689.328 7 126446423.341 7      3125.957          44.000
C30  21603936.102 8 112497355.985 8      -459.938          51.000
E05  25545181.828 6 134240877.146 6      1928.695          41.000    25545188.352 7 102859917.411 7      1477.837          44.000
E30  24616019.742 8 129358016.876 8     -2444.387          51.000    24616023.906 8  99118491.711 8     -1872.918          50.000
> 2020 05 10 17 06 30.0000000  0 14        .000000000000
G10  21136179.188 7 111071393.416 7     -1159.398          46.000    21136181.023 7  86549157.503 7      -903.427          46.000
G16  23286606.422 6 122371971.715 6     -3558.816          39.000    23286597.328 5  95354709.552 5     -2773.110          31.000
G27  20454822.211 8 107490811.921 8      -958.836          51.000    20454823.500 8  83759064.513 8      -747.145          51.000
G32  23894443.102 8 125566145.585 8      2846.555          49.000    23894446.359 8  97843758.544 8      2218.095          49.000
R07  20664210.734 8 110617205.200 8      3001.590          50.000    20664215.383 8  86035554.615 8      2334.570          48.000
R12  22458013.086 7 119966686.329 7     -3295.625          47.000    22458018.008 7  93307397.833 7     -2563.264          42.000
R21  21066157.852 5 112729246.824 5     -2129.617          34.000    21066152.430 4  87678302.427 4     -1656.366          29.000
R22  19799217.336 5 105689568.814 5       940.176          30.000    19799222.477 4  82203023.412 4       731.248          28.000
C05  39628664.742 5 206356854.544 5       -17.238          35.000    39628666.430 6 159568217.464 6       -13.242          36.000
C20  24264713.508 7 126352826.684 7      3119.918          44.000
C27  24700421.727 5 128621572.129 5     -2550.273          31.000
C30  21606628.984 8 112511378.342 8      -468.758          51.000
E05  25534215.461 7 134183249.875 7      1919.320          44.000    25534221.758 7 102815761.421 7      1470.735          44.000
E30  24630012.211 8 129431547.400 8     -2451.398          50.000    24630016.242 8  99174833.235 8     -1878.341          49.000
> 2020 05 10 17 07  0.0000000  0 15        .000000000000
G10  21142841.875 7 111106406.214 7     -1174.398          46.000    21142844.242 7  86576440.205 7      -915.116          46.000
G16  23306931.859 6 122478797.621 6     -3562.531          41.000    23306925.750 5  95437950.461 5     -2776.004          32.000
G20  22795669.086 5 119792044.021 5     -2956.512          32.000
G27  20460334.109 8 107519777.312 8      -971.770          51.000    20460335.383 8  83781634.914 8      -757.223          51.000
G32  23878205.703 8 125480817.229 8      2842.551          50.000    23878209.070 8  97777268.946 8      2214.978          50.000
R07  20647439.539 8 110527426.105 8      2983.941          50.000    20647444.141 8  85965726.434 8      2320.843          48.000
R12  22476555.070 8 120065731.900 8     -3306.816          48.000    22476558.445 6  93384433.190 6     -2571.971          41.000
R21  21078118.188 5 112793256.348 5     -2136.766          35.000    21078113.422 5  87728087.450 5     -1661.935          30.000
R22  19793955.039 5 105661462.979 5       933.156          32.000    19793958.508 4  82181157.180 4       725.782          28.000
C05  39628760.070 5 206357351.456 5       -15.281          35.000    39628761.617 6 159568600.929 6       -11.822          36.000
C20  24246755.406 7 126259317.002 7      3114.617          46.000
C27  24715122.500 5 128698153.174 5     -2553.520          32.000
C30  21609353.352 8 112525564.585 8      -476.508          51.000
E05  25523285.273 7 134125807.083 7      1910.703          46.000    25523290.812 7 102771746.829 7      1464.144          45.000
E30  24644026.367 8 129505193.990 8     -2457.777          51.000    24644030.297 8  99231263.681 8     -1883.259          49.000
> 2020 05 10 17 07 30.0000000  0 14        .000000000000
G10  21149616.336 7 111142007.042 7     -1195.523          44.000    21149619.039 7  86604181.098 7      -931.577          44.000
G16  23327306.664 6 122585879.481 6     -3572.766          41.000    23327302.750 4  95521390.836 4     -2783.973          29.000
G27  20465947.648 8 107549276.703 8      -991.137          51.000    20465948.992 8  83804621.424 8      -772.314          51.000
G32  23862017.719 8 125395749.897 8      2832.230          49.000    23862021.617 8  97710982.771 8      2206.933          49.000
R07  20630795.164 8 110438324.656 8      2959.871          49.000    20630799.641 8  85896425.309 8      2302.119          48.000
R12  22495186.094 8 120165253.185 8     -3324.105          49.000    22495187.656 6  93461838.573 6     -2585.418          41.000
R21  21090148.703 5 112857622.665 5     -2150.324          32.000    21090141.945 4  87778150.118 4     -1672.480          29.000
R22  19788769.828 6 105633810.906 6       917.695          37.000    19788772.367 4  82159613.575 4       713.766          29.000
C05  39628871.258 5 206357930.568 5       -19.676          34.000    39628872.859 6 159569048.716 6       -15.045          36.000
C20  24228855.891 8 126166108.151 8      3102.922          48.000
C27  24729864.539 4 128774956.603 4     -2562.684          28.000
C30  21612149.625 8 112540126.895 8      -490.668          51.000
E05  25512431.422 7 134068764.027 7      1895.781          47.000    25512436.406 7 102728038.600 7      1452.615          45.000
E30  24658102.945 8 129579168.316 8     -2470.121          51.000    24658106.711 8  99287945.249 8     -1892.729          48.000
> 2020 05 10 17 08  0.0000000  0 15        .000000000000
G08  20623107.016 5 108375184.581 5      1238.004          33.000    20623108.250 5  84448163.110 5       964.681          33.000
G10  21156484.375 7 111178099.721 7     -1210.688          45.000    21156487.008 7  86632305.257 7      -943.393          45.000
G16  23347712.227 6 122693119.850 6     -3576.691          41.000    23347710.945 5  95604954.671 5     -2787.032          32.000
G27  20471644.742 8 107579215.484 8     -1004.758          51.000    20471646.102 8  83827950.334 8      -782.928          51.000
G32  23845861.812 7 125310851.977 7      2827.613          47.000    23845866.188 7  97644828.610 7      2203.338          47.000
R06  20442852.195 5 109086966.833 5     -1070.836          30.000
R07  20614259.898 8 110349808.163 8      2941.246          50.000    20614264.227 7  85827579.178 7      2287.639          47.000
R12  22513886.914 8 120265149.496 8     -3335.500          48.000    22513887.203 6  93539535.628 6     -2594.281          41.000
R21  21102228.008 5 112922249.447 5     -2158.098          35.000    21102217.500 4  87828415.363 4     -1678.523          29.000
R22  19783645.945 5 105606404.411 5       909.359          33.000    19783646.156 5  82138297.454 5       707.283          32.000
C05  39628980.477 5 206358499.124 5       -17.824          34.000    39628982.148 5 159569488.377 5       -14.015          35.000
C20  24210996.797 8 126073108.496 8      3096.996          49.000
C30  21615000.383 8 112554971.890 8      -498.965          51.000
E05  25501635.562 7 134012027.780 7      1886.508          47.000    25501639.250 7 102684565.435 7      1445.611          44.000
E30  24672223.727 8 129653373.835 8     -2476.789          51.000    24672226.953 7  99344803.970 7     -1897.784          47.000
> 2020 05 10 17 08 30.0000000  0 12        .000000000000
G08  20616080.555 5 108338264.364 5      1222.562          33.000    20616081.469 5  84419394.049 5       952.649          33.000
G10  21163444.383 7 111214675.268 7     -1228.906          45.000    21163447.344 7  86660805.666 7      -957.586          45.000
G16  23368146.938 6 122800508.706 6     -3583.730          41.000    23368147.414 4  95688634.264 4     -2792.523          29.000
G27  20477423.977 8 107609586.243 8     -1021.137          51.000    20477425.430 8  83851615.855 8      -795.691          51.000
G32  23829737.391 7 125226119.125 7      2820.031          47.000    23829742.102 7  97578803.083 7      2197.430          47.000
R07  20597833.109 8 110261872.461 8      2919.805          50.000    20597836.734 7  85759184.778 7      2270.962          47.000
R12  22532655.656 8 120365409.170 8     -3349.625          48.000    22532655.430 7  93617515.326 7     -2605.267          42.000
C05  39629086.305 5 206359051.269 5       -19.445          35.000    39629087.852 6 159569914.190 6       -15.142          36.000
C20  24193176.820 8 125980312.789 8      3088.195          50.000
C30  21617904.156 8 112570092.689 8      -510.227          51.000
E05  25490896.477 7 133955592.468 7      1874.586          46.000    25490897.984 7 102641322.823 7      1436.368          43.000
E30  24686386.766 8 129727801.133 8     -2486.152          51.000    24686389.547 8  99401832.672 8     -1904.956          48.000
> 2020 05 10 17 09  0.0000000  0 14        .000000000000
G08  20609133.586 5 108301759.003 5      1209.969          35.000    20609134.836 5  84390948.185 5       942.827          35.000
G10  21170502.031 7 111251763.746 7     -1244.676          47.000    21170505.102 7  86689705.770 7      -969.877          47.000
G16  23388616.266 6 122908075.254 6     -3588.637          39.000    23388617.484 5  95772452.173 5     -2796.365          32.000
G27  20483291.367 8 107640420.674 8     -1035.422          51.000    20483293.219 8  83875642.668 8      -806.822          51.000
G32  23813651.312 8 125141586.096 8      2814.410          48.000    23813656.109 8  97512933.248 8      2193.050          48.000
R06  20455192.883 5 109152817.256 5     -1124.242          33.000
R07  20581521.562 8 110174553.714 8      2900.348          51.000    20581524.547 7  85691270.232 7      2255.829          46.000
R12  22551497.148 8 120466059.351 8     -3361.473          48.000    22551497.547 7  93695798.727 7     -2614.482          42.000
R21  21126530.984 6 113052341.769 6     -2176.723          36.000
C05  39629194.727 5 206359614.950 5       -18.875          35.000    39629196.234 5 159570350.442 5       -14.761          35.000
C20  24175402.117 8 125887754.582 8      3081.387          50.000
C30  21620867.062 8 112585521.111 8      -519.383          51.000
E05  25480220.672 7 133899491.426 7      1864.492          46.000    25480221.273 7 102598336.297 7      1428.640          43.000
E30  24700597.500 8 129802479.991 8     -2493.441          49.000    24700600.930 8  99459054.092 8     -1910.640          49.000
> 2020 05 10 17 09 30.0000000  0 16        .000000000000
G08  20602254.461 5 108265609.047 5      1198.988          35.000    20602256.594 5  84362779.420 5       934.277          35.000
G10  21177645.625 8 111289302.733 8     -1258.871          48.000    21177648.516 8  86718956.871 8      -980.942          48.000
G16  23409107.750 6 123015755.313 6     -3591.180          38.000    23409108.945 4  95856358.625 4     -2798.319          28.000
G27  20489235.461 8 107671657.847 8     -1048.039          51.000    20489237.562 8  83899983.314 8      -816.654          51.000
G32  23797592.531 8 125057194.943 8      2810.586          49.000    23797597.289 8  97447173.972 8      2190.067          49.000
R06  20461579.555 5 109186895.387 5     -1148.539          35.000
R07  20565314.516 8 110087793.993 8      2882.594          51.000    20565317.234 7  85623790.471 7      2242.017          46.000
R12  22570398.914 7 120567033.694 7     -3371.141          47.000    22570400.758 7  93774334.261 7     -2621.998          43.000
R21  21138744.625 5 113117729.421 5     -2184.090          31.000    21138744.367 4  87980408.495 4     -1698.749          28.000
C05  39629293.977 5 206360131.298 5       -16.254          34.000    39629295.477 6 159570750.481 6       -12.747          36.000
C20  24157661.602 8 125795375.667 8      3076.219          50.000
C27  24789108.180 5 129083411.561 5     -2577.930          32.000
C30  21623877.758 8 112601197.239 8      -526.734          51.000
E05  25469596.695 7 133843665.265 7      1856.203          43.000    25469598.148 7 102555560.425 7      1422.220          44.000
E30  24714843.938 8 129877347.550 8     -2498.746          49.000    24714848.523 8  99516420.081 8     -1914.615          49.000
E36  25901562.320 5 136113620.166 5     -1986.516          35.000    25901559.719 6 104294846.680 6     -1522.135          36.000
> 2020 05 10 17 10  0.0000000  0 18        .000000000000
G01  23652114.586 5 124292694.808 5      3005.340          30.000
G08  20595457.102 5 108229889.188 5      1183.707          35.000    20595457.297 5  84334945.783 5       922.369          33.000
G10  21184888.609 8 111327363.618 8     -1277.270          48.000    21184891.422 8  86748614.725 8      -995.272          48.000
G11  21745504.531 4 114273397.578 4      2688.133          28.000
G16  23429634.852 5 123123618.988 5     -3598.273          35.000    23429635.453 5  95940439.105 5     -2803.856          33.000
G27  20495270.195 8 107703370.926 8     -1064.891          51.000    20495272.281 8  83924694.807 8      -829.785          51.000
G32  23781575.242 8 124973021.950 8      2802.316          49.000    23781579.812 8  97381584.691 8      2183.626          50.000
R06  20468117.570 5 109221789.737 5     -1176.230          34.000
R07  20549226.516 8 110001670.878 8      2860.160          50.000    20549228.625 7  85556805.854 7      2224.572          45.000
R12  22589374.266 7 120668402.292 7     -3385.473          45.000    22589378.086 7  93853176.449 7     -2633.148          44.000
R21  21151018.219 5 113183372.132 5     -2194.047          33.000    21151023.266 4  88031496.376 4     -1706.484          29.000
C05  39629398.328 5 206360675.340 5       -18.465          35.000    39629399.758 6 159571170.383 6       -14.302          36.000
C20  24139969.797 8 125703250.646 8      3066.656          50.000
C27  24803988.117 5 129160869.389 5     -2584.332          32.000
C30  21626950.133 8 112617193.980 8      -538.500          51.000
E05  25459038.906 7 133788188.648 7      1843.383          45.000    25459042.070 7 102513052.450 7      1412.555          45.000
E30  24729139.852 8 129952474.999 8     -2508.547          49.000    24729145.250 8  99573985.240 8     -1922.124          49.000
E36  25912925.727 6 136173299.705 6     -1990.406          36.000    25912915.641 6 104340575.146 6     -1525.365          37.000
> 2020 05 10 17 10 30.0000000  0 17        .000000000000
G08  20588736.062 5 108194573.381 5      1174.461          30.000    20588736.367 5  84307426.983 5       915.158          30.000
G10  21192225.391 8 111365917.244 8     -1290.848          51.000    21192227.750 8  86778656.466 8     -1005.855          51.000
G11  21730174.055 5 114192831.441 5      2684.430          33.000
G16  23450191.320 5 123231636.058 5     -3600.438          33.000    23450191.023 5  96024608.222 5     -2805.536          31.000
G27  20501390.312 8 107735532.216 8     -1076.988          51.000    20501392.273 8  83949755.542 8      -839.212          51.000
G32  23765594.438 8 124889042.499 8      2798.543          48.000    23765598.938 8  97316146.185 8      2180.683          48.000
R06  20474804.375 5 109257470.836 5     -1200.488          34.000
R07  20533252.633 8 109916159.867 8      2842.672          50.000    20533254.492 7  85490297.341 7      2210.970          45.000
R12  22608417.531 7 120770132.371 7     -3394.473          45.000    22608423.000 7  93932299.788 7     -2640.148          44.000
R21  21163339.883 5 113249325.947 5     -2200.102          32.000    21163342.609 4  88082810.743 4     -1711.196          24.000
R22  19758811.562 4 105473879.376 4       859.961          29.000    19758811.195 5  82035233.244 5       668.862          30.000
C05  39629502.414 5 206361216.704 5       -15.570          34.000    39629503.758 6 159571588.982 6       -12.037          36.000
C20  24122322.008 8 125611354.209 8      3061.770          49.000
C30  21630078.867 8 112633484.389 8      -545.543          51.000
E05  25448543.977 7 133733035.624 7      1835.531          47.000    25448547.961 7 102470792.392 7      1406.533          44.000
E30  24743480.031 8 130027832.744 8     -2513.234          49.000    24743485.281 8  99631726.844 8     -1925.698          49.000
E36  25924302.203 5 136233125.587 5     -1990.023          34.000    25924286.609 5 104386370.916 5     -1524.904          33.000
> 2020 05 10 17 11  0.0000000  0 15        .000000000000
G08  20582111.484 5 108159743.212 5      1158.789          31.000    20582113.570 5  84280312.708 5       902.953          32.000
G10  21199674.898 8 111405063.574 8     -1307.789          50.000    21199677.312 8  86809160.084 8     -1019.056          51.000
G16  23470795.023 5 123339905.818 5     -3606.223          35.000    23470795.180 5  96108974.229 5     -2810.034          31.000
G27  20507615.117 8 107768243.341 8     -1092.590          51.000    20507617.250 8  83975244.706 8      -851.369          51.000
G32  23749669.547 7 124805361.232 7      2791.434          44.000    23749674.883 7  97250940.031 7      2175.146          45.000
R07  20517412.547 8 109831368.273 8      2821.445          49.000    20517414.992 7  85424348.366 7      2194.461          46.000
R12  22627547.641 7 120872322.889 7     -3407.285          45.000    22627553.750 7  94011781.250 7     -2650.111          44.000
R21  21175735.586 6 113315652.270 6     -2210.348          36.000    21175738.078 4  88134384.811 4     -1719.159          28.000
R22  19754039.234 5 105448399.761 5       848.297          33.000    19754039.227 5  82015430.336 5       659.783          30.000
C05  39629625.461 5 206361858.090 5       -16.438          35.000    39629626.711 6 159572084.144 6       -12.378          36.000
C20  24104738.234 8 125519789.226 8      3053.461          50.000
C27  24833835.000 5 129316294.740 5     -2591.051          32.000
C30  21633283.258 8 112650169.582 8      -555.840          51.000
E05  25438130.234 7 133678309.336 7      1823.961          45.000    25438134.117 7 102428859.286 7      1397.661          43.000
E30  24757883.375 8 130103520.499 8     -2521.422          49.000    24757887.797 8  99689721.292 8     -1932.008          49.000
> 2020 05 10 17 11 30.0000000  0 16        .000000000000
G08  20575542.008 5 108125218.206 5      1142.160          33.000    20575541.930 5  84253410.110 5       889.995          30.000
G10  21207193.836 8 111444575.239 8     -1327.367          51.000    21207196.297 8  86839948.396 8     -1034.312          51.000
G11  21699642.094 5 114032383.133 5      2666.145          33.000
G16  23491403.391 6 123448199.531 6     -3614.129          36.000    23491404.008 5  96193358.870 5     -2816.204          34.000
G20  22949741.312 5 120601699.863 5     -3036.391          34.000
G27  20513901.641 8 107801278.521 8     -1110.770          51.000    20513903.953 8  84000986.365 8      -865.535          51.000
G32  23733759.141 7 124721755.509 7      2781.328          45.000    23733765.422 7  97185792.725 7      2167.269          45.000
R07  20501664.047 8 109747069.825 8      2797.426          49.000    20501667.320 7  85358782.948 7      2175.779          46.000
R12  22646720.523 7 120974739.717 7     -3422.027          45.000    22646726.734 7  94091438.718 7     -2661.577          44.000
R21  21188156.141 5 113382121.008 5     -2222.480          31.000    21188154.344 4  88186071.649 4     -1728.596          24.000
C05                                                                  39629725.773 6 159572482.989 6       -15.196          36.000
C20  24087175.695 8 125428334.135 8      3042.539          51.000
C27  24848785.875 5 129394135.314 5     -2599.395          32.000
C30  21636520.414 8 112667026.380 8      -568.922          51.000
E05  25427754.250 6 133623785.621 6      1809.879          41.000    25427758.930 7 102387081.409 7      1386.769          45.000
E30  24772306.125 8 130179310.548 8     -2532.324          48.000    24772309.898 8  99747794.126 8     -1940.269          49.000
> 2020 05 10 17 12  0.0000000  0 16        .000000000000
G08  20569060.672 6 108091157.319 6      1128.340          38.000    20569059.984 6  84226869.121 6       879.229          38.000
G10  21214816.055 8 111484629.832 8     -1343.566          50.000    21214817.969 8  86871159.772 8     -1046.935          50.000
G11  21684431.477 5 113952457.608 5      2659.203          34.000
G16  23512050.367 5 123556693.602 5     -3618.766          35.000    23512050.516 5  96277899.675 5     -2819.820          35.000
G20  22967098.109 5 120692900.518 5     -3044.473          33.000
G27  20520283.867 8 107834816.953 8     -1125.625          51.000    20520286.266 8  84027120.192 8      -877.110          51.000
G32  23717898.758 7 124638407.667 7      2774.516          47.000    23717905.227 7  97120846.359 7      2161.960          47.000
R07  20486042.570 8 109663450.497 8      2776.625          49.000    20486046.750 7  85293745.745 7      2159.597          47.000
R12  22665968.945 7 121077560.560 7     -3433.395          46.000    22665975.406 7  94171410.415 7     -2670.421          44.000
R21  21200638.344 6 113448914.810 6     -2231.227          36.000    21200645.016 4  88238029.387 4     -1735.398          27.000
R22  19744645.945 4 105398249.802 4       824.855          29.000    19744645.500 5  81976423.320 5       641.542          33.000
C05                                                                  39629835.125 6 159572922.846 6       -14.574          37.000
C20  24069668.758 8 125337168.662 8      3034.699          51.000
C30  21639824.820 8 112684232.805 8      -578.754          51.000
E05  25417450.828 6 133569645.376 6      1798.984          38.000    25417456.859 7 102345597.334 7      1378.416          46.000
E30  24786782.070 8 130255380.222 8     -2539.570          48.000    24786785.906 8  99806081.239 8     -1945.916          50.000
> 2020 05 10 17 12 30.0000000  0 14        .000000000000
G08  20562653.281 6 108057484.219 6      1115.945          38.000    20562653.188 6  84200630.340 6       869.568          38.000
G10  21222526.359 8 111525147.834 8     -1358.348          50.000    21222528.125 8  86902732.242 8     -1058.453          50.000
G11  21669263.984 6 113872736.665 6      2654.062          36.000
G16  23532720.242 5 123665307.506 5     -3622.602          34.000    23532719.047 5  96362533.824 5     -2822.806          33.000
G27  20526746.930 8 107868780.707 8     -1139.281          51.000    20526749.172 8  84053585.439 8      -887.752          51.000
G32  23702073.531 8 124555242.795 8      2768.875          48.000    23702079.766 8  97056042.616 8      2157.568          48.000
R07  20470534.195 8 109580434.593 8      2757.086          50.000    20470538.844 7  85229177.857 7      2144.403          47.000
R12  22685277.516 7 121180701.875 7     -3443.402          46.000    22685283.609 7  94251631.373 7     -2678.205          44.000
R22  19740036.289 5 105373663.214 5       814.699          32.000    19740035.977 5  81957280.989 5       633.658          34.000
C05  39629938.578 5 206363488.609 5       -17.672          34.000    39629939.789 6 159573344.159 6       -13.620          36.000
C20  24052202.672 8 125246217.754 8      3028.051          50.000
C30  21643181.773 8 112701712.110 8      -587.266          51.000
E05  25407205.367 6 133515812.180 6      1789.395          39.000    25407213.164 7 102304348.560 7      1371.080          46.000
E30  24801296.109 7 130331649.669 7     -2545.703          47.000    24801300.109 8  99864521.442 8     -1950.571          51.000
> 2020 05 10 17 13  0.0000000  0 14        .000000000000
G08  20556341.883 6 108024315.559 6      1101.301          39.000    20556342.555 6  84174784.625 6       858.156          38.000
G10  21230346.461 8 111566242.578 8     -1375.117          51.000    21230348.297 8  86934754.153 8     -1071.520          50.000
G16  23553434.117 5 123774153.475 5     -3627.613          34.000    23553431.969 5  96447348.874 5     -2826.709          30.000
G27  20533312.773 8 107903284.697 8     -1154.922          51.000    20533315.070 8  84080471.649 8      -899.939          51.000
G32  23686305.672 8 124472378.983 8      2761.359          48.000    23686311.266 8  96991473.482 8      2151.709          48.000
R07  20455161.344 8 109498142.722 8      2735.324          51.000    20455165.820 7  85165173.106 7      2127.474          47.000
R12  22704667.250 7 121284276.034 7     -3455.258          46.000    22704673.555 7  94332188.988 7     -2687.426          45.000
R22  19735504.406 5 105349468.421 5       803.859          32.000    19735502.469 5  81938462.740 5       625.224          30.000
C05  39630060.477 5 206364123.377 5       -18.246          35.000    39630061.648 6 159573834.991 6       -14.055          36.000
C20  24034799.836 8 125155597.572 8      3019.371          49.000
C27  24893848.305 4 129628689.832 4     -2611.305          28.000
C30  21646613.102 8 112719578.716 8      -597.848          51.000
E05  25397042.008 6 133462402.686 6      1777.590          41.000    25397049.359 7 102263424.375 7      1361.975          44.000
E30  24815869.539 8 130408231.965 8     -2553.594          48.000    24815873.281 8  99923201.346 8     -1956.650          50.000
> 2020 05 10 17 13 30.0000000  0 16        .000000000000
G08  20550094.062 6 107991481.790 6      1086.352          39.000    20550093.750 6  84149199.873 6       846.508          37.000
G10  21238243.469 8 111607741.663 8     -1392.270          51.000    21238245.266 8  86967091.098 8     -1084.885          49.000
G16  23574158.766 5 123883057.962 5     -3632.988          35.000    23574155.102 5  96532209.432 5     -2830.906          34.000
G27  20539948.906 8 107938158.095 8     -1170.738          51.000    20539951.305 8  84107645.708 8      -912.264          51.000
G32  23670562.766 7 124389648.552 7      2753.137          47.000    23670567.766 7  96927008.249 7      2145.304          47.000
R06  20518044.344 5 109488197.428 5     -1359.996          35.000
R07  20439892.398 8 109416404.632 8      2713.113          50.000    20439896.281 8  85101599.079 8      2110.202          48.000
R12  22724104.719 7 121388104.804 7     -3467.500          44.000    22724111.336 7  94412944.641 7     -2696.947          45.000
R21  21238401.695 5 113650962.007 5     -2258.523          32.000    21238402.883 4  88395207.867 4     -1756.629          26.000
R22  19731017.039 5 105325512.402 5       792.504          35.000    19731016.508 5  81919830.333 5       616.398          30.000
C05  39630167.211 5 206364678.896 5       -19.520          35.000    39630168.320 6 159574264.531 6       -14.746          36.000
C20  24017428.070 8 125065140.980 8      3010.328          48.000
C27  24908902.430 5 129707216.661 5     -2616.793          31.000
C30  21650086.133 8 112737663.848 8      -608.730          51.000
E05  25386927.969 7 133409247.558 7      1765.434          43.000    25386934.492 7 102222695.135 7      1352.678          45.000
E30  24830469.461 8 130484954.408 8     -2561.809          48.000    24830472.453 8  99981988.629 8     -1962.947          50.000
> 2020 05 10 17 14  0.0000000  0 14        .000000000000
G08  20543930.180 6 107959088.150 6      1071.969          40.000    20543928.398 6  84123958.126 6       835.303          41.000
G10  21246236.703 8 111649746.570 8     -1409.000          49.000    21246238.312 8  86999822.206 8     -1097.919          49.000
G16  23594913.055 6 123992121.569 6     -3638.398          36.000
G27  20546675.047 8 107973504.034 8     -1186.406          51.000    20546677.297 8  84135187.989 8      -924.472          51.000
G32  23654864.805 7 124307157.779 7      2745.402          45.000    23654869.586 7  96862729.765 7      2139.278          45.000
R06  20525760.281 5 109529379.614 5     -1385.660          31.000
R07  20424747.188 8 109335328.885 8      2691.105          49.000    20424750.508 8  85038540.177 8      2093.085          48.000
R12  22743608.281 7 121492288.666 7     -3478.961          44.000    22743614.859 7  94493976.491 7     -2705.862          45.000
R22  19726592.492 5 105301901.539 5       781.480          32.000    19726594.469 4  81901466.369 4       607.815          29.000
C05  39630278.273 5 206365257.548 5       -20.098          35.000    39630279.430 6 159574711.979 6       -15.408          36.000
C20  24000107.375 7 124974952.388 7      3001.430          47.000
C30  21653620.672 8 112756070.234 8      -619.137          51.000
E05  25376882.133 7 133356451.608 7      1753.621          42.000    25376888.703 7 102182241.150 7      1343.666          45.000
E30  24845115.148 7 130561918.223 7     -2569.660          47.000    24845117.781 8 100040960.887 8     -1969.044          50.000
> 2020 05 10 17 14 30.0000000  0 17        .000000000000
G08  20537842.750 6 107927097.485 6      1060.559          39.000    20537840.375 6  84099030.321 6       826.406          39.000
G10  21254318.555 8 111692217.276 8     -1422.660          49.000    21254319.836 8  87032916.275 8     -1108.566          48.000
G11  21609011.508 4 113556141.544 4      2624.934          28.000
G16  23615689.742 6 124101303.067 6     -3640.312          39.000
G27  20553483.812 8 108009284.069 8     -1199.094          51.000    20553486.156 8  84163068.526 8      -934.359          51.000
G32  23639205.781 7 124224871.460 7      2740.371          46.000    23639209.984 7  96798610.593 7      2135.354          46.000
R06  20533618.789 5 109571318.313 5     -1409.996          34.000
R07  20409718.375 7 109254879.876 7      2671.949          47.000    20409721.734 8  84975968.723 8      2078.186          49.000
R12  22763170.102 7 121596784.112 7     -3487.609          45.000    22763176.672 7  94575250.701 7     -2712.585          45.000
R21  21263809.695 5 113786933.286 5     -2274.832          33.000    21263815.430 4  88500969.431 4     -1769.314          28.000
R22  19722226.211 5 105278598.018 5       773.078          34.000    19722229.781 4  81883341.445 4       601.280          29.000
C05  39630386.516 5 206365820.469 5       -18.035          35.000    39630387.836 6 159575149.035 6       -13.985          36.000
C20  23982831.680 8 124884995.900 8      2995.395          48.000
C27  24939078.719 4 129864325.286 4     -2623.988          28.000
C30  21657209.805 8 112774760.337 8      -626.926          51.000
E05  25366896.953 7 133303978.062 7      1744.348          42.000    25366903.008 7 102142034.240 7      1336.596          43.000
E30  24859798.430 7 130639083.143 7     -2574.770          45.000    24859801.734 8 100100087.215 8     -1972.804          50.000
> 2020 05 10 17 15  0.0000000  0 15        .000000000000
G08  20531832.195 6 107895515.197 6      1046.641          37.000    20531830.594 6  84074420.786 6       815.564          38.000
G10  21262489.336 8 111735155.430 8     -1438.781          48.000    21262490.797 8  87066374.607 8     -1121.128          48.000
G11  21594058.219 5 113477533.331 5      2618.008          33.000
G16  23636488.859 6 124210602.991 6     -3645.066          40.000    23636483.570 5  96787446.077 5     -2840.311          30.000
G27  20560375.891 8 108045501.484 8     -1214.191          51.000    20560378.070 8  84191289.876 8      -946.123          51.000
G32  23623587.586 7 124142795.953 7      2732.781          47.000    23623590.727 8  96734655.680 8      2129.443          48.000
R06  20541620.844 6 109614015.472 6     -1435.418          38.000
R07  20394807.656 8 109175064.535 8      2650.230          48.000    20394811.445 8  84913890.106 8      2061.293          49.000
R12  22782790.180 7 121701590.023 7     -3498.207          45.000    22782796.461 7  94656766.360 7     -2720.831          44.000
R22  19717919.258 6 105255606.397 6       761.648          36.000    19717923.094 5  81865458.992 5       592.393          31.000
C05  39630492.633 5 206366373.883 5       -17.473          35.000    39630493.922 6 159575576.195 6       -13.846          36.000
C20  23965601.828 7 124795276.968 7      2987.211          47.000
C30  21660854.141 8 112793737.898 8      -637.047          51.000
E05  25356974.328 7 133251831.788 7      1733.117          43.000    25356977.164 6 102102078.081 6      1327.940          40.000
E30  24874519.758 7 130716450.578 7     -2581.918          44.000    24874523.836 8 100159368.728 8     -1978.410          50.000
> 2020 05 10 17 15 30.0000000  0 15        .000000000000
G08  20525913.516 6 107864417.608 6      1031.082          36.000    20525913.047 6  84050188.835 6       803.437          37.000
G10  21270763.062 7 111778634.387 7     -1456.328          47.000    21270764.703 7  87100254.330 7     -1134.801          47.000
G16  23657324.062 6 124320093.942 6     -3650.578          39.000    23657316.125 4  96872753.599 4     -2844.606          28.000
G27  20567365.414 8 108082231.197 8     -1230.945          51.000    20567367.508 8  84219910.420 8      -959.178          51.000
G32  23608024.500 7 124061009.331 7      2723.566          47.000    23608027.039 7  96670925.907 7      2122.263          47.000
R06  20549778.039 5 109657545.109 5     -1463.273          34.000
R07  20380030.734 8 109095962.750 8      2626.848          50.000    20380034.570 8  84852366.510 8      2043.107          48.000
R12  22802482.227 7 121806778.427 7     -3510.527          46.000    22802488.000 7  94738579.492 7     -2730.413          45.000
R21  21289441.828 4 113924129.649 4     -2294.195          28.000    21289440.836 4  88607635.582 4     -1784.368          26.000
R22  19713684.961 5 105233003.936 5       749.062          35.000    19713689.602 5  81847879.369 5       582.604          33.000
C05  39630610.922 5 206366989.850 5       -19.508          35.000    39630612.109 6 159576052.093 6       -15.057          36.000
C20  23948432.062 7 124705872.114 7      2976.918          46.000
C30  21664568.023 8 112813077.696 8      -648.730          51.000
E05  25347128.125 6 133200089.426 6      1720.145          41.000    25347126.969 6 102062431.375 6      1317.901          38.000
E30  24889293.961 7 130794093.660 7     -2590.613          43.000    24889297.914 8 100218861.428 8     -1985.003          49.000
> 2020 05 10 17 16  0.0000000  0 15        .000000000000
G08  20520063.797 6 107833683.295 6      1013.398          36.000    20520064.914 6  84026239.997 6       789.661          36.000
G10  21279115.992 7 111822529.239 7     -1475.180          47.000    21279116.633 7  87134458.147 7     -1149.491          45.000
G16  23678171.703 6 124429649.959 6     -3657.898          39.000
G27  20574428.859 8 108119349.861 8     -1248.793          51.000    20574431.258 8  84248834.052 8      -973.085          51.000
G32  23592493.438 7 123979391.584 7      2712.645          47.000    23592495.867 7  96607327.739 7      2113.752          47.000
R06  20558068.367 6 109701780.318 6     -1491.281          36.000
R07  20365364.547 8 109017452.083 8      2602.059          51.000    20365367.898 7  84791302.709 7      2023.826          46.000
R12  22822221.656 7 121912219.391 7     -3523.996          47.000    22822227.250 7  94820589.056 7     -2740.889          45.000
R21  21302334.344 5 113993079.197 5     -2307.043          33.000
R22  19709500.156 5 105210667.077 5       734.734          35.000    19709504.953 5  81830506.198 5       571.457          34.000
C05  39630717.984 5 206367545.807 5       -22.520          35.000    39630719.016 6 159576482.367 6       -17.229          36.000
C20  23931299.289 7 124616661.396 7      2965.488          46.000
C30  21668328.125 8 112832658.159 8      -661.691          51.000
E05  25337334.453 6 133148629.283 6      1705.371          40.000    25337332.828 6 102023000.906 6      1306.779          39.000
E30  24904097.516 7 130871887.250 7     -2600.625          44.000    24904100.742 8 100278469.474 8     -1992.714          49.000
> 2020 05 10 17 16 30.0000000  0 17        .000000000000
G08  20514298.352 6 107803387.415 6      1004.156          38.000    20514299.828 6  84002632.812 6       782.459          38.000
G10  21287561.781 8 111866911.924 8     -1486.199          48.000    21287561.820 7  87169042.055 7     -1158.077          44.000
G16  23699045.320 5 124539342.125 5     -3657.055          35.000
G27  20581580.133 8 108156931.054 8     -1259.109          51.000    20581582.836 8  84278118.099 8      -981.124          51.000
G32  23577008.961 7 123898019.377 7      2709.676          46.000    23577011.133 7  96543920.882 7      2111.439          46.000
R06  20566503.867 6 109746793.161 6     -1511.988          36.000
R07  20350823.648 8 108939611.485 8      2584.801          51.000    20350826.305 7  84730760.080 7      2010.404          45.000
