     3.02           OBSERVATION DATA    M (MIXED)           RINEX VERSION / TYPE
SAVERINEX           SC600               20200501 065931 LCL PGM / RUN BY / DATE
       G = GPS       R = GLONASS       C = COMPASS          COMMENT
       S = SBAS      J = QZSS          E = GALILEO          COMMENT
BEAN                                                        MARKER NAME
1                                                           MARKER NUMBER
GEODETIC                                                    MARKER TYPE
Unige DICCA         GTER                                    OBSERVER / AGENCY
SC60291900056       SC600               2.12(191226)        REC # / TYPE / VERS
                    HEMA45          NONE                    ANT # / TYPE
  4509407.8091   693652.4678  4442337.6214                  APPROX POSITION XYZ
        0.0000        0.0000        0.0000                  ANTENNA: DELTA H/E/N
G    8 C1C L1C D1C S1C C2Y L2Y D2Y S2Y                      SYS / # / OBS TYPES
R    8 C1C L1C D1C S1C C2P L2P D2P S2P                      SYS / # / OBS TYPES
C    8 C1I L1I D1I S1I C7I L7I D7I S7I                      SYS / # / OBS TYPES
E    8 C1C L1C D1C S1C C7Q L7Q D7Q S7Q                      SYS / # / OBS TYPES
DBHZ                                                        COMMENT
     30.000                                                 INTERVAL
  2020    05    01    04    00    0.0000000     GPS         TIME OF FIRST OBS
  2020    05    01    04    59   30.0000000     GPS         TIME OF LAST OBS
     0                                                      RCV CLOCK OFFS APPL
G L1C  0.00000                                              SYS / PHASE SHIFT
G L2Y  0.00000                                              SYS / PHASE SHIFT
R L1C  0.00000                                              SYS / PHASE SHIFT
R L2P  0.25000                                              SYS / PHASE SHIFT
C L1I  0.00000                                              SYS / PHASE SHIFT
C L7I  0.00000                                              SYS / PHASE SHIFT
E L1C  0.50000                                              SYS / PHASE SHIFT
E L7Q -0.25000                                              SYS / PHASE SHIFT
 12 R01  1 R02 -4 R07  5 R08  6 R09 -2 R10 -5 R11  0 R12 -1 GLONASS SLOT / FRQ #
    R13 -2 R21  4 R22 -3 R23  3                             GLONASS SLOT / FRQ #
 C1C   71.950 C2C   71.950 C2P   71.950                     GLONASS COD/PHS/BIS
    18                                                      LEAP SECONDS
*** Above antenna height is from mark to ANTENNA BOTTOM.    COMMENT
    17     4        0.0000        ANT MEASURE TYPE/HEIGT    COMMENT
    0.0000    0.0000    0.0458    0.0405    0.0000          COMMENT
                    BASE STATION                            COMMENT
                                                            END OF HEADER
> 2020 05 01 04 00  0.0000000  0 12        .000000000000
G05  20634220.500 8 108433566.477 8      -714.438          51.000    20634218.734 8  84493689.768 8      -556.705          51.000
G28  21878171.789 8 114970579.962 8      2387.375          51.000    21878169.875 7  89587504.205 7      1860.292          47.000
G30  20520771.969 8 107837395.274 8      -908.305          51.000    20520773.055 8  84029154.204 8      -707.770          51.000
R01  21833682.172 7 116713533.356 7     -3369.801          44.000    21833687.398 6  90777192.355 6     -2620.959          39.000
R02  19134417.312 8 102104904.180 8       712.293          51.000    19134418.992 8  79414958.117 8       554.006          49.000
R12  19148367.734 8 102287168.769 8       457.043          50.000    19148371.945 8  79556723.623 8       355.478          50.000
C05  39780889.375 6 207149529.710 6         2.055          36.000    39780887.984 6 160181154.637 6         1.531          41.000
C23  21880769.766 8 113938940.081 8       459.168          51.000
C25  23596736.469 6 122874385.907 6     -2371.496          39.000
E07  24534955.305 8 128932031.392 8     -1576.242          51.000    24534957.438 8  98792103.616 8     -1207.785          51.000
E27  23878183.398 8 125480722.833 8      1603.816          51.000    23878183.938 8  96147552.741 8      1228.934          51.000
E30  23533352.570 6 123668605.774 6     -1346.500          36.000    23533355.164 6  94759063.936 6     -1031.722          38.000
> 2020 05 01 04 00 30.0000000  0 13        .000000000000
G05  20638358.250 8 108455311.689 8      -733.855          51.000    20638356.758 8  84510634.074 8      -571.835          51.000
G07  22371726.883 5 117564224.120 5     -2395.371          31.000
G28  21864585.148 8 114899179.870 8      2374.023          51.000    21864582.312 7  89531867.735 7      1849.888          46.000
G30  20525998.641 8 107864860.997 8      -921.344          51.000    20525999.438 8  84050556.062 8      -717.930          51.000
R01  21852630.836 7 116814821.573 7     -3381.223          44.000    21852635.836 6  90855972.034 6     -2629.840          40.000
R02  19130469.828 8 102083839.279 8       693.340          51.000    19130471.625 8  79398574.305 8       539.264          49.000
R12  19145873.750 8 102273849.000 8       432.340          50.000    19145878.547 8  79546363.806 8       336.261          49.000
C05  39780881.703 6 207149489.382 6         1.934          36.000    39780880.266 6 160181123.413 6         1.489          41.000
C23  21878170.305 8 113925403.218 8       444.742          51.000
C25  23610425.414 6 122945667.110 6     -2379.441          39.000
E07  24543978.328 8 128979446.435 8     -1583.418          51.000    24543980.039 8  98828434.591 8     -1213.241          51.000
E27  23869067.008 8 125432813.804 8      1591.391          51.000    23869068.008 8  96110843.229 8      1219.395          51.000
E30  23541077.273 5 123709195.350 5     -1358.305          34.000    23541082.375 6  94790168.146 6     -1040.961          39.000
> 2020 05 01 04 01  0.0000000  0 12        .000000000000
G05  20642603.102 8 108477619.255 8      -753.824          51.000    20642601.773 8  84528016.590 8      -587.395          51.000
G28  21851071.102 8 114828161.963 8      2359.969          51.000    21851067.336 7  89476529.098 7      1838.937          45.000
G30  20531296.398 8 107892700.761 8      -935.172          51.000    20531297.156 8  84072249.387 8      -728.705          51.000
R01  21871638.953 7 116916430.939 7     -3393.031          42.000    21871644.195 6  90935001.499 6     -2639.027          39.000
R02  19126625.180 8 102063323.639 8       673.766          51.000    19126626.992 8  79382617.692 8       524.040          49.000
R12  19143515.078 8 102261251.599 8       407.047          50.000    19143520.141 8  79536565.814 8       316.592          49.000
C05  39780869.680 6 207149425.936 6         1.742          36.000    39780868.086 6 160181074.316 6         1.405          41.000
C23  21875649.680 8 113912276.917 8       429.836          51.000
C25  23624156.570 6 123017166.983 6     -2387.762          38.000
E07  24553038.062 8 129027055.489 8     -1591.082          51.000    24553039.742 8  98864914.220 8     -1219.120          51.000
E27  23860017.719 8 125385258.458 8      1578.496          51.000    23860019.180 8  96074404.700 8      1209.473          51.000
E30  23548868.250 6 123750133.346 6     -1371.539          37.000    23548873.914 6  94821536.239 6     -1050.776          37.000
> 2020 05 01 04 01 30.0000000  0 13        .000000000000
G05  20646964.445 8 108500538.818 8      -773.363          51.000    20646963.273 8  84545875.971 8      -602.621          51.000
G07  22399155.516 4 117708356.062 4     -2407.512          29.000
G28  21837639.531 8 114757578.841 8      2346.426          51.000    21837635.375 7  89421529.261 7      1828.384          44.000
G30  20536674.758 8 107920963.524 8      -948.188          51.000    20536675.547 8  84094272.297 8      -738.847          51.000
R01  21890715.648 6 117018410.917 6     -3404.605          40.000    21890721.672 6  91014319.283 6     -2648.026          40.000
R02  19122893.320 8 102043410.215 8       654.668          51.000    19122895.562 8  79367129.457 8       509.186          50.000
R12  19141301.266 8 102249427.034 8       382.219          51.000    19141306.578 8  79527368.936 8       297.281          50.000
C05  39780862.586 6 207149390.169 6         1.789          36.000    39780861.102 6 160181045.862 6         1.311          41.000
C23  21873217.602 8 113899610.615 8       415.508          51.000
C25  23637938.164 5 123088933.402 5     -2394.984          33.000
E07  24562144.117 8 129074908.719 8     -1598.348          51.000    24562146.156 8  98901580.964 8     -1224.738          51.000
E27  23851044.938 8 125338107.803 8      1565.840          50.000    23851047.055 8  96038276.251 8      1199.754          51.000
E30  23556733.906 6 123791464.657 6     -1383.609          38.000    23556736.781 6  94853205.593 6     -1060.075          36.000
> 2020 05 01 04 02  0.0000000  0 12        .000000000000
G05  20651437.383 8 108524044.201 8      -788.305          51.000    20651436.266 8  84564191.858 8      -614.263          51.000
G28  21824285.938 8 114687407.509 8      2337.191          51.000    21824282.086 7  89366850.314 7      1821.188          43.000
G30  20542128.438 8 107949622.404 8      -956.816          51.000    20542129.328 8  84116603.870 8      -745.574          51.000
R01  21909855.547 6 117120733.706 6     -3411.238          39.000    21909863.531 6  91093903.711 6     -2653.185          40.000
R02  19119269.742 8 102024074.386 8       639.898          51.000    19119272.102 8  79352090.469 8       497.699          50.000
R11  21092401.812 5 112711318.464 5     -3232.875          35.000    21092400.188 4  87664396.852 4     -2514.458          29.000
R12  19139227.227 8 102238348.802 8       361.941          50.000    19139232.430 8  79518752.539 8       281.510          49.000
C05  39780855.812 5 207149355.277 5         5.672          35.000    39780854.328 6 160181018.461 6         4.591          41.000
C23  21870868.945 8 113887378.656 8       405.422          51.000
E07  24571291.742 8 129122980.614 8     -1601.070          51.000    24571294.242 8  98938415.245 8     -1226.761          51.000
E27  23842144.055 8 125291337.023 8      1557.656          50.000    23842146.812 8  96002438.874 8      1193.556          51.000
E30  23564668.430 5 123833162.260 5     -1391.082          34.000    23564669.477 5  94885155.661 5     -1065.945          35.000
> 2020 05 01 04 02 30.0000000  0 13        .000000000000
G05  20656007.719 8 108548061.882 8      -810.582          50.000    20656006.914 8  84582906.934 8      -631.622          51.000
G28  21810997.062 8 114617576.970 8      2320.469          50.000    21810993.852 7  89312436.904 7      1808.157          44.000
G30  20547643.219 8 107978602.960 8      -972.793          51.000    20547644.141 8  84139186.111 8      -758.020          51.000
R01  21929046.414 6 117223323.175 6     -3425.637          41.000    21929054.633 6  91173695.525 6     -2664.381          37.000
R02  19115740.961 8 102005244.415 8       617.816          51.000    19115743.391 8  79337444.934 8       480.524          50.000
R11  21110607.359 5 112808614.830 5     -3248.504          35.000
R12  19137279.062 8 102227942.010 8       334.215          51.000    19137283.969 8  79510658.353 8       259.942          49.000
C05  39780835.406 5 207149248.279 5         2.758          35.000    39780833.812 6 160180936.087 6         2.416          40.000
C23  21868589.484 8 113875508.208 8       388.262          51.000
C25  23665625.469 5 123233120.058 5     -2410.031          34.000
E07  24580467.180 8 129171198.035 8     -1611.176          51.000    24580469.875 8  98975361.045 8     -1234.513          51.000
E27  23833302.062 8 125244873.767 8      1542.164          51.000    23833304.750 8  95966837.145 8      1181.676          51.000
E30  23572657.867 5 123875151.674 5     -1405.801          35.000    23572660.469 5  94917329.415 5     -1077.507          33.000
> 2020 05 01 04 03  0.0000000  0 13        .000000000000
G05  20660703.234 8 108572737.806 8      -830.605          50.000    20660702.609 8  84602134.909 8      -647.225          50.000
G28  21797801.570 8 114548236.729 8      2306.156          50.000    21797799.578 7  89258405.571 7      1797.005          44.000
G30  20553247.023 8 108008050.896 8      -986.445          51.000    20553247.734 8  84162132.531 8      -768.659          51.000
R01  21948316.836 7 117326327.300 7     -3437.340          44.000    21948322.234 6  91253809.789 6     -2673.490          36.000
R02  19112335.328 8 101987071.712 8       597.816          51.000    19112338.000 8  79323310.599 8       464.968          50.000
R11  21128893.703 5 112906386.666 5     -3262.199          32.000
R12  19135484.375 8 102218355.364 8       308.926          50.000    19135488.977 8  79503202.090 8       240.276          49.000
C05  39780829.312 6 207149216.265 6         3.422          36.000    39780827.758 6 160180911.343 6         2.063          41.000
C23  21866407.141 8 113864144.563 8       373.305          51.000
C25  23679546.328 6 123305600.068 6     -2418.449          37.000
E07  24589698.312 8 129219708.006 8     -1618.867          51.000    24589700.969 8  99012531.004 8     -1240.452          51.000
E27  23824547.328 8 125198865.811 8      1528.969          51.000    23824549.273 8  95931584.289 8      1171.571          51.000
E30  23580731.508 5 123917578.739 5     -1418.527          35.000    23580735.219 5  94949848.441 5     -1087.013          30.000
> 2020 05 01 04 03 30.0000000  0 12        .000000000000
G05  20665505.672 8 108597974.365 8      -850.426          50.000    20665505.070 8  84621799.758 8      -662.669          50.000
G28  21784681.547 8 114479291.305 8      2291.746          50.000    21784680.570 7  89204681.878 7      1785.776          45.000
G30  20558921.039 8 108037867.251 8      -999.867          51.000    20558921.445 8  84185366.043 8      -779.117          51.000
R01  21967646.750 8 117429644.947 8     -3449.043          49.000    21967649.125 6  91334167.870 6     -2682.592          36.000
R02  19109034.672 8 101969458.906 8       577.898          51.000    19109037.375 8  79309611.742 8       449.480          50.000
R12  19133824.633 8 102209488.980 8       283.668          50.000    19133828.859 8  79496306.040 8       220.631          48.000
C05  39780818.953 5 207149162.616 5         2.574          35.000    39780817.312 6 160180869.438 6         1.725          41.000
C23  21864303.344 8 113853190.588 8       358.445          51.000
C25  23693506.797 6 123378290.568 6     -2426.203          36.000
E07  24598966.695 8 129268412.858 8     -1626.566          51.000    24598969.320 8  99049850.280 8     -1246.330          51.000
E27  23815861.117 8 125153216.285 8      1515.859          51.000    23815861.945 8  95896606.093 8      1161.521          51.000
E30  23588869.266 6 123960345.329 6     -1430.820          36.000
> 2020 05 01 04 04  0.0000000  0 12        .000000000000
G05  20670417.672 8 108623786.406 8      -871.465          50.000    20670417.039 8  84641913.025 8      -679.064          50.000
G28  21771640.258 8 114410758.658 8      2275.973          50.000    21771639.758 7  89151279.801 7      1773.482          46.000
G30  20564667.781 8 108068066.216 8     -1014.566          51.000    20564668.227 8  84208897.699 8      -790.571          51.000
R01  21987037.531 8 117533290.202 8     -3461.852          49.000    21987038.203 6  91414780.815 6     -2692.551          36.000
R02  19105842.281 8 101952423.411 8       556.676          51.000    19105844.672 8  79296361.905 8       432.970          50.000
R12  19132302.766 8 102201358.085 8       257.262          51.000    19132306.188 8  79489981.976 8       200.092          48.000
C05  39780807.180 6 207149101.237 6          .719          36.000    39780805.734 6 160180822.324 6          .589          41.000
C23  21862281.156 8 113842661.285 8       342.414          51.000
C25  23707507.836 5 123451205.079 5     -2435.301          31.000
E07  24608275.141 8 129317328.119 8     -1635.426          51.000    24608277.672 8  99087330.771 8     -1253.142          51.000
E27  23807246.078 8 125107941.463 8      1501.453          51.000    23807245.953 8  95861915.037 8      1150.404          51.000
E30  23597073.875 6 124003463.703 6     -1444.770          40.000
> 2020 05 01 04 04 30.0000000  0 12        .000000000000
G05  20675439.805 8 108650177.972 8      -890.406          50.000    20675439.086 8  84662477.869 8      -693.823          50.000
G28  21758678.906 8 114342646.052 8      2262.430          50.000    21758678.414 7  89098205.012 7      1762.932          44.000
G30  20570488.016 8 108098651.315 8     -1026.973          51.000    20570488.547 8  84232730.238 8      -800.238          51.000
R01  22006489.531 8 117637266.273 8     -3472.352          48.000    22006489.617 6  91495651.065 6     -2700.715          36.000
R02  19102759.430 8 101935972.526 8       537.617          51.000    19102761.867 8  79283566.766 8       418.147          50.000
R12  19130919.242 8 102193966.659 8       233.039          51.000    19130922.586 8  79484233.103 8       181.253          49.000
C05  39780795.078 6 207149038.315 6         1.555          36.000    39780793.602 6 160180773.657 6          .958          40.000
C23  21860341.414 8 113832561.011 8       328.539          51.000
C25  23721552.039 5 123524351.634 5     -2443.496          30.000
E07  24617624.469 8 129366458.610 8     -1642.273          51.000    24617626.734 8  99124976.201 8     -1258.350          51.000
E27  23798703.156 8 125063046.889 8      1489.160          51.000    23798702.477 8  95827515.342 8      1141.045          51.000
E30  23605346.961 6 124046938.342 6     -1456.137          41.000
> 2020 05 01 04 05  0.0000000  0 11        .000000000000
G05  20680571.594 8 108677146.052 8      -901.031          50.000    20680570.891 8  84683491.952 8      -702.102          50.000
G28  21745797.359 8 114274953.620 8      2256.812          49.000    21745796.211 7  89045457.620 7      1758.552          42.000
G30  20576381.062 8 108129619.142 8     -1031.062          51.000    20576381.258 8  84256860.996 8      -803.425          51.000
R01  22026002.055 7 117741569.265 7     -3474.504          46.000    22026002.258 6  91576775.578 6     -2702.392          36.000
R02  19099786.000 8 101920105.939 8       526.777          51.000    19099788.492 8  79271226.085 8       409.716          50.000
R12  19129673.594 8 102187311.933 8       217.203          51.000    19129676.594 8  79479057.196 8       168.936          49.000
C05                                                                  39780780.844 6 160180721.883 6         7.452          40.000
C23  21858483.594 8 113822887.288 8       322.738          51.000
E07  24627014.055 8 129415802.218 8     -1640.836          51.000    24627016.562 8  99162784.928 8     -1257.288          51.000
E27  23790232.445 8 125018531.258 8      1484.992          51.000    23790231.555 8  95793405.972 8      1137.878          51.000
E30  23613687.438 6 124090765.754 6     -1459.312          40.000
> 2020 05 01 04 05 30.0000000  0 13        .000000000000
G05  20685815.406 8 108704702.031 8      -926.195          50.000    20685814.766 8  84704964.137 8      -721.711          50.000
G28  21732998.406 8 114207694.955 8      2236.930          49.000    21732995.828 6  88993048.265 6      1743.062          41.000
G30  20582348.750 8 108160979.605 8     -1049.664          51.000    20582348.656 8  84281297.707 8      -817.920          51.000
R01  22045576.648 7 117846208.828 7     -3491.301          45.000    22045576.969 5  91658161.796 5     -2715.462          35.000
R02  19096924.547 8 101904837.036 8       501.266          51.000    19096927.016 8  79259350.278 8       389.873          49.000
R11  21221396.781 4 113400653.736 4     -3326.297          29.000    21221409.516 4  88200563.958 4     -2587.120          29.000
R12  19128567.867 8 102181404.380 8       186.789          51.000    19128570.500 8  79474462.423 8       145.280          49.000
C05  39780770.711 6 207148911.574 6         3.621          36.000    39780769.297 6 160180675.562 6         3.286          40.000
C23  21856709.641 8 113813650.851 8       302.766          51.000
C25  23749775.305 4 123671311.762 4     -2454.023          28.000
E07  24636446.383 8 129465370.166 8     -1653.789          51.000    24636449.109 8  99200765.547 8     -1267.171          51.000
E27  23781835.922 8 124974406.511 8      1466.520          51.000    23781835.438 8  95759596.093 8      1123.718          51.000
E30  23622096.648 6 124134955.722 6     -1476.457          39.000    23622096.070 5  95116392.816 5     -1131.287          32.000
> 2020 05 01 04 06  0.0000000  0 13        .000000000000
G05  20691164.086 8 108732808.607 8      -946.746          51.000    20691163.672 8  84726865.355 8      -737.724          51.000
G28  21720275.695 8 114140835.816 8      2221.199          50.000    21720271.328 6  88940950.249 6      1730.805          40.000
G30  20588383.930 8 108192694.927 8     -1063.781          51.000    20588384.070 8  84306010.953 8      -828.920          51.000
R01  22065207.102 7 117951146.280 7     -3503.633          44.000    22065206.852 5  91739779.701 5     -2725.048          34.000
R02  19094168.383 8 101890130.680 8       480.148          50.000    19094170.859 8  79247912.005 8       373.449          49.000
R12  19127594.930 8 102176206.392 8       160.656          51.000    19127597.688 8  79470419.560 8       124.955          50.000
R13  21616981.914 5 115433482.517 5      3749.715          35.000    21616986.633 6  89781611.760 6      2916.445          38.000
C05  39780753.719 6 207148822.738 6         2.793          36.000    39780752.297 6 160180606.874 6         1.960          41.000
C23  21855012.531 8 113804815.161 8       287.098          51.000
C25  23763947.312 5 123745106.049 5     -2463.562          30.000
E07  24645914.734 8 129515126.027 8     -1662.434          51.000    24645917.453 8  99238890.158 8     -1273.783          51.000
E27  23773506.500 8 124930636.920 8      1452.277          51.000    23773507.086 8  95726058.343 8      1112.787          51.000
E30  23630567.828 6 124179470.663 6     -1490.055          39.000    23630569.266 5  95150501.613 5     -1141.985          34.000
> 2020 05 01 04 06 30.0000000  0 13        .000000000000
G05  20696622.688 8 108761492.373 8      -965.602          51.000    20696622.062 8  84749216.352 8      -752.417          51.000
G28  21707634.766 8 114074405.987 8      2207.195          51.000    21707630.000 7  88889186.737 7      1719.892          42.000
G30  20594491.633 8 108224791.567 8     -1076.184          51.000    20594492.078 8  84331021.312 8      -838.585          51.000
R01  22084897.766 7 118056408.056 7     -3513.949          43.000    22084897.758 5  91821649.945 5     -2733.069          35.000
R02  19091522.836 8 101876016.841 8       460.695          50.000    19091525.797 8  79236934.560 8       358.319          49.000
R12  19126759.836 8 102171745.200 8       136.582          51.000    19126762.656 8  79466949.732 8       106.227          50.000
R13  21595950.219 5 115321178.593 5      3737.488          35.000    21595954.312 6  89694264.264 6      2906.935          36.000
C05  39780736.359 6 207148732.472 6         3.109          36.000    39780735.000 6 160180537.018 6         2.637          40.000
C23  21853397.719 8 113796407.248 8       273.273          51.000
C25  23778160.977 5 123819118.096 5     -2470.840          33.000
E07  24655424.133 8 129565097.519 8     -1669.203          51.000    24655426.680 8  99277179.981 8     -1278.985          51.000
E27  23765249.867 8 124887250.917 8      1439.934          51.000    23765251.609 8  95692814.494 8      1103.326          51.000
E30  23639106.070 5 124224336.742 5     -1501.324          34.000    23639110.344 6  95184879.479 6     -1150.240          36.000
> 2020 05 01 04 07  0.0000000  0 14        .000000000000
G05  20702188.547 8 108790740.341 8      -983.598          51.000    20702187.688 8  84772006.966 8      -766.440          51.000
G28  21695073.703 8 114008395.562 8      2194.059          51.000    21695070.234 7  88837750.036 7      1709.656          44.000
G30  20600669.094 8 108257255.714 8     -1087.559          51.000    20600669.789 8  84356318.045 8      -847.448          51.000
R01  22104645.367 7 118161979.661 7     -3523.531          43.000    22104648.156 6  91903761.187 6     -2740.524          39.000
R02  19088987.031 8 101862485.098 8       442.055          49.000    19088990.102 8  79226409.898 8       343.820          48.000
R11  21277746.562 5 113701718.405 5     -3362.133          33.000    21277752.070 4  88434722.749 4     -2614.992          29.000
R12  19126059.859 8 102168007.217 8       113.273          51.000    19126062.961 8  79464042.409 8        88.102          50.000
R13  21574988.102 5 115209243.264 5      3725.457          35.000    21574991.008 5  89607203.438 5      2897.575          32.000
C05  39780716.336 6 207148628.462 6         4.168          36.000    39780715.008 6 160180456.585 6         3.335          40.000
C23  21851862.867 8 113788414.446 8       260.211          51.000
C25  23792412.992 5 123893336.314 5     -2476.223          32.000
E07  24664972.164 8 129615272.257 8     -1675.156          51.000    24664974.555 8  99315625.524 8     -1283.573          51.000
E27  23757064.172 8 124844236.819 8      1428.352          51.000    23757066.609 8  95659855.599 8      1094.421          51.000
E30  23647707.992 6 124269540.205 6     -1511.621          38.000    23647714.484 6  95219515.946 6     -1158.270          36.000
> 2020 05 01 04 07 30.0000000  0 13        .000000000000
G05  20707867.953 8 108820585.553 8     -1002.469          51.000    20707867.125 8  84795262.937 8      -781.144          51.000
G28  21682599.305 8 113942840.223 8      2179.883          51.000    21682596.797 7  88786667.936 7      1698.610          46.000
G30  20606922.727 8 108290119.472 8     -1099.828          51.000    20606923.477 8  84381926.156 8      -857.009          51.000
R01  22124458.312 7 118267893.255 7     -3533.742          45.000    22124463.539 6  91986138.415 6     -2748.466          41.000
R02  19086566.188 8 101849570.300 8       422.523          48.000    19086569.984 8  79216365.047 8       328.629          48.000
R11  21296667.539 6 113802901.001 6     -3374.094          36.000    21296679.992 4  88513412.395 4     -2624.295          29.000
R12  19125501.477 8 102165025.698 8        89.145          50.000    19125505.203 8  79461723.451 8        69.335          50.000
R13  21554101.461 5 115097712.770 5      3713.672          35.000    21554100.781 4  89520435.537 4      2888.414          28.000
C05  39780700.039 6 207148543.707 6         5.262          36.000    39780698.734 6 160180391.043 6         3.887          41.000
C23  21850413.992 8 113780869.257 8       246.328          51.000
E07  24674565.180 8 129665683.548 8     -1681.961          51.000    24674567.344 8  99354252.322 8     -1288.820          51.000
E27  23748956.086 8 124801628.617 8      1415.863          51.000    23748958.602 8  95627207.730 8      1084.867          51.000
E30  23656380.297 6 124315113.153 6     -1522.770          39.000    23656386.594 6  95254435.476 6     -1167.052          37.000
> 2020 05 01 04 08  0.0000000  0 13        .000000000000
G05  20713660.297 8 108851023.809 8     -1022.691          51.000    20713659.359 8  84818981.069 8      -796.902          51.000
G28  21670211.414 8 113877738.822 8      2164.195          51.000    21670209.422 7  88735939.578 7      1686.386          45.000
G30  20613251.586 8 108323378.329 8     -1113.406          51.000    20613252.477 8  84407842.131 8      -867.589          51.000
R01  22144335.258 7 118374143.967 7     -3545.508          47.000    22144341.469 6  92068777.864 6     -2757.617          41.000
R02  19084261.195 8 101837271.971 8       401.410          49.000    19084265.273 8  79206799.679 8       312.208          48.000
R11  21315662.195 5 113904378.020 5     -3387.375          33.000    21315668.734 5  88592345.763 5     -2634.622          30.000
R12  19125083.844 8 102162796.161 8        63.602          50.000    19125087.836 8  79459989.340 8        49.468          50.000
R13  21533290.992 6 114986586.586 6      3699.090          36.000    21533289.336 5  89433984.192 5      2877.073          31.000
C05  39780687.016 6 207148475.354 6         3.715          36.000    39780685.664 6 160180338.127 6         2.918          40.000
C23  21849050.477 8 113773768.176 8       230.961          51.000
E07  24684202.680 8 129716328.234 8     -1690.336          51.000    24684204.555 8  99393057.967 8     -1295.189          51.000
E27  23740925.016 8 124759423.895 8      1401.840          51.000    23740927.594 8  95594869.032 8      1074.128          51.000
E30  23665123.008 6 124361051.003 6     -1535.520          36.000    23665126.438 6  95289634.540 6     -1176.480          37.000
> 2020 05 01 04 08 30.0000000  0 14        .000000000000
G05  20719566.367 8 108882061.598 8     -1044.973          51.000    20719565.703 8  84843166.361 8      -814.264          51.000
G07  22595090.031 5 118737955.981 5     -2494.617          35.000
G28  21657911.617 8 113813101.106 8      2146.445          51.000    21657909.305 7  88685572.528 7      1672.555          44.000
G30  20619656.773 8 108357038.181 8     -1128.938          51.000    20619657.836 8  84434070.579 8      -879.692          51.000
R01  22164276.453 7 118480737.274 7     -3559.176          47.000    22164282.797 6  92151683.777 6     -2768.248          41.000
R02  19082073.672 8 101825599.046 8       378.234          49.000    19082077.984 8  79197720.730 8       294.179          48.000
R11  21334724.062 5 114006281.400 5     -3402.816          31.000    21334716.148 4  88671517.483 4     -2646.635          27.000
R12  19124808.242 8 102161325.121 8        36.062          50.000    19124812.812 8  79458845.205 8        28.049          50.000
R13  21512558.445 6 114875874.461 6      3683.242          36.000    21512562.125 6  89347874.786 6      2864.741          38.000
C05  39780678.414 6 207148430.388 6          .789          36.000    39780677.141 6 160180303.345 6          .559          40.000
C23  21847773.695 8 113767117.848 8       213.820          51.000
E07  24693885.641 8 129767213.540 8     -1700.617          51.000    24693887.508 8  99432047.971 8     -1303.058          51.000
E27  23732972.234 8 124717630.555 8      1385.828          51.000    23732975.109 8  95562845.559 8      1061.886          51.000
E30  23673935.469 6 124407359.451 6     -1549.852          37.000    23673937.719 6  95325117.721 6     -1187.809          38.000
> 2020 05 01 04 09  0.0000000  0 14        .000000000000
G05  20725565.734 8 108913589.712 8     -1058.902          51.000    20725565.422 8  84867733.725 8      -825.119          51.000
G28  21645679.484 8 113748820.663 8      2137.090          51.000    21645676.273 7  88635483.891 7      1665.268          43.000
G30  20626117.445 8 108390989.439 8     -1136.285          51.000    20626118.328 8  84460526.105 8      -885.417          51.000
R01  22184260.414 7 118587561.103 7     -3564.270          46.000    22184266.883 6  92234768.994 6     -2772.210          41.000
R02  19079982.875 8 101814443.219 8       363.512          50.000    19079987.547 8  79189043.959 8       282.728          48.000
R11  21353840.625 5 114108405.366 5     -3408.430          31.000    21353829.906 4  88750966.591 4     -2651.004          26.000
R12  19124654.023 8 102160501.515 8        17.008          50.000    19124658.594 8  79458204.611 8        13.225          49.000
R13  21491883.039 6 114765469.550 6      3675.293          36.000    21491888.703 6  89262004.276 6      2858.558          40.000
C05  39780653.656 6 207148301.612 6         5.949          36.000    39780652.438 6 160180203.738 6         4.709          40.000
C23  21846562.805 8 113760810.537 8       204.879          51.000
C25  23849863.422 5 124192483.939 5     -2503.652          35.000
E07  24703593.828 8 129818231.169 8     -1702.457          51.000    24703595.859 8  99471139.380 8     -1304.489          51.000
E27  23725077.188 8 124676140.982 8      1378.289          51.000    23725080.148 8  95531054.847 8      1056.080          51.000
E30  23682798.180 7 124453929.182 7     -1556.258          42.000    23682799.586 6  95360800.991 6     -1192.418          38.000
> 2020 05 01 04 09 30.0000000  0 14        .000000000000
G05  20731681.008 8 108945725.732 8     -1079.105          50.000    20731680.688 8  84892774.779 8      -840.861          50.000
G28  21633537.820 8 113685018.115 8      2121.012          48.000    21633533.648 7  88585767.658 7      1652.739          42.000
G30  20632655.766 8 108425348.888 8     -1149.805          51.000    20632656.453 8  84487299.697 8      -895.952          51.000
R01  22204309.102 7 118694734.088 7     -3575.914          44.000    22204315.781 6  92318125.746 6     -2781.266          40.000
R02  19078011.930 8 101803926.479 8       342.207          51.000    19078016.648 8  79180864.236 8       266.161          48.000
R11  21373019.828 4 114210897.800 4     -3422.402          29.000
R12  19124643.398 8 102160444.542 8        -8.566          50.000    19124647.961 8  79458160.270 8        -6.663          49.000
R13  21471287.742 6 114655494.247 6      3661.168          36.000    21471294.062 7  89176467.868 7      2847.575          42.000
C05  39780635.438 6 207148207.167 6         4.742          36.000    39780634.172 6 160180129.901 6         3.794          40.000
C23  21845440.055 8 113754962.816 8       189.496          51.000
C25  23864329.828 6 124267783.565 6     -2511.922          38.000
E07  24713349.766 8 129869499.264 8     -1710.855          51.000    24713352.016 8  99510422.688 8     -1310.909          51.000
E27  23717262.617 8 124635074.001 8      1364.148          51.000    23717265.305 8  95499587.938 8      1045.227          51.000
E30  23691732.430 7 124500876.782 7     -1568.805          42.000    23691732.430 6  95396773.767 6     -1202.311          37.000
> 2020 05 01 04 10  0.0000000  0 14        .000000000000
G05  20737906.758 8 108978443.121 8     -1099.879          50.000    20737906.523 8  84918268.814 8      -857.052          50.000
G15  23368149.211 5 122800455.330 5      3165.062          31.000
G28  21621482.094 7 113621670.186 7      2104.457          44.000    21621477.422 7  88536405.662 7      1639.837          42.000
G30  20639266.672 8 108460089.624 8     -1164.016          51.000    20639267.578 8  84514370.387 8      -907.025          51.000
R01  22224417.391 7 118802228.155 7     -3588.188          42.000    22224424.719 6  92401732.161 6     -2790.816          40.000
R02  19076156.727 8 101794024.454 8       320.133          51.000    19076161.070 8  79173162.655 8       248.992          48.000
R12  19124771.289 8 102161126.986 8       -34.660          50.000    19124775.711 8  79458691.058 8       -26.958          49.000
R13  21450769.258 6 114545925.861 6      3646.086          38.000    21450775.312 7  89091247.980 7      2835.845          43.000
C05  39780618.680 6 207148119.699 6         3.234          36.000    39780617.414 6 160180062.237 6         2.462          41.000
C23  21844400.742 8 113749548.792 8       173.535          51.000
C25  23878835.914 6 124343300.371 6     -2521.004          37.000
E07  24723148.414 8 129920992.187 8     -1719.816          51.000    24723150.734 8  99549878.267 8     -1317.766          51.000
E27  23709523.578 8 124594404.625 8      1349.367          51.000    23709526.086 8  95468425.685 8      1033.940          51.000
E30  23700733.234 6 124548175.198 6     -1582.168          39.000    23700731.211 6  95433015.344 6     -1212.412          37.000
> 2020 05 01 04 10 30.0000000  0 13        .000000000000
G05  20744236.578 8 109011706.582 8     -1118.023          51.000    20744236.438 8  84944188.372 8      -871.187          50.000
G28  21609505.938 7 113558744.706 7      2090.375          44.000    21609502.898 7  88487372.778 7      1628.861          44.000
G30  20645943.305 8 108495176.005 8     -1175.539          51.000    20645944.586 8  84541710.432 8      -916.004          51.000
R01  22244579.008 6 118910006.866 6     -3597.410          40.000    22244586.453 6  92485560.007 6     -2797.989          40.000
R02  19074410.211 8 101784704.147 8       300.707          51.000    19074414.625 8  79165913.484 8       233.883          48.000
R12  19125030.961 8 102162512.768 8       -58.137          51.000    19125034.867 8  79459768.889 8       -45.217          48.000
R13  21430321.289 6 114436731.493 6      3633.324          38.000    21430326.750 7  89006319.002 7      2825.919          43.000
C05  39780596.914 5 207148006.382 5         3.945          35.000    39780595.680 6 160179974.578 6         3.163          40.000
C23  21843437.859 8 113744534.025 8       160.332          51.000
C25  23893376.547 5 124418998.609 5     -2526.672          34.000
E07  24732983.586 8 129972675.658 8     -1726.176          51.000    24732985.750 8  99589479.860 8     -1322.603          51.000
E27  23701853.547 8 124554099.227 8      1337.285          51.000    23701856.141 8  95437542.343 8      1024.616          51.000
E30  23709793.266 6 124595788.667 6     -1592.590          38.000    23709791.922 6  95469498.428 6     -1220.260          38.000
> 2020 05 01 04 11  0.0000000  0 13        .000000000000
G05  20750687.734 8 109045607.472 8     -1146.254          50.000    20750687.641 8  84970604.635 8      -893.188          50.000
G28  21597629.820 8 113496335.291 8      2066.016          49.000    21597627.914 7  88438742.041 7      1609.882          44.000
G30  20652702.906 8 108530698.472 8     -1196.895          51.000    20652704.289 8  84569390.267 8      -932.648          51.000
R01  22264809.562 6 119018161.524 6     -3617.125          39.000    22264818.047 6  92569680.271 6     -2813.319          37.000
R02  19072790.680 8 101776060.694 8       271.098          51.000    19072794.719 8  79159190.779 8       210.851          48.000
R12  19125439.594 8 102164694.130 8       -91.727          50.000    19125443.070 8  79461465.493 8       -71.343          48.000
R13  21409961.547 6 114328007.175 6      3610.328          38.000    21409965.906 7  88921755.626 7      2808.033          42.000
C05  39780587.578 5 207147958.078 5        -5.148          35.000    39780586.359 6 160179937.201 6        -3.809          40.000
C23  21842568.789 8 113740008.899 8       137.070          51.000
C25  23907969.430 5 124494967.625 5     -2542.012          35.000
E07  24742872.570 8 130024641.403 8     -1742.504          51.000    24742874.500 8  99629297.735 8     -1335.159          51.000
E27  23694270.344 8 124514250.190 8      1315.082          51.000    23694273.172 8  95407008.666 8      1007.663          51.000
E30  23718930.539 6 124643807.788 6     -1612.766          41.000    23718931.102 6  95506292.270 6     -1235.845          39.000
> 2020 05 01 04 11 30.0000000  0 13        .000000000000
G05  20757248.094 8 109080082.789 8     -1156.957          50.000    20757247.875 8  84997468.492 8      -901.525          50.000
G28  21585841.273 8 113434382.246 8      2059.219          51.000    21585839.625 7  88390466.909 7      1604.586          46.000
G30  20659533.508 8 108566593.710 8     -1200.836          51.000    20659534.898 8  84597360.548 8      -935.716          51.000
R01  22285099.336 6 119126627.422 6     -3618.785          40.000    22285107.602 5  92654042.609 5     -2814.614          35.000
R02  19071286.516 8 101768032.407 8       259.238          51.000    19071290.375 8  79152946.533 8       201.627          49.000
R12  19125985.086 8 102167607.081 8      -107.418          51.000    19125988.234 8  79463731.126 8       -83.547          48.000
R13  21389678.805 6 114219692.933 6      3605.629          38.000    21389681.297 6  88837511.214 6      2804.378          40.000
C05  39780579.016 5 207147913.951 5         3.324          35.000    39780577.820 6 160179902.644 6         2.794          41.000
C23  21841782.383 8 113735911.482 8       131.254          51.000
C25  23922601.727 5 124571144.150 5     -2540.707          34.000
E07  24752803.430 8 130076827.403 8     -1741.363          51.000    24752805.523 8  99669284.383 8     -1334.297          51.000
E27  23686762.477 8 124474796.141 8      1310.340          51.000    23686765.523 8  95376777.635 8      1004.012          51.000
E30  23728132.883 6 124692169.082 6     -1615.859          38.000    23728133.922 6  95543348.249 6     -1238.210          38.000
> 2020 05 01 04 12  0.0000000  0 13        .000000000000
G05  20763908.711 8 109115084.581 8     -1176.145          51.000    20763908.078 8  85024742.616 8      -916.476          51.000
G28  21574131.219 8 113372840.888 8      2043.887          51.000    21574129.438 7  88342512.586 7      1592.639          47.000
G30  20666425.898 8 108602813.519 8     -1213.367          51.000    20666427.469 8  84625583.754 8      -945.481          51.000
R01  22305438.992 6 119235354.873 6     -3629.254          41.000    22305446.234 5  92738608.313 5     -2822.756          35.000
R02  19069889.102 8 101760574.000 8       238.320          51.000    19069892.875 8  79147145.524 8       185.357          49.000
R12  19126658.320 8 102171202.577 8      -131.766          51.000    19126661.117 8  79466527.605 8      -102.484          48.000
R13  21369463.727 6 114111743.651 6      3591.473          36.000    21369463.875 6  88753550.709 6      2793.371          38.000
C05  39780562.258 6 207147826.165 6         2.664          36.000    39780561.078 6 160179835.154 6         2.350          41.000
C23  21841068.766 8 113732194.883 8       116.828          51.000
C25  23937263.180 5 124647480.118 5     -2547.793          33.000
E07  24762767.039 8 130129186.826 8     -1748.871          51.000    24762769.602 8  99709403.917 8     -1340.029          51.000
E27  23679320.914 8 124435690.889 8      1296.973          51.000    23679323.992 8  95346813.857 8       993.820          51.000
E30  23737390.539 5 124740830.133 5     -1627.918          35.000    23737390.852 6  95580629.428 6     -1246.845          38.000
> 2020 05 01 04 12 30.0000000  0 14        .000000000000
G05  20770669.414 8 109150611.051 8     -1193.418          51.000    20770668.258 8  85052425.575 8      -929.939          51.000
G28  21562499.500 8 113311712.439 8      2030.250          51.000    21562497.633 8  88294880.017 8      1582.013          48.000
G30  20673379.711 8 108639355.583 8     -1224.012          51.000    20673381.195 8  84654058.079 8      -953.775          51.000
R01  22325827.078 6 119344341.232 6     -3637.355          40.000    22325834.352 6  92823375.346 6     -2829.057          36.000
R02  19068598.469 8 101753685.039 8       219.652          51.000    19068601.828 8  79141787.441 8       170.841          49.000
R11  21489478.172 5 114833164.548 5     -3488.828          35.000    21489478.352 4  89314752.190 4     -2713.533          25.000
R12  19127458.984 8 102175478.686 8      -154.297          51.000    19127461.477 8  79469853.477 8      -120.009          48.000
R13  21349315.680 5 114004160.486 5      3579.430          35.000    21349315.672 6  88669874.967 6      2784.004          39.000
C05  39780537.188 6 207147695.289 6         3.855          36.000    39780535.922 6 160179733.929 6         3.483          41.000
C23  21840427.633 8 113728857.503 8       104.500          51.000
C25  23951954.477 6 124723972.838 6     -2553.254          37.000
E07  24772763.414 8 130181718.652 8     -1754.363          51.000    24772766.438 8  99749655.553 8     -1344.276          51.000
E27  23671945.461 8 124396933.999 8      1285.648          51.000    23671948.445 8  95317117.004 8       985.125          51.000
E30  23746704.008 6 124789776.783 6     -1636.562          40.000    23746704.531 6  95618133.989 6     -1254.103          39.000
> 2020 05 01 04 13  0.0000000  0 15        .000000000000
G05  20777529.430 8 109186659.149 8     -1191.727          51.000    20777527.992 8  85080514.999 8      -928.618          51.000
G07  22724413.023 5 119417580.637 5     -2519.805          35.000    22724393.812 5  93052615.639 5     -1963.484          31.000
G28  21550945.742 8 113250996.860 8      2035.484          50.000    21550944.562 8  88247569.182 8      1586.092          48.000
G30  20680394.305 8 108676216.532 8     -1215.414          51.000    20680395.586 8  84682780.884 8      -947.076          51.000
R01  22346263.055 6 119453582.435 6     -3626.855          41.000    22346270.414 6  92908340.690 6     -2820.888          36.000
R02  19067414.594 8 101747366.131 8       219.859          51.000    19067417.625 8  79136872.715 8       171.002          50.000
R11  21509087.664 5 114938037.885 5     -3478.523          35.000
R12  19128386.125 8 102180431.777 8      -157.500          51.000    19128388.680 8  79473705.890 8      -122.497          48.000
R13  21329236.234 6 113896944.771 6      3586.637          36.000    21329238.352 6  88586484.948 6      2789.606          41.000
C05                                                                  39780502.008 6 160179597.471 6        19.452          40.000
C23  21839859.234 8 113725896.859 8       110.809          51.000
C25  23966675.711 6 124800618.467 6     -2538.875          38.000
E07  24782792.320 8 130234420.823 8     -1741.055          51.000    24782795.555 8  99790037.710 8     -1333.986          51.000
E27  23664636.078 8 124358524.088 8      1293.051          51.000    23664638.633 8  95287686.011 8       990.794          51.000
E30  23756072.719 6 124839011.610 6     -1627.270          38.000    23756074.453 6  95655859.340 6     -1247.004          39.000
> 2020 05 01 04 13 30.0000000  0 15        .000000000000
G05  20784463.242 8 109223095.826 8     -1233.992          51.000    20784461.578 8  85108907.212 8      -961.552          51.000
G07  22738893.141 6 119493661.252 6     -2548.621          37.000    22738884.977 5  93111898.988 5     -1985.951          35.000
G28  21539445.133 8 113190563.650 8      1996.672          48.000    21539444.859 8  88200478.360 8      1555.848          48.000
G30  20687444.117 8 108713262.500 8     -1250.875          51.000    20687445.336 8  84711647.870 8      -974.705          51.000
R01  22366722.633 7 119562941.929 7     -3660.391          44.000    22366728.828 6  92993398.105 6     -2846.970          38.000
R02  19066312.883 8 101741484.364 8       175.602          51.000    19066315.383 8  79132298.015 8       136.579          50.000
R11  21528719.461 6 115042950.267 6     -3513.270          36.000    21528718.844 4  89477835.476 4     -2732.543          26.000
R12  19129414.547 8 102185926.007 8      -205.297          51.000    19129417.219 8  79477979.175 8      -159.678          48.000
R13  21309201.344 6 113789963.742 6      3548.695          36.000    21309205.398 7  88503277.467 7      2760.096          43.000
C05  39780435.570 6 207147166.170 6         1.734          36.000    39780434.234 6 160179324.336 6         1.341          40.000
C23  21839337.617 8 113723181.025 8        73.609          51.000
C25  23981400.336 5 124877284.084 5     -2568.656          35.000
E07  24792828.398 8 130287160.770 8     -1771.508          51.000    24792831.531 8  99830448.838 8     -1357.377          51.000
E27  23657367.695 8 124320329.248 8      1256.656          51.000    23657369.969 8  95258419.810 8       962.940          51.000
E30  23765471.086 6 124888400.471 6     -1661.930          37.000    23765473.102 6  95693702.804 6     -1273.436          37.000
> 2020 05 01 04 14  0.0000000  0 14        .000000000000
G05  20791603.789 8 109260619.114 8     -1264.750          51.000    20791601.969 8  85138146.142 8      -985.519          51.000
G28  21528131.578 8 113131114.072 8      1969.410          49.000    21528132.250 7  88154153.986 7      1534.605          46.000
G30  20694661.930 8 108751191.426 8     -1274.793          51.000    20694663.148 8  84741202.872 8      -993.345          51.000
R01  22387336.953 7 119673128.912 7     -3682.363          45.000    22387342.664 6  93079099.045 6     -2864.060          39.000
R02  19065426.055 8 101736751.146 8       142.789          51.000    19065428.719 8  79128616.601 8       111.055          51.000
R11  21548514.734 6 115148728.398 6     -3535.871          38.000    21548513.375 5  89560121.710 5     -2750.122          30.000
R12  19130677.047 8 102192671.002 8      -241.418          51.000    19130679.859 8  79483225.290 8      -187.770          48.000
R13  21289344.367 6 113683930.553 6      3522.707          37.000    21289349.898 7  88420807.199 7      2739.883          44.000
C05  39780466.891 6 207147329.682 6       -10.375          36.000    39780465.555 6 160179450.334 6        -7.594          40.000
C23  21838995.758 8 113721402.336 8        47.785          51.000
C25  23996260.547 5 124954660.820 5     -2586.566          31.000
E07  24803004.664 8 130340637.758 8     -1790.688          51.000    24803008.211 8  99871424.679 8     -1372.034          51.000
E27  23650273.242 8 124283049.252 8      1231.609          51.000    23650275.750 8  95229854.596 8       943.716          51.000
E30  23775031.695 6 124938641.391 6     -1684.445          40.000    23775031.734 6  95732199.086 6     -1291.068          36.000
> 2020 05 01 04 14 30.0000000  0 15        .000000000000
G05  20798814.703 8 109298513.311 8     -1265.785          51.000    20798813.055 8  85167674.079 8      -986.326          51.000
G07  22768103.594 5 119647167.263 5     -2552.984          35.000    22768110.039 5  93231604.435 5     -1989.338          34.000
G28  21516870.266 8 113071936.433 8      1971.582          49.000    21516870.930 7  88108041.510 7      1536.298          45.000
G30  20701911.531 8 108789287.472 8     -1269.086          51.000    20701912.617 8  84770888.083 8      -988.898          51.000
R01  22407969.289 7 119783414.926 7     -3674.117          44.000    22407974.289 6  93164877.025 6     -2857.647          38.000
R02  19064619.086 8 101732442.794 8       140.051          51.000    19064621.039 8  79125265.677 8       108.928          50.000
R11  21568327.250 5 115254607.971 5     -3528.270          31.000    21568333.094 4  89642472.223 4     -2744.213          27.000
R12  19132037.305 8 102199939.060 8      -247.312          51.000    19132040.625 8  79488878.235 8      -192.354          48.000
R13  21269530.289 6 113578122.234 6      3527.070          36.000    21269535.656 7  88338511.825 7      2743.277          43.000
C05  39780461.367 5 207147300.849 5         7.664          35.000    39780459.992 6 160179428.042 6         5.875          41.000
C23  21838697.867 8 113719852.216 8        51.367          51.000
C25  24011083.125 5 125032025.126 5     -2576.137          31.000
E07  24813185.312 8 130394137.234 8     -1780.176          51.000    24813188.930 8  99912417.746 8     -1364.016          51.000
E27  23643216.805 8 124245970.171 8      1236.199          51.000    23643219.695 8  95201443.334 8       947.164          51.000
E30  23784618.680 6 124989018.463 6     -1678.047          39.000    23784616.680 6  95770799.591 6     -1285.638          36.000
> 2020 05 01 04 15  0.0000000  0 15        .000000000000
G05  20806116.078 8 109336882.801 8     -1288.211          51.000    20806114.414 8  85197572.393 8     -1003.801          51.000
G07  22782714.469 6 119723958.263 6     -2562.027          38.000    22782721.367 4  93291441.490 4     -1996.397          25.000
G28  21505681.398 8 113013137.548 8      1952.477          51.000    21505681.406 7  88062224.198 7      1521.410          43.000
G30  20709212.703 8 108827654.668 8     -1284.594          51.000    20709213.477 8  84800784.583 8     -1000.982          51.000
R01  22428639.633 7 119893905.221 7     -3687.613          45.000    22428643.844 6  93250813.899 6     -2868.144          38.000
R02  19063911.977 8 101728667.548 8       115.629          50.000    19063913.391 8  79122329.404 8        89.934          50.000
R11  21588185.297 5 115360669.730 5     -3542.387          34.000    21588186.719 4  89725010.877 4     -2755.190          25.000
R12  19133515.305 8 102207835.893 8      -274.902          51.000    19133518.859 8  79495020.202 8      -213.813          48.000
R13  21249779.312 6 113472648.555 6      3508.980          37.000    21249783.930 7  88256476.748 7      2729.207          43.000
C05  39780439.070 6 207147183.782 6         4.449          36.000    39780437.820 6 160179338.281 6         3.184          41.000
C23  21838463.766 8 113718634.533 8        33.867          51.000
C25  24025959.625 4 125109480.678 4     -2586.078          29.000
E07  24823390.359 8 130447764.545 8     -1790.969          51.000    24823393.250 8  99953508.783 8     -1372.307          51.000
E27  23636218.922 8 124209197.980 8      1219.398          51.000    23636221.906 8  95173267.215 8       934.323          51.000
E30  23794250.859 6 125039635.483 6     -1692.566          39.000    23794249.852 6  95809584.073 6     -1296.647          37.000
> 2020 05 01 04 15 30.0000000  0 14        .000000000000
G05  20813524.391 8 109375814.326 8     -1307.215          51.000    20813522.844 8  85227908.652 8     -1018.609          51.000
G07  22797356.273 6 119800904.073 6     -2567.316          39.000    22797352.172 5  93351348.828 5     -2000.497          33.000
G28  21494581.992 8 112954807.142 8      1936.336          51.000    21494581.094 7  88016771.961 7      1508.833          44.000
G30  20716581.789 8 108866379.423 8     -1296.926          51.000    20716582.547 8  84830959.712 8     -1010.592          51.000
R01  22449364.203 7 120004687.165 7     -3697.855          44.000    22449367.445 6  93336977.611 6     -2876.113          38.000
R02  19063321.117 8 101725516.305 8        94.414          51.000    19063322.922 8  79119878.420 8        73.433          50.000
R11  21608104.820 5 115467131.263 5     -3552.715          30.000    21608109.617 4  89807791.645 4     -2763.226          25.000
R12  19135127.703 8 102216449.365 8      -299.242          51.000    19135131.406 8  79501719.575 8      -232.744          49.000
R13  21230108.375 6 113367600.982 6      3494.434          37.000    21230112.219 7  88174773.084 7      2717.893          43.000
C05                                                                  39780415.531 6 160179248.367 6         3.054          41.000
C23  21838310.078 8 113717835.643 8        19.520          51.000
E07  24833636.320 8 130501607.415 8     -1798.598          51.000    24833638.688 8  99994764.977 8     -1378.098          51.000
E27  23629296.562 8 124172820.965 8      1205.801          51.000    23629299.539 8  95145393.915 8       923.928          51.000
E30  23803944.922 6 125090578.939 6     -1703.777          41.000    23803945.883 6  95848618.663 6     -1305.558          36.000
> 2020 05 01 04 16  0.0000000  0 12        .000000000000
G05  20821039.859 8 109415310.041 8     -1325.965          51.000    20821038.852 8  85258684.506 8     -1033.219          51.000
G28  21483572.633 8 112896950.369 8      1920.535          51.000    21483571.102 7  87971688.765 7      1496.521          43.000
G30  20724019.172 8 108905463.315 8     -1308.785          51.000    20724020.133 8  84861414.688 8     -1019.833          51.000
R01  22470142.969 7 120115761.727 7     -3707.469          43.000    22470145.484 6  93423368.860 6     -2883.590          37.000
R02  19062848.367 8 101722993.391 8        73.488          51.000    19062850.086 8  79117916.170 8        57.158          50.000
R12  19136874.781 8 102225781.016 8      -323.059          51.000    19136878.070 8  79508977.524 8      -251.268          48.000
R13  21210517.172 6 113262985.238 6      3479.684          36.000    21210521.281 7  88093405.227 7      2706.418          43.000
C05  39780394.805 5 207146954.088 5         3.617          35.000    39780393.781 6 160179160.595 6         2.785          40.000
C23  21838237.344 8 113717457.839 8         5.559          51.000
E07  24843923.516 8 130555668.711 8     -1805.762          51.000    24843926.062 8 100036188.532 8     -1383.636          51.000
E27  23622450.180 8 124136842.572 8      1192.566          51.000    23622452.953 8  95117826.081 8       913.839          51.000
E30  23813701.805 7 125141850.306 7     -1714.465          42.000    23813702.633 5  95887904.443 5     -1313.720          35.000
> 2020 05 01 04 16 30.0000000  0 12        .000000000000
G05  20828661.797 8 109455364.896 8     -1344.680          51.000    20828661.320 8  85289896.054 8     -1047.802          51.000
G28  21472652.695 8 112839565.431 8      1904.648          50.000    21472651.117 7  87926973.209 7      1484.142          44.000
G30  20731523.984 8 108944901.294 8     -1320.836          51.000    20731524.945 8  84892145.558 8     -1029.223          51.000
R01  22490975.375 7 120227123.475 7     -3717.062          43.000    22490977.664 6  93509983.439 6     -2891.055          37.000
R02  19062492.547 8 101721096.883 8        52.410          51.000    19062494.594 8  79116441.081 8        40.760          49.000
R12  19138755.359 8 102235825.655 8      -347.109          51.000    19138758.375 8  79516790.015 8      -269.971          49.000
R13  21191007.094 6 113158799.490 6      3465.188          39.000    21191010.438 7  88012371.829 7      2695.146          42.000
C05  39780372.883 5 207146840.225 5         3.477          35.000    39780371.812 6 160179072.130 6         2.679          40.000
C23  21838244.812 8 113717496.823 8        -8.586          51.000
E07  24854251.672 8 130609944.634 8     -1813.090          51.000    24854254.570 8 100077776.545 8     -1389.227          51.000
E27  23615679.211 8 124101259.547 8      1179.199          51.000    23615681.773 8  95090561.201 8       903.524          51.000
E30  23823519.859 6 125193444.349 6     -1725.625          41.000    23823520.461 5  95927437.492 5     -1322.295          34.000
> 2020 05 01 04 17  0.0000000  0 14        .000000000000
G05  20836379.414 8 109495921.020 8     -1357.777          50.000    20836379.188 8  85321498.218 8     -1058.008          50.000
G07  22841447.750 6 120032583.532 6     -2577.254          36.000
G28  21461811.867 8 112782597.870 8      1894.367          49.000    21461810.617 7  87882582.897 7      1476.127          45.000
G30  20739085.023 8 108984635.264 8     -1327.082          51.000    20739085.930 8  84923107.089 8     -1034.090          51.000
R01  22511850.367 7 120338712.794 7     -3720.953          43.000    22511851.969 6  93596775.069 6     -2894.075          36.000
R02  19062243.852 8 101719770.472 8        37.066          51.000    19062245.992 8  79115409.428 8        28.826          49.000
R12  19140758.289 8 102246524.109 8      -365.086          50.000    19140761.367 8  79525111.014 8      -283.959          50.000
R13  21171567.602 6 113054988.641 6      3456.371          40.000    21171569.273 6  87931630.061 6      2688.289          40.000
C05  39780340.062 5 207146668.345 5         9.293          35.000    39780338.922 6 160178939.581 6         6.993          40.000
C23  21838321.469 8 113717895.796 8       -16.965          51.000
C25  24085843.852 5 125421281.971 5     -2605.828          31.000
E07  24864609.898 8 130664378.488 8     -1814.762          51.000    24864612.828 8 100119485.614 8     -1390.592          51.000
