     3.02           OBSERVATION DATA    M (MIXED)           RINEX VERSION / TYPE
SAVERINEX           SC600               20200513 145931 LCL PGM / RUN BY / DATE
       G = GPS       R = GLONASS       C = COMPASS          COMMENT
       S = SBAS      J = QZSS          E = GALILEO          COMMENT
BEAN                                                        MARKER NAME
1                                                           MARKER NUMBER
GEODETIC                                                    MARKER TYPE
Unige DICCA         GTER                                    OBSERVER / AGENCY
SC60291900056       SC600               2.12(191226)        REC # / TYPE / VERS
                    HEMA45          NONE                    ANT # / TYPE
  4509407.8091   693652.4678  4442337.6214                  APPROX POSITION XYZ
        0.0000        0.0000        0.0000                  ANTENNA: DELTA H/E/N
G    8 C1C L1C D1C S1C C2Y L2Y D2Y S2Y                      SYS / # / OBS TYPES
R    8 C1C L1C D1C S1C C2P L2P D2P S2P                      SYS / # / OBS TYPES
C    8 C1I L1I D1I S1I C7I L7I D7I S7I                      SYS / # / OBS TYPES
E    8 C1C L1C D1C S1C C7Q L7Q D7Q S7Q                      SYS / # / OBS TYPES
DBHZ                                                        COMMENT
     30.000                                                 INTERVAL
  2020    05    13    12    00    0.0000000     GPS         TIME OF FIRST OBS
  2020    05    13    12    59   30.0000000     GPS         TIME OF LAST OBS
     0                                                      RCV CLOCK OFFS APPL
G L1C  0.00000                                              SYS / PHASE SHIFT
G L2Y  0.00000                                              SYS / PHASE SHIFT
R L1C  0.00000                                              SYS / PHASE SHIFT
R L2P  0.25000                                              SYS / PHASE SHIFT
C L1I  0.00000                                              SYS / PHASE SHIFT
C L7I  0.00000                                              SYS / PHASE SHIFT
E L1C  0.50000                                              SYS / PHASE SHIFT
E L7Q -0.25000                                              SYS / PHASE SHIFT
 13 R01  1 R06 -4 R07  5 R08  6 R09 -2 R10 -5 R11  0 R12 -1 GLONASS SLOT / FRQ #
    R13 -2 R20  2 R21  4 R22 -3 R23  3                      GLONASS SLOT / FRQ #
 C1C   71.950 C2C   71.950 C2P   71.950                     GLONASS COD/PHS/BIS
    18                                                      LEAP SECONDS
*** Above antenna height is from mark to ANTENNA BOTTOM.    COMMENT
    17     4        0.0000        ANT MEASURE TYPE/HEIGT    COMMENT
    0.0000    0.0000    0.0458    0.0405    0.0000          COMMENT
                    BASE STATION                            COMMENT
                                                            END OF HEADER
> 2020 05 13 12 00  0.0000000  0 16        .000000000000
G18  21703178.977 8 114051037.160 8      2830.020          49.000    21703179.078 7  88870947.328 7      2205.210          46.000
G21  21742312.375 8 114256630.302 8      2432.738          51.000    21742310.266 7  89031155.257 7      1895.643          45.000
G25  21900414.977 6 115087449.414 6     -2517.840          38.000    21900417.242 6  89678529.647 6     -1961.953          39.000
G29  20548534.062 8 107983285.430 8     -1229.969          51.000    20548533.289 8  84142829.497 8      -958.417          51.000
G31  21143875.695 6 111111814.225 6      -308.453          37.000    21143878.242 6  86580622.253 6      -240.353          37.000
R11  22905732.336 7 122401276.091 7     -4024.473          43.000    22905734.180 4  95201009.422 4     -3130.142          27.000
R12  19473037.438 8 104021451.002 8     -1549.516          51.000    19473040.102 8  80905589.793 8     -1205.182          50.000
R21  23356450.312 5 124985014.878 5     -4070.305          30.000
R22  19471451.453 8 103939934.013 8     -1674.867          48.000    19471454.367 7  80842246.974 7     -1302.678          45.000
R23  20633639.039 8 110376118.721 8      2968.723          50.000    20633642.328 6  85848028.811 6      2309.010          39.000
C12  22496080.414 8 117143070.049 8      1879.270          48.000    22496079.961 8  90582455.989 8      1453.110          50.000
C24  22059778.281 8 114871074.537 8       123.191          51.000
C26  23004860.320 8 119792346.949 8     -2643.773          50.000
E02  23206806.844 8 121952593.630 8      -176.465          51.000    23206807.555 8  93444203.450 8      -135.168          51.000
E25  25935732.328 7 136293174.857 7     -2347.422          45.000    25935737.820 8 104432437.059 8     -1798.698          51.000
E36  23245271.648 8 122154751.791 8         5.148          51.000    23245277.047 8  93599129.654 8         3.921          51.000
> 2020 05 13 12 00 30.0000000  0 16        .000000000000
G18  21687104.250 8 113966562.878 8      2806.438          50.000    21687104.711 7  88805123.224 7      2186.834          47.000
G21  21728506.516 8 114184081.669 8      2408.812          51.000    21728504.961 7  88974623.878 7      1876.997          46.000
G25  21914859.750 6 115163358.452 6     -2537.492          40.000    21914862.250 6  89737679.493 6     -1977.270          40.000
G29  20555632.961 8 108020589.970 8     -1251.938          51.000    20555632.297 8  84171897.971 8      -975.536          51.000
G31  21145737.977 6 111121599.738 6      -338.363          38.000    21145739.547 6  86588247.381 6      -263.657          38.000
R11  22928394.945 7 122522364.295 7     -4042.945          45.000    22928393.789 4  95295189.049 4     -3144.519          27.000
R12  19481845.133 8 104068500.014 8     -1582.000          51.000    19481848.062 8  80942183.459 8     -1230.444          50.000
R21  23379315.156 5 125107379.573 5     -4082.531          30.000
R22  19480962.695 8 103990704.943 8     -1704.867          48.000    19480965.477 7  80881735.453 7     -1326.011          45.000
R23  20617080.570 8 110287539.838 8      2941.531          51.000    20617082.977 6  85779134.152 6      2287.861          38.000
C12  22485329.008 8 117087083.972 8      1858.105          49.000    22485328.727 8  90539163.995 8      1436.905          51.000
C24  22059157.742 8 114867844.570 8        97.156          51.000
C26  23020164.117 8 119872037.723 8     -2664.043          50.000
E02  23207887.375 8 121958273.192 8      -197.078          51.000    23207887.969 8  93448555.330 8      -151.029          51.000
E25  25949196.000 7 136363930.586 7     -2364.605          46.000    25949202.797 8 104486652.443 8     -1811.673          51.000
E36  23245324.297 8 122155029.190 8       -18.500          51.000    23245329.852 8  93599342.202 8       -14.184          51.000
> 2020 05 13 12 01  0.0000000  0 16        .000000000000
G18  21671115.320 8 113882538.204 8      2795.645          50.000    21671115.688 7  88739649.446 7      2178.424          47.000
G21  21714788.555 8 114111994.357 8      2397.531          51.000    21714787.656 7  88918451.969 7      1868.206          46.000
G25  21929367.797 6 115239598.112 6     -2544.609          41.000    21929371.273 6  89797086.940 6     -1982.816          41.000
G29  20562807.727 8 108058293.856 8     -1261.086          51.000    20562807.367 8  84201277.613 8      -982.664          51.000
G31  21147721.312 6 111132022.169 6      -355.824          37.000    21147721.109 6  86596368.776 6      -277.266          37.000
R11  22951112.133 7 122643748.444 7     -4048.426          45.000    22951108.930 4  95389595.785 4     -3148.782          27.000
R12  19490786.016 8 104116260.024 8     -1601.484          51.000    19490789.016 8  80979330.131 8     -1245.599          50.000
R21  23402200.859 5 125229848.339 5     -4081.570          31.000
R22  19490592.930 8 104042113.633 8     -1721.863          48.000    19490595.953 7  80921720.000 7     -1339.227          46.000
R23  20600624.852 8 110199514.246 8      2927.395          49.000    20600627.648 6  85710669.809 6      2276.862          38.000
C12  22474650.391 8 117031476.387 8      1849.645          49.000    22474650.672 8  90496164.687 8      1430.232          51.000
C24  22058638.555 8 114865141.917 8        83.562          51.000
C26  23035535.609 8 119952082.503 8     -2671.738          49.000
E02  23209037.070 8 121964315.526 8      -205.145          51.000    23209037.695 8  93453185.178 8      -157.153          51.000
E25  25962707.852 8 136434933.339 8     -2368.543          50.000    25962714.547 8 104541057.151 8     -1814.795          49.000
E36  23245462.984 8 122155759.534 8       -29.535          51.000    23245468.828 8  93599901.837 8       -22.652          51.000
> 2020 05 13 12 01 30.0000000  0 16        .000000000000
G18  21655196.250 8 113798880.646 8      2781.453          50.000    21655196.594 7  88674461.773 7      2167.366          46.000
G21  21701142.812 8 114040285.385 8      2383.012          51.000    21701142.156 7  88862574.884 7      1856.892          46.000
G25  21943923.008 7 115316082.813 7     -2554.613          42.000    21943926.156 7  89856685.357 7     -1990.608          42.000
G29  20570042.094 8 108096311.087 8     -1273.484          50.000    20570041.758 8  84230901.419 8      -992.325          50.000
G31  21149809.625 6 111142996.251 6      -375.711          36.000    21149807.883 6  86604920.023 6      -292.762          36.000
R11  22973866.898 7 122765340.044 7     -4057.711          43.000    22973863.836 4  95484166.917 4     -3156.000          26.000
R12  19499843.695 8 104164644.257 8     -1624.180          51.000    19499846.891 8  81016962.300 8     -1263.251          49.000
R21  23425089.633 5 125352332.022 5     -4083.688          30.000
R22  19500326.711 8 104094071.347 8     -1741.898          48.000    19500329.805 7  80962131.533 7     -1354.810          46.000
R23  20584256.320 8 110111957.191 8      2909.844          48.000    20584259.648 6  85642569.865 6      2263.212          38.000
C12  22464028.289 8 116976163.630 8      1837.895          49.000    22464029.125 8  90453393.360 8      1421.210          51.000
C24  22058204.469 8 114862883.150 8        66.945          51.000
C26  23050958.453 8 120032395.837 8     -2682.480          49.000
E02  23210239.797 8 121970636.474 8      -216.238          51.000    23210240.547 8  93458028.513 8      -165.728          51.000
E25  25976251.117 8 136506097.924 8     -2375.773          51.000    25976256.516 8 104595585.840 8     -1820.365          48.000
E36  23245671.953 8 122156857.406 8       -43.633          51.000    23245677.422 8  93600743.070 8       -33.472          51.000
> 2020 05 13 12 02  0.0000000  0 16        .000000000000
G18  21639358.586 8 113715652.072 8      2768.363          50.000    21639358.375 7  88609608.400 7      2157.169          43.000
G21  21687580.797 8 113969015.858 8      2369.582          51.000    21687580.016 7  88807040.223 7      1846.428          46.000
G25  21958535.883 7 115392871.238 7     -2563.641          42.000    21958538.539 7  89916520.464 7     -1997.642          42.000
G29  20577347.078 8 108134699.527 8     -1284.668          50.000    20577346.781 8  84260814.481 8     -1001.040          50.000
G31  21152014.281 6 111154581.377 6      -395.391          39.000    21152009.344 6  86613947.356 6      -308.097          39.000
R11  22996671.141 7 122887196.753 7     -4065.195          42.000    22996670.680 5  95578944.216 5     -3161.822          30.000
R12  19509029.492 8 104213712.619 8     -1645.699          51.000    19509032.883 8  81055126.529 8     -1279.991          48.000
R21  23447991.805 4 125474888.240 4     -4086.477          29.000
R22  19510173.344 7 104146634.890 7     -1761.035          47.000    19510176.820 7  81003014.317 7     -1369.694          44.000
R23  20567987.539 8 110024930.748 8      2893.230          50.000    20567990.906 6  85574882.691 6      2250.293          37.000
C12  22453474.367 8 116921204.980 8      1827.289          50.000    22453474.680 8  90410895.863 8      1412.870          51.000
C24  22057867.273 8 114861127.677 8        51.289          51.000
C26  23066443.703 8 120113035.129 8     -2692.105          49.000
E02  23211506.984 8 121977296.077 8      -226.520          51.000    23211507.891 8  93463131.318 8      -173.513          51.000
E25  25989836.469 8 136577483.296 8     -2382.059          51.000    25989839.820 7 104650283.687 7     -1825.229          46.000
E36  23245962.148 8 122158381.658 8       -56.797          51.000    23245967.133 8  93601911.008 8       -43.532          51.000
> 2020 05 13 12 02 30.0000000  0 15        .000000000000
G18  21623610.227 8 113632894.341 8      2756.730          49.000    21623609.055 7  88545121.947 7      2148.105          42.000
G21  21674109.992 8 113898226.874 8      2357.605          49.000    21674108.922 7  88751880.010 7      1837.095          44.000
G25  21973213.461 6 115470002.119 6     -2570.840          40.000    21973216.297 6  89976622.407 6     -2003.252          40.000
G29  20584730.039 8 108173497.397 8     -1294.012          50.000    20584729.836 8  84291046.584 8     -1008.321          50.000
G31  21154343.000 6 111166816.739 6      -412.555          40.000    21154336.930 6  86623481.396 6      -321.474          40.000
R11  23019532.172 6 123009356.462 6     -4070.906          39.000    23019533.656 5  95673957.122 5     -3166.266          32.000
R12  19518350.617 8 104263504.510 8     -1665.668          51.000    19518353.820 7  81093853.507 7     -1295.520          47.000
R22  19520141.141 7 104199841.842 7     -1778.145          47.000    19520144.078 7  81044397.455 7     -1383.001          44.000
R23  20551826.227 8 109938476.968 8      2878.332          51.000    20551829.305 6  85507640.916 6      2238.706          38.000
C12  22442996.156 8 116866639.816 8      1818.191          51.000    22442994.992 8  90368702.655 8      1405.938          49.000
C24  22057634.664 8 114859915.188 8        37.367          51.000
C26  23081999.102 8 120194037.966 8     -2700.266          49.000
E02  23212846.180 8 121984334.409 8      -234.977          51.000    23212847.281 8  93468524.326 8      -180.062          51.000
E25  26003470.922 8 136649128.338 8     -2386.441          51.000    26003472.109 7 104705180.462 7     -1828.464          45.000
E36  23246340.805 8 122160371.126 8       -68.031          51.000    23246345.602 8  93603435.419 8       -52.185          51.000
> 2020 05 13 12 03  0.0000000  0 15        .000000000000
G18  21607914.984 7 113550417.668 7      2742.066          47.000    21607914.461 7  88480854.490 7      2136.675          43.000
G21  21660693.633 7 113827728.168 7      2342.500          46.000    21660692.352 7  88696945.972 7      1825.328          44.000
G25  21987918.750 5 115547282.463 5     -2581.367          35.000    21987922.070 5  90036840.898 5     -2011.452          35.000
G29  20592154.086 8 108212511.058 8     -1306.605          51.000    20592154.047 8  84321446.847 8     -1018.134          51.000
G31  21156758.484 6 111179509.805 6      -433.074          41.000    21156753.344 6  86633372.025 6      -337.460          41.000
R11  23042412.500 6 123131621.236 6     -4079.855          37.000    23042415.312 5  95769051.770 5     -3173.224          35.000
R12  19527770.297 8 104313823.505 8     -1688.746          51.000    19527773.484 7  81132990.474 7     -1313.469          47.000
R22  19530191.586 7 104253493.460 7     -1798.379          46.000    19530194.742 7  81086126.525 7     -1398.736          43.000
R23  20535735.953 8 109852402.110 8      2860.184          51.000    20535739.070 6  85440693.859 6      2224.590          39.000
C12  22432556.750 8 116812278.178 8      1806.074          50.000    22432554.570 8  90326666.808 8      1396.668          49.000
C24  22057470.055 8 114859055.878 8        20.176          51.000
C26  23097587.500 8 120275212.546 8     -2711.312          49.000
E02  23214221.039 8 121991559.962 8      -246.605          51.000    23214222.273 8  93474060.787 8      -188.948          51.000
E25  26017117.695 8 136720840.546 8     -2394.184          51.000    26017116.656 7 104760128.638 7     -1834.525          43.000
E36  23246771.492 8 122162633.087 8       -82.500          51.000    23246776.086 8  93605168.620 8       -63.214          51.000
> 2020 05 13 12 03 30.0000000  0 15        .000000000000
G18  21592301.422 7 113468370.923 7      2728.590          46.000    21592302.055 7  88416921.983 7      2126.174          45.000
G21  21647360.406 7 113757667.920 7      2328.938          45.000    21647359.391 7  88642353.567 7      1814.756          43.000
G25  22002679.656 6 115624858.102 6     -2589.871          37.000    22002683.359 6  90097289.458 6     -2018.078          37.000
G29  20599646.836 8 108251885.681 8     -1317.512          51.000    20599646.812 8  84352128.370 8     -1026.633          51.000
G31  21159288.938 7 111192806.808 7      -452.293          42.000    21159284.547 7  86643733.312 7      -352.436          42.000
R11  23065340.094 6 123254137.524 6     -4087.070          38.000    23065343.594 6  95864342.046 6     -3178.839          37.000
R12  19537315.867 8 104364817.960 8     -1710.152          50.000    19537320.008 8  81172652.816 8     -1330.122          49.000
R22  19540352.953 7 104307735.601 7     -1816.949          46.000    19540355.141 7  81128314.831 7     -1413.186          43.000
R23  20519744.938 8 109766856.816 8      2843.676          51.000    20519747.781 6  85374158.667 6      2211.748          40.000
C12  22422184.023 8 116758265.454 8      1795.555          50.000    22422181.945 8  90284900.738 8      1388.370          50.000
C24  22057401.141 8 114858695.369 8         4.664          51.000
C26  23113237.086 8 120356702.442 8     -2720.656          49.000
E02  23215659.617 8 121999119.764 8      -256.676          51.000    23215660.836 8  93479853.352 8      -196.674          51.000
E25  26030804.883 8 136792765.741 8     -2399.973          51.000    26030802.203 7 104815240.036 7     -1838.997          44.000
E36  23247281.812 8 122165313.353 8       -95.434          51.000    23247285.922 8  93607222.340 8       -73.127          51.000
> 2020 05 13 12 04  0.0000000  0 15        .000000000000
G18  21576775.461 7 113386783.418 7      2715.020          47.000    21576776.805 7  88353347.263 7      2115.600          46.000
G21  21634117.008 7 113688074.618 7      2315.027          47.000    21634116.273 7  88588125.048 7      1803.917          44.000
G25  22017503.227 7 115702755.158 7     -2598.988          42.000    22017507.125 7  90157988.437 7     -2025.189          42.000
G29  20607213.078 8 108291646.573 8     -1328.711          51.000    20607212.984 8  84383110.887 8     -1035.359          51.000
G31  21161939.281 7 111206734.060 7      -471.750          42.000    21161935.617 6  86654585.709 6      -367.597          41.000
R11  23088319.094 6 123376930.117 6     -4094.676          37.000    23088322.977 6  95959847.223 6     -3184.754          36.000
R12  19546992.836 8 104416514.662 8     -1731.867          50.000    19546997.852 8  81212861.364 8     -1347.008          48.000
R22  19550629.188 7 104362592.508 7     -1835.695          46.000    19550632.211 7  81170981.359 7     -1427.760          42.000
R23  20503857.617 8 109681870.169 8      2826.691          50.000    20503860.984 6  85308057.989 6      2198.541          40.000
C12  22411883.375 8 116704628.732 8      1784.645          49.000    22411881.961 8  90243425.409 8      1379.979          51.000
C24  22057433.180 8 114858860.895 8       -11.250          51.000
C26  23128952.641 8 120438532.809 8     -2730.289          49.000
E02  23217167.070 8 122007041.371 8      -267.012          51.000    23217168.398 8  93485923.159 8      -204.665          51.000
E25  26044537.344 8 136864930.444 8     -2406.539          51.000    26044535.531 7 104870535.001 7     -1843.992          46.000
E36  23247876.609 8 122168438.211 8      -108.602          51.000    23247880.078 8  93609616.723 8       -83.193          51.000
> 2020 05 13 12 04 30.0000000  0 15        .000000000000
G18  21561313.391 8 113305529.900 8      2701.387          49.000    21561315.016 8  88290032.822 8      2104.977          48.000
G21  21620939.070 8 113618822.575 8      2301.105          49.000    21620938.609 7  88534162.433 7      1793.069          45.000
G25  22032364.070 7 115780845.373 7     -2607.406          42.000    22032367.375 6  90218837.879 6     -2031.748          41.000
G29  20614828.359 8 108331664.897 8     -1339.695          51.000    20614828.258 8  84414293.982 8     -1043.921          51.000
G31  21164685.047 6 111221163.895 6      -490.953          41.000    21164682.586 6  86665829.742 6      -382.558          41.000
R11  23111324.992 6 123499866.869 6     -4101.883          37.000    23111328.898 5  96055464.599 5     -3190.356          35.000
R12  19556777.117 8 104468782.941 8     -1753.355          51.000    19556782.375 8  81253514.474 8     -1363.721          49.000
R22  19560996.469 7 104417931.599 7     -1854.156          46.000    19560998.797 7  81214022.836 7     -1442.122          42.000
R23  20488049.352 8 109597313.934 8      2809.781          48.000    20488054.617 6  85242292.059 6      2185.385          41.000
C12  22401630.945 8 116651241.856 8      1773.914          49.000    22401629.867 8  90202143.302 8      1371.721          51.000
C24  22057542.078 8 114859426.598 8       -26.996          51.000
C26  23144708.844 8 120520575.774 8     -2739.762          48.000
E02  23218719.055 8 122015197.871 8      -277.305          51.000    23218720.875 8  93492172.927 8      -212.435          51.000
E25  26058290.516 8 136937206.562 8     -2412.430          49.000    26058291.102 8 104925915.379 8     -1848.548          49.000
E36  23248531.680 8 122171879.479 8      -121.434          51.000    23248534.734 8  93612253.547 8       -93.079          51.000
> 2020 05 13 12 05  0.0000000  0 15        .000000000000
G18  21545934.016 8 113224709.336 8      2686.781          49.000    21545935.711 8  88227055.745 8      2093.596          48.000
G21  21607845.062 8 113550010.185 8      2286.598          50.000    21607844.492 7  88480542.389 7      1781.764          45.000
G25  22047279.758 6 115859224.753 6     -2617.238          41.000    22047281.430 6  90279912.640 6     -2039.406          41.000
G29  20622510.781 8 108372036.024 8     -1351.418          51.000    20622510.820 8  84445752.002 8     -1053.053          51.000
G31  21167544.102 6 111236192.450 6      -510.617          40.000    21167543.008 6  86677540.296 6      -397.884          40.000
R11  23134376.281 6 123623043.466 6     -4109.543          37.000    23134379.508 5  96151268.506 5     -3196.314          34.000
R12  19566686.578 8 104521720.364 8     -1775.723          51.000    19566692.445 8  81294687.987 8     -1381.118          49.000
R22  19571471.188 7 104473847.780 7     -1873.312          46.000    19571474.117 7  81257513.261 7     -1457.018          42.000
R23  20472340.359 8 109513288.422 8      2791.984          49.000    20472347.484 7  85176938.880 7      2171.546          42.000
C12  22391445.008 8 116598200.999 8      1762.402          49.000    22391443.672 8  90161128.779 8      1362.868          51.000
C24  22057746.258 8 114860488.767 8       -43.535          51.000
C26  23160523.695 8 120602925.568 8     -2749.988          49.000
E02  23220334.344 8 122023686.498 8      -288.320          51.000    23220336.703 8  93498677.176 8      -220.870          51.000
E25  26072082.781 7 137009690.375 7     -2419.469          47.000    26072086.234 8 104981454.900 8     -1853.789          51.000
E36  23249265.164 8 122175733.201 8      -135.082          51.000    23249268.133 8  93615206.411 8      -103.466          51.000
> 2020 05 13 12 05 30.0000000  0 15        .000000000000
G18  21530634.586 8 113144308.086 8      2672.992          49.000    21530636.125 8  88164405.432 8      2082.851          49.000
G21  21594831.945 8 113481623.301 8      2272.500          51.000    21594831.297 7  88427253.918 7      1770.782          45.000
G25  22062246.359 6 115937876.343 6     -2626.363          37.000    22062248.234 6  90341199.562 6     -2046.520          37.000
G29  20630257.023 8 108412742.465 8     -1362.508          51.000    20630257.148 8  84477471.291 8     -1061.694          51.000
G31  21170514.039 6 111251803.379 6      -530.238          39.000    21170514.320 6  86689704.653 6      -413.173          39.000
R11  23157470.289 6 123746441.316 6     -4116.656          36.000    23157471.328 5  96247244.398 5     -3201.853          33.000
R12  19576718.359 8 104575309.680 8     -1797.090          51.000    19576724.414 8  81336368.519 8     -1397.737          49.000
R22  19582051.070 7 104530321.893 7     -1891.660          47.000    19582053.320 6  81301437.537 6     -1471.294          41.000
R23  20456728.852 8 109429778.776 8      2775.102          50.000    20456736.547 6  85111986.918 6      2158.412          40.000
C12  22381322.266 8 116545490.655 8      1751.543          49.000    22381320.773 8  90120369.827 8      1354.416          51.000
C24  22058042.664 8 114862032.078 8       -59.402          51.000
C26  23176393.938 8 120685564.901 8     -2759.434          49.000
E02  23222009.984 8 122032491.898 8      -298.781          51.000    23222012.477 8  93505424.159 8      -228.906          51.000
E25  26085910.844 7 137082365.350 7     -2425.602          45.000    26085917.453 8 105037140.914 8     -1858.557          51.000
E36  23250073.898 8 122179982.736 8      -148.152          51.000    23250076.766 8  93618462.562 8      -113.522          51.000
> 2020 05 13 12 06  0.0000000  0 15        .000000000000
G18  21515412.102 8 113064312.167 8      2659.715          50.000    21515413.555 8  88102070.994 8      2072.505          48.000
G21  21581896.844 8 113413647.039 8      2258.879          51.000    21581895.961 7  88374285.437 7      1760.168          45.000
G25  22077260.914 5 116016783.156 5     -2633.980          33.000    22077264.305 5  90402685.308 5     -2052.455          32.000
G29  20638063.641 8 108453766.228 8     -1372.719          51.000    20638063.703 8  84509437.845 8     -1069.654          51.000
G31  21173592.242 6 111267979.836 6      -548.535          41.000    21173592.875 6  86702309.678 6      -427.430          41.000
R11  23180602.367 6 123870041.307 6     -4123.328          38.000    23180600.164 4  96343377.392 4     -3207.042          29.000
R12  19586869.500 8 104629533.519 8     -1818.203          50.000    19586875.461 8  81378542.580 8     -1414.158          49.000
R22  19592730.992 7 104587333.891 7     -1909.227          44.000    19592733.508 7  81345780.209 7     -1484.954          42.000
R23  20441211.422 8 109346769.912 8      2758.504          50.000    20441218.578 6  85047424.472 6      2145.503          38.000
C12  22371260.195 8 116493094.944 8      1741.242          50.000    22371259.117 8  90079854.167 8      1346.300          51.000
C24  22058428.188 8 114864040.827 8       -74.852          51.000
C26  23192316.078 8 120768476.156 8     -2768.359          50.000
E02  23223742.930 8 122041598.328 8      -308.703          51.000    23223745.430 8  93512401.811 8      -236.557          51.000
E25  26099772.148 7 137155214.626 7     -2431.234          43.000    26099781.602 8 105092960.456 8     -1862.978          51.000
E36  23250954.742 8 122184611.111 8      -160.766          51.000    23250957.461 8  93622008.977 8      -123.199          51.000
> 2020 05 13 12 06 30.0000000  0 15        .000000000000
G18  21500270.758 8 112984743.630 8      2645.039          50.000    21500272.062 7  88040069.580 7      2061.072          47.000
G21  21569043.797 8 113346102.982 8      2244.230          50.000    21569042.633 7  88321653.743 7      1748.751          45.000
G25  22092328.414 6 116095964.136 6     -2643.957          37.000    22092332.938 6  90464384.748 6     -2060.226          37.000
G29  20645934.203 8 108495126.041 8     -1384.344          51.000    20645934.047 8  84541666.263 8     -1078.709          51.000
G31  21176781.430 6 111284741.375 6      -568.348          38.000    21176782.172 6  86715370.577 6      -442.874          38.000
R11  23203773.422 7 123993860.915 7     -4130.797          42.000
R12  19597142.812 8 104684411.014 8     -1840.230          48.000    19597148.781 8  81421225.057 8     -1431.287          50.000
R22  19603515.570 7 104644900.997 7     -1928.098          46.000    19603518.836 7  81390554.622 7     -1499.632          42.000
R23  20425791.688 8 109264283.378 8      2740.797          50.000    20425797.297 6  84983268.295 6      2131.731          37.000
C12  22361262.602 8 116441033.719 8      1729.738          50.000    22361262.172 8  90039597.099 8      1337.610          51.000
C24  22058906.969 8 114866535.007 8       -91.336          51.000
C26  23208293.680 8 120851677.271 8     -2778.234          51.000
E02  23225537.078 8 122051026.082 8      -319.617          51.000    23225539.672 8  93519625.655 8      -244.884          51.000
E25  26113670.906 7 137228257.451 7     -2437.930          45.000    26113681.758 8 105148928.327 8     -1868.072          51.000
E36  23251911.336 8 122189637.355 8      -174.148          51.000    23251913.906 8  93625860.259 8      -133.465          51.000
> 2020 05 13 12 07  0.0000000  0 15        .000000000000
G18  21485209.422 8 112905595.495 8      2631.516          51.000    21485210.336 7  87978395.751 7      2050.532          45.000
G21  21556271.281 8 113278983.039 8      2230.664          50.000    21556270.242 7  88269352.527 7      1738.183          45.000
G25  22107447.016 6 116175409.303 6     -2652.641          40.000    22107451.016 6  90526290.027 6     -2066.993          39.000
G29  20653866.688 8 108536811.336 8     -1394.426          51.000    20653866.359 8  84574148.298 8     -1086.566          51.000
G31  21180080.461 6 111302077.878 6      -586.863          41.000    21180080.680 7  86728879.502 7      -457.299          42.000
R11  23226982.820 7 124117888.105 7     -4137.434          44.000    23227002.758 4  96536268.822 4     -3218.004          26.000
R12  19607536.562 8 104739931.838 8     -1860.980          50.000    19607542.477 8  81464407.951 8     -1447.426          50.000
R22  19614401.406 7 104703010.300 7     -1945.492          45.000    19614404.422 6  81435750.741 6     -1513.164          40.000
R23  20410468.172 8 109182311.405 8      2724.250          51.000    20410472.008 6  84919512.377 6      2118.864          37.000
C12  22351327.523 8 116389298.031 8      1719.465          50.000    22351327.703 8  89999591.770 8      1329.560          51.000
C24  22059477.414 8 114869505.892 8      -106.648          51.000
C26  23224325.211 8 120935157.499 8     -2786.887          50.000
E02  23227390.773 8 122060766.485 8      -329.488          51.000    23227393.609 8  93527089.079 8      -252.486          51.000
E25  26127605.211 7 137301484.010 7     -2443.410          45.000    26127616.398 8 105205036.999 8     -1872.280          51.000
E36  23252941.719 8 122195051.527 8      -186.590          51.000    23252944.391 8  93630008.778 8      -142.977          51.000
> 2020 05 13 12 07 30.0000000  0 15        .000000000000
G18  21470227.875 8 112826866.206 8      2616.898          51.000    21470228.000 7  87917048.290 7      2039.145          45.000
G21  21543578.945 8 113212285.228 8      2215.809          49.000    21543578.273 7  88217380.219 7      1726.604          46.000
G25  22122615.305 7 116255113.956 7     -2661.465          42.000    22122618.367 7  90588397.540 7     -2073.869          42.000
G29  20661860.023 8 108578816.302 8     -1405.852          51.000    20661859.727 8  84606879.437 8     -1095.469          51.000
G31  21183488.406 6 111319985.368 6      -606.590          41.000    21183487.898 6  86742833.343 6      -472.667          41.000
R11  23250229.594 7 124242116.795 7     -4144.840          43.000    23250247.211 4  96632882.408 4     -3223.776          25.000
R12  19618050.328 8 104796090.945 8     -1882.918          51.000    19618055.922 8  81508087.261 8     -1464.495          51.000
R22  19625387.555 7 104761654.906 7     -1964.016          44.000    19625389.570 6  81481363.200 6     -1527.568          40.000
R23  20395240.422 8 109100851.693 8      2706.445          51.000    20395244.023 6  84856154.890 6      2105.013          39.000
C12  22341453.953 8 116337884.392 8      1708.016          49.000    22341454.492 8  89959835.483 8      1320.758          51.000
C24  22060138.992 8 114872950.090 8      -123.066          51.000
C26  23240408.914 8 121018911.540 8     -2796.664          50.000
E02  23229303.352 8 122070816.297 8      -340.531          51.000    23229306.234 8  93534789.568 8      -260.918          51.000
E25  26141574.219 7 137374889.950 7     -2450.223          46.000    26141584.859 8 105261283.089 8     -1877.431          51.000
E36  23254044.977 8 122200849.081 8      -199.957          51.000    23254047.891 8  93634451.068 8      -153.184          51.000
> 2020 05 13 12 08  0.0000000  0 15        .000000000000
G18  21455328.641 8 112748569.101 8      2603.309          51.000    21455328.031 7  87856037.582 7      2028.555          46.000
G21  21530969.320 8 113146022.351 8      2202.141          49.000    21530969.148 7  88165746.790 7      1715.954          46.000
G25  22137834.602 7 116335088.460 7     -2669.516          42.000    22137837.750 6  90650715.291 6     -2080.142          41.000
G29  20669916.141 8 108621151.047 8     -1415.957          51.000    20669915.656 8  84639867.548 8     -1103.343          51.000
G31  21187007.023 7 111338474.105 7      -625.164          42.000    21187005.609 7  86757240.157 7      -487.138          42.000
R11  23273515.289 6 124366555.415 6     -4150.480          39.000
R12  19628685.742 8 104852898.924 8     -1903.723          51.000    19628690.547 8  81552271.234 8     -1480.673          50.000
R22  19636475.758 7 104820843.001 7     -1981.418          44.000    19636478.242 6  81527398.379 6     -1541.103          40.000
R23  20380110.742 8 109019917.129 8      2689.699          50.000    20380115.055 7  84793205.793 7      2091.991          42.000
C12  22331644.102 8 116286804.047 8      1697.816          49.000    22331644.750 8  89920336.947 8      1312.947          51.000
C24  22060893.625 8 114876879.056 8      -138.402          51.000
C26  23256546.742 8 121102948.777 8     -2805.383          48.000
E02  23231277.117 8 122081187.127 8      -350.242          51.000    23231279.852 8  93542736.049 8      -268.394          51.000
E25  26155580.344 8 137448485.893 8     -2455.594          49.000    26155589.109 8 105317674.780 8     -1881.562          51.000
E36  23255223.234 8 122207040.408 8      -212.156          51.000    23255225.930 8  93639195.054 8      -162.495          51.000
> 2020 05 13 12 08 30.0000000  0 15        .000000000000
G18  21440510.938 8 112670700.488 8      2588.059          51.000    21440510.047 7  87795360.747 7      2016.669          46.000
G21  21518441.625 8 113080189.877 8      2186.754          48.000    21518442.273 8  88114448.748 8      1703.964          48.000
G25  22153103.586 6 116415325.980 6     -2679.754          41.000    22153106.516 6  90713238.048 6     -2088.120          41.000
G29  20678033.477 8 108663807.979 8     -1427.727          51.000    20678032.578 8  84673106.716 8     -1112.514          51.000
G31  21190634.641 6 111357537.534 6      -645.223          40.000    21190633.164 6  86772094.793 6      -502.771          40.000
R11  23296838.141 5 124491195.356 5     -4158.316          34.000    23296837.477 4  96826504.586 4     -3234.252          29.000
R12  19639441.141 8 104910348.396 8     -1926.090          51.000    19639445.336 8  81596954.142 8     -1498.070          50.000
R22  19647663.945 7 104880565.110 7     -2000.035          43.000    19647666.516 6  81573848.912 6     -1555.580          39.000
R23  20365078.250 8 108939503.010 8      2671.285          51.000    20365083.422 7  84730661.502 7      2077.666          43.000
C12  22321897.273 8 116236051.316 8      1685.895          49.000    22321897.859 8  89881091.748 8      1303.650          51.000
C24  22061739.812 8 114881287.227 8      -155.359          51.000
C26  23272737.555 8 121187261.731 8     -2815.406          49.000
E02  23233311.008 8 122091873.578 8      -361.965          51.000    23233313.352 8  93550924.370 8      -277.317          51.000
E25  26169621.867 8 137522265.290 8     -2462.805          50.000    26169628.195 8 105374207.020 8     -1887.066          50.000
E36  23256475.039 8 122213618.799 8      -226.191          51.000    23256477.711 8  93644235.635 8      -173.292          51.000
> 2020 05 13 12 09  0.0000000  0 15        .000000000000
G18  21425775.188 8 112593263.673 8      2574.727          50.000    21425774.578 7  87735020.372 7      2006.280          47.000
G21  21505996.484 8 113014790.734 8      2173.473          49.000    21505997.773 8  88063488.371 8      1693.615          48.000
G25  22168422.258 7 116495826.926 7     -2687.129          42.000    22168424.438 7  90775966.042 7     -2093.864          42.000
G29  20686212.023 8 108706786.885 8     -1437.320          51.000    20686210.922 8  84706596.780 8     -1119.990          51.000
G31  21194371.812 7 111377176.420 7      -663.492          42.000    21194370.625 7  86787397.787 7      -517.007          42.000
R11  23320198.727 6 124616035.184 6     -4163.961          37.000    23320202.086 5  96923617.088 5     -3238.639          32.000
R12  19650316.203 8 104968439.617 8     -1946.344          51.000    19650320.320 8  81642136.163 8     -1513.826          49.000
R22  19658951.773 6 104940819.302 6     -2016.766          41.000    19658953.852 6  81620713.279 6     -1568.595          39.000
R23  20350144.164 8 108859611.708 8      2654.938          51.000    20350149.055 7  84668523.833 7      2064.951          42.000
C12  22312213.758 8 116185627.551 8      1676.008          49.000    22312214.414 8  89842100.923 8      1295.971          51.000
C24  22062678.414 8 114886176.076 8      -170.289          51.000
C26  23288982.000 8 121271849.951 8     -2823.551          50.000
E02  23235405.148 8 122102877.291 8      -371.418          51.000    23235407.234 8  93559355.787 8      -284.644          51.000
E25  26183698.055 8 137596228.731 8     -2467.914          51.000    26183702.742 8 105430880.237 8     -1890.987          50.000
E36  23257800.461 8 122220584.638 8      -238.023          51.000    23257803.547 8  93649573.109 8      -182.397          51.000
> 2020 05 13 12 09 30.0000000  0 15        .000000000000
G18  21411117.281 8 112516236.700 8      2560.430          50.000    21411117.141 8  87674999.356 8      1995.140          48.000
G21  21493629.633 8 112949802.088 8      2159.129          50.000    21493630.867 8  88012847.889 8      1682.438          48.000
G25  22183787.039 6 116576566.212 6     -2696.031          41.000    22183788.719 6  90838879.748 6     -2100.804          41.000
G29  20694446.883 8 108750062.150 8     -1447.734          51.000    20694446.055 8  84740317.766 8     -1128.105          51.000
G31  21198214.195 7 111397365.932 7      -682.418          43.000    21198212.719 7  86803129.850 7      -531.754          43.000
R11  23343592.500 6 124741047.884 6     -4170.172          40.000    23343597.133 5  97020849.032 5     -3243.473          30.000
R12  19661306.164 8 105027146.709 8     -1967.473          51.000    19661309.898 7  81687797.200 7     -1530.257          47.000
R22  19670334.008 6 105001577.647 6     -2033.918          41.000    19670336.633 6  81667969.790 6     -1581.936          38.000
R23  20335303.094 8 108780220.336 8      2637.672          51.000    20335307.602 6  84606774.980 6      2051.520          41.000
C12  22302588.695 8 116135509.046 8      1665.141          48.000    22302589.578 8  89803346.108 8      1287.659          50.000
C24  22063704.883 8 114891521.995 8      -186.133          51.000
C26  23305275.078 8 121356687.917 8     -2832.352          50.000
E02  23237555.109 8 122114174.676 8      -381.809          51.000    23237556.750 8  93568012.212 8      -292.540          51.000
E25  26197803.961 8 137670351.399 8     -2473.664          51.000    26197807.328 8 105487675.459 8     -1895.369          48.000
E36  23259194.867 8 122227913.014 8      -250.656          51.000    23259198.148 8  93655188.357 8      -192.088          51.000
> 2020 05 13 12 10  0.0000000  0 15        .000000000000
G18  21396543.008 8 112439648.833 8      2545.828          51.000    21396543.180 8  87615320.504 8      1983.762          48.000
G21  21481346.516 8 112885252.381 8      2144.590          51.000    21481347.133 7  87962549.442 7      1671.109          47.000
G25  22199201.586 6 116657570.039 6     -2704.164          39.000    22199203.906 6  90901999.548 6     -2107.144          39.000
G29  20702743.109 8 108793659.605 8     -1458.355          51.000    20702742.453 8  84774289.815 8     -1136.378          51.000
G31  21202166.477 7 111418132.419 7      -701.609          45.000    21202164.570 7  86819311.544 7      -546.706          45.000
R11  23367024.062 6 124866258.606 6     -4176.758          39.000    23367027.680 4  97118234.997 4     -3248.592          27.000
R12  19672416.008 8 105086496.315 8     -1988.680          51.000    19672419.883 7  81733957.970 7     -1546.751          47.000
R22  19681814.484 6 105062864.609 6     -2051.227          38.000    19681817.008 6  81715637.353 6     -1595.398          37.000
R23  20320559.641 8 108701357.807 8      2620.207          50.000    20320564.977 6  84545437.458 6      2037.939          40.000
C12  22293027.406 8 116085722.804 8      1654.391          49.000    22293028.219 8  89764848.204 8      1279.244          49.000
C24  22064824.133 8 114897352.150 8      -202.074          50.000
C26  23321620.797 8 121441800.789 8     -2841.398          50.000
E02  23239766.164 8 122125793.264 8      -392.324          51.000    23239767.516 8  93576914.753 8      -300.618          51.000
E25  26211944.828 8 137744659.890 8     -2479.812          51.000    26211946.914 7 105544613.088 7     -1900.044          47.000
E36  23260663.258 8 122235630.205 8      -263.328          51.000    23260666.430 8  93661101.524 8      -201.777          51.000
> 2020 05 13 12 10 30.0000000  0 15        .000000000000
G18  21382053.094 8 112363503.944 8      2530.652          51.000    21382053.570 7  87555986.826 7      1971.937          47.000
G21  21469147.750 8 112821145.041 8      2129.379          51.000    21469147.500 7  87912595.725 7      1659.256          47.000
G25  22214665.594 5 116738839.260 5     -2713.004          34.000    22214669.188 5  90965326.262 5     -2114.020          34.000
G29  20711100.680 8 108837579.242 8     -1469.527          51.000    20711099.922 8  84808512.912 8     -1145.086          51.000
G31  21206228.164 7 111439476.915 7      -721.156          42.000    21206226.461 7  86835943.639 7      -561.940          42.000
R11  23390492.266 6 124991666.385 6     -4183.633          38.000    23390496.930 4  97215774.260 4     -3253.943          29.000
R12  19683646.359 8 105146488.874 8     -2010.617          51.000    19683650.266 7  81780618.813 7     -1563.816          47.000
R22  19693394.281 6 105124678.268 6     -2069.488          38.000    19693396.164 6  81763714.681 6     -1609.602          36.000
R23  20305916.156 8 108623027.195 8      2602.047          51.000    20305921.852 6  84484513.671 6      2023.814          40.000
C12  22283530.914 8 116036270.615 8      1642.711          50.000    22283530.758 8  89726608.645 8      1270.363          50.000
C24  22066036.617 8 114903668.527 8      -218.723          49.000
C26  23338018.688 7 121527188.613 7     -2850.918          47.000
E02  23242038.750 8 122137735.258 8      -403.547          51.000    23242039.781 8  93586065.100 8      -309.193          51.000
E25  26226120.758 8 137819155.211 8     -2486.375          51.000    26226122.336 7 105601693.866 7     -1905.031          47.000
E36  23262205.867 8 122243737.111 8      -276.855          51.000    23262209.289 8  93667313.309 8      -212.043          51.000
> 2020 05 13 12 11  0.0000000  0 15        .000000000000
G18  21367648.453 8 112287807.144 8      2516.227          50.000    21367648.828 7  87497002.335 7      1960.696          47.000
G21  21457033.945 8 112757484.427 8      2114.980          51.000    21457032.914 7  87862990.104 7      1648.040          46.000
G25  22230179.922 6 116820375.974 6     -2721.641          38.000    22230185.156 6  91028861.414 6     -2120.759          38.000
G29  20719519.922 8 108881822.553 8     -1479.680          51.000    20719519.062 8  84842988.206 8     -1152.997          51.000
G31  21210399.641 7 111461401.680 7      -739.988          42.000    21210398.656 7  86853027.866 7      -576.614          42.000
R11  23413997.797 6 125117271.377 6     -4189.441          39.000    23414003.867 5  97313466.835 5     -3258.464          32.000
R12  19694998.008 8 105207126.236 8     -2031.512          51.000    19695001.453 7  81827781.153 7     -1580.065          47.000
R22  19705072.484 6 105187018.618 6     -2086.059          39.000    19705074.797 6  81812201.596 6     -1622.490          36.000
R23  20291373.398 8 108545232.727 8      2584.750          51.000    20291378.961 6  84424006.917 6      2010.361          41.000
C12  22274100.008 8 115987155.904 8      1632.027          51.000    22274098.312 8  89688630.094 8      1261.942          51.000
C24  22067342.984 8 114910474.358 8      -234.453          49.000
C26  23354468.148 7 121612852.697 7     -2859.465          44.000
E02  23244373.500 8 122150004.129 8      -413.895          51.000    23244374.320 8  93595465.917 8      -317.119          51.000
E25  26240332.289 8 137893839.778 8     -2492.113          49.000    26240333.938 7 105658919.654 7     -1909.685          46.000
E36  23263823.125 8 122252235.953 8      -289.355          51.000    23263827.086 8  93673825.421 8      -221.678          51.000
> 2020 05 13 12 11 30.0000000  0 15        .000000000000
G18  21353323.781 8 112212531.099 8      2501.762          50.000    21353323.938 7  87438345.716 7      1949.425          46.000
G21  21444999.766 8 112694242.682 8      2100.902          51.000    21444998.211 7  87813710.838 7      1637.067          47.000
G25  22245741.711 6 116902150.120 6     -2730.137          41.000    22245744.500 6  91092581.480 6     -2127.382          40.000
G29  20727994.828 8 108926358.642 8     -1489.457          51.000    20727994.008 8  84877691.634 8     -1160.616          51.000
G31  21214676.219 7 111483876.505 7      -758.508          45.000    21214675.508 7  86870540.748 7      -591.042          45.000
R11  23437535.203 6 125243041.199 6     -4194.824          39.000    23437541.531 5  97411287.605 5     -3262.647          32.000
R12  19706464.719 8 105268377.087 8     -2052.145          51.000    19706467.484 7  81875420.663 7     -1596.112          47.000
R22  19716843.867 6 105249852.606 6     -2102.902          40.000    19716847.578 6  81861072.471 6     -1635.591          36.000
R23  20276924.719 8 108467945.858 8      2567.461          49.000    20276931.477 6  84363894.975 6      1996.914          41.000
C12  22264728.016 8 115938349.362 8      1621.523          51.000    22264725.648 8  89650889.803 8      1253.922          51.000
C24  22068738.523 8 114917740.645 8      -250.082          50.000
C26  23370964.672 7 121698762.176 7     -2867.992          45.000
E02  23246764.680 8 122162570.881 8      -424.055          51.000    23246765.359 8  93605094.968 8      -324.904          51.000
E25  26254573.641 7 137968683.496 7     -2497.598          46.000    26254575.617 7 105716267.344 7     -1913.645          45.000
E36  23265509.203 8 122261096.410 8      -301.621          51.000    23265513.375 8  93680614.604 8      -231.016          51.000
> 2020 05 13 12 12  0.0000000  0 15        .000000000000
G18  21339081.898 8 112137691.100 8      2487.320          49.000    21339081.742 7  87380028.883 7      1938.175          45.000
G21  21433047.844 8 112631434.152 8      2086.320          51.000    21433046.445 8  87764769.150 8      1625.704          48.000
G25  22261351.328 7 116984173.808 7     -2738.258          43.000    22261352.133 7  91156495.920 7     -2133.713          42.000
G29  20736527.680 8 108971199.503 8     -1499.707          51.000    20736526.820 8  84912632.557 8     -1168.603          51.000
G31  21219060.188 7 111506913.713 7      -777.277          46.000    21219059.602 7  86888491.829 7      -605.671          46.000
R11  23461106.500 6 125368986.726 6     -4201.027          36.000    23461111.773 5  97509244.945 5     -3267.478          31.000
R12  19718048.273 8 105330253.673 8     -2072.996          51.000    19718050.602 7  81923546.880 7     -1612.330          47.000
R22  19728709.156 6 105313189.996 6     -2119.473          40.000    19728712.758 5  81910334.943 5     -1648.482          34.000
R23  20262573.336 8 108391181.446 8      2550.016          50.000    20262581.477 6  84304189.329 6      1983.345          41.000
C12  22255416.953 8 115889864.313 8      1610.758          50.000    22255415.070 8  89613398.088 8      1245.516          51.000
C24  22070225.227 8 114925480.780 8      -265.961          51.000
C26  23387512.578 8 121784928.604 8     -2876.512          48.000
E02  23249215.148 8 122175449.172 8      -434.551          51.000    23249215.672 8  93614962.751 8      -332.997          51.000
E25  26268847.391 7 138043698.979 7     -2503.320          45.000    26268849.812 7 105773746.659 7     -1918.185          45.000
E36  23267266.500 8 122270330.847 8      -314.133          51.000    23267270.477 8  93687690.351 8      -240.744          51.000
> 2020 05 13 12 12 30.0000000  0 15        .000000000000
G18  21324923.102 8 112063288.507 8      2472.344          49.000    21324922.734 7  87322052.850 7      1926.499          45.000
G21  21421178.266 8 112569060.068 8      2071.602          51.000    21421177.328 8  87716165.954 8      1614.235          49.000
G25  22277007.945 6 117066445.384 6     -2746.918          40.000    22277007.531 6  91220603.499 6     -2140.462          40.000
G29  20745118.148 8 109016342.932 8     -1510.121          51.000    20745117.148 8  84947809.242 8     -1176.718          51.000
G31  21223551.055 7 111530511.868 7      -796.172          47.000    21223550.445 7  86906880.004 7      -620.394          47.000
R11  23484710.562 6 125495104.236 6     -4206.941          37.000    23484714.008 4  97607336.201 4     -3272.069          28.000
R12  19729747.883 8 105392753.899 8     -2094.059          49.000    19729750.609 7  81972158.173 7     -1628.712          47.000
R22  19740668.250 6 105377026.960 6     -2136.547          39.000    19740669.594 5  81959985.821 5     -1661.762          33.000
R23  20248320.852 8 108314939.771 8      2532.371          51.000    20248329.047 6  84244890.239 6      1969.619          40.000
C12  22246167.141 8 115841700.062 8      1599.914          50.000    22246165.945 8  89576154.432 8      1237.137          51.000
C24  22071803.008 8 114933694.123 8      -281.965          51.000
C26  23404109.875 8 121871349.447 8     -2885.258          50.000
E02  23251724.859 8 122188638.636 8      -445.059          51.000    23251725.398 8  93625068.952 8      -341.010          51.000
E25  26283154.188 7 138118884.737 7     -2509.273          47.000    26283157.133 7 105831356.435 7     -1922.750          46.000
E36  23269094.617 8 122279937.590 8      -326.613          51.000    23269098.703 8  93695051.366 8      -250.256          51.000
> 2020 05 13 12 13  0.0000000  0 15        .000000000000
G18  21310849.391 8 111989332.268 8      2458.133          49.000    21310848.953 7  87264424.626 7      1915.428          45.000
G21  21409392.266 8 112507127.979 8      2057.336          48.000    21409392.305 8  87667907.175 8      1603.119          48.000
G25  22292712.836 6 117148970.907 6     -2755.207          40.000    22292711.875 6  91284908.944 6     -2146.915          40.000
G29  20753767.172 8 109061793.982 8     -1519.836          51.000    20753766.195 8  84983225.639 8     -1184.288          51.000
G31  21228149.719 7 111554677.174 7      -814.656          46.000    21228148.891 7  86925710.087 7      -634.797          45.000
R11  23508346.242 5 125621398.429 5     -4212.340          35.000
R12  19741564.742 8 105455883.456 8     -2114.566          48.000    19741568.305 7  82021258.948 7     -1644.666          46.000
R22  19752720.781 6 105441367.039 6     -2152.777          40.000    19752723.172 5  82010028.099 5     -1674.382          34.000
R23  20234168.398 8 108239229.359 8      2515.109          51.000    20234175.734 6  84186004.391 6      1956.199          38.000
C12  22236980.625 8 115793863.632 8      1589.414          50.000    22236979.484 8  89539164.297 8      1229.006          51.000
C24  22073472.859 8 114942387.808 8      -297.465          51.000
C26  23420756.922 8 121958029.919 8     -2893.324          50.000
E02  23254295.188 8 122202146.697 8      -455.297          51.000    23254295.703 8  93635419.269 8      -348.867          51.000
E25  26297495.016 8 138194247.100 8     -2514.695          48.000    26297499.297 8 105889101.548 8     -1926.734          48.000
E36  23270994.781 8 122289922.763 8      -338.820          51.000    23270999.008 8  93702702.355 8      -259.651          51.000
> 2020 05 13 12 13 30.0000000  0 15        .000000000000
G18  21296862.969 8 111915833.721 8      2442.125          49.000    21296862.578 7  87207153.032 7      1902.952          46.000
G21  21397692.406 8 112445648.706 8      2041.504          49.000    21397693.156 8  87620001.222 8      1590.782          48.000
G25  22308465.688 5 117231758.410 5     -2764.645          32.000    22308466.352 5  91349418.725 5     -2154.259          31.000
G29  20762476.273 8 109107560.615 8     -1531.148          51.000    20762475.516 8  85018887.938 8     -1193.103          51.000
G31  21232857.305 7 111579417.945 7      -834.664          45.000    21232856.617 7  86944988.566 7      -650.391          45.000
R11  23532014.883 6 125747875.850 6     -4219.324          37.000    23532019.633 4  97803987.350 4     -3281.697          29.000
R12  19753502.031 8 105519650.410 8     -2136.480          51.000    19753505.297 7  82070855.419 7     -1661.710          46.000
R22  19764869.922 6 105506216.393 6     -2170.676          39.000    19764873.234 5  82060466.504 5     -1688.303          32.000
R23  20220116.633 8 108164060.569 8      2496.168          50.000    20220123.406 6  84127539.809 6      1941.467          38.000
C12  22227858.953 8 115746364.266 8      1577.395          50.000    22227858.023 8  89502434.796 8      1219.769          51.000
C24  22075236.734 8 114951571.171 8      -314.539          51.000
C26  23437454.875 8 122044977.448 8     -2902.941          49.000
E02  23256927.859 8 122215982.985 8      -466.852          51.000    23256928.422 8  93646021.108 8      -357.831          51.000
E25  26311871.055 7 138269794.699 7     -2521.602          47.000    26311877.047 8 105946988.627 8     -1932.247          48.000
E36  23272968.539 8 122300294.705 8      -352.484          51.000    23272972.375 8  93710649.692 8      -270.008          51.000
> 2020 05 13 12 14  0.0000000  0 15        .000000000000
G18  21282963.422 8 111842792.415 8      2426.766          48.000    21282963.508 7  87150237.739 7      1890.986          46.000
G21  21386079.125 8 112384621.371 8      2026.277          51.000    21386079.781 7  87572447.441 7      1578.917          47.000
G25  22324268.062 5 117314815.816 5     -2772.715          32.000
G29  20771244.734 8 109153638.890 8     -1541.512          51.000    20771244.164 8  85054793.084 8     -1201.178          51.000
G31  21237673.898 7 111604730.740 7      -853.664          47.000    21237673.266 7  86964712.816 7      -665.193          47.000
R11  23555716.688 6 125874531.812 6     -4225.086          38.000    23555720.266 5  97902497.448 5     -3286.181          31.000
R12  19765558.625 8 105584050.892 8     -2157.656          51.000    19765561.188 7  82120944.636 7     -1678.177          47.000
R22  19777112.383 6 105571569.175 6     -2187.094          38.000    19777114.219 5  82111296.388 5     -1701.070          33.000
R23  20206165.883 8 108089432.406 8      2478.180          51.000    20206172.453 6  84069495.700 6      1927.473          39.000
C12  22218801.383 8 115699199.632 8      1566.227          50.000    22218801.055 8  89465964.144 8      1211.130          51.000
C24  22077094.656 8 114961241.856 8      -330.797          51.000
C26  23454202.328 7 122132187.893 7     -2911.785          47.000
E02  23259622.523 8 122230145.467 8      -477.848          51.000    23259623.453 8  93656872.864 8      -366.188          51.000
E25  26326281.719 7 138345524.386 7     -2527.719          47.000    26326288.938 8 106005015.226 8     -1936.794          49.000
E36  23275015.242 8 122311050.089 8      -365.301          51.000    23275018.609 8  93718890.825 8      -279.864          51.000
> 2020 05 13 12 14 30.0000000  0 16        .000000000000
G18  21269129.703 8 111770097.161 8      2415.922          48.000    21269130.531 7  87093592.107 7      1882.537          46.000
G21  21374530.977 8 112323934.014 8      2015.598          51.000    21374531.047 7  87525158.594 7      1570.596          46.000
G25  22340099.031 6 117398007.202 6     -2777.273          40.000    22340101.266 6  91478975.699 6     -2164.112          41.000
G29  20780050.664 8 109199914.225 8     -1547.395          51.000    20780050.234 8  85090851.782 8     -1205.762          51.000
G31  21242577.914 7 111630501.532 7      -868.195          47.000    21242577.172 7  86984793.946 7      -676.516          47.000
R11  23579429.758 6 126001247.816 6     -4226.594          38.000    23579434.203 5  98001054.250 5     -3287.354          32.000
R12  19777711.938 8 105648968.321 8     -2174.105          51.000    19777714.312 8  82171435.939 8     -1690.971          49.000
R22  19789427.797 6 105637306.968 6     -2199.301          38.000    19789430.250 5  82162425.775 5     -1710.567          33.000
R23  20192294.875 8 108015230.634 8      2464.641          51.000    20192301.438 6  84011783.220 6      1916.946          40.000
C12  22209786.633 8 115652257.656 8      1559.484          51.000    22209786.531 8  89429665.656 8      1206.001          51.000
C24  22079024.516 8 114971287.913 8      -342.676          51.000
C26  23470977.312 7 122219547.341 7     -2916.152          44.000
E02  23262357.992 8 122244521.363 8      -484.289          51.000    23262359.328 8  93667888.147 8      -371.082          51.000
E11  25607673.602 5 134569232.692 5     -2599.410          34.000
E25  26340705.836 8 138421322.258 8     -2529.051          48.000    26340713.430 8 106063094.105 8     -1937.955          49.000
E36  23277113.180 8 122322074.787 8      -373.387          51.000    23277116.562 8  93727338.331 8      -286.105          51.000
> 2020 05 13 12 15  0.0000000  0 16        .000000000000
G18  21255407.086 8 111697984.370 8      2397.512          49.000    21255408.242 7  87037400.347 7      1868.194          47.000
G21  21363092.508 8 112263822.262 8      1997.633          51.000    21363091.641 7  87478318.289 7      1556.597          45.000
G25  22356003.242 7 117481576.712 7     -2788.551          42.000    22356004.953 7  91544094.707 7     -2172.900          42.000
G29  20788938.508 8 109246619.671 8     -1560.441          51.000    20788938.102 8  85127245.627 8     -1215.928          51.000
