     3.02           OBSERVATION DATA    M (MIXED)           RINEX VERSION / TYPE
SAVERINEX           SC600               20200511 095930 LCL PGM / RUN BY / DATE
       G = GPS       R = GLONASS       C = COMPASS          COMMENT
       S = SBAS      J = QZSS          E = GALILEO          COMMENT
BEAN                                                        MARKER NAME
1                                                           MARKER NUMBER
GEODETIC                                                    MARKER TYPE
Unige DICCA         GTER                                    OBSERVER / AGENCY
SC60291900056       SC600               2.12(191226)        REC # / TYPE / VERS
                    HEMA45          NONE                    ANT # / TYPE
  4509407.8091   693652.4678  4442337.6214                  APPROX POSITION XYZ
        0.0000        0.0000        0.0000                  ANTENNA: DELTA H/E/N
G    8 C1C L1C D1C S1C C2Y L2Y D2Y S2Y                      SYS / # / OBS TYPES
R    8 C1C L1C D1C S1C C2P L2P D2P S2P                      SYS / # / OBS TYPES
C    8 C1I L1I D1I S1I C7I L7I D7I S7I                      SYS / # / OBS TYPES
E    8 C1C L1C D1C S1C C7Q L7Q D7Q S7Q                      SYS / # / OBS TYPES
DBHZ                                                        COMMENT
     30.000                                                 INTERVAL
  2020    05    11    07    00    0.0000000     GPS         TIME OF FIRST OBS
  2020    05    11    07    59   30.0000000     GPS         TIME OF LAST OBS
     0                                                      RCV CLOCK OFFS APPL
G L1C  0.00000                                              SYS / PHASE SHIFT
G L2Y  0.00000                                              SYS / PHASE SHIFT
R L1C  0.00000                                              SYS / PHASE SHIFT
R L2P  0.25000                                              SYS / PHASE SHIFT
C L1I  0.00000                                              SYS / PHASE SHIFT
C L7I  0.00000                                              SYS / PHASE SHIFT
E L1C  0.50000                                              SYS / PHASE SHIFT
E L7Q -0.25000                                              SYS / PHASE SHIFT
 13 R03  5 R04  6 R05  1 R06 -4 R09 -2 R10 -5 R13 -2 R14 -7 GLONASS SLOT / FRQ #
    R15  0 R16 -1 R17  4 R18 -3 R23  3                      GLONASS SLOT / FRQ #
 C1C   71.950 C2C   71.950 C2P   71.950                     GLONASS COD/PHS/BIS
    18                                                      LEAP SECONDS
*** Above antenna height is from mark to ANTENNA BOTTOM.    COMMENT
    17     4        0.0000        ANT MEASURE TYPE/HEIGT    COMMENT
    0.0000    0.0000    0.0458    0.0405    0.0000          COMMENT
                    BASE STATION                            COMMENT
                                                            END OF HEADER
> 2020 05 11 07 00  0.0000000  0 17        .000000000000
G12  21870449.055 7 114929980.972 7      2877.707          44.000    21870448.938 7  89555831.794 7      2242.369          44.000
G13  22695060.555 5 119263334.348 5     -3356.113          34.000    22695065.180 5  92932453.918 5     -2615.147          34.000
G15  21405693.211 8 112487661.057 8     -2506.582          51.000    21405694.172 8  87652721.376 8     -1953.181          51.000
G19  21722663.391 6 114153368.127 6      1109.465          36.000    21722662.789 5  88950674.289 5       864.518          31.000
R05  22599454.266 5 120807066.218 5     -4439.488          31.000    22599463.164 5  93961056.769 5     -3452.935          33.000
R06  20106277.852 5 107290964.522 5     -1224.082          34.000
R15  21180084.195 5 113180066.337 5     -2553.332          31.000    21180091.789 5  88028921.785 5     -1985.925          30.000
R18  22902574.602 7 122255483.436 7      3873.105          47.000    22902576.812 6  95087634.956 6      3012.415          39.000
C12  25232296.383 6 131391186.293 6      3206.508          41.000    25232292.672 5 101599983.467 5      2479.995          35.000
C14  24403506.633 6 127075475.573 6     -2988.402          39.000    24403505.805 5  98262782.177 5     -2310.988          35.000
C24  21909177.352 8 114086808.886 8       -63.953          51.000
C25  24284764.945 5 126457185.715 5      2267.512          32.000
C26  23493884.742 5 122338774.784 5     -2162.293          34.000
E01  25286444.672 6 132881145.176 6      1795.656          41.000    25286445.555 6 101818047.977 6      1376.210          40.000
E19  24685211.438 8 129721658.628 8     -1590.852          48.000    24685209.227 7  99397115.737 7     -1219.048          45.000
E21  23511185.078 8 123552159.492 8      -411.641          51.000    23511186.898 8  94669817.582 8      -315.413          51.000
E27  25992983.227 5 136594048.443 5     -2281.180          31.000
> 2020 05 11 07 00 30.0000000  0 16        .000000000000
G12  21854048.852 7 114843798.719 7      2868.027          46.000    21854048.734 7  89488676.726 7      2234.827          46.000
G13  22714239.055 6 119364121.993 6     -3363.215          41.000    22714243.562 6  93010989.730 6     -2620.690          41.000
G15  21420037.930 8 112563042.344 8     -2518.945          51.000    21420039.109 8  87711460.019 8     -1962.815          51.000
G19  21716385.641 5 114120379.472 5      1089.594          32.000
R05  22624380.641 6 120940314.447 6     -4444.129          37.000    22624390.344 6  94064694.217 6     -3456.545          37.000
R06  20113231.180 5 107328066.961 5     -1248.941          32.000
R09  23376222.078 5 124827699.387 5      3077.242          33.000
R18  22880826.562 7 122139391.341 7      3866.273          47.000    22880829.609 6  94997341.167 6      3007.102          41.000
C12  25213824.750 6 131295000.246 6      3205.707          41.000    25213822.773 6 101525606.302 6      2478.741          38.000
C14  24420736.414 6 127165191.454 6     -2992.695          37.000    24420733.133 5  98332156.195 5     -2314.042          31.000
C24  21909564.031 8 114088823.527 8       -70.453          51.000
C25  24271704.906 5 126389182.796 5      2266.371          35.000
E01  25276207.008 6 132827342.160 6      1791.012          41.000    25276206.766 6 101776822.376 6      1372.280          39.000
E19  24694323.477 8 129769545.749 8     -1601.684          48.000    24694322.352 7  99433808.441 7     -1227.228          45.000
E21  23513550.875 8 123564592.503 8      -417.324          51.000    23513552.688 8  94679344.175 8      -319.753          51.000
E27  26006008.336 5 136662495.136 5     -2281.266          31.000
> 2020 05 11 07 01  0.0000000  0 18        .000000000000
G12  21837698.727 8 114757876.210 8      2849.730          49.000    21837698.344 8  89421724.196 8      2220.569          50.000
G13  22733453.898 7 119465092.229 7     -3378.699          46.000    22733457.312 6  93089667.784 6     -2632.756          40.000
G15  21434447.469 8 112638763.815 8     -2539.707          51.000    21434448.445 8  87770463.751 8     -1978.992          51.000
G17  22509533.656 5 118288396.813 5      -891.012          34.000
G19  21710211.430 6 114087935.956 6      1062.789          38.000    21710209.812 5  88899679.222 5       828.147          30.000
G24  20436933.094 5 107396820.526 5      1099.465          35.000    20436933.875 5  83685806.048 5       856.726          33.000
R05  22649327.117 6 121073666.178 6     -4457.461          36.000    22649336.602 6  94168412.182 6     -3466.917          37.000
R06  20120317.766 5 107365890.715 5     -1283.262          33.000
R09  23358935.500 5 124735384.852 5      3066.395          30.000
R15  21208827.922 5 113333576.077 5     -2570.340          31.000    21208811.250 5  88148303.955 5     -1999.153          31.000
R18  22859110.969 7 122023473.330 7      3850.730          45.000    22859115.273 7  94907182.759 7      2995.016          42.000
C12  25195354.234 6 131198819.757 6      3195.906          40.000    25195354.719 7 101451233.463 7      2471.265          42.000
C14  24437985.188 5 127255005.544 5     -3005.363          35.000    24437976.555 5  98401606.148 5     -2323.406          31.000
C24  21909981.719 8 114091000.967 8       -85.281          51.000
C25  24258653.938 5 126321220.492 5      2254.812          33.000
E01  25265988.977 6 132773643.634 6      1778.609          39.000    25265990.195 6 101735676.813 6      1362.543          40.000
E19  24703491.102 8 129817724.456 8     -1620.797          48.000    24703491.500 7  99470724.579 7     -1241.927          46.000
E21  23515943.102 8 123577164.041 8      -431.293          51.000    23515944.969 8  94688976.914 8      -330.528          51.000
> 2020 05 11 07 01 30.0000000  0 15        .000000000000
G12  21821441.914 8 114672442.892 8      2848.309          50.000    21821441.195 8  89355152.809 8      2219.464          51.000
G13  22752746.531 8 119566470.838 8     -3377.520          48.000    22752748.766 6  93168664.008 6     -2631.836          37.000
G15  21448964.828 8 112715051.342 8     -2543.645          51.000    21448965.266 8  87829908.585 8     -1982.061          51.000
G19  21704186.117 5 114056267.493 5      1050.961          33.000
G24  20430666.977 5 107363891.935 5      1098.273          32.000    20430674.250 5  83660147.418 5       855.797          31.000
R05  22674335.523 5 121207348.625 5     -4452.809          34.000    22674344.117 6  94272387.388 6     -3463.299          37.000
R18  22837472.172 7 121907965.657 7      3852.133          45.000    22837477.633 6  94817343.502 6      2996.103          41.000
C12  25176928.820 6 131102873.092 6      3202.738          40.000    25176931.703 7 101377041.450 7      2476.615          45.000
C14  24455295.664 4 127345142.135 4     -3000.926          28.000    24455280.211 5  98471304.739 5     -2320.669          30.000
C24  21910474.078 8 114093566.759 8       -83.500          51.000
C25  24245654.266 5 126253524.637 5      2260.543          30.000
C26  23531328.242 5 122533800.947 5     -2169.590          32.000
E01  25255832.273 6 132720277.519 6      1782.012          37.000    25255837.289 6 101694785.804 6      1365.512          40.000
E19  24712757.930 8 129866421.464 8     -1623.258          49.000    24712759.344 8  99508037.864 8     -1243.759          48.000
E21  23518404.898 8 123590101.184 8      -428.684          51.000    23518406.852 8  94698889.784 8      -328.469          51.000
> 2020 05 11 07 02  0.0000000  0 16        .000000000000
G12  21805222.508 8 114587207.525 8      2832.891          49.000    21805221.992 8  89288735.654 8      2207.447          48.000
G13  22772060.766 7 119667963.386 7     -3389.914          47.000    22772061.367 6  93247748.998 6     -2641.498          37.000
G15  21463533.805 8 112791610.479 8     -2561.426          51.000    21463533.758 8  87889565.031 8     -1995.916          51.000
G19  21698253.562 6 114025073.461 6      1026.055          40.000
G24  20424439.695 5 107331158.332 5      1083.035          34.000    20424443.156 5  83634640.674 5       843.917          35.000
R05  22699348.922 4 121341060.397 4     -4462.527          29.000    22699357.844 6  94376385.413 6     -3470.849          37.000
R09  23324454.344 5 124551290.348 5      3064.090          34.000    23324463.547 4  96873235.544 4      2383.175          26.000
R15  21237663.750 5 113487599.391 5     -2574.809          33.000
R18  22815855.820 7 121792576.045 7      3839.238          45.000    22815861.727 6  94727596.099 6      2986.077          39.000
C12  25158493.203 6 131006873.052 6      3195.852          41.000    25158497.695 7 101302808.149 7      2471.250          46.000
C14                                                                  24472591.141 5  98540992.882 5     -2327.991          32.000
C24  21910985.523 8 114096230.957 8       -95.418          51.000
C25  24232650.391 4 126185767.914 4      2252.301          29.000
E01  25245684.117 6 132666951.151 6      1771.832          38.000    25245690.766 6 101653925.316 6      1357.560          39.000
E19  24722068.156 8 129915343.270 8     -1639.363          49.000    24722069.922 8  99545523.398 8     -1256.216          49.000
E21  23520880.469 8 123603110.694 8      -439.848          51.000    23520882.523 8  94708858.112 8      -337.017          51.000
> 2020 05 11 07 02 30.0000000  0 17        .000000000000
G12  21789088.742 8 114502425.203 8      2826.309          48.000    21789088.133 8  89222671.478 8      2202.318          48.000
G13  22791444.375 8 119769821.764 8     -3393.613          48.000    22791443.789 6  93327119.142 6     -2644.374          38.000
G15  21478202.156 8 112868692.889 8     -2570.219          51.000    21478201.805 8  87949629.213 8     -2002.771          51.000
G19  21692462.180 6 113994628.149 6      1010.004          37.000
G24  20418300.977 5 107298895.342 5      1077.035          33.000
R05  22724409.055 5 121475014.527 5     -4463.230          30.000    22724421.852 5  94480599.994 5     -3471.405          35.000
R09  23307254.445 6 124459463.377 6      3065.391          36.000    23307264.391 4  96801814.469 4      2384.193          29.000
R15  21252152.484 5 113564938.759 5     -2574.781          32.000
R18  22794311.258 7 121677585.171 7      3835.332          44.000    22794317.617 6  94638137.844 6      2983.036          39.000
C12  25140096.289 7 130911073.873 7      3197.836          42.000    25140101.141 7 101228730.169 7      2472.616          47.000
C14                                                                  24489957.758 5  98610929.383 5     -2328.520          32.000
C24  21911564.250 8 114099245.100 8       -98.496          51.000
C25  24219693.211 5 126118285.444 5      2253.895          32.000
C26  23556396.125 5 122664389.548 5     -2176.023          30.000
E01  25235592.188 6 132613918.488 6      1770.629          41.000    25235598.656 6 101613289.932 6      1356.680          40.000
E19  24731469.523 8 129964743.169 8     -1646.676          50.000    24731471.211 8  99583375.265 8     -1261.831          50.000
E21  23523418.062 8 123616445.886 8      -442.098          51.000    23523420.289 8  94719075.983 8      -338.732          51.000
> 2020 05 11 07 03  0.0000000  0 16        .000000000000
G12  21772995.805 8 114417857.734 8      2811.211          50.000    21772994.570 8  89156774.803 8      2190.557          50.000
G13  22810851.602 8 119871804.459 8     -3405.711          50.000    22810851.000 6  93406586.120 6     -2653.801          40.000
G15  21492924.094 8 112946056.844 8     -2587.582          51.000    21492923.555 8  88009912.776 8     -2016.298          51.000
G19  21686758.805 5 113964699.193 5       985.633          33.000
R05  22749486.328 5 121609045.352 5     -4472.988          33.000    22749492.836 5  94584846.114 5     -3478.997          33.000
R06  20150210.164 5 107525375.116 5     -1381.090          33.000
R09  23290055.625 5 124367629.365 5      3056.660          35.000
R18  22772792.203 7 121562718.285 7      3822.293          42.000    22772800.594 6  94548796.997 6      2972.895          40.000
C12  25121692.719 7 130815240.710 7      3190.785          42.000    25121697.070 7 101154625.896 7      2467.384          47.000
C14                                                                  24507334.523 5  98680895.809 5     -2335.932          33.000
C24  21912164.625 8 114102371.604 8      -110.242          51.000
C25  24206725.664 5 126050771.914 5      2245.801          30.000
C26  23568962.586 5 122729794.913 5     -2183.973          32.000
E01  25225510.562 6 132560939.917 6      1760.812          41.000    25225516.328 6 101572695.996 6      1349.137          40.000
E19  24740915.844 8 130014380.487 8     -1662.746          49.000    24740917.289 8  99621409.050 8     -1274.016          49.000
E21  23525971.945 8 123629866.387 8      -452.938          51.000    23525974.367 8  94729359.219 8      -347.053          51.000
> 2020 05 11 07 03 30.0000000  0 15        .000000000000
G12  21756993.250 8 114333764.139 8      2799.004          50.000    21756991.305 8  89091247.387 8      2181.045          50.000
G13  22830331.352 8 119974167.262 8     -3414.621          51.000    22830330.656 7  93486349.298 7     -2660.744          42.000
G15  21507748.172 8 113023958.649 8     -2601.906          51.000    21507747.742 8  88070615.464 8     -2027.459          51.000
G17  22536081.398 5 118427906.676 5      -975.945          32.000
G19  21681206.039 6 113935514.732 6       963.637          38.000    21681219.961 5  88780965.254 5       750.886          33.000
R05  22774617.680 5 121743370.223 5     -4478.758          34.000    22774619.820 5  94689320.910 5     -3483.481          31.000
R06  20158067.773 5 107567292.201 5     -1409.008          34.000
R09  23272906.227 6 124276050.323 6      3052.598          36.000
R18  22751348.312 6 121448260.220 6      3812.086          39.000    22751358.117 6  94459774.070 6      2964.953          40.000
C12  25103332.117 7 130719631.578 7      3186.965          42.000    25103335.766 7 101080694.874 7      2464.327          47.000
C14                                                                  24524767.477 5  98751087.692 5     -2340.312          34.000
C24  21912835.742 8 114105865.873 8      -118.840          51.000
E01  25215487.914 6 132508273.357 6      1754.262          39.000    25215494.352 6 101532341.097 6      1344.091          40.000
E19  24750455.852 8 130064511.888 8     -1675.414          50.000    24750457.000 8  99659821.425 8     -1283.759          49.000
E21  23528591.039 8 123643629.396 8      -460.633          51.000    23528593.531 8  94739904.888 8      -352.976          51.000
> 2020 05 11 07 04  0.0000000  0 16        .000000000000
G12  21741037.398 8 114249915.157 8      2793.410          50.000    21741036.164 8  89025910.536 8      2176.686          50.000
G13  22849839.109 8 120076677.680 8     -3416.855          51.000    22849838.180 7  93566227.512 7     -2662.485          43.000
G15  21522629.914 8 113102165.129 8     -2609.270          50.000    21522629.836 8  88131555.554 8     -2033.197          50.000
G19  21675753.094 6 113906861.954 6       948.914          38.000    21675760.023 5  88758638.330 5       739.395          30.000
R05  22799759.375 5 121877750.124 5     -4477.680          33.000    22799758.953 5  94793838.577 5     -3482.643          30.000
R06  20166050.695 5 107609895.297 5     -1428.246          33.000
R09  23255761.539 5 124184492.683 5      3054.613          35.000
R18  22729939.375 6 121333981.651 6      3808.785          39.000    22729949.352 6  94370890.728 6      2962.391          39.000
C12  25084970.695 6 130624020.697 6      3189.816          41.000    25084973.961 7 101006762.547 7      2466.493          46.000
C14                                                                  24542211.648 6  98821326.681 6     -2340.095          36.000
C24  21913533.648 8 114109499.283 8      -120.793          51.000
C25  24180905.273 5 125916302.429 5      2243.852          31.000
C26  23594174.664 5 122861045.729 5     -2186.422          31.000
E01  25205480.961 6 132455688.246 6      1754.180          40.000    25205488.172 6 101492048.612 6      1344.034          40.000
E19  24760045.609 8 130114906.170 8     -1681.512          49.000    24760046.180 8  99698435.235 8     -1288.500          49.000
E21  23531231.188 8 123657503.624 8      -461.699          51.000    23531233.680 8  94750535.783 8      -353.740          51.000
> 2020 05 11 07 04 30.0000000  0 16        .000000000000
G12  21725143.734 8 114166392.827 8      2775.613          51.000    21725143.117 8  88960828.219 8      2162.819          51.000
G13  22869389.375 8 120179414.545 8     -3431.309          50.000    22869388.852 7  93646282.176 7     -2673.747          44.000
G15  21537584.977 8 113180755.295 8     -2629.016          51.000    21537585.203 8  88192794.628 8     -2048.584          51.000
G19  21670418.195 6 113878822.473 6       921.207          41.000    21670416.391 5  88736789.341 5       717.824          31.000
G24  20394306.977 5 107172821.442 5      1026.082          33.000
G28  24596504.078 4 129255500.448 4     -3132.555          28.000
R06  20174177.172 5 107653264.366 5     -1461.645          35.000
R18  22708581.516 6 121219968.955 6      3792.645          40.000    22708589.414 6  94282214.227 6      2949.838          38.000
C12  25066624.117 7 130528490.519 7      3180.012          42.000    25066627.539 7 100932892.604 7      2458.800          45.000
C14  24559691.008 5 127888751.170 5     -3037.504          32.000    24559682.227 5  98891672.614 5     -2349.060          35.000
C24  21914273.742 8 114113351.600 8      -135.125          51.000
C26  23606806.414 4 122926811.658 4     -2196.754          29.000
E01  25195506.070 6 132403265.131 6      1741.738          41.000    25195511.438 6 101451880.268 6      1334.399          36.000
E19  24769700.281 8 130165642.803 8     -1699.934          49.000    24769700.117 8  99737311.345 8     -1302.541          48.000
E21  23533907.695 8 123671568.970 8      -475.105          51.000    23533910.133 8  94761313.131 8      -364.063          51.000
E27                                                                  26110495.523 5 105136143.078 5     -1757.860          33.000
> 2020 05 11 07 05  0.0000000  0 17        .000000000000
G12  21709317.250 8 114083223.456 8      2756.750          51.000    21709316.477 8  88896020.933 8      2148.120          51.000
G13  22888986.992 8 120282401.083 8     -3446.668          50.000    22888986.969 7  93726531.410 7     -2685.715          43.000
G15  21552617.719 8 113259751.985 8     -2649.566          51.000    21552618.055 8  88254350.495 8     -2064.597          51.000
G19  21665204.859 6 113851423.211 6       893.129          36.000    21665202.211 5  88715439.323 5       695.954          30.000
G24  20388465.047 5 107142162.698 5      1006.812          35.000    20388463.875 6  83487350.317 6       784.529          36.000
R06  20182452.914 6 107697422.508 6     -1494.516          36.000
R15  21324840.039 5 113953453.386 5     -2611.949          35.000
R18  22687279.523 6 121106252.615 6      3775.703          39.000    22687285.492 6  94193768.218 6      2936.658          36.000
C12  25048298.531 7 130433068.688 7      3169.484          43.000    25048301.898 7 100859106.421 7      2450.650          45.000
C14  24577194.594 5 127979884.914 5     -3050.582          32.000    24577183.586 5  98962143.041 5     -2358.496          35.000
C24  21915060.734 8 114117447.760 8      -150.160          51.000
C25  24155150.555 4 125782206.823 4      2220.887          27.000
C26  23619461.211 5 122992699.007 5     -2208.148          31.000
E01  25185566.680 6 132351029.250 6      1728.465          41.000    25185567.195 5 101411855.486 5      1324.246          35.000
E19  24779424.258 8 130216745.960 8     -1719.273          48.000    24779423.922 8  99776468.287 8     -1317.291          48.000
E21  23536625.328 8 123685850.022 8      -489.223          51.000    23536627.680 8  94772255.751 8      -374.895          51.000
E27  26123583.945 5 137280359.960 5     -2303.035          31.000    26123588.930 5 105188866.087 5     -1764.430          31.000
> 2020 05 11 07 05 30.0000000  0 15        .000000000000
G12  21693585.719 8 114000553.838 8      2754.426          51.000    21693584.789 8  88831603.070 8      2146.306          51.000
G13  22908659.164 8 120385780.552 8     -3445.488          49.000    22908659.664 7  93807086.823 7     -2684.796          44.000
G15  21567755.164 8 113339298.712 8     -2653.574          51.000    21567755.508 8  88316334.963 8     -2067.720          51.000
G24  20382714.180 5 107111964.065 5      1005.363          32.000    20382718.188 5  83463818.886 5       783.397          33.000
R05  22875373.617 5 122281961.024 5     -4496.191          30.000    22875366.719 5  95108173.178 5     -3497.044          30.000
R06  20190903.734 6 107742515.834 6     -1511.574          36.000
R09  23204486.969 5 123910666.868 5      3037.262          30.000    23204480.797 4  96374938.650 4      2362.312          27.000
R18  22666060.875 6 120992985.111 6      3775.402          37.000    22666066.594 6  94105671.361 6      2936.427          36.000
C12  25030022.180 7 130337901.976 7      3174.836          42.000    25030025.398 7 100785517.535 7      2455.063          44.000
C14  24594750.828 5 128071321.348 5     -3046.098          32.000    24594743.109 6  99032847.381 6     -2355.140          37.000
C24  21915922.133 8 114121931.734 8      -148.840          51.000
C26  23632169.367 6 123058851.695 6     -2202.348          36.000
E01  25175690.180 6 132299126.047 6      1731.684          39.000    25175687.195 5 101372085.567 5      1326.943          35.000
E19  24789245.125 7 130268360.239 7     -1721.691          47.000    24789245.172 8  99816016.859 8     -1319.275          48.000
E21  23539411.547 8 123700491.508 8      -486.895          51.000    23539413.898 8  94783474.549 8      -373.072          51.000
> 2020 05 11 07 06  0.0000000  0 16        .000000000000
G12  21677892.078 8 113918083.289 8      2744.855          50.000    21677891.242 8  88767340.313 8      2138.848          50.000
G13  22928348.516 8 120489248.988 8     -3451.195          49.000    22928349.219 7  93887711.566 7     -2689.246          43.000
G15  21582939.273 8 113419090.873 8     -2664.523          51.000    21582939.422 8  88378510.671 8     -2076.252          51.000
G24  20377005.547 5 107081886.233 5       995.996          30.000    20377012.188 5  83440466.876 5       776.101          30.000
R05  22900617.625 6 122416914.499 6     -4498.969          36.000    22900614.719 5  95213136.910 5     -3499.201          30.000
R06  20199470.672 5 107788234.995 5     -1535.430          34.000
R09  23187432.867 5 123819591.428 5      3035.461          31.000
R15  21354143.992 5 114110048.467 5     -2609.664          34.000
R18  22644869.312 6 120879864.503 6      3767.684          37.000    22644875.391 6  94017688.677 6      2930.421          37.000
C12  25011737.852 7 130242693.437 7      3173.262          42.000    25011740.531 7 100711896.315 7      2453.909          43.000
C14  24612309.508 5 128162758.409 5     -3048.863          31.000    24612303.234 6  99103552.341 6     -2357.493          36.000
C24  21916800.352 8 114126503.980 8      -154.707          51.000
C26  23644870.773 5 123124969.799 5     -2204.445          34.000
E01  25165818.539 6 132247253.420 6      1727.762          36.000    25165815.289 5 101332338.963 5      1324.211          34.000
E19  24799105.820 7 130320182.614 7     -1731.629          47.000    24799106.312 8  99855724.895 8     -1326.949          48.000
E21  23542208.648 8 123715190.550 8      -491.750          51.000    23542211.094 8  94794737.444 8      -376.807          51.000
> 2020 05 11 07 06 30.0000000  0 18        .000000000000
G12  21662266.984 8 113835973.019 8      2729.332          49.000    21662266.445 8  88703358.286 8      2126.752          49.000
G13  22948085.000 7 120592964.198 7     -3462.863          46.000    22948085.734 7  93968528.571 7     -2698.338          44.000
G15  21598200.047 8 113499286.289 8     -2681.461          51.000    21598199.805 8  88441000.589 8     -2089.450          51.000
G19  21650321.086 5 113773211.609 5       837.109          34.000
G24  20371362.492 5 107052229.235 5       980.602          33.000    20371368.977 5  83417348.360 5       764.102          33.000
R05  22925886.250 5 122552014.134 5     -4506.410          30.000    22925891.133 5  95318214.305 5     -3504.992          30.000
R06  20208184.375 6 107834740.642 6     -1564.973          36.000
R09  23170407.117 5 123728649.941 5      3027.383          32.000
R15  21368821.805 5 114188473.054 5     -2618.176          33.000
R18  22623736.898 6 120767063.025 6      3753.246          38.000    22623745.141 6  93929952.817 6      2919.191          37.000
C12  24993476.273 7 130147604.320 7      3165.988          42.000    24993478.195 7 100638367.417 7      2448.073          42.000
C14  24629898.141 4 128254341.712 4     -3057.543          28.000    24629894.289 6  99174378.681 6     -2364.126          36.000
C24  21917725.867 8 114131323.004 8      -166.352          51.000
C26  23657592.156 4 123191290.805 4     -2212.445          29.000
E01  25155982.695 5 132195571.411 5      1717.766          35.000    25155981.852 5 101292738.369 5      1316.336          35.000
E19  24809036.812 7 130372371.904 7     -1747.363          46.000    24809037.695 8  99895714.069 8     -1338.985          49.000
E21  23545047.055 8 123730106.522 8      -502.523          51.000    23545049.531 8  94806166.567 8      -385.032          51.000
E27                                                                  26162917.250 5 105347217.656 5     -1761.904          34.000
> 2020 05 11 07 07  0.0000000  0 20        .000000000000
G12  21646721.156 8 113754279.038 8      2719.680          50.000    21646720.664 8  88639700.655 8      2119.234          50.000
G13  22967878.141 7 120696979.211 7     -3468.617          46.000    22967879.070 7  94049579.221 7     -2702.819          42.000
G15  21613547.500 8 113579938.346 8     -2692.441          50.000    21613546.758 8  88503846.306 8     -2098.009          50.000
G17  22577574.062 5 118645941.264 5     -1099.203          35.000
G19  21645606.828 6 113748435.534 6       817.984          38.000    21645609.328 4  88635137.604 4       637.381          29.000
G24  20365801.109 5 107023018.058 5       971.309          32.000
G25  24284655.320 6 127616753.324 6      3541.844          39.000    24284667.922 5  99441649.388 5      2759.875          35.000
R05  22951195.711 5 122687311.617 5     -4509.590          33.000    22951202.672 5  95423445.602 5     -3507.462          30.000
R06  20217057.250 6 107882086.481 6     -1588.559          37.000
R09  23153401.406 5 123637884.078 5      3025.574          31.000    23153403.922 4  96162797.123 4      2353.224          25.000
R15  21383546.602 4 114267162.100 4     -2621.059          29.000
R18  22602674.461 6 120654609.376 6      3745.035          37.000    22602681.695 6  93842499.531 6      2912.805          37.000
C12  24975248.617 7 130052691.774 7      3164.477          42.000    24975249.891 7 100564975.022 7      2446.989          43.000
C14                                                                  24647524.945 5  99245366.721 5     -2366.117          33.000
C24  21918709.086 8 114136443.309 8      -172.152          51.000
C26  23670340.977 4 123257673.942 4     -2213.875          27.000
E01  25146194.898 6 132144143.941 6      1713.992          38.000    25146196.164 5 101253325.920 5      1313.537          35.000
E19  24819048.477 7 130424982.314 7     -1757.066          47.000    24819049.672 8  99936025.923 8     -1346.318          49.000
E21  23547937.141 8 123745293.826 8      -507.121          51.000    23547939.531 8  94817803.592 8      -388.582          51.000
E27                                                                  26176052.367 5 105400104.563 5     -1760.928          32.000
> 2020 05 11 07 07 30.0000000  0 15        .000000000000
G12  21631260.547 8 113673033.447 8      2705.688          51.000    21631259.703 8  88576392.458 8      2108.331          51.000
G13  22987733.438 7 120801323.136 7     -3478.477          45.000    22987734.805 6  94130886.163 6     -2710.504          41.000
G15  21628987.188 8 113661075.224 8     -2707.648          50.000    21628985.875 8  88567069.777 8     -2109.859          49.000
G17  22583932.891 5 118679356.577 5     -1119.367          32.000    22583923.109 5  92477399.030 5      -872.249          31.000
G19  21641031.125 6 113724394.896 6       793.965          40.000    21641030.844 5  88616404.625 5       618.659          31.000
G25  24264481.781 6 127510737.715 6      3534.789          41.000    24264493.992 6  99359039.877 6      2754.381          36.000
R05  22976545.836 4 122822804.588 4     -4515.914          27.000    22976553.500 4  95528851.927 4     -3512.378          29.000
R06  20226093.031 6 107930300.791 6     -1616.434          38.000
R18  22581688.188 6 120542588.694 6      3732.109          38.000    22581696.562 6  93755372.378 6      2902.752          38.000
C12  24957061.469 7 129957988.933 7      3158.109          43.000    24957062.367 7 100491744.785 7      2442.029          44.000
C24  21919755.828 8 114141895.201 8      -182.316          51.000
C26  23683148.258 5 123324365.752 5     -2219.629          32.000
E01  25136460.516 6 132092983.794 6      1705.508          37.000    25136463.734 5 101214125.310 5      1306.503          34.000
E19  24829146.227 8 130478043.392 8     -1771.230          48.000    24829147.594 8  99976683.109 8     -1357.156          50.000
E21  23550884.609 8 123760782.517 8      -516.371          51.000    23550886.922 8  94829671.541 8      -395.616          51.000
> 2020 05 11 07 08  0.0000000  0 16        .000000000000
G12  21615820.508 8 113591895.966 8      2696.684          51.000    21615818.703 8  88513168.477 8      2101.315          51.000
G13  23007585.773 7 120905651.979 7     -3483.477          44.000    23007587.828 6  94212181.333 6     -2714.400          41.000
G15  21644453.859 8 113742353.389 8     -2717.668          51.000    21644452.289 8  88630403.393 8     -2117.663          50.000
G17  22590347.500 6 118713058.916 6     -1134.059          37.000    22590334.930 6  92503660.426 6      -883.688          37.000
G19  21636530.805 6 113700749.025 6       775.266          39.000    21636531.156 4  88597979.349 4       604.103          29.000
G25  24244289.133 6 127404621.668 6      3532.750          41.000    24244304.148 5  99276352.072 5      2752.792          35.000
R06  20235225.938 6 107979034.815 6     -1639.215          39.000
R15  21413018.836 5 114424653.870 5     -2630.359          32.000
R18  22560717.828 7 120430636.297 7      3724.465          42.000    22560725.062 6  93668298.342 6      2896.809          40.000
C12  24938850.453 7 129863159.517 7      3157.047          44.000    24938850.734 7 100418416.723 7      2441.220          43.000
C24  21920801.156 8 114147339.801 8      -187.410          51.000
C26  23695912.898 5 123390862.260 5     -2220.512          30.000
E01  25126713.156 5 132041758.060 5      1702.746          35.000    25126713.641 4 101174864.483 4      1305.070          29.000
E19  24839264.258 8 130531211.984 8     -1780.047          48.000    24839265.984 8 100017422.702 8     -1363.872          51.000
E21  23553824.219 8 123776229.978 8      -520.238          51.000    23553826.609 8  94841507.898 8      -398.657          51.000
E27  26202318.570 5 137694107.382 5     -2299.578          33.000
> 2020 05 11 07 08 30.0000000  0 17        .000000000000
G12  21600481.195 8 113511287.504 8      2681.941          51.000    21600478.766 8  88450356.712 8      2089.824          50.000
G13  23027515.133 7 121010383.725 7     -3493.789          44.000    23027517.898 7  94293790.444 7     -2722.433          43.000
G15  21660026.961 8 113824190.578 8     -2733.395          51.000    21660025.320 8  88694172.625 8     -2129.918          50.000
G19  21632186.016 6 113677919.742 6       751.137          38.000    21632189.234 5  88580190.367 5       585.298          35.000
G20  24005787.312 5 126151270.578 5     -2041.609          31.000
G25  24224157.672 6 127298826.552 6      3524.855          39.000    24224174.219 6  99193914.355 6      2746.638          38.000
R05  23027260.523 5 123093863.336 5     -4524.113          32.000    23027262.688 4  95739712.106 4     -3518.755          26.000
R06  20244536.102 6 108028712.598 6     -1667.598          41.000
R15  21427837.297 4 114503833.761 4     -2637.426          29.000    21427836.734 4  89058556.689 4     -2051.325          28.000
R18  22539840.391 7 120319183.462 7      3710.754          42.000    22539846.742 6  93581612.817 6      2886.139          40.000
C12  24920695.844 7 129768622.555 7      3150.188          45.000    24920694.625 7 100345314.787 7      2435.955          42.000
C14                                                                  24700580.422 6  99459015.610 6     -2378.646          37.000
C24  21921925.125 8 114153193.280 8      -198.051          51.000
C26  23708729.148 4 123457644.233 4     -2226.699          29.000
E01  25117031.141 5 131990886.897 5      1693.844          32.000    25117030.102 5 101135872.412 5      1297.683          34.000
E19  24849482.312 8 130584907.546 8     -1794.586          48.000    24849484.445 8 100058566.086 8     -1375.165          50.000
E21  23556835.789 8 123792055.669 8      -530.004          51.000    23556838.219 8  94853634.076 8      -406.098          51.000
> 2020 05 11 07 09  0.0000000  0 15        .000000000000
G12  21585198.797 8 113430978.253 8      2669.879          50.000    21585196.250 8  88387778.106 8      2080.425          50.000
G13  23047477.125 7 121115285.310 7     -3501.758          44.000    23047480.148 7  94375531.945 7     -2728.642          43.000
G15  21675662.000 8 113906353.375 8     -2746.285          51.000    21675660.164 8  88758195.606 8     -2139.962          51.000
G19  21627952.516 5 113655676.822 5       729.562          31.000    21627955.703 4  88562858.330 4       568.518          28.000
G25  24204043.016 6 127193122.689 6      3519.715          38.000    24204060.711 5  99111547.739 5      2742.635          32.000
R05  23052655.219 4 123229613.233 4     -4527.781          29.000
R06  20253978.875 6 108079097.040 6     -1693.453          41.000
R15  21442652.883 5 114583030.426 5     -2642.438          35.000    21442650.484 5  89120126.813 5     -2055.232          32.000
R18  22519012.922 7 120208000.599 7      3699.352          42.000    22519018.336 6  93495137.287 6      2877.276          38.000
C12  24902553.930 7 129674151.600 7      3145.871          45.000    24902551.203 6 100272263.902 6      2432.693          41.000
C14                                                                  24718310.297 6  99530406.910 6     -2382.231          39.000
C24  21923083.672 8 114159226.552 8      -206.238          51.000
E01  25107373.672 5 131940139.012 5      1687.457          32.000    25107376.844 6 101096987.678 6      1292.942          38.000
E19  24859756.328 8 130638897.608 8     -1806.621          48.000    24859758.609 8 100099935.107 8     -1384.288          50.000
E21  23559875.219 8 123808027.769 8      -536.852          51.000    23559877.484 8  94865872.435 8      -411.372          51.000
> 2020 05 11 07 09 30.0000000  0 16        .000000000000
G12  21569966.031 8 113350930.751 8      2661.074          48.000    21569964.336 8  88325403.448 8      2073.564          48.000
G13  23067463.969 7 121220315.864 7     -3505.883          45.000    23067466.805 7  94457373.933 7     -2731.860          45.000
G15  21691351.320 8 113988800.984 8     -2755.699          51.000    21691349.391 8  88822440.494 8     -2147.298          51.000
G20  24029206.023 5 126274325.629 5     -2061.914          32.000
G25  24183937.742 6 127087472.646 6      3517.980          37.000    24183957.633 5  99029223.034 5      2741.280          32.000
R05  23078059.188 5 123365479.866 5     -4528.355          30.000
R06  20263545.250 6 108130146.451 6     -1715.418          41.000
R15  21457463.805 5 114662169.939 5     -2643.254          34.000    21457482.469 4  89181753.150 4     -2055.864          25.000
R18  22498228.688 7 120097053.015 7      3691.520          42.000    22498233.359 5  93408844.800 5      2871.182          32.000
C12  24884417.750 7 129579710.873 7      3144.859          45.000    24884414.664 7 100199236.410 7      2431.784          43.000
C14                                                                  24736046.664 6  99601827.340 6     -2383.246          39.000
C24  21924269.445 8 114165401.150 8      -210.918          51.000
E01                                                                  25097739.094 6 101058167.714 6      1290.811          39.000
E19  24870078.930 8 130693142.715 8     -1815.160          48.000    24870080.953 8 100141499.531 8     -1390.825          49.000
E21  23562935.094 8 123824106.882 8      -540.473          51.000    23562937.047 8  94878192.784 8      -414.086          51.000
E27  26241763.273 5 137901398.507 5     -2303.543          32.000
> 2020 05 11 07 10  0.0000000  0 17        .000000000000
G12  21554825.266 8 113271366.001 8      2648.105          48.000    21554824.812 8  88263404.952 8      2063.459          49.000
G13  23087517.172 7 121325693.543 7     -3514.371          47.000    23087519.461 7  94539486.382 7     -2738.471          45.000
G15  21707136.406 8 114071750.980 8     -2769.340          51.000    21707134.500 8  88887076.836 8     -2157.927          51.000
G19  21619852.023 5 113613098.400 5       688.387          35.000
G20  24041024.188 6 126336475.817 6     -2073.844          36.000
G24  20333760.750 5 106854646.775 5       901.734          35.000    20333764.938 5  83263352.614 5       702.650          35.000
G25  24163883.898 5 126982097.923 5      3511.777          35.000    24163906.406 5  98947112.810 5      2736.444          30.000
R06  20273278.266 7 108182082.143 7     -1741.875          44.000
R15  21472317.281 5 114741597.352 5     -2649.348          35.000
R18  22477531.250 6 119986568.823 6      3679.102          41.000    22477532.977 5  93322912.862 5      2861.530          32.000
C12  24866329.641 7 129485521.092 7      3139.508          46.000    24866327.547 7 100126402.977 7      2427.510          45.000
C14                                                                  24753832.102 6  99673443.714 6     -2387.366          39.000
C24  21925524.297 8 114171935.054 8      -219.867          51.000
C25  24027824.039 5 125119269.212 5      2190.773          35.000
E01  25088157.664 5 131839163.120 5      1677.859          35.000    25088156.852 6 101019581.235 6      1285.372          37.000
E19  24880491.641 8 130747861.726 8     -1827.945          48.000    24880493.203 8 100183427.050 8     -1400.639          48.000
E21  23566057.000 8 123840512.420 8      -548.324          51.000    23566058.891 8  94890763.263 8      -420.139          51.000
> 2020 05 11 07 10 30.0000000  0 17        .000000000000
G12  21539742.312 8 113192103.896 8      2628.590          50.000    21539742.812 8  88201642.271 8      2048.252          50.000
G13  23107601.711 8 121431234.977 8     -3529.277          48.000    23107603.344 7  94621726.411 7     -2750.089          45.000
G15  21722982.273 8 114155020.058 8     -2789.383          51.000    21722980.414 8  88951961.812 8     -2173.545          51.000
G17  22624020.266 5 118890011.122 5     -1230.445          32.000
G19  21615974.664 6 113592763.226 6       659.863          36.000
G24  20328650.461 6 106827780.719 6       882.250          38.000    20328652.953 6  83242418.013 6       687.464          38.000
G25  24143849.484 6 126876783.879 6      3499.348          40.000
R06  20283142.570 7 108234716.935 7     -1774.609          44.000
R18  22456886.945 6 119876369.027 6      3659.852          39.000    22456889.430 6  93237201.999 6      2846.551          37.000
C12  24848255.789 7 129391405.087 7      3127.582          46.000    24848254.898 7 100053626.555 7      2418.324          47.000
C14                                                                  24771631.438 6  99745114.991 6     -2396.413          40.000
C24  21926813.570 8 114178648.331 8      -235.113          51.000
C25  24015213.523 6 125053602.289 6      2179.594          38.000
C26  23760178.453 5 123725539.232 5     -2247.352          33.000
E01  25078598.383 6 131788927.647 6      1663.875          38.000    25078596.250 6 100981089.151 6      1274.971          37.000
E19  24890959.922 8 130802872.007 8     -1847.004          49.000    24890961.062 8 100225577.751 8     -1415.273          48.000
E21  23569206.305 8 123857062.221 8      -562.562          51.000    23569208.250 8  94903444.279 8      -431.051          51.000
> 2020 05 11 07 11  0.0000000  0 17        .000000000000
G12  21524734.062 8 113113233.660 8      2621.496          51.000    21524734.789 8  88140184.938 8      2042.724          51.000
G13  23127733.438 8 121537025.785 8     -3531.512          48.000    23127734.664 7  94704160.777 7     -2751.827          45.000
G15  21738905.070 8 114238694.017 8     -2796.785          51.000    21738903.383 8  89017162.274 8     -2179.313          51.000
G19  21612231.102 7 113573106.502 7       643.035          42.000
G24  20323611.250 6 106801297.383 6       875.219          39.000    20323612.148 6  83221781.575 6       681.986          39.000
G25  24123850.203 7 126771698.545 7      3499.164          44.000
R06  20293153.930 7 108288137.729 7     -1794.719          44.000
R15  21502139.336 5 114900870.817 5     -2661.227          35.000    21502142.312 4  89367357.263 4     -2069.834          27.000
R18  22436311.156 5 119766547.121 5      3653.613          32.000    22436317.781 6  93151784.949 6      2841.693          39.000
C12  24830213.305 7 129297452.396 7      3128.117          45.000    24830213.445 7  99980976.400 7      2418.759          47.000
C14                                                                  24789460.734 6  99816906.721 6     -2395.845          38.000
C24  21928153.930 8 114185627.878 8      -238.012          51.000
C25  24002633.555 5 124988087.997 5      2180.512          35.000
C26  23773105.047 5 123792795.877 5     -2246.289          30.000
E01  25069080.719 6 131738903.063 6      1662.949          38.000    25069074.844 6 100942758.685 6      1274.286          37.000
E19  24901500.148 8 130858260.214 8     -1853.500          50.000    24901501.258 8 100268018.023 8     -1420.214          48.000
E21  23572399.688 8 123873843.360 8      -564.172          51.000    23572401.391 8  94916302.551 8      -432.285          51.000
> 2020 05 11 07 11 30.0000000  0 17        .000000000000
G12  21509802.227 8 113034765.691 8      2606.062          50.000    21509802.289 8  88079041.068 8      2030.698          50.000
G13  23147913.656 7 121643073.453 7     -3542.000          46.000    23147915.031 7  94786795.301 7     -2760.000          45.000
G15  21754906.219 8 114322779.783 8     -2812.523          51.000    21754904.461 8  89082683.612 8     -2191.580          51.000
G17  22638219.445 5 118964645.289 5     -1264.625          33.000
G19  21608621.195 6 113554138.649 6       618.039          40.000    21608616.375 5  88483677.423 5       481.589          30.000
G24  20318646.453 6 106775206.145 6       860.426          37.000    20318645.656 6  83201450.714 6       670.468          37.000
G25  24103888.500 7 126666796.822 7      3490.508          44.000    24103886.414 6  98701385.271 6      2719.876          36.000
R06  20303313.805 7 108342351.380 7     -1823.062          44.000
R15  21517093.625 5 114980756.673 5     -2668.633          32.000    21517093.211 4  89429490.811 4     -2075.606          27.000
R18  22415811.953 5 119657120.889 5      3638.141          35.000    22415820.352 6  93066685.763 6      2829.665          39.000
C12  24812203.852 7 129203675.145 7      3120.211          43.000    24812205.070 8  99908461.952 8      2412.648          48.000
C14                                                                  24807321.773 6  99888824.235 6     -2401.285          38.000
C24  21929547.219 8 114192883.085 8      -249.270          51.000
C25  23990080.742 5 124922645.147 5      2173.023          30.000
E01  25059603.250 6 131689098.824 6      1653.895          36.000    25059596.539 6 100904597.160 6      1266.977          40.000
E19  24912113.977 8 130914035.046 8     -1868.426          49.000    24912115.508 8 100310754.565 8     -1431.648          50.000
E21  23575638.828 8 123890864.790 8      -574.246          51.000    23575640.109 8  94929344.941 8      -440.025          51.000
> 2020 05 11 07 12  0.0000000  0 16        .000000000000
G12  21494927.781 8 112956598.827 8      2600.609          51.000    21494926.250 8  88018131.837 8      2026.449          51.000
G13  23168122.609 7 121749273.678 7     -3542.340          46.000    23168124.375 7  94869548.705 7     -2760.268          43.000
G15  21770965.914 8 114407172.946 8     -2818.152          51.000    21770964.234 8  89148444.478 8     -2195.963          51.000
G19  21605123.594 6 113535758.254 6       603.246          37.000    21605122.523 6  88469355.177 6       470.068          36.000
G24  20313735.625 6 106749406.361 6       854.766          37.000    20313734.945 6  83181346.968 6       666.048          37.000
G25  24083944.461 7 126561983.941 7      3491.867          43.000    24083943.234 6  98619718.377 6      2720.939          38.000
R06  20313602.398 7 108397251.453 7     -1841.344          45.000
R18  22395370.258 6 119548018.775 6      3633.266          39.000    22395374.781 5  92981801.696 5      2825.876          35.000
C12  24794208.297 6 129109974.676 6      3122.379          41.000    24794210.406 7  99836006.847 7      2414.304          47.000
C14                                                                  24825194.328 6  99960787.454 6     -2399.609          36.000
C24  21930974.047 8 114200312.513 8      -250.523          51.000
C25  23977543.805 5 124857355.003 5      2175.457          32.000
C26  23799018.578 5 123927725.210 5     -2250.285          31.000
E01  25050147.742 5 131639412.810 5      1654.039          34.000    25050142.461 7 100866526.129 7      1267.587          42.000
E19  24922781.555 8 130970092.922 8     -1873.156          49.000    24922783.672 8 100353707.990 8     -1435.317          50.000
E21  23578903.953 8 123908023.507 8      -574.121          51.000    23578905.273 8  94942492.516 8      -439.905          51.000
> 2020 05 11 07 12 30.0000000  0 15        .000000000000
G12  21480130.828 8 112878839.487 8      2583.613          51.000    21480128.289 8  87957540.190 8      2013.205          51.000
G13  23188380.305 7 121855729.594 7     -3554.352          47.000    23188381.797 6  94952501.349 6     -2769.625          41.000
G15  21787103.609 8 114491976.493 8     -2835.105          51.000    21787102.258 8  89214525.140 8     -2209.173          51.000
G19  21601757.844 6 113518071.863 6       576.980          38.000    21601756.484 5  88455573.587 5       449.595          31.000
G24  20308899.859 5 106724004.107 5       837.957          34.000    20308900.602 5  83161553.094 5       652.960          34.000
G25  24064037.961 7 126457378.685 7      3482.137          42.000    24064037.617 6  98538207.834 6      2713.356          40.000
R06  20324038.609 7 108452942.398 7     -1871.074          44.000
R18  22374999.727 6 119439287.328 6      3615.902          40.000    22375001.555 5  92897232.917 5      2812.375          32.000
C12  24776247.828 6 129016457.695 6      3112.617          41.000    24776250.219 7  99763693.618 7      2406.964          45.000
C14  24843101.734 5 129364546.640 5     -3111.504          33.000    24843098.188 6 100032874.968 6     -2406.024          36.000
C24  21932454.258 8 114208020.279 8      -263.082          51.000
C26  23812021.523 5 123995362.749 5     -2258.652          32.000
E01                                                                  25040731.156 7 100828626.151 7      1259.443          42.000
E19  24933522.398 8 131026537.920 8     -1889.387          48.000    24933525.109 8 100396958.043 8     -1447.709          50.000
E21  23582214.977 8 123925423.987 8      -585.477          51.000    23582216.797 8  94955825.357 8      -448.654          51.000
> 2020 05 11 07 13  0.0000000  0 16        .000000000000
G12  21465396.531 8 112801412.026 8      2573.039          49.000    21465394.234 8  87897207.125 8      2004.966          49.000
G13  23208672.023 8 121962362.285 8     -3559.652          49.000    23208671.984 6  95035591.707 6     -2773.755          37.000
G15  21803304.125 8 114577111.332 8     -2845.668          51.000    21803303.477 8  89280863.952 8     -2217.404          51.000
G17  22660232.992 6 119080295.382 6     -1312.676          37.000    22660226.453 5  92789858.240 5     -1022.864          34.000
G24  20304125.383 6 106698923.188 6       828.359          37.000    20304127.672 6  83142009.561 6       645.478          37.000
G25  24044156.156 7 126352895.201 7      3478.305          43.000
R06  20334607.758 7 108509343.210 7     -1894.215          44.000
R15  21562063.234 5 115221140.220 5     -2678.473          34.000
R18  22354690.211 5 119330887.796 5      3605.281          33.000    22354692.531 5  92812922.260 5      2804.108          34.000
C12  24758309.453 7 128923050.726 7      3109.410          42.000    24758311.438 7  99691465.482 7      2404.366          46.000
C14  24861019.039 5 129457854.009 5     -3114.641          32.000    24861017.781 5 100105026.060 5     -2407.553          34.000
C24  21933973.195 8 114215930.156 8      -269.297          51.000
C25  23952541.672 5 124727169.382 5      2165.098          31.000
E01                                                                  25031346.922 6 100790838.261 6      1255.947          41.000
E19  24944321.562 7 131083291.843 7     -1899.211          47.000    24944324.734 8 100440444.830 8     -1455.249          50.000
E21  23585557.305 8 123942988.740 8      -590.477          51.000    23585559.461 8  94969284.070 8      -452.473          51.000
> 2020 05 11 07 13 30.0000000  0 17        .000000000000
G12  21450715.336 8 112724264.969 8      2561.336          48.000    21450713.898 8  87837092.546 8      1995.846          48.000
G13  23228987.281 8 122069116.873 8     -3566.086          51.000    23228985.570 6  95118777.033 6     -2778.771          39.000
G15  21819556.891 8 114662522.404 8     -2857.211          51.000    21819557.180 8  89347418.027 8     -2226.395          51.000
G17  22667747.617 5 119119800.403 5     -1329.715          33.000    22667745.656 5  92820641.440 5     -1036.144          31.000
G20  24125410.719 5 126779888.408 5     -2149.547          31.000
G24  20299403.133 6 106674111.948 6       816.930          36.000    20299405.508 6  83122676.072 6       636.566          36.000
G25  24024288.969 7 126248488.506 7      3473.340          46.000
R06  20345300.070 7 108566397.664 7     -1918.309          46.000
R18  22334434.836 5 119222771.066 5      3593.480          33.000    22334439.297 5  92728831.483 5      2794.926          35.000
C12  24740383.578 7 128829704.122 7      3104.961          44.000    24740385.156 7  99619284.006 7      2400.959          47.000
C14  24878941.969 5 129551188.955 5     -3117.484          32.000    24878943.414 5 100177198.557 5     -2410.313          33.000
C24  21935520.906 8 114223989.788 8      -276.641          51.000
C25  23940059.633 5 124662173.736 5      2160.285          33.000
C26  23838020.141 5 124130781.953 5     -2263.699          33.000
E01                                                                  25021979.867 6 100753122.091 6      1251.550          40.000
E19  24955169.258 7 131140301.142 7     -1910.164          47.000    24955172.375 8 100484127.291 8     -1463.629          49.000
E21  23588920.836 8 123960664.331 8      -596.609          51.000    23588922.875 8  94982827.699 8      -457.142          51.000
> 2020 05 11 07 14  0.0000000  0 16        .000000000000
G12  21436124.242 8 112647589.786 8      2549.402          50.000    21436123.500 8  87777345.654 8      1986.547          50.000
G13  23249361.742 8 122176182.306 8     -3572.664          51.000    23249359.570 6  95202204.565 6     -2783.894          40.000
G15  21835898.031 8 114748398.561 8     -2868.840          50.000    21835899.000 8  89414334.528 8     -2235.460          50.000
G19  21592377.258 6 113468717.765 6       513.828          38.000
G24  20294769.312 6 106649761.669 6       805.219          39.000    20294771.812 6  83103701.832 6       627.443          40.000
G25  24004471.867 7 126144351.220 7      3468.195          47.000
R06  20356150.258 7 108624297.506 7     -1942.465          45.000
R15  21592139.891 6 115381796.526 6     -2686.578          37.000
R18  22314270.875 5 119115135.824 5      3581.004          35.000    22314275.867 5  92645115.238 5      2785.228          35.000
C12  24722506.336 7 128736609.643 7      3100.254          45.000    24722507.750 8  99547297.475 8      2397.259          48.000
C14  24896905.273 5 129644738.149 5     -3120.480          32.000    24896911.156 5 100249536.650 5     -2413.204          33.000
C24  21937133.703 8 114232388.248 8      -284.254          51.000
C25  23927620.914 5 124597406.366 5      2156.305          33.000
E01  25012665.406 6 131442441.882 6      1628.027          38.000    25012667.352 6 100715623.834 6      1247.261          38.000
E19  24966102.250 7 131197755.420 7     -1921.203          47.000    24966104.500 8 100528150.711 8     -1472.058          48.000
E21  23592341.578 8 123978641.030 8      -602.832          51.000    23592343.523 8  94996602.041 8      -461.919          51.000
> 2020 05 11 07 14 30.0000000  0 17        .000000000000
G12  21421592.859 8 112571226.495 8      2536.648          51.000    21421592.672 8  87717841.812 8      1976.609          51.000
G13  23269764.078 8 122283395.275 8     -3579.910          51.000    23269762.539 6  95285747.065 6     -2789.543          41.000
G15  21852296.852 8 114834575.844 8     -2881.137          51.000    21852297.555 8  89481485.661 8     -2245.042          51.000
G19  21589494.555 6 113453569.941 6       491.418          37.000
G24  20290193.008 6 106625712.677 6       793.059          39.000    20290195.820 6  83084962.325 6       617.968          39.000
G25  23984674.789 7 126040314.381 7      3462.344          47.000
R05  23333175.781 5 124729150.709 5     -4560.832          34.000
R06  20367126.914 7 108682874.947 7     -1967.488          45.000
R15  21607231.688 4 115462376.434 4     -2691.027          28.000    21607215.391 4  89804092.090 4     -2093.018          28.000
R18  22294167.203 6 119007822.773 6      3568.238          37.000    22294171.938 6  92561649.621 6      2775.299          36.000
C12  24704647.539 7 128643610.027 7      3094.738          46.000    24704648.539 8  99475384.268 8      2393.154          49.000
C14  24914878.383 5 129738339.281 5     -3124.535          33.000    24914889.188 5 100321914.929 5     -2415.965          31.000
C24  21938780.906 8 114240965.543 8      -292.449          51.000
C26  23864124.617 5 124266742.367 5     -2271.449          32.000
E01  25003380.180 6 131393626.505 6      1621.457          40.000    25003377.539 6 100678219.801 6      1242.433          38.000
E19  24977089.539 8 131255492.086 8     -1932.855          48.000    24977090.812 7 100572390.479 7     -1480.983          47.000
E21  23595788.828 8 123996756.710 8      -609.711          51.000    23595790.875 8  95010482.887 8      -467.229          51.000
> 2020 05 11 07 15  0.0000000  0 17        .000000000000
G12  21407139.844 8 112495274.597 8      2527.055          50.000    21407139.797 8  87658658.498 8      1969.134          50.000
G13  23290212.773 8 122390852.078 8     -3583.656          51.000    23290211.617 6  95369479.584 6     -2792.459          41.000
G15  21868771.602 8 114921150.560 8     -2890.242          51.000    21868771.398 8  89548946.457 8     -2252.137          51.000
G19  21586743.188 6 113439118.688 6       472.258          41.000    21586742.422 5  88394109.335 5       368.005          30.000
G24  20285693.047 6 106602062.810 6       783.906          40.000    20285695.516 6  83066533.854 6       610.836          40.000
G25  23964916.500 7 125936485.157 7      3459.777          46.000    23964917.383 7  98132329.069 7      2695.930          43.000
R05  23358770.617 5 124866036.517 5     -4559.930          31.000
