     3.04           OBSERVATION DATA    M (MIXED)           RINEX VERSION / TYPE
Convert 2.6.2       NovAtel             20200515 153103 UTC PGM / RUN BY / DATE 
Rinex Version 3.04 Observation File                         COMMENT             
                                                            MARKER NAME         
                                                            MARKER NUMBER       
                                                            MARKER TYPE         
                                                            OBSERVER / AGENCY   
                    NovAtel GPSCard                         REC # / TYPE / VERS 
                                                            ANT # / TYPE        
        0.0000        0.0000        0.0000                  APPROX POSITION XYZ 
        0.0000        0.0000        0.0000                  ANTENNA: DELTA H/E/N
G    8 C1C L1C D1C S1C C2W L2W D2W S2W                      SYS / # / OBS TYPES 
R    8 C1C L1C D1C S1C C2P L2P D2P S2P                      SYS / # / OBS TYPES 
E    8 C1C L1C D1C S1C C7Q L7Q D7Q S7Q                      SYS / # / OBS TYPES 
C    8 C2I L2I D2I S2I C7I L7I D7I S7I                      SYS / # / OBS TYPES 
DBHZ                                                        SIGNAL STRENGTH UNIT
    30.000                                                  INTERVAL            
  2020    05    08    16    00    0.0000000     GPS         TIME OF FIRST OBS   
  2020    05    08    16    59   30.0000000     GPS         TIME OF LAST OBS    
G L1C  0.00000  07 G26 G16 G10 G20 G18 G27 G32              SYS / PHASE SHIFT   
G L2W  0.00000  07 G26 G16 G10 G20 G27 G18 G32              SYS / PHASE SHIFT   
R L1C  0.00000  07 R09 R18 R04 R03 R05 R19 R10              SYS / PHASE SHIFT   
R L2P  0.25000  05 R09 R03 R04 R05 R19                      SYS / PHASE SHIFT   
E L1C  0.50000  05 E33 E31 E19 E12 E24                      SYS / PHASE SHIFT   
E L7Q -0.25000  05 E33 E31 E19 E12 E24                      SYS / PHASE SHIFT   
C L2I  0.00000  07 C26 C05 C29 C20 C19 C22 C24              SYS / PHASE SHIFT   
C L7I  0.00000  01 C05                                      SYS / PHASE SHIFT   
  7 R09 -2 R18 -3 R04  6 R03  5 R05  1 R19  3 R10 -7        GLONASS SLOT / FRQ #
 C1C  -71.950 C2C  -71.950 C2P  -71.950                     GLONASS COD/PHS/BIS 
     0     0     0     0GPS                                 LEAP SECONDS        
                                                            END OF HEADER       
> 2020 05 08 16 00  0.0000000  0 14      -0.000000000000
G26  22521735.398 8 118352488.742 8     -3278.422          49.000    22521739.516 8  92222728.983 8     -2554.618          49.000  
G16  20912020.727 8 109893419.108 8     -1725.996          51.000    20912019.461 8  85631221.112 8     -1344.932          49.000  
G10  21315901.148 8 112015880.323 8      1591.738          51.000    21315903.766 8  87285107.792 8      1240.316          51.000  
G20  21063237.938 5 110688045.602 5      -816.934          35.000    21063235.930 5  86250431.154 5      -636.575          35.000  
R09  21100880.102 8 112677125.847 8     -2923.004          51.000    21100880.711 7  87637773.656 7     -2273.451          45.000  
R18  23204537.359 5 123866965.117 5     -2989.375          31.000                                                                  
E33  24101750.648 8 126655574.142 8     -1204.043          51.000    24101751.734 8  97047808.497 8      -922.597          51.000  
E31  25340612.898 8 133165806.673 8     -2592.906          49.000    25340616.477 8 102036134.303 8     -1986.839          50.000  
E19  28273940.195 6 148580557.216 6      2852.137          41.000    28273944.453 6 113847448.462 6      2185.258          40.000  
C26  24402082.070 8 127068005.018 8     -2434.207          48.000                                                                  
C05  39615726.031 5 206289480.33625       -12.086          34.000                                                                  
C29  23774687.844 5 123801029.505 5     -2174.754          31.000                                                                  
C20  24428133.961 5 127203703.00725      -937.309          30.000                                                                  
C19  23226182.422 8 120944975.017 8      1924.145          49.000                                                                  
> 2020 05 08 16 00 30.0000000  0 14      -0.000000000000
G26  22540441.938 8 118450792.646 8     -3278.680          49.000    22540446.727 8  92299329.400 8     -2554.816          50.000  
G16  20921890.523 8 109945286.382 8     -1735.332          51.000    20921889.344 8  85671637.161 8     -1352.207          49.000  
G10  21306830.539 8 111968212.155 8      1582.762          51.000    21306832.914 8  87247963.832 8      1233.324          51.000  
R09  21117321.648 8 112764923.460 8     -2933.535          50.000    21117321.258 7  87706060.610 7     -2281.642          45.000  
R18  23221307.039 5 123956488.663 5     -2982.590          32.000                                                                  
R04  21232511.531 5 113698750.670 5      2539.770          32.000                                                                  
E33  24108603.641 8 126691587.508 8     -1200.285          51.000    24108604.609 8  97075403.150 8      -919.685          51.000  
E31  25355405.250 8 133243547.043 8     -2593.215          49.000    25355410.414 8 102095701.593 8     -1986.995          50.000  
E19  28257624.125 6 148494816.932 6      2860.434          41.000    28257629.664 6 113781751.521 6      2191.726          41.000  
C26  24416097.219 7 127140987.402 7     -2434.625          46.000                                                                  
C05  39615764.312 5 206289680.272 5        -4.359          34.000                                                                  
C29  23787197.469 5 123866179.548 5     -2171.551          32.000                                                                  
C20  24433554.992 6 127231895.784 6      -945.078          36.000                                                                  
C19  23215102.281 8 120887276.574 8      1919.047          50.000                                                                  
> 2020 05 08 16 01  0.0000000  0 16      -0.000000000000
G26  22559201.492 8 118549373.975 8     -3290.648          50.000    22559206.164 8  92376145.958 8     -2564.142          50.000  
G16  20931864.828 8 109997703.054 8     -1756.285          51.000    20931863.852 8  85712481.279 8     -1368.537          50.000  
G10  21297863.039 8 111921086.932 8      1561.840          51.000    21297865.484 8  87211242.918 8      1217.021          51.000  
G18  23547398.258 5 123742406.869 5     -3123.867          30.000                                                                  
G27  20537554.336 5 107925571.777 5      1066.645          33.000    20537555.234 5  84097857.648 5       831.152          33.000  
R09  21133872.375 7 112853308.769 7     -2955.949          47.000    21133873.195 7  87774804.650 7     -2299.075          46.000  
R03  21888226.625 4 117168984.905 4     -1225.234          29.000    21888229.742 4  91131461.48124      -952.960          27.000  
R04  21218353.977 5 113622964.252 5      2515.445          34.000    21218361.023 5  88373412.183 5      1956.467          31.000  
E33  24115485.969 8 126727755.141 8     -1208.156          51.000    24115486.922 8  97103115.998 8      -925.749          51.000  
E31  25370250.180 8 133321561.205 8     -2605.020          49.000    25370256.461 8 102155478.669 8     -1996.064          50.000  
E19  28241311.586 7 148409094.461 7      2856.973          42.000    28241317.852 6 113716068.165 6      2189.203          40.000  
C26  24430165.773 7 127214251.100 7     -2446.691          45.000                                                                  
C05  39615806.891 5 206289902.00525        -7.844          34.000                                                                  
C29  23799737.836 5 123931478.462 5     -2179.250          33.000                                                                  
C20  24439080.430 5 127260601.098 5      -965.301          34.000                                                                  
C19  23204103.914 8 120830002.161 8      1902.012          51.000                                                                  
> 2020 05 08 16 01 30.0000000  0 17      -0.000000000000
G26  22578014.625 8 118648236.260 8     -3306.590          50.000    22578018.656 8  92453181.443 8     -2576.564          50.000  
G16  20941944.734 8 110050673.429 8     -1781.438          51.000    20941943.977 8  85753756.860 8     -1388.134          50.000  
G10  21289000.102 8 111874512.112 8      1536.766          51.000    21289002.742 8  87174950.863 8      1197.483          51.000  
G20  21077626.602 6 110763679.634 6      -875.930          36.000    21077624.891 6  86309345.646 6      -682.546          37.000  
G27  20531501.242 5 107893763.630 5      1047.617          34.000    20531502.812 5  84073072.068 5       816.325          35.000  
R09  21150533.008 7 112942283.660 7     -2982.297          47.000    21150535.773 7  87844007.329 7     -2319.565          46.000  
R18  23254885.750 5 124135789.962 5     -2996.945          32.000                                                                  
R03  21895165.805 5 117206153.495 5     -1259.324          31.000    21895166.219 4  91160370.422 4      -979.478          29.000  
R04  21204323.914 6 113547837.792 6      2486.320          39.000    21204329.500 5  88314980.467 5      1933.805          33.000  
E33  24122398.672 8 126764082.601 8     -1220.227          51.000    24122399.820 8  97130951.314 8      -935.009          51.000  
E31  25385148.891 8 133399853.431 8     -2620.961          50.000    25385155.547 8 102215468.798 8     -2008.318          50.000  
E19  28225003.789 6 148323397.785 6      2849.426          41.000    28225010.406 6 113650404.541 6      2183.310          39.000  
C26  24444289.180 7 127287799.560 7     -2462.781          45.000                                                                  
C05  39615855.039 5 206290152.543 5       -15.156          34.000                                                                  
C29  23812312.523 5 123996945.825 5     -2191.738          35.000                                                                  
C20  24444702.641 5 127289824.006 5      -989.801          32.000                                                                  
C19  23193188.383 8 120773159.707 8      1881.031          51.000                                                                  
> 2020 05 08 16 02  0.0000000  0 16      -0.000000000000
G26  22596892.273 8 118747438.138 8     -3306.242          50.000    22596895.750 8  92530481.531 8     -2576.293          50.000  
G16  20952141.469 8 110104257.551 8     -1790.305          51.000    20952140.773 8  85795510.686 8     -1395.043          49.000  
G10  21280253.680 8 111828550.317 8      1527.801          51.000    21280256.391 8  87139136.469 8      1190.495          51.000  
G20  21082656.656 5 110790113.902 5      -885.297          34.000    21082655.578 5  86329943.743 5      -689.842          35.000  
G27  20525532.109 5 107862390.255 5      1044.086          35.000    20525531.625 5  84048625.244 5       813.571          35.000  
R09  21167316.328 8 113031906.561 8     -2992.066          49.000    21167319.805 7  87913713.965 7     -2327.166          47.000  
R03  21902267.055 5 117244177.523 5     -1275.418          31.000    21902267.180 5  91189944.671 5      -991.992          30.000  
R04  21190429.766 5 113473437.264 5      2474.070          35.000    21190437.109 6  88257113.508 6      1924.280          36.000  
E33  24129353.398 8 126800630.490 8     -1215.906          51.000    24129354.781 8  97158955.525 8      -931.642          51.000  
E31  25400112.281 8 133478483.118 8     -2620.461          51.000    25400118.383 8 102275717.473 8     -2007.914          49.000  
E19  28208712.539 6 148237789.968 6      2858.324          39.000    28208719.398 6 113584808.994 6      2189.957          40.000  
C26  24458479.656 7 127361690.972 7     -2462.773          45.000                                                                  
C05  39615920.289 5 206290492.40625        -6.809          34.000                                                                  
C29  23824928.203 5 124062638.245 5     -2187.348          30.000                                                                  
C20  24450430.375 4 127319806.90124      -997.062          26.000                                                                  
C19  23182367.398 8 120716811.603 8      1876.059          51.000                                                                  
> 2020 05 08 16 02 30.0000000  0 16      -0.000000000000
G26  22615798.859 8 118846793.238 8     -3314.512          48.000    22615802.406 8  92607901.016 8     -2582.740          48.000  
G16  20962419.641 8 110158269.883 8     -1807.695          51.000    20962419.008 8  85837598.174 8     -1408.594          49.000  
G10  21271589.289 8 111783019.096 8      1510.383          51.000    21271592.102 8  87103657.576 8      1176.922          51.000  
G20  21087773.273 6 110817009.745 6      -904.504          40.000    21087773.422 6  86350901.561 6      -704.812          39.000  
G27  20519610.508 6 107831268.862 6      1032.633          36.000    20519610.586 5  84024374.787 5       804.649          35.000  
R09  21184186.000 8 113121986.239 8     -3010.520          50.000    21184189.594 8  87983775.880 8     -2341.519          48.000  
R18  23288528.547 5 124315348.614 5     -2992.316          31.000                                                                  
R04  21176636.531 6 113399579.178 6      2452.797          36.000    21176644.344 5  88199668.314 5      1907.728          34.000  
E33  24136315.094 8 126837214.407 8     -1220.258          51.000    24136316.641 8  97186987.356 8      -934.988          51.000  
E31  25415104.625 8 133557264.629 8     -2628.828          51.000    25415109.305 8 102336082.465 8     -2014.307          48.000  
E12  22186270.562 5 116589633.323 5       993.242          33.000    22186270.180 5  89334917.002 5       760.598          32.000  
E19  28192402.930 6 148152089.115 6      2858.223          37.000    28192410.703 6 113519142.162 6      2190.032          39.000  
C26  24472701.453 7 127435740.741 7     -2471.082          47.000                                                                  
C05  39615967.672 5 206290739.423 5        -6.824          34.000                                                                  
C29  23837552.203 5 124128373.195 5     -2191.949          32.000                                                                  
C19  23171606.445 8 120660777.564 8      1862.430          50.000                                                                  
> 2020 05 08 16 03  0.0000000  0 16      -0.000000000000
G26  22634754.719 8 118946408.214 8     -3324.055          48.000    22634758.602 8  92685523.015 8     -2590.173          48.000  
G16  20972799.727 8 110212817.841 8     -1826.477          51.000    20972799.266 8  85880103.065 8     -1423.229          49.000  
G10  21263028.016 8 111738028.998 8      1491.363          51.000    21263030.875 8  87068600.338 8      1162.102          51.000  
G20  21092999.406 6 110844474.806 6      -924.398          41.000    21092999.641 6  86372302.895 6      -720.311          38.000  
G27  20513757.836 6 107800509.741 6      1019.875          38.000    20513758.578 6  84000406.640 6       794.708          38.000  
R09  21201161.227 8 113212629.440 8     -3030.102          50.000    21201164.734 8  88054276.129 8     -2356.749          48.000  
R04  21162966.242 5 113326378.332 5      2429.812          33.000    21162973.945 5  88142734.288 5      1889.852          34.000  
E33  24143304.430 8 126873942.961 8     -1225.973          51.000    24143305.969 8  97215130.002 8      -939.340          51.000  
E31  25430146.133 8 133636305.281 8     -2638.266          51.000    25430148.539 8 102396646.009 8     -2021.502          48.000  
E12  22180631.539 6 116560002.936 6       985.633          36.000    22180629.156 5  89312204.014 5       755.327          32.000  
E19  28176096.867 6 148066388.316 6      2856.648          37.000    28176105.172 6 113453489.173 6      2188.784          38.000  
C26  24486973.852 7 127510054.541 7     -2480.742          47.000                                                                  
C05  39616017.969 5 206291001.665 5        -8.141          34.000                                                                  
C29  23850205.898 5 124194258.650 5     -2198.105          34.000                                                                  
C20  24462106.297 5 127380566.274 5     -1030.836          31.000                                                                  
C19  23160926.891 8 120605167.566 8      1847.273          50.000                                                                  
> 2020 05 08 16 03 30.0000000  0 16      -0.000000000000
G26  22653752.055 7 119046242.300 7     -3331.766          46.000    22653756.555 7  92763315.766 7     -2596.182          45.000  
G16  20983274.156 8 110267862.113 8     -1843.273          50.000    20983273.836 8  85922994.697 8     -1436.317          49.000  
G10  21254562.898 8 111693543.206 8      1474.109          51.000    21254565.289 8  87033936.077 8      1148.657          51.000  
G20  21098326.445 7 110872469.753 7      -942.223          43.000    21098326.938 6  86394117.167 6      -734.197          38.000  
G27  20507966.445 5 107770075.837 5      1008.328          33.000    20507966.547 5  83976691.922 5       785.710          35.000  
R09  21218234.008 8 113303793.396 8     -3047.766          51.000    21218236.727 7  88125181.387 7     -2370.488          47.000  
R04  21149412.828 6 113253799.312 6      2408.742          38.000    21149419.555 5  88086283.977 5      1873.467          32.000  
E33  24150313.922 8 126910777.496 8     -1229.895          51.000    24150315.312 8  97243353.862 8      -942.399          51.000  
E31  25445229.062 8 133715565.134 8     -2645.922          51.000    25445229.281 8 102457377.504 8     -2027.471          48.000  
E12  22175019.562 5 116530508.295 5       980.441          35.000    22175015.016 5  89289604.171 5       751.391          32.000  
E19  28159788.258 6 147980687.283 6      2856.629          40.000    28159795.672 6 113387822.215 6      2189.116          37.000  
C26  24501288.477 7 127584592.056 7     -2488.504          46.000                                                                  
C05  39616064.094 5 206291241.415 5        -8.176          34.000                                                                  
C29  23862881.516 5 124260256.391 5     -2201.715          34.000                                                                  
C20  24468089.688 5 127411724.524 5     -1046.742          32.000                                                                  
C19  23150321.766 8 120549945.514 8      1834.012          50.000                                                                  
> 2020 05 08 16 04  0.0000000  0 15      -0.000000000000
G26  22672799.281 7 119146338.966 7     -3341.562          44.000    22672804.625 7  92841313.134 7     -2603.816          44.000  
G16  20993851.406 8 110323446.717 8     -1862.527          49.000    20993850.992 8  85966307.375 8     -1451.320          49.000  
G10  21246202.898 8 111649609.064 8      1454.508          51.000    21246204.641 8  86999701.679 8      1133.383          51.000  
G20  21103763.281 7 110901039.741 7      -962.660          44.000    21103764.195 6  86416379.450 6      -750.122          37.000  
G27  20502243.367 5 107740006.16025       995.105          32.000    20502245.203 5  83953266.24925       775.407          32.000  
R09  21235412.109 8 113395520.707 8     -3067.680          49.000    21235414.250 7  88196524.783 7     -2385.977          47.000  
R04  21135986.055 5 113181892.887 5      2384.867          34.000    21135990.930 4  88030356.718 4      1854.900          29.000  
E33  24157352.180 8 126947763.413 8     -1236.102          51.000    24157353.344 8  97271693.707 8      -947.137          51.000  
E31  25460361.898 8 133795088.369 8     -2655.895          51.000    25460361.445 8 102518310.821 8     -2035.010          50.000  
E12                                                                  22169438.094 5  89267143.560 5       745.262          32.000  
E19  28143486.086 7 147895015.903 7      2854.621          42.000    28143491.492 6 113322178.018 6      2187.147          38.000  
C26  24515653.500 7 127659396.394 7     -2498.734          45.000                                                                  
C05  39616114.523 5 206291504.05925        -9.863          34.000                                                                  
C20  24474169.141 4 127443420.96024     -1065.578          28.000                                                                  
C19  23139800.703 8 120495158.813 8      1818.191          50.000                                                                  
> 2020 05 08 16 04 30.0000000  0 15      -0.000000000000
G26  22691891.016 7 119246669.079 7     -3346.062          44.000    22691896.547 7  92919492.428 7     -2607.319          45.000  
G16  21004526.055 8 110379543.407 8     -1876.273          48.000    21004525.352 8  86010019.082 8     -1462.035          48.000  
G10  21237942.969 8 111606201.316 8      1440.246          51.000    21237944.305 8  86965877.476 8      1122.270          51.000  
G20  21109304.180 7 110930156.640 7      -977.594          44.000    21109304.602 5  86439067.921 5      -761.762          35.000  
G27  20496590.023 5 107710291.298 5       986.918          35.000    20496589.664 5  83930111.857 5       769.033          35.000  
R09  21252688.891 7 113487779.940 7     -3081.879          47.000    21252691.688 7  88268281.944 7     -2397.017          47.000  
R04  21122679.375 6 113110635.364 6      2366.660          39.000    21122684.750 4  87974934.283 4      1840.733          28.000  
E33  24164414.086 8 126984873.657 8     -1236.934          51.000    24164415.094 8  97300128.830 8      -947.820          51.000  
E31  25475539.312 8 133874846.631 8     -2660.430          51.000    25475539.547 8 102579424.232 8     -2038.467          51.000  
E12                                                                  22163893.500 5  89244814.611 5       743.609          32.000  
E19  28127185.055 7 147809349.816 7      2857.578          43.000    28127188.648 6 113256537.909 6      2189.368          39.000  
C26  24530064.195 7 127734438.668 7     -2503.219          45.000                                                                  
C05  39616164.297 5 206291763.311 5        -6.172          34.000                                                                  
C29  23888323.609 5 124392784.818 5     -2209.328          30.000                                                                  
C19  23129358.852 8 120440782.921 8      1807.773          50.000                                                                  
> 2020 05 08 16 05  0.0000000  0 15      -0.000000000000
G26  22711025.672 7 119347222.027 7     -3357.195          46.000    22711030.688 7  92997845.335 7     -2615.997          46.000  
G16  21015296.555 8 110436142.710 8     -1896.738          50.000    21015295.477 7  86054122.431 7     -1477.975          47.000  
G10  21229781.758 8 111563313.176 8      1419.145          51.000    21229782.922 8  86932458.175 8      1105.827          51.000  
G20  21114947.484 7 110959811.149 7      -999.164          45.000    21114947.305 6  86462175.246 6      -778.570          36.000  
G27  20491000.750 6 107680916.237 6       971.852          37.000    20491000.617 6  83907222.155 6       757.284          37.000  
R09  21270062.555 8 113580558.464 8     -3103.137          48.000    21270066.711 7  88340443.042 7     -2413.551          47.000  
R04  21109493.625 6 113040022.088 6      2341.043          36.000    21109499.680 5  87920013.043 5      1820.824          31.000  
E33  24171497.922 8 127022099.572 8     -1244.488          51.000    24171498.906 8  97328652.588 8      -953.557          51.000  
E31  25490759.602 8 133954829.949 8     -2671.570          51.000    25490761.070 8 102640710.116 8     -2047.031          51.000  
E12                                                                  22158379.633 5  89222611.941 5       736.543          33.000  
E19  28110883.672 7 147723682.643 7      2853.773          43.000    28110886.141 6 113190896.949 6      2186.734          40.000  
C26  24544519.070 7 127809708.397 7     -2514.363          45.000                                                                  
C05  39616211.820 5 206292011.086 5        -9.809          34.000                                                                  
C29  23901071.188 5 124459194.408 5     -2217.734          31.000                                                                  
C19  23118994.555 8 120386811.551 8      1790.637          50.000                                                                  
> 2020 05 08 16 05 30.0000000  0 15      -0.000000000000
G26  22730207.469 7 119448020.781 7     -3362.664          47.000    22730211.766 7  93076389.769 7     -2620.259          47.000  
G16  21026167.555 8 110493269.069 8     -1911.766          50.000    21026166.062 7  86098636.453 7     -1489.688          46.000  
G10  21221724.352 8 111520971.441 8      1403.469          51.000    21221725.289 8  86899464.642 8      1093.612          51.000  
G20  21120697.617 7 110990027.647 7     -1015.418          42.000    21120697.555 5  86485720.525 5      -791.238          35.000  
G27  20485480.961 6 107651907.505 6       962.113          38.000    20485480.492 6  83884617.942 6       749.702          38.000  
R09  21287539.016 8 113673878.414 8     -3118.352          49.000    21287542.875 7  88413025.195 7     -2425.388          47.000  
R04  21096434.109 6 112970082.595 6      2321.242          39.000    21096438.984 4  87865615.615 4      1805.405          28.000  
E33  24178608.484 8 127059466.153 8     -1246.699          51.000    24178609.648 8  97357284.119 8      -955.249          50.000  
E31  25506027.250 8 134035062.060 8     -2677.277          51.000    25506029.875 8 102702186.617 8     -2051.433          51.000  
E12                                                                  22152901.562 5  89200549.895 5       734.262          35.000  
E19  28094587.148 7 147638041.900 7      2855.477          43.000    28094589.055 6 113125276.267 6      2187.829          40.000  
C26  24559022.172 7 127885228.371 7     -2520.070          45.000                                                                  
C05  39616262.133 5 206292272.70525        -8.285          34.000                                                                  
C29  23913852.836 4 124525751.788 4     -2219.922          29.000                                                                  
C19  23108712.750 8 120333271.818 8      1778.648          49.000                                                                  
> 2020 05 08 16 06  0.0000000  0 16      -0.000000000000
G26  22749409.164 7 119548923.467 7     -3365.090          46.000    22749412.797 7  93155015.170 7     -2622.149          46.000  
G16  21037111.898 8 110550780.519 8     -1923.379          51.000    21037110.109 7  86143450.532 7     -1498.740          47.000  
G10  21213744.469 8 111479038.077 8      1391.004          51.000    21213745.227 8  86866789.319 8      1083.902          51.000  
G18  23726426.859 5 124683186.584 5     -3139.992          33.000                                                                  
G20  21126527.867 7 111020665.540 7     -1028.203          45.000    21126526.273 6  86509594.208 6      -801.198          37.000  
G27  20480004.164 6 107623126.850 6       956.047          37.000    20480004.047 6  83862191.442 6       744.972          37.000  
R09  21305089.656 7 113767593.588 7     -3130.379          47.000    21305091.797 7  88485914.708 7     -2434.743          46.000  
R04  21083474.508 5 112900678.278 5      2304.574          34.000    21083477.375 5  87811634.661 5      1792.456          31.000  
E33  24185719.258 8 127096833.599 8     -1245.453          51.000    24185720.703 8  97385916.306 8      -954.282          50.000  
E31  25521315.094 8 134115401.810 8     -2679.668          51.000    25521318.648 8 102763745.603 8     -2053.223          51.000  
E12                                                                  22147431.992 5  89178521.568 5       733.768          35.000  
E19  28078269.492 7 147552290.303 7      2860.371          42.000    28078270.961 6 113059570.628 6      2191.571          39.000  
C26  24573546.070 7 127960858.050 7     -2522.668          46.000                                                                  
C05  39616288.383 5 206292408.913 5        -2.480          34.000                                                                  
C29  23926633.688 5 124592284.66225     -2218.703          33.000                                                                  
C19  23098487.414 8 120280027.367 8      1769.934          49.000                                                                  
> 2020 05 08 16 06 30.0000000  0 15      -0.000000000000
G26  22768696.875 7 119650278.968 7     -3388.215          45.000    22768700.250 7  93233993.442 7     -2640.168          45.000  
G16  21048196.133 8 110609026.878 8     -1956.133          51.000    21048194.250 7  86188837.243 7     -1524.263          47.000  
G10  21205909.438 8 111437865.849 8      1357.379          51.000    21205910.680 8  86834707.094 8      1057.698          51.000  
G20  21132504.875 7 111052074.944 7     -1062.016          44.000    21132503.539 6  86534069.032 6      -827.545          37.000  
G27  20474636.953 5 107594927.104 5       928.297          32.000    20474637.930 5  83840217.526 5       723.339          32.000  
R09  21322778.547 7 113862057.120 7     -3163.531          43.000    21322780.695 7  88559386.283 7     -2460.525          45.000  
R04  21070682.844 5 112832171.183 5      2266.461          33.000    21070683.430 4  87758351.200 4      1762.791          27.000  
E33  24192897.023 8 127134552.881 8     -1265.465          51.000    24192898.547 8  97414818.086 8      -969.604          49.000  
E31  25536689.492 8 134196198.853 8     -2703.109          49.000    25536693.906 8 102825654.986 8     -2071.260          51.000  
E12  22142038.188 6 116357191.691 6       936.309          36.000    22142036.531 5  89156796.072 5       717.153          35.000  
E19  28061997.547 6 147466781.218 6      2844.031          40.000    28061998.789 6 112994050.813 6      2179.092          39.000  
C26  24588157.273 7 128036943.215 7     -2546.047          47.000                                                                  
C05  39616357.766 5 206292770.144 5       -17.836          34.000                                                                  
C29  23939489.953 5 124659208.943 5     -2239.973          31.000                                                                  
C19  23088385.766 8 120227428.169 8      1740.258          49.000                                                                  
> 2020 05 08 16 07  0.0000000  0 13      -0.000000000000
G26  22788015.508 7 119751797.552 7     -3383.699          45.000    22788019.125 7  93313098.795 7     -2636.650          45.000  
G16  21059365.445 8 110667719.468 8     -1960.832          51.000    21059363.461 7  86234571.695 7     -1527.925          47.000  
G10  21198164.844 8 111397168.697 8      1351.602          51.000    21198166.492 8  86802995.057 8      1053.196          51.000  
G20  21138573.953 7 111083967.251 7     -1068.215          42.000    21138572.977 6  86558920.209 6      -832.375          39.000  
G27  20469326.008 5 107567021.898 5       927.609          33.000    20469328.008 5  83818473.138 5       722.807          34.000  
R09  21340551.375 7 113956972.725 7     -3168.465          43.000    21340554.555 7  88633209.533 7     -2464.365          45.000  
E33  24200087.023 8 127172336.266 8     -1257.562          51.000    24200088.359 8  97443768.975 8      -963.563          49.000  
E31  25552095.617 8 134277164.131 8     -2698.738          49.000    25552101.094 8 102887693.265 8     -2067.794          51.000  
E12  22136664.766 5 116328956.873 5       942.504          34.000    22136660.609 5  89135153.080 5       722.002          35.000  
E19  28045716.914 6 147381229.343 6      2855.309          39.000    28045718.602 6 112928498.217 6      2187.802          40.000  
C26  24602800.961 8 128113196.754 8     -2541.586          48.000                                                                  
C29  23952352.844 5 124726184.826 5     -2231.590          33.000                                                                  
C19  23078354.031 8 120175191.327 8      1738.133          50.000                                                                  
> 2020 05 08 16 07 30.0000000  0 15      -0.000000000000
G26  22807363.289 7 119853469.487 7     -3394.227          45.000    22807367.227 7  93392323.621 7     -2644.853          45.000  
G16  21070617.945 8 110726849.492 8     -1980.891          51.000    21070615.852 8  86280646.982 8     -1543.552          48.000  
G10  21190509.523 8 111356940.705 8      1330.535          51.000    21190511.508 8  86771648.570 8      1036.781          51.000  
G20  21144733.234 7 111116334.179 7     -1089.512          42.000    21144731.609 6  86584141.184 6      -848.970          39.000  
G27  20464070.984 6 107539405.044 6       912.957          37.000    20464072.773 6  83796953.523 6       711.398          36.000  
R09  21358408.836 7 114052328.945 7     -3188.410          46.000    21358412.023 7  88707375.389 7     -2479.875          46.000  
R04  21045435.047 4 112696950.887 4      2230.406          29.000                                                                  
E33  24207287.766 8 127210176.062 8     -1264.840          51.000    24207288.867 8  97472763.093 8      -969.229          49.000  
E31  25567532.711 8 134358288.641 8     -2709.461          51.000    25567538.578 8 102949853.564 8     -2076.043          50.000  
E12                                                                  22131304.969 6  89113586.988 6       715.654          36.000  
E19  28029427.398 6 147295629.547 6      2851.504          39.000    28029429.859 6 112862908.932 6      2184.938          40.000  
C26  24617475.188 7 128189609.053 7     -2552.234          47.000                                                                  
C05  39616460.406 5 206293304.43025        -9.359          34.000                                                                  
C29  23965237.820 5 124793247.869 5     -2239.039          35.000                                                                  
C19  23068391.367 8 120123311.509 8      1720.734          51.000                                                                  
> 2020 05 08 16 08  0.0000000  0 14      -0.000000000000
G26  22826755.742 7 119955375.671 7     -3400.262          45.000    22826759.633 7  93471730.979 7     -2649.558          45.000  
G16  21081968.953 8 110786498.506 8     -1996.523          51.000    21081967.180 8  86327126.696 8     -1555.733          48.000  
G10  21182959.539 8 111317266.524 8      1313.660          51.000    21182962.133 8  86740733.645 8      1023.632          51.000  
G20  21150998.492 6 111149257.623 6     -1106.605          41.000    21150996.852 6  86609795.845 6      -862.287          40.000  
G27  20458886.766 6 107512161.250 6       902.094          37.000    20458888.680 6  83775724.584 6       702.930          37.000  
R09  21376364.719 8 114148206.079 8     -3204.066          48.000    21376367.508 7  88781946.431 7     -2492.055          46.000  
E33  24214515.047 8 127248155.273 8     -1267.863          50.000    24214515.961 8  97501864.033 8      -971.414          49.000  
E31  25583016.500 8 134439654.051 8     -2715.727          51.000    25583021.820 8 103012198.430 8     -2080.880          50.000  
E12                                                                  22125985.477 6  89092161.581 6       712.128          37.000  
E19  28013145.164 6 147210067.300 6      2852.145          38.000    28013148.344 6 112797348.378 6      2185.282          40.000  
C26  24632195.070 7 128266260.309 7     -2558.543          46.000                                                                  
C29  23978143.641 4 124860485.67724     -2242.980          28.000                                                                  
C20  24526115.273 5 127713900.912 5     -1190.664          30.000                                                                  
C19  23058513.484 8 120071873.060 8      1707.621          51.000                                                                  
> 2020 05 08 16 08 30.0000000  0 16      -0.000000000000
G26  22846194.758 7 120057526.583 7     -3409.219          44.000    22846198.133 7  93551328.989 7     -2656.538          44.000  
G16  21093420.336 8 110846677.923 8     -2014.941          49.000    21093419.281 8  86374019.717 8     -1570.088          48.000  
G10  21175517.695 8 111278160.356 8      1293.957          51.000    21175520.500 8  86710261.295 8      1008.279          51.000  
G20  21157371.750 6 111182749.450 6     -1126.125          40.000    21157370.484 6  86635893.405 6      -877.500          39.000  
G27  20453776.266 6 107485304.547 6       888.246          38.000    20453778.648 6  83754797.349 6       692.140          38.000  
R09  21394419.508 7 114244613.406 7     -3222.480          47.000    21394422.492 7  88856929.854 7     -2506.377          47.000  
R03  22007236.922 4 117806041.350 4     -1603.922          26.000                                                                  
R04  21020693.555 6 112564439.900 6      2184.430          37.000    21020693.555 5  87550133.013 5      1698.998          31.000  
E33  24221771.266 8 127286286.414 8     -1273.828          50.000    24221772.094 8  97531081.396 8      -976.036          49.000  
E31  25598548.609 8 134521271.539 8     -2724.984          51.000    25598553.117 8 103074736.432 8     -2087.970          50.000  
E12                                                                  22120702.297 5  89070886.666 5       706.570          35.000  
E19  27996872.836 6 147124557.499 6      2849.242          40.000    27996876.281 6 112731828.013 6      2183.160          39.000  
C26  24646962.805 7 128343160.929 7     -2567.797          47.000                                                                  
C05  39616560.906 5 206293828.41525        -9.934          34.000                                                                  
C29  23991083.547 5 124927848.972 5     -2248.832          31.000                                                                  
C19  23048723.336 8 120020890.572 8      1691.609          51.000                                                                  
> 2020 05 08 16 09  0.0000000  0 14      -0.000000000000
G26  22865680.359 7 120159921.483 7     -3415.738          44.000    22865683.062 7  93631117.145 7     -2661.618          44.000  
G16  21104971.695 7 110907387.659 7     -2031.016          46.000    21104971.969 7  86421326.022 7     -1582.610          46.000  
G10  21168184.555 8 111239625.173 8      1276.441          51.000    21168187.461 8  86680233.874 8       994.627          51.000  
G20  21163853.078 6 111216809.996 6     -1143.352          38.000    21163851.836 6  86662434.122 6      -890.921          37.000  
G27  20448739.508 6 107458837.968 6       877.102          39.000    20448742.172 6  83734173.992 6       683.453          39.000  
R09  21412572.484 8 114341548.034 8     -3238.516          48.000    21412576.062 7  88932323.427 7     -2518.849          46.000  
R04  21008516.273 5 112499260.256 5      2162.262          32.000    21008519.227 5  87499437.761 5      1681.762          31.000  
E33  24229056.586 8 127324570.817 8     -1277.340          49.000    24229057.625 8  97560416.187 8      -978.679          49.000  
E31  25614128.672 8 134603141.066 8     -2731.754          51.000    25614132.352 8 103137467.542 8     -2093.145          49.000  
E12  22115455.383 5 116217504.309 5       917.238          33.000    22115454.312 5  89049763.516 5       702.505          34.000  
E19  27980611.414 6 147039104.033 6      2848.863          41.000    27980614.141 6 112666350.739 6      2183.082          38.000  
C26  24661778.438 7 128420310.209 7     -2574.320          47.000                                                                  
C05  39616619.531 5 206294133.338 5        -9.160          34.000                                                                  
C19  23039021.359 8 119970367.545 8      1677.840          51.000                                                                  
> 2020 05 08 16 09 30.0000000  0 16      -0.000000000000
G26  22885198.078 7 120262485.968 7     -3422.934          43.000    22885200.312 7  93711037.447 7     -2667.225          43.000  
G16  21116610.273 7 110968554.286 7     -2047.797          47.000    21116611.680 7  86468988.342 7     -1595.686          47.000  
G10  21160946.703 8 111201590.292 8      1258.121          51.000    21160949.773 8  86650596.302 8       980.354          51.000  
G20  21170428.602 7 111251366.198 7     -1161.227          42.000    21170427.547 6  86689361.096 6      -904.849          38.000  
G27  20443763.906 6 107432690.639 6       864.953          39.000    20443765.672 6  83713799.465 6       673.996          38.000  
R09  21430810.016 8 114438932.982 8     -3254.957          49.000    21430813.086 7  89008067.282 7     -2531.637          46.000  
R03  22025484.359 5 117903756.13225     -1652.203          30.000                                                                  
R04  20996463.086 5 112434725.070 5      2139.352          35.000    20996471.961 5  87449243.792 5      1663.940          33.000  
E33  24236357.273 8 127362936.210 8     -1281.508          49.000    24236358.602 8  97589813.050 8      -981.983          50.000  
E31  25629742.273 8 134685188.981 8     -2739.172          51.000    25629745.125 8 103200335.354 8     -2098.901          48.000  
E12  22110233.438 6 116190060.512 6       911.555          36.000    22110231.359 5  89028736.806 5       698.078          35.000  
E19  27964347.609 7 146953637.122 7      2847.598          43.000    27964349.617 6 112600863.217 6      2181.918          39.000  
C26  24676627.727 7 128497634.471 7     -2581.555          47.000                                                                  
C05  39616670.148 5 206294397.58925        -9.105          34.000                                                                  
C20  24547145.102 5 127823327.967 5     -1239.629          35.000                                                                  
C19  23029393.750 8 119920234.487 8      1663.211          51.000                                                                  
> 2020 05 08 16 10  0.0000000  0 14      -0.000000000000
G26  22904742.039 6 120365190.323 6     -3421.949          40.000    22904744.359 6  93791066.734 6     -2666.458          41.000  
G16  21128331.328 8 111030148.819 8     -2056.520          49.000    21128332.688 8  86516984.054 8     -1602.486          48.000  
G10  21153799.047 8 111164029.641 8      1247.840          51.000    21153802.148 8  86621328.264 8       972.343          51.000  
G18  23870470.578 5 125440166.33725     -3153.730          31.000                                                                  
G20  21177093.195 7 111286389.326 7     -1171.477          43.000    21177092.625 6  86716651.840 6      -912.842          39.000  
G27  20438844.172 6 107406836.480 6       860.762          40.000    20438845.312 6  83693653.400 6       670.724          41.000  
R09  21449125.453 8 114536736.266 8     -3263.301          48.000    21449128.188 7  89084136.404 7     -2538.126          44.000  
R04  20984526.586 5 112370809.859 5      2124.090          33.000    20984534.992 4  87399531.982 4      1652.070          28.000  
E33  24243668.109 8 127401354.945 8     -1277.773          48.000    24243669.641 8  97619250.781 8      -979.050          50.000  
E31  25645383.812 8 134767386.234 8     -2738.574          51.000    25645386.102 8 103263317.606 8     -2098.461          48.000  
E12  22105030.711 5 116162717.331 5       913.320          35.000    22105028.766 6  89007785.526 6       699.814          36.000  
E19  27948076.625 7 146868131.503 7      2854.609          44.000    27948077.969 6 112535346.039 6      2187.270          38.000  
C26  24691504.883 7 128575104.310 7     -2581.039          46.000                                                                  
C19  23019836.023 8 119870466.129 8      1656.547          51.000                                                                  
> 2020 05 08 16 10 30.0000000  0 18      -0.000000000000
G26  22924334.758 6 120468152.271 6     -3432.438          39.000    22924337.359 6  93871296.767 6     -2674.630          39.000  
G16  21140157.062 8 111092290.011 8     -2076.438          51.000    21140157.531 8  86565405.736 8     -1618.004          49.000  
G10  21146764.656 8 111127064.628 8      1226.266          51.000    21146767.961 8  86592524.366 8       955.532          51.000  
G18  23888513.797 5 125534982.193 5     -3158.090          33.000                                                                  
G20  21183869.484 7 111321998.039 7     -1192.578          42.000    21183868.664 6  86744398.895 6      -929.279          39.000  
G27  20434003.406 6 107381396.874 6       845.199          41.000    20434004.117 6  83673830.372 6       658.597          41.000  
R09  21467540.922 8 114635075.686 8     -3282.711          49.000    21467543.070 7  89160622.578 7     -2553.220          44.000  
R03  22044265.461 5 118004256.019 5     -1696.848          33.000    22044264.508 4  91781124.208 4     -1319.777          25.000  
R04  20972730.164 5 112307640.571 5      2097.023          35.000    20972737.625 4  87350410.254 4      1631.019          27.000  
E33  24251011.797 7 127439946.848 7     -1285.273          47.000    24251013.484 8  97648821.194 8      -984.794          50.000  
E31  25661076.211 8 134849851.302 8     -2749.227          50.000    25661078.398 8 103326505.065 8     -2106.578          48.000  
E12  22099870.219 5 116135592.695 5       904.598          35.000    22099867.867 6  88987001.685 6       693.107          37.000  
E19  27931821.680 7 146782709.449 7      2850.051          45.000    27931822.422 6 112469892.932 6      2183.947          37.000  
C26  24706432.461 7 128652836.393 7     -2591.422          47.000                                                                  
C05  39616754.625 5 206294836.539 5        -4.598          34.000                                                                  
C29  24043067.070 5 125198561.092 5     -2261.719          31.000                                                                  
C20  24561579.406 5 127898530.80125     -1265.828          30.000                                                                  
C19  23010371.047 8 119821183.304 8      1638.766          50.000                                                                  
> 2020 05 08 16 11  0.0000000  0 18      -0.000000000000
G26  22943967.281 6 120571322.976 6     -3444.391          38.000    22943969.828 6  93951689.485 6     -2683.945          38.000  
G16  21152077.680 8 111154929.546 8     -2098.137          51.000    21152077.516 8  86614215.735 8     -1634.912          49.000  
G10  21139835.062 8 111090650.124 8      1202.801          51.000    21139838.539 8  86564149.446 8       937.248          51.000  
G18  23906565.039 5 125629846.196 5     -3165.387          32.000    23906565.062 4  97893381.436 4     -2466.536          28.000  
G20  21190748.031 6 111358144.972 6     -1215.496          41.000    21190746.984 6  86772565.410 6      -947.137          39.000  
G27  20429232.594 6 107356326.768 6       827.555          41.000    20429233.422 6  83654295.208 6       644.851          40.000  
R09  21486047.023 8 114733899.952 8     -3304.086          49.000    21486049.430 7  89237485.811 7     -2569.848          44.000  
R03  22053862.945 6 118055625.868 6     -1726.117          36.000    22053858.836 4  91821066.489 4     -1342.536          27.000  
R05  23173599.914 6 123875789.331 6      4364.773          37.000    23173607.477 4  96347853.331 4      3394.827          29.000  
R04  20961065.797 5 112245173.154 5      2068.324          34.000    20961075.484 4  87301824.601 4      1608.703          27.000  
E33  24258379.602 7 127478665.264 7     -1294.512          47.000    24258381.266 8  97678488.538 8      -991.965          50.000  
E31  25676810.547 8 134932536.134 8     -2761.766          49.000    25676812.773 8 103389860.898 8     -2116.111          48.000  
E12  22094740.680 5 116108645.238 5       894.047          33.000    22094741.023 6  88966349.799 6       684.849          37.000  
E19  27915574.273 7 146697326.674 7      2843.449          45.000    27915574.633 5 112404469.860 5      2178.811          35.000  
C26  24721401.344 7 128730782.409 7     -2603.598          47.000                                                                  
C05  39616802.680 5 206295087.67025        -9.895          34.000    39616806.977 5 159520465.588 5        -8.014          35.000  
C29  24056128.742 5 125266568.903 5     -2270.883          34.000                                                                  
C19  23000991.094 8 119772341.811 8      1618.812          50.000                                                                  
> 2020 05 08 16 11 30.0000000  0 18      -0.000000000000
G26  22963656.414 6 120674789.357 6     -3445.199          39.000    22963658.734 6  94032312.608 6     -2684.575          39.000  
G16  21164109.664 8 111218154.992 8     -2108.934          51.000    21164108.992 8  86663482.271 8     -1643.325          50.000  
G10  21133027.578 8 111054876.583 8      1190.156          51.000    21133031.117 8  86536273.999 8       927.395          51.000  
G18  23924642.352 5 125724848.267 5     -3161.453          34.000                                                                  
G20  21197745.875 7 111394918.092 7     -1227.973          44.000    21197744.625 5  86801219.765 5      -956.865          35.000  
G27  20424549.305 7 107331716.605 7       821.000          42.000    20424550.477 7  83635118.438 7       639.737          42.000  
R09  21504661.031 8 114833295.403 8     -3314.312          51.000    21504662.266 7  89314793.327 7     -2577.802          42.000  
R03  22063607.812 5 118107809.850 5     -1745.418          31.000                                                                  
R05  23149120.172 6 123744929.135 6      4367.730          38.000    23149127.750 5  96246073.370 5      3397.130          32.000  
R04  20949550.164 5 112183502.291 5      2050.762          35.000                                                                  
E33  24265788.430 7 127517599.142 7     -1293.094          46.000    24265790.086 8  97708320.972 8      -990.804          51.000  
E31  25692603.086 8 135015528.286 8     -2763.223          48.000    25692605.391 8 103453452.224 8     -2117.270          48.000  
E12  22089660.453 5 116081948.267 5       892.832          32.000    22089663.414 5  88945898.218 5       684.657          35.000  
E19  27899351.594 7 146612074.670 7      2847.887          44.000    27899351.852 6 112339146.972 6      2182.163          36.000  
C26  24736427.969 7 128809028.461 7     -2605.004          47.000                                                                  
C05  39616868.578 5 206295430.15225        -4.770          34.000    39616872.711 5 159520729.66925        -3.613          35.000  
C20  24576401.180 5 127975788.46625     -1297.840          30.000                                                                  
C19  22991713.711 8 119724031.871 8      1609.754          50.000                                                                  
> 2020 05 08 16 12  0.0000000  0 17      -0.000000000000
G26  22983361.102 6 120778335.525 6     -3458.305          40.000    22983362.625 6  94112997.866 6     -2694.787          40.000  
G16  21176212.148 8 111281750.905 8     -2131.641          51.000    21176210.906 8  86713037.504 8     -1661.022          50.000  
G10  21126301.844 8 111019531.694 8      1165.324          51.000    21126305.250 8  86508732.532 8       908.045          51.000  
G18  23942705.430 5 125819773.865 5     -3168.145          35.000                                                                  
G20  21204822.016 6 111432102.420 6     -1251.832          41.000    21204820.781 6  86830194.582 6      -975.454          39.000  
G27  20419913.312 7 107307354.025 7       802.375          42.000    20419914.969 7  83616134.585 7       625.224          42.000  
R09  21523340.641 8 114933041.136 8     -3336.457          50.000    21523341.664 7  89392373.273 7     -2595.026          44.000  
R05  23124634.547 5 123614043.086 5      4357.484          34.000    23124643.383 4  96144273.298 4      3389.161          29.000  
R04  20938142.430 5 112122413.442 5      2020.977          34.000    20938146.422 5  87206327.877 5      1571.874          30.000  
E33  24273197.500 7 127556534.595 7     -1303.512          46.000    24273199.273 8  97738154.619 8      -998.759          50.000  
E31  25708412.117 7 135098612.426 7     -2776.574          45.000    25708415.875 8 103517114.088 8     -2127.542          49.000  
E12                                                                  22084591.938 5  88925501.183 5       676.058          33.000  
E19  27883113.258 7 146526742.006 7      2840.203          44.000    27883114.711 6 112273762.319 6      2176.282          38.000  
C26  24751471.352 7 128887360.562 7     -2618.227          46.000                                                                  
C05                                                                  39616915.898 5 159520902.458 5        -8.681          35.000  
C20  24583939.531 5 128015022.158 5     -1319.055          34.000                                                                  
C19  22982498.188 8 119676043.544 8      1588.680          50.000                                                                  
> 2020 05 08 16 12 30.0000000  0 17      -0.000000000000
G26  23003118.281 6 120882156.459 6     -3463.172          39.000    23003118.969 6  94193897.229 6     -2698.579          39.000  
G16  21188422.188 8 111345913.187 8     -2146.070          51.000    21188420.812 8  86763034.067 8     -1672.263          50.000  
G10  21119695.453 8 110984814.013 8      1148.891          51.000    21119698.742 8  86481679.801 8       895.240          51.000  
G18  23960792.078 5 125914819.469 5     -3167.664          35.000                                                                  
G20  21212013.898 7 111469894.418 7     -1267.773          42.000    21212012.734 6  86859642.882 6      -987.879          39.000  
G27  20415362.273 7 107283437.714 7       791.859          43.000    20415364.734 7  83597498.489 7       617.033          43.000  
R09  21542122.414 8 115033333.290 8     -3350.070          50.000    21542123.914 7  89470378.178 7     -2605.614          44.000  
R05  23100182.633 6 123483336.727 6      4355.809          36.000    23100192.992 4  96042612.896 4      3387.852          28.000  
R04  20926881.914 4 112062111.408 4      1998.543          28.000    20926888.094 5  87159426.234 5      1554.420          34.000  
E33  24280644.391 7 127595668.814 7     -1305.684          46.000    24280646.266 8  97768140.579 8     -1000.486          51.000  
E31  25724276.047 7 135181984.385 7     -2781.656          46.000    25724281.969 8 103580996.484 8     -2131.502          50.000  
E12                                                                  22079566.047 5  88905264.049 5       672.727          32.000  
E19  27866897.477 7 146441528.557 7      2840.539          43.000    27866900.336 6 112208468.982 6      2176.560          39.000  
C26  24766568.016 7 128965972.009 7     -2622.938          45.000                                                                  
C05  39616970.008 5 206295958.64125        -9.141          35.000    39616973.906 5 159521136.834 5        -7.476          35.000  
C20  24591582.969 5 128054799.340 5     -1333.129          35.000                                                                  
C19  22973382.422 8 119628574.297 8      1575.664          51.000                                                                  
> 2020 05 08 16 13  0.0000000  0 19      -0.000000000000
G26  23022915.992 6 120986190.617 6     -3468.254          39.000    23022916.500 6  94274962.717 6     -2702.539          39.000  
G16  21200728.141 8 111410581.223 8     -2161.082          51.000    21200727.039 8  86813424.730 8     -1683.961          49.000  
G10  21113197.461 8 110950665.586 8      1131.727          51.000    21113200.531 8  86455070.663 8       881.865          51.000  
G18  23978890.734 5 126009924.888 5     -3168.570          35.000                                                                  
G20  21219309.656 5 111508233.219 5     -1284.086          35.000    21219308.070 6  86889517.289 6     -1000.593          36.000  
G27  20410885.000 7 107259909.812 7       780.734          43.000    20410887.242 7  83579165.055 7       608.365          43.000  
R09  21560994.555 8 115134107.786 8     -3364.176          51.000    21560995.688 7  89548758.283 7     -2616.582          45.000  
R05  23075755.938 5 123352753.955 5      4353.371          32.000    23075766.016 4  95941070.510 4      3385.953          27.000  
R19  20357798.859 5 108900105.598 5     -1553.023          35.000    20357801.188 7  84700094.406 7     -1207.907          43.000  
R04  20915751.570 5 112002507.14525      1976.367          32.000    20915761.414 5  87113107.42625      1537.175          34.000  
E33  24288118.016 7 127634942.393 7     -1308.523          45.000    24288119.867 8  97798233.320 8     -1002.617          50.000  
E31  25740184.688 8 135265583.354 8     -2787.445          48.000    25740191.852 8 103645052.800 8     -2135.860          51.000  
E12  22074579.008 5 116002694.462 5       873.418          34.000    22074576.930 5  88885179.344 5       669.344          33.000  
E19  27850693.297 6 146356377.094 6      2840.246          41.000    27850696.516 6 112143223.087 6      2176.381          41.000  
