     3.04           OBSERVATION DATA    M (MIXED)           RINEX VERSION / TYPE
Convert 2.6.2       NovAtel             20200515 161546 UTC PGM / RUN BY / DATE 
Rinex Version 3.04 Observation File                         COMMENT             
                                                            MARKER NAME         
                                                            MARKER NUMBER       
                                                            MARKER TYPE         
                                                            OBSERVER / AGENCY   
                    NovAtel GPSCard                         REC # / TYPE / VERS 
                                                            ANT # / TYPE        
        0.0000        0.0000        0.0000                  APPROX POSITION XYZ 
        0.0000        0.0000        0.0000                  ANTENNA: DELTA H/E/N
G    8 C1C L1C D1C S1C C2W L2W D2W S2W                      SYS / # / OBS TYPES 
R    8 C1C L1C D1C S1C C2P L2P D2P S2P                      SYS / # / OBS TYPES 
E    8 C1C L1C D1C S1C C7Q L7Q D7Q S7Q                      SYS / # / OBS TYPES 
C    4 C2I L2I D2I S2I                                      SYS / # / OBS TYPES 
DBHZ                                                        SIGNAL STRENGTH UNIT
    30.000                                                  INTERVAL            
  2020    05    14    10    00    0.0000000     GPS         TIME OF FIRST OBS   
  2020    05    14    10    59   30.0000000     GPS         TIME OF LAST OBS    
G L1C  0.00000  08 G06 G12 G32 G24 G25 G29 G02 G14          SYS / PHASE SHIFT   
G L2W  0.00000  08 G06 G12 G32 G24 G25 G29 G02 G14          SYS / PHASE SHIFT   
R L1C  0.00000  07 R23 R11 R22 R12 R21 R24 R13              SYS / PHASE SHIFT   
R L2P  0.25000  07 R23 R11 R22 R12 R21 R24 R13              SYS / PHASE SHIFT   
E L1C  0.50000  06 E31 E09 E33 E26 E01 E12                  SYS / PHASE SHIFT   
E L7Q -0.25000  06 E31 E09 E33 E01 E12 E26                  SYS / PHASE SHIFT   
C L2I  0.00000  02 C29 C30                                  SYS / PHASE SHIFT   
  7 R23  3 R11  0 R22 -3 R12 -1 R21  4 R24  2 R13 -2        GLONASS SLOT / FRQ #
 C1C  -71.950 C2C  -71.950 C2P  -71.950                     GLONASS COD/PHS/BIS 
     0     0     0     0GPS                                 LEAP SECONDS        
                                                            END OF HEADER       
> 2020 05 14 10 00  0.0000000  0 15      -0.000000000000
G06  24026040.672 5 126257698.812 5     -1887.750          33.000    24026046.688 5  98382636.135 5     -1470.974          34.000  
G12  20990943.508 6 110308147.777 6     -1819.180          38.000    20990942.305 6  85954392.276 6     -1417.543          37.000  
G32  22544243.906 7 118470794.050 7     -1597.762          42.000    22544247.727 6  92314924.189 6     -1245.013          39.000  
G24  23349316.977 7 122701459.147 7     -3460.004          44.000    23349316.758 7  95611521.824 7     -2696.111          44.000  
G25  20149080.914 8 105884106.912 8       -35.812          51.000    20149082.766 8  82507117.645 8       -27.906          51.000  
G29  21088929.508 8 110823094.617 8      2202.074          49.000    21088929.828 8  86355638.661 8      1715.902          49.000  
R23  21391653.953 7 114430582.283 7      4038.133          45.000    21391663.102 6  89001559.760 6      3140.774          40.000  
R11  22873972.016 5 122231163.997 5     -3277.020          31.000    22873980.180 4  95068733.53724     -2548.793          25.000  
R22  19499660.930 8 104090148.632 8      -475.176          51.000    19499663.289 8  80959004.619 8      -369.578          49.000  
R12  19661279.109 8 105026620.032 8      -949.043          50.000    19661283.477 8  81687379.630 8      -738.148          49.000  
E31  23503873.711 8 123513683.896 8       155.680          51.000    23503877.094 8  94640364.599 8       119.284          51.000  
E09  25314853.977 7 133030425.495 7     -2553.582          47.000    25314854.781 7 101932411.443 7     -1956.756          44.000  
E33  24446218.641 8 128465758.405 8      1428.207          51.000    24446218.914 8  98434806.841 8      1094.377          51.000  
C29  21808926.523 8 113564813.344 8      1097.203          50.000  
C30  23242866.047 6 121031688.568 6     -2103.988          40.000  
> 2020 05 14 10 00 30.0000000  0 15      -0.000000000000
G02  22956850.516 5 120639076.56425      -475.062          34.000                                                                  
G12  21001351.594 6 110362843.148 6     -1827.797          38.000    21001350.438 6  85997011.998 6     -1424.258          38.000  
G32  22553411.555 7 118518968.112 7     -1614.832          43.000    22553414.047 6  92352462.389 6     -1258.314          39.000  
G24  23369086.781 7 122805352.974 7     -3466.902          43.000    23369085.875 7  95692477.952 7     -2701.486          44.000  
G25  20149318.289 8 105885354.426 8       -48.203          51.000    20149320.086 8  82508089.726 8       -37.558          51.000  
G29  21076399.766 8 110757253.123 8      2186.414          50.000    21076400.562 8  86304333.602 8      1703.700          50.000  
R23  21369044.266 7 114309633.713 7      4024.246          46.000    21369052.859 6  88907488.695 6      3129.973          39.000  
R22  19502409.828 8 104104822.199 8      -503.938          51.000    19502412.945 8  80970417.407 8      -391.951          50.000  
R12  19666652.844 8 105055326.516 8      -965.488          51.000    19666657.180 8  81709706.908 8      -750.935          48.000  
E31  23503003.188 8 123509109.251 8       148.527          51.000    23503006.680 8  94636859.350 8       113.813          51.000  
E09  25329445.008 7 133107103.567 7     -2559.031          46.000    25329446.484 7 101991164.726 7     -1960.683          44.000  
E33  24438104.492 8 128423118.041 8      1413.734          51.000    24438104.516 8  98402134.404 8      1083.219          51.000  
E26  24675524.391 5 129670746.015 5     -1364.559          34.000                                                                  
C29  21802651.281 8 113532133.335 8      1080.598          51.000  
C30  23255021.586 6 121094983.742 6     -2116.277          38.000  
> 2020 05 14 10 01  0.0000000  0 14      -0.000000000000
G12  21011811.141 6 110417808.310 6     -1835.242          40.000    21011810.391 6  86039841.964 6     -1430.059          41.000  
G32  22562674.047 7 118567638.890 7     -1629.340          44.000    22562674.891 6  92390387.731 6     -1269.613          39.000  
G24  23388893.188 7 122909438.733 7     -3471.363          45.000    23388892.586 7  95773583.650 7     -2704.962          45.000  
G25  20149623.703 8 105886959.526 8       -58.301          51.000    20149625.438 8  82509340.451 8       -45.429          51.000  
G29  21063957.383 8 110691867.786 8      2173.133          51.000    21063958.000 8  86253384.007 8      1693.351          51.000  
R23  21346510.500 8 114189090.741 8      4012.496          48.000    21346517.891 6  88813733.121 6      3120.834          38.000  
R22  19505316.930 8 104120340.916 8      -530.074          51.000    19505320.195 8  80982487.533 8      -412.283          50.000  
R12  19672115.961 8 105084509.038 8      -979.484          51.000    19672119.875 8  81732404.423 8      -761.821          49.000  
E01                                                                  25817936.367 5 103958113.216 5     -1451.200          35.000  
E31  23502170.719 8 123504733.970 8       143.801          51.000    23502174.039 8  94633506.856 8       110.215          51.000  
E09  25344063.188 7 133183926.607 7     -2561.828          46.000    25344065.656 7 102050029.142 7     -1962.885          44.000  
E33  24430069.938 8 128380896.908 8      1401.688          51.000    24430070.523 8  98369783.193 8      1074.030          51.000  
C29  21796468.172 8 113499931.955 8      1066.680          51.000  
C30  23267244.836 6 121158633.682 6     -2126.422          39.000  
> 2020 05 14 10 01 30.0000000  0 14      -0.000000000000
G12  21022318.438 6 110473024.769 6     -1843.965          39.000    21022317.781 6  86082867.730 6     -1436.856          38.000  
G32  22572027.391 7 118616786.263 7     -1645.961          44.000    22572027.828 7  92428684.391 7     -1282.567          43.000  
G24  23408733.117 7 123013697.354 7     -3477.961          47.000    23408733.523 7  95854824.076 7     -2710.103          46.000  
G25  20149993.797 8 105888904.292 8       -70.281          51.000    20149995.516 8  82510855.847 8       -54.765          51.000  
G29  21051599.000 8 110626921.708 8      2157.680          51.000    21051599.016 8  86202776.702 8      1681.312          51.000  
R23  21324050.195 8 114068938.931 8      3998.707          49.000    21324055.992 6  88720281.800 6      3110.109          38.000  
R22  19508378.703 8 104136685.230 8      -558.398          51.000    19508381.906 8  80995199.791 8      -434.310          50.000  
R12  19677664.898 8 105114150.005 8      -995.621          51.000    19677668.781 8  81755458.491 8      -774.372          49.000  
E01                                                                  25828760.617 6 104001710.433 6     -1454.750          37.000  
E31  23501372.891 8 123500540.595 8       136.848          51.000    23501376.086 8  94630293.754 8       104.845          51.000  
E09  25358705.297 7 133260874.675 7     -2566.895          46.000    25358708.312 7 102108989.352 7     -1966.821          44.000  
E33  24422111.602 8 128339078.098 8      1387.391          50.000    24422112.781 8  98337740.250 8      1063.006          51.000  
C29  21790373.508 8 113468191.837 8      1050.469          51.000  
C30  23279532.523 6 121222618.705 6     -2138.258          40.000  
> 2020 05 14 10 02  0.0000000  0 16      -0.000000000000
G02  22965418.078 5 120684085.75125      -525.246          30.000                                                                  
G12  21032866.766 5 110528458.054 5     -1853.781          35.000    21032866.406 5  86126062.502 5     -1444.508          35.000  
G32  22581464.281 7 118666374.138 7     -1662.500          44.000    22581465.242 7  92467324.255 7     -1295.458          44.000  
G24  23428599.156 7 123118092.728 7     -3484.344          47.000    23428600.969 7  95936171.059 7     -2715.074          47.000  
G25  20150422.109 8 105891154.730 8       -82.355          51.000    20150423.828 8  82512609.435 8       -64.173          51.000  
G29  21039318.086 8 110562382.113 8      2142.336          51.000    21039317.266 8  86152486.136 8      1669.356          51.000  
R21  22870676.648 5 122385165.179 5     -3978.945          34.000    22870679.008 5  95188458.622 5     -3094.739          30.000  
R23  21301657.281 8 113949147.330 8      3984.801          50.000    21301662.352 6  88627110.630 6      3099.293          39.000  
R22  19511588.539 8 104153818.990 8      -586.461          51.000    19511591.500 8  81008526.049 8      -456.139          50.000  
R12  19683293.500 8 105144215.453 8     -1011.539          51.000    19683297.164 8  81778842.702 8      -786.753          49.000  
E01  25839598.578 5 135788002.696 5     -1903.379          33.000    25839605.258 6 104045377.909 6     -1458.506          37.000  
E31  23500603.211 8 123496495.704 8       130.207          51.000    23500606.430 8  94627194.414 8        99.769          51.000  
E09  25373364.750 7 133337911.843 7     -2571.480          46.000    25373367.781 7 102168017.819 7     -1970.258          44.000  
E33  24414223.477 8 128297628.661 8      1373.340          50.000    24414225.234 8  98305980.294 8      1052.336          51.000  
C29  21784360.969 8 113436879.798 8      1034.457          51.000  
C30  23291878.094 6 121286903.199 6     -2150.047          38.000  
> 2020 05 14 10 02 30.0000000  0 15      -0.000000000000
G12  21043474.125 6 110584193.399 6     -1858.918          36.000    21043473.391 6  86169499.979 6     -1448.511          37.000  
G32  22591000.531 7 118716484.534 7     -1675.617          44.000    22591002.086 7  92506371.288 7     -1305.676          43.000  
G24  23448506.914 7 123222707.493 7     -3487.508          47.000    23448509.945 7  96017689.008 7     -2717.542          46.000  
G25  20150924.648 8 105893795.288 8       -91.262          51.000    20150926.312 8  82514667.013 8       -71.113          51.000  
G29  21027130.672 8 110498334.718 8      2130.016          51.000    21027129.117 8  86102579.083 8      1659.753          51.000  
R21  22893010.812 5 122504678.029 5     -3986.223          34.000    22893012.508 5  95281413.033 5     -3100.396          30.000  
R23  21279348.438 8 113829805.657 8      3973.859          51.000    21279353.086 6  88534289.374 6      3090.780          40.000  
R22  19514961.969 8 104171826.743 8      -611.453          51.000    19514965.094 8  81022532.101 8      -475.575          50.000  
R12  19689017.625 8 105174791.713 8     -1024.426          51.000    19689021.133 8  81802624.209 8      -796.776          49.000  
E01                                                                  25850483.070 6 104089180.442 6     -1459.844          37.000  
E31  23499877.914 8 123492684.215 8       126.441          51.000    23499881.125 8  94624273.918 8        96.896          51.000  
E09  25388057.094 7 133415120.487 7     -2573.168          47.000    25388060.258 7 102227177.673 7     -1971.709          45.000  
E33  24406422.156 8 128256634.017 8      1362.105          50.000    24406424.398 8  98274568.814 8      1043.734          51.000  
C29  21778446.602 8 113406079.921 8      1021.332          51.000  
C30  23304297.117 6 121351568.781 6     -2158.141          37.000  
> 2020 05 14 10 03  0.0000000  0 15      -0.000000000000
G12  21054124.734 6 110640159.912 6     -1869.758          41.000    21054122.195 7  86213110.274 7     -1456.952          42.000  
G32  22600623.086 7 118767048.801 7     -1693.191          45.000    22600623.867 7  92545772.017 7     -1319.370          43.000  
G24  23468443.305 7 123327473.276 7     -3494.988          46.000    23468447.156 7  96099324.625 7     -2723.368          46.000  
G25  20151488.727 8 105896759.475 8      -104.547          51.000    20151490.359 8  82516976.763 8       -81.465          51.000  
G29  21015023.891 8 110434713.967 8      2113.281          50.000    21015022.227 8  86053004.474 8      1646.713          50.000  
R21  22915394.805 5 122624468.043 5     -3997.949          33.000    22915396.969 4  95374583.041 4     -3109.517          29.000  
R23  21257111.633 8 113710850.359 8      3958.422          51.000    21257115.742 6  88441768.633 6      3078.773          41.000  
R22  19518486.133 8 104190639.296 8      -640.828          51.000    19518489.078 8  81037164.107 8      -498.422          50.000  
R12  19694824.797 8 105205811.547 8     -1041.738          51.000    19694828.070 8  81826750.737 8      -810.241          49.000  
E01  25861381.039 6 135902466.552 6     -1910.930          36.000    25861382.398 6 104133067.139 6     -1464.666          37.000  
E31  23499184.477 8 123489040.176 8       118.441          51.000    23499187.695 8  94621481.733 8        90.736          51.000  
E09  25402769.031 7 133492432.081 7     -2578.984          46.000    25402772.617 7 102286416.374 7     -1976.136          46.000  
E33  24398694.766 8 128216028.535 8      1346.820          50.000    24398697.508 8  98243455.546 8      1031.995          51.000  
C29  21772617.578 8 113375726.697 8      1004.070          51.000  
C30  23316776.281 6 121416547.910 6     -2171.594          40.000  
> 2020 05 14 10 03 30.0000000  0 16      -0.000000000000
G12  21064824.688 6 110696392.463 6     -1878.496          39.000    21064822.094 6  86256927.871 6     -1463.764          39.000  
G32  22610337.789 7 118818098.220 7     -1709.574          45.000    22610337.867 7  92585550.789 7     -1332.136          42.000  
G24  23488414.008 7 123432422.059 7     -3501.133          44.000    23488418.852 7  96181102.890 7     -2728.156          44.000  
G25  20152120.703 8 105900080.837 8      -116.379          51.000    20152122.320 8  82519564.831 8       -90.685          51.000  
G29  21003004.469 8 110371554.773 8      2097.734          49.000    21003003.281 8  86003789.510 8      1634.599          49.000  
R21  22937831.781 5 122744587.616 5     -4007.887          31.000    22937839.164 4  95468025.292 4     -3117.243          28.000  
R23  21234953.789 8 113592319.120 8      3944.188          51.000    21234957.633 6  88349577.726 6      3067.705          41.000  
R11  23003816.750 5 122925031.088 5     -3331.035          30.000                                                                  
R22  19522167.445 8 104210289.302 8      -668.754          51.000    19522170.055 8  81052447.456 8      -520.142          50.000  
R12  19700721.398 8 105237310.072 8     -1057.680          51.000    19700724.984 8  81851249.559 8      -822.640          49.000  
E01  25872315.000 6 135959885.689 6     -1916.191          38.000    25872309.391 5 104177063.670 5     -1468.012          33.000  
E31  23498529.391 8 123485597.630 8       111.520          51.000    23498532.695 8  94618843.934 8        85.495          51.000  
E09  25417506.461 7 133569878.102 7     -2583.547          45.000    25417510.633 7 102345758.081 7     -1979.650          47.000  
E33  24391048.242 8 128175846.786 8      1332.480          51.000    24391051.227 8  98212666.957 8      1021.055          51.000  
C29  21766880.656 8 113345853.782 8       988.020          51.000  
C30  23329321.641 6 121481871.792 6     -2182.867          39.000  
> 2020 05 14 10 04  0.0000000  0 17      -0.000000000000
G02  22978175.992 5 120751153.58725      -593.094          35.000                                                                  
G06  24115305.453 5 126726785.225 5     -2019.035          35.000    24115311.070 5  98748163.981 5     -1573.275          34.000  
G12  21075572.953 6 110752879.761 6     -1886.074          36.000    21075572.219 6  86300943.887 6     -1469.672          36.000  
G32  22620142.133 7 118869619.963 7     -1724.691          42.000    22620141.508 7  92625697.570 7     -1343.916          42.000  
G24  23508416.211 7 123537541.600 7     -3506.164          42.000    23508423.062 7  96263014.240 7     -2732.077          42.000  
G25  20152818.586 8 105903748.841 8      -127.391          51.000    20152820.211 8  82522423.022 8       -99.265          51.000  
G29  20991071.367 8 110308847.425 8      2083.402          50.000    20991070.531 8  85954926.671 8      1623.431          50.000  
R21  22960326.664 5 122864977.738 5     -4017.527          32.000    22960337.906 4  95561662.074 4     -3124.741          27.000  
R23  21212873.188 8 113474204.945 8      3930.734          50.000    21212877.289 6  88257711.189 6      3057.239          41.000  
R22  19526003.047 8 104230764.395 8      -695.586          51.000    19526005.469 8  81068372.536 8      -541.011          50.000  
R12  19706705.773 8 105269276.796 8     -1072.664          51.000    19706709.188 7  81876112.563 7      -834.291          47.000  
E01  25883267.742 5 136017437.763 5     -1919.461          33.000                                                                  
E31  23497910.805 8 123482346.577 8       105.805          51.000    23497914.148 8  94616352.869 8        81.038          51.000  
E09  25432266.750 7 133647445.990 7     -2586.809          43.000    25432271.789 7 102405193.171 7     -1982.230          47.000  
E33  24383481.125 8 128136079.156 8      1319.262          51.000    24383483.875 8  98182195.684 8      1010.905          51.000  
C29  21761233.859 8 113316451.107 8       972.961          51.000  
C30  23341930.641 5 121547528.000 5     -2193.613          34.000  
> 2020 05 14 10 04 30.0000000  0 16      -0.000000000000
G06  24126882.281 6 126787626.891 6     -2035.926          36.000    24126891.172 6  98795573.020 6     -1586.439          36.000  
G12  21086368.492 5 110809611.510 5     -1894.332          35.000    21086368.039 5  86345150.368 5     -1476.100          35.000  
G32  22630033.078 6 118921601.999 6     -1740.383          39.000    22630033.719 6  92666203.000 6     -1356.146          39.000  
G24  23528449.695 7 123642819.867 7     -3511.711          46.000    23528457.391 7  96345049.241 7     -2736.399          46.000  
G25  20153580.641 8 105907753.755 8      -138.754          51.000    20153582.289 8  82525543.731 8      -108.120          51.000  
G29  20979222.898 8 110246583.266 8      2068.359          51.000    20979222.141 8  85906409.200 8      1611.712          51.000  
R21  22982876.031 5 122985646.630 5     -4026.734          32.000    22982889.180 4  95655538.645 4     -3131.908          26.000  
R23  21190869.070 8 113356501.533 8      3916.902          49.000    21190873.930 6  88166164.151 6      3046.480          41.000  
R22  19529991.328 8 104252053.220 8      -722.887          51.000    19529993.547 8  81084930.523 8      -562.245          50.000  
R12  19712775.961 8 105301702.390 8     -1088.172          51.000    19712779.172 8  81901332.463 8      -846.356          48.000  
E01  25894234.539 5 136075111.492 5     -1923.961          33.000                                                                  
E31  23497326.875 8 123479277.798 8        99.566          51.000    23497330.203 8  94614001.469 8        76.273          51.000  
E09  25447048.102 7 133725124.002 7     -2590.758          43.000    25447053.680 7 102464712.647 7     -1985.220          47.000  
E33  24375991.219 8 128096716.886 8      1305.566          51.000    24375993.617 8  98152035.014 8      1000.367          51.000  
C29  21755675.516 8 113287509.391 8       957.301          51.000  
C30  23354595.875 4 121613508.68024     -2203.445          28.000  
> 2020 05 14 10 05  0.0000000  0 17      -0.000000000000
G06  24138554.469 6 126848966.000 6     -2051.602          37.000    24138565.789 5  98843369.650 5     -1598.657          33.000  
G12  21097214.297 6 110866607.884 6     -1903.023          36.000    21097213.867 6  86389563.115 6     -1482.873          36.000  
G32  22640014.414 5 118974062.918 5     -1755.422          35.000    22640016.055 5  92707081.658 5     -1367.859          35.000  
G24  23548518.016 8 123748276.015 8     -3517.012          48.000    23548525.359 8  96427222.833 8     -2740.532          48.000  
G25  20154410.773 8 105912116.564 8      -150.289          51.000    20154412.633 8  82528943.324 8      -117.108          51.000  
G29  20967463.188 8 110184784.390 8      2053.297          51.000    20967462.117 8  85858254.248 8      1599.969          51.000  
R21  23005482.281 5 123106611.855 5     -4035.762          33.000    23005495.391 4  95749626.666 4     -3138.929          25.000  
R23  21168946.602 8 113239234.114 8      3902.852          48.000    21168952.094 6  88074956.225 6      3035.555          41.000  
R11  23060097.688 5 123225790.171 5     -3351.691          33.000                                                                  
R22  19534135.633 8 104274175.518 8      -750.125          51.000    19534137.734 8  81102136.767 8      -583.431          51.000  
R12  19718935.961 8 105334608.768 8     -1103.773          51.000    19718939.602 8  81926926.289 8      -858.491          48.000  
E01  25905239.625 6 136132931.285 6     -1928.402          37.000                                                                  
E31  23496781.680 8 123476412.836 8        93.207          51.000    23496784.977 8  94611806.243 8        71.439          51.000  
E09  25461854.531 7 133802931.145 7     -2594.547          45.000    25461859.961 7 102524331.053 7     -1988.013          47.000  
E33  24368582.531 8 128057781.856 8      1291.848          51.000    24368584.430 8  98122201.723 8       989.828          51.000  
C29  21750209.531 8 113259049.803 8       941.754          51.000  
C30  23367336.359 6 121679828.296 6     -2215.117          36.000  
> 2020 05 14 10 05 30.0000000  0 17      -0.000000000000
G06  24150316.766 6 126910777.819 6     -2067.883          36.000    24150323.859 5  98891555.544 5     -1611.338          33.000  
G12  21108105.891 5 110923845.517 5     -1911.785          34.000    21108106.180 5  86434163.792 5     -1489.706          34.000  
G32  22650082.461 6 119026977.787 6     -1771.324          38.000    22650084.664 6  92748313.990 6     -1380.256          38.000  
G24  23568615.727 8 123853885.906 8     -3522.621          49.000    23568622.117 8  96509516.192 8     -2744.900          49.000  
G25  20155304.758 8 105916814.535 8      -161.914          51.000    20155306.797 8  82532604.090 8      -126.167          51.000  
G29  20955787.727 8 110123429.275 8      2037.988          51.000    20955786.445 8  85810445.052 8      1588.043          51.000  
R21  23028139.898 5 123227846.043 5     -4045.320          34.000                                                                  
R23  21147102.102 7 113122383.521 7      3888.285          47.000    21147108.125 6  87984072.497 6      3024.225          40.000  
R11  23078934.258 5 123326466.012 5     -3358.695          30.000                                                                  
R22  19538431.172 8 104297106.171 8      -777.586          51.000    19538433.453 8  81119971.721 8      -604.789          51.000  
R12  19725181.859 8 105367973.362 8     -1119.566          51.000    19725185.391 8  81952876.518 8      -870.774          48.000  
E01  25916264.820 5 136190891.739 5     -1932.633          32.000                                                                  
E31  23496271.062 8 123473729.471 8        86.707          51.000    23496274.289 8  94609750.162 8        66.444          51.000  
E09  25476681.211 7 133880842.640 7     -2598.453          46.000    25476686.000 7 102584029.413 7     -1991.110          47.000  
E33  24361250.977 8 128019252.287 8      1277.797          51.000    24361252.617 8  98092679.098 8       979.110          51.000  
C29  21744831.836 8 113231050.132 8       925.867          51.000  
C30  23380133.391 6 121746460.082 6     -2226.152          37.000  
> 2020 05 14 10 06  0.0000000  0 16      -0.000000000000
G02  22992517.617 5 120826501.715 5      -662.793          33.000                                                                  
G06  24162171.508 5 126973075.397 5     -2085.383          34.000    24162177.422 5  98940099.095 5     -1624.974          33.000  
G12  21119046.086 5 110981338.682 5     -1921.812          35.000    21119046.984 6  86478963.701 6     -1497.517          36.000  
G32  22660240.117 6 119080359.197 6     -1787.840          41.000    22660242.383 6  92789909.869 6     -1393.122          41.000  
G24  23588745.102 8 123959662.647 8     -3529.297          50.000    23588748.836 8  96591939.513 8     -2750.108          49.000  
G25  20156265.375 8 105921862.622 8      -174.723          51.000    20156267.430 8  82536537.667 8      -136.148          51.000  
G29  20944199.742 8 110062533.824 8      2021.664          51.000    20944198.242 8  85762994.051 8      1575.323          51.000  
R21  23050851.023 5 123349360.589 5     -4056.078          34.000                                                                  
R23  21125338.945 7 113005968.246 7      3872.520          47.000    21125345.461 6  87893527.323 6      3011.960          40.000  
R22  19542880.625 8 104320858.919 8      -806.094          51.000    19542883.094 8  81138446.086 8      -626.962          50.000  
R12  19731516.359 8 105401811.807 8     -1136.426          51.000    19731519.922 8  81979195.307 8      -883.887          48.000  
E31  23495797.992 8 123471243.200 8        78.965          51.000    23495801.164 8  94607845.099 8        60.497          51.000  
E09  25491530.297 7 133958871.403 7     -2603.520          46.000    25491534.297 7 102643817.596 7     -1994.849          47.000  
E33  24353999.414 8 127981144.017 8      1262.625          51.000    24354001.227 8  98063479.288 8       967.454          51.000  
C29  21739545.969 8 113203525.529 8       908.926          51.000  
C30  23392991.188 5 121813419.975 5     -2238.098          35.000  
> 2020 05 14 10 06 30.0000000  0 15      -0.000000000000
G06  24174117.656 5 127035852.571 5     -2102.191          35.000    24174124.664 5  98989016.460 5     -1638.066          33.000  
G12  21130034.188 5 111039082.838 5     -1930.008          32.000    21130035.297 5  86523959.146 5     -1503.906          30.000  
G32  22670485.492 7 119134200.627 7     -1803.551          42.000    22670488.188 7  92831864.187 7     -1405.365          42.000  
G24  23608904.922 8 124065599.990 8     -3535.051          50.000    23608902.992 8  96674487.908 8     -2754.592          48.000  
G25  20157291.875 8 105927256.750 8      -186.770          51.000    20157293.805 8  82540740.887 8      -145.535          51.000  
G29  20932698.727 8 110002094.991 8      2005.848          51.000    20932697.148 8  85715898.888 8      1562.999          51.000  
R21  23073613.969 4 123471147.331 4     -4065.402          29.000                                                                  
R23  21103657.367 7 112889988.095 7      3857.398          47.000    21103664.180 6  87803320.573 6      3000.202          40.000  
R22  19547483.281 8 104345427.832 8      -833.645          51.000    19547485.742 8  81157555.227 8      -648.390          51.000  
R12  19737938.922 8 105436120.395 8     -1152.566          51.000    19737942.562 8  82005879.746 8      -896.441          49.000  
E31  23495361.766 8 123468950.463 8        72.039          51.000    23495364.867 8  94606088.326 8        55.199          51.000  
E09  25506400.336 7 134037011.306 7     -2607.703          46.000    25506403.773 7 102703690.948 7     -1998.120          47.000  
E33  24346827.039 8 127943453.822 8      1248.172          51.000    24346828.898 8  98034599.815 8       956.407          51.000  
C29  21734350.828 8 113176472.186 8       892.766          51.000  
C30  23405909.305 5 121880701.812 5     -2249.727          30.000  
> 2020 05 14 10 07  0.0000000  0 14      -0.000000000000
G06  24186160.805 5 127099139.615 5     -2115.875          34.000    24186167.586 5  99038330.986 5     -1648.737          34.000  
G12  21141076.281 5 111097105.658 5     -1937.273          33.000    21141077.016 5  86569174.816 5     -1509.561          33.000  
G32  22680824.625 6 119188532.041 6     -1817.363          40.000    22680828.734 6  92874200.302 6     -1416.128          40.000  
G24  23629101.023 8 124171728.903 8     -3538.742          50.000    23629097.984 8  96757185.648 8     -2757.465          49.000  
G25  20158390.328 8 105933029.190 8      -196.738          51.000    20158392.227 8  82545238.887 8      -153.303          51.000  
G29  20921290.820 8 109942146.183 8      1992.086          50.000    20921289.391 8  85669185.565 8      1552.275          50.000  
R23  21082064.414 8 112774479.841 8      3844.453          48.000    21082071.266 6  87713480.869 6      2990.134          39.000  
R22  19552244.281 8 104370843.864 8      -859.172          51.000    19552247.141 8  81177323.263 8      -668.245          50.000  
R12  19744455.562 8 105470932.523 8     -1166.707          51.000    19744459.469 8  82032955.827 8      -907.442          49.000  
E31  23494968.641 8 123466884.097 8        67.230          51.000    23494971.570 8  94604505.011 8        51.463          51.000  
E09  25521297.031 7 134115292.652 7     -2609.676          45.000    25521300.219 7 102763672.676 7     -1999.479          47.000  
E33  24339740.188 8 127906214.891 8      1235.922          50.000    24339742.242 8  98006066.112 8       947.009          51.000  
C29  21729252.461 8 113149922.432 8       878.609          51.000  
C30  23418897.375 5 121948335.794 5     -2258.281          35.000  
> 2020 05 14 10 07 30.0000000  0 14      -0.000000000000
G06  24198283.086 5 127162835.803 5     -2131.910          31.000    24198288.852 4  99087970.621 4     -1661.226          29.000  
G12  21152154.328 5 111155320.94625     -1945.285          30.000    21152154.000 5  86614533.66525     -1515.807          32.000  
G32  22691239.547 7 119243260.280 7     -1832.680          42.000    22691244.367 7  92916845.674 7     -1428.066          43.000  
G24  23649315.781 8 124277956.245 8     -3544.246          49.000    23649314.453 8  96839960.115 8     -2761.751          49.000  
G25  20159543.477 8 105939089.234 8      -208.516          51.000    20159545.367 8  82549960.999 8      -162.480          51.000  
G29  20909958.984 8 109882597.319 8      1976.566          51.000    20909957.992 8  85622783.905 8      1540.185          51.000  
R23  21060543.234 8 112659354.451 8      3829.336          48.000    21060549.406 6  87623938.960 6      2978.376          36.000  
R22  19557146.547 8 104397012.687 8      -886.621          51.000    19557149.625 8  81197676.767 8      -689.594          50.000  
R12  19751049.555 8 105506156.336 8     -1182.691          51.000    19751053.516 8  82060352.136 8      -919.871          50.000  
E31  23494601.430 8 123464953.919 8        60.383          51.000    23494604.156 8  94603026.041 8        46.255          51.000  
E09  25536202.367 7 134193622.607 7     -2613.617          44.000    25536206.078 7 102823691.717 7     -2002.541          47.000  
E33  24332722.305 8 127869337.395 8      1221.500          50.000    24332724.758 8  97977809.351 8       935.991          51.000  
C29  21724233.742 8 113123786.712 8       862.598          51.000  
C30  23431935.758 6 122016230.240 6     -2269.172          36.000  
> 2020 05 14 10 08  0.0000000  0 14      -0.000000000000
G12  21163285.516 5 111213785.274 5     -1952.645          33.000    21163284.234 5  86660108.662 5     -1521.545          33.000  
G32  22701743.211 7 119298455.785 7     -1846.984          44.000    22701747.711 7  92959855.167 7     -1439.209          43.000  
G24  23669562.961 8 124384353.549 8     -3548.668          49.000    23669563.234 8  96922867.055 8     -2765.197          49.000  
G25  20160765.156 8 105945509.705 8      -219.480          51.000    20160767.086 8  82554963.961 8      -171.024          51.000  
G29  20898717.273 8 109823522.430 8      1961.867          50.000    20898716.750 8  85576751.556 8      1528.731          50.000  
R23  21039107.789 8 112544689.620 8      3815.035          48.000    21039112.984 5  87534755.286 5      2967.253          35.000  
R22  19562203.180 8 104424006.926 8      -912.906          51.000    19562206.555 8  81218672.290 8      -710.038          49.000  
R12  19757734.367 8 105541866.297 8     -1197.770          51.000    19757738.539 8  82088126.540 8      -931.599          50.000  
E01  25971769.367 5 136482567.767 5     -1954.559          30.000    25971779.984 6 104577584.606 6     -1498.057          36.000  
E31  23494274.078 8 123463233.256 8        54.422          51.000    23494276.609 8  94601707.611 8        41.703          51.000  
E09  25551130.195 7 134272072.061 7     -2616.367          44.000    25551134.734 7 102883802.307 7     -2004.678          46.000  
E33  24325787.516 8 127832894.961 8      1208.164          51.000    24325789.977 8  97949885.959 8       925.698          51.000  
C29  21719308.305 8 113098137.362 8       847.484          51.000  
C30  23445036.688 5 122084455.263 5     -2279.828          31.000  
> 2020 05 14 10 08 30.0000000  0 15      -0.000000000000
G12  21174455.945 6 111272486.306 6     -1960.094          36.000    21174455.344 5  86705849.661 5     -1527.349          35.000  
G32  22712327.242 7 119354073.841 7     -1861.324          43.000    22712329.938 7  93003193.866 7     -1450.386          43.000  
G24  23689833.852 7 124490876.485 7     -3553.238          47.000    23689835.242 7  97005871.918 7     -2768.761          47.000  
G25  20162047.406 8 105952248.210 8      -230.363          51.000    20162049.359 8  82560214.738 8      -179.504          51.000  
G29  20887557.555 8 109764880.245 8      1946.977          49.000    20887557.359 8  85531056.357 8      1517.125          49.000  
R23  21017751.078 8 112430446.335 8      3800.617          49.000    21017755.805 6  87445899.438 6      2956.036          37.000  
R11  23192823.109 5 123935014.778 5     -3401.434          33.000                                                                  
R22  19567406.117 8 104451781.355 8      -939.383          51.000    19567409.516 8  81240274.626 8      -730.631          49.000  
R12  19764502.430 8 105578019.608 8     -1213.051          51.000    19764506.641 8  82116245.767 8      -943.484          49.000  
E01  25982944.133 5 136541288.501 5     -1959.551          32.000    25982956.477 6 104622564.532 6     -1500.957          37.000  
E31  23493978.594 8 123461680.309 8        48.445          51.000    23493981.047 8  94600517.694 8        37.144          51.000  
E09  25566072.500 7 134350596.631 7     -2619.203          44.000    25566077.531 7 102943970.440 7     -2006.881          45.000  
E33  24318927.688 8 127796846.061 8      1194.582          51.000    24318929.688 8  97922264.087 8       915.354          51.000  
C29  21714468.031 8 113072932.623 8       832.258          51.000  
C30  23458196.391 4 122152983.51524     -2289.953          28.000  
> 2020 05 14 10 09  0.0000000  0 14      -0.000000000000
G02  23016946.656 5 120954856.37225      -763.082          31.000                                                                  
G12  21185679.086 6 111331461.537 6     -1968.762          39.000    21185678.047 6  86751804.356 6     -1534.100          38.000  
G32  22723001.695 7 119410166.557 7     -1875.945          42.000    22723002.938 7  93046902.446 7     -1461.779          42.000  
G24  23710138.102 7 124597577.445 7     -3558.043          45.000    23710140.680 7  97089015.487 7     -2772.505          45.000  
G25  20163400.617 8 105959359.299 8      -241.719          51.000    20163402.602 8  82565755.843 8      -188.352          51.000  
G29  20876491.047 8 109706726.082 8      1931.953          51.000    20876490.594 8  85485741.419 8      1505.418          51.000  
R23  20996484.969 8 112316683.613 8      3785.613          50.000    20996489.617 6  87357417.345 6      2944.366          38.000  
R22  19572765.336 8 104480389.505 8      -965.910          51.000    19572768.906 8  81262525.421 8      -751.264          49.000  
R12  19771363.938 8 105614672.433 8     -1228.484          51.000    19771368.078 8  82144753.523 8      -955.491          49.000  
E31  23493725.445 8 123460350.200 8        42.156          51.000    23493727.977 8  94599498.518 8        32.275          51.000  
E09  25581039.375 7 134429248.891 7     -2622.285          43.000    25581044.492 7 103004236.388 7     -2009.246          44.000  
E33  24312153.320 8 127761246.072 8      1180.715          51.000    24312154.664 8  97894986.195 8       904.767          51.000  
C29  21709723.750 8 113048226.873 8       816.746          51.000  
C30  23471419.219 5 122221833.787 5     -2299.227          35.000  
> 2020 05 14 10 09 30.0000000  0 13      -0.000000000000
G12  21196950.672 6 111390690.079 6     -1979.105          39.000    21196948.711 6  86797956.449 6     -1542.164          39.000  
G32  22733762.117 6 119466711.342 6     -1892.820          39.000    22733764.555 6  93090963.253 6     -1474.928          39.000  
G24  23730471.875 7 124704434.858 7     -3565.254          45.000    23730475.586 7  97172280.994 7     -2778.121          45.000  
G25  20164820.906 8 105966822.964 8      -255.477          51.000    20164822.945 8  82571571.685 8      -199.073          51.000  
G29  20865514.391 8 109649040.855 8      1914.293          51.000    20865513.422 8  85440791.895 8      1491.657          51.000  
R23  20975305.734 8 112203384.555 8      3768.129          50.000    20975310.289 6  87269295.878 6      2930.768          40.000  
R22  19578276.547 8 104509808.898 8      -994.918          51.000    19578280.070 8  81285407.193 8      -773.825          49.000  
R12  19778315.328 8 105651804.797 8     -1246.527          51.000    19778319.344 8  82173634.234 8      -969.521          48.000  
E31  23493510.945 8 123459223.456 8        33.426          51.000    23493513.656 8  94598635.165 8        25.612          51.000  
E09  25596026.586 7 134508006.731 7     -2627.727          43.000    25596031.312 7 103064583.243 7     -2013.478          43.000  
E33  24305460.797 8 127726075.811 8      1164.418          51.000    24305461.977 8  97868037.587 8       892.235          51.000  
C29  21705071.188 8 113024000.446 8       798.859          51.000  
C30  23484699.789 6 122291001.050 6     -2311.922          36.000  
> 2020 05 14 10 10  0.0000000  0 13      -0.000000000000
G12  21208268.539 6 111450164.752 6     -1986.688          40.000    21208266.367 6  86844300.301 6     -1548.069          41.000  
G32  22744606.234 6 119523699.066 6     -1907.074          38.000    22744611.117 6  93135369.312 6     -1486.032          38.000  
G24  23750833.984 7 124811439.637 7     -3569.328          44.000    23750838.117 7  97255661.326 7     -2781.299          45.000  
G25  20166306.992 8 105974632.488 8      -266.207          51.000    20166309.008 8  82577657.017 8      -207.434          51.000  
G29  20854625.922 8 109591818.971 8      1899.500          51.000    20854624.594 8  85396203.429 8      1480.130          51.000  
R23  20954211.672 8 112090546.189 8      3753.523          48.000    20954216.586 6  87181532.713 6      2919.405          40.000  
R22  19583938.297 8 104540030.757 8     -1020.895          51.000    19583941.750 8  81308913.099 8      -794.029          49.000  
R12  19785355.234 8 105689410.238 8     -1261.508          51.000    19785359.250 8  82202882.886 8      -981.176          48.000  
E31  23493333.961 8 123458293.895 8        27.590          51.000    23493336.867 8  94597922.900 8        21.110          51.000  
E09  25611032.234 6 134586861.456 6     -2630.133          41.000    25611036.375 7 103125004.323 7     -2015.280          42.000  
E33  24298848.938 8 127691329.362 8      1151.055          51.000    24298850.000 8  97841413.708 8       881.957          51.000  
C29  21700508.930 8 113000246.883 8       783.836          50.000  
C30  23498039.320 5 122360476.645 5     -2320.883          34.000  
> 2020 05 14 10 10 30.0000000  0 12      -0.000000000000
G12  21219630.898 6 111509877.060 6     -1993.062          38.000    21219629.289 6  86890829.397 6     -1553.033          37.000  
G32  22755532.898 6 119581119.288 6     -1919.543          41.000    22755539.781 6  93180112.306 6     -1495.748          41.000  
G24  23771222.391 7 124918582.634 7     -3572.227          44.000    23771226.859 7  97339149.327 7     -2783.557          44.000  
G25  20167857.359 8 105982779.810 8      -275.578          51.000    20167859.414 8  82584005.567 8      -214.736          51.000  
G29  20843823.711 8 109535053.144 8      1886.141          51.000    20843822.594 8  85351970.305 8      1469.720          51.000  
R23  20933202.703 8 111978163.705 8      3740.062          49.000    20933207.539 6  87094124.122 6      2908.941          39.000  
R22  19589748.469 8 104571044.869 8     -1045.461          51.000    19589751.750 8  81333035.206 8      -813.133          48.000  
R12  19792482.422 8 105727480.892 8     -1275.215          51.000    19792485.883 7  82232493.362 7      -991.834          47.000  
E31  23493192.977 8 123457553.982 8        23.172          51.000    23493196.125 8  94597355.950 8        17.713          51.000  
E09  25626054.117 6 134665802.950 6     -2631.109          40.000    25626057.922 7 103185491.893 7     -2016.022          42.000  
E33  24292316.188 8 127656999.445 8      1138.984          51.000    24292316.945 8  97815108.970 8       872.777          51.000  
C29  21696036.453 8 112976958.424 8       770.105          51.000  
> 2020 05 14 10 11  0.0000000  0 12      -0.000000000000
G12  21231035.750 5 111569818.743 5     -2002.445          32.000    21231035.617 5  86937537.134 5     -1560.350          32.000  
G32  22766540.031 6 119638961.977 6     -1935.941          40.000    22766547.930 6  93225184.511 6     -1508.526          40.000  
G24  23791635.281 6 125025854.679 6     -3578.500          41.000    23791640.367 6  97422737.869 6     -2788.446          41.000  
G25  20169470.648 8 105991257.365 8      -288.812          51.000    20169472.680 8  82590611.448 8      -225.049          51.000  
G29  20833106.656 8 109478736.892 8      1869.051          49.000    20833106.195 8  85308087.491 8      1456.404          49.000  
R23  20912278.445 8 111866233.338 8      3722.793          49.000    20912282.711 6  87007067.199 6      2895.509          39.000  
R22  19595705.344 8 104602841.532 8     -1073.598          51.000    19595708.203 8  81357765.944 8      -835.018          49.000  
R12  19799695.406 8 105766009.531 8     -1292.605          51.000    19799698.250 7  82262460.039 7     -1005.363          47.000  
E31  23493086.719 8 123456996.786 8        14.812          51.000    23493090.047 8  94596929.002 8        11.362          51.000  
E09  25641090.234 6 134744821.682 6     -2636.230          36.000    25641094.305 6 103246038.674 6     -2019.757          41.000  
E33  24285861.359 8 127623079.310 8      1123.180          51.000    24285861.859 8  97789118.229 8       860.649          51.000  
C29  21691651.922 8 112954127.738 8       752.660          50.000  
> 2020 05 14 10 11 30.0000000  0 12      -0.000000000000
G12  21242489.758 6 111630012.218 6     -2010.238          37.000    21242490.148 6  86984441.063 6     -1566.423          37.000  
G32  22777631.578 6 119697247.936 6     -1950.047          37.000    22777639.336 6  93270602.184 6     -1519.517          37.000  
G24  23812076.242 6 125133276.600 6     -3583.152          38.000    23812082.648 6  97506443.202 6     -2792.071          39.000  
G25  20171151.258 8 106000088.549 8      -300.074          51.000    20171153.211 8  82597492.885 8      -233.824          51.000  
G29  20822479.969 8 109422894.245 8      1853.801          51.000    20822479.883 8  85264573.738 8      1444.521          51.000  
R23  20891443.633 8 111754782.164 8      3707.266          49.000    20891447.898 6  86920382.995 6      2883.429          39.000  
R22  19601812.742 8 104635442.283 8     -1099.738          51.000    19601815.594 8  81383122.094 8      -855.352          49.000  
R12  19806998.508 8 105805020.103 8     -1308.105          51.000    19807001.031 7  82292801.538 7     -1017.416          47.000  
E31  23493019.875 8 123456646.257 8         8.535          51.000    23493023.359 8  94596660.410 8         6.570          51.000  
E09                                                                  25656149.836 6 103306661.024 6     -2021.625          41.000  
E33  24279489.258 8 127589593.131 8      1109.246          51.000    24279489.680 8  97763460.009 8       849.945          51.000  
C29  21687359.633 8 112931778.158 8       737.258          49.000  
> 2020 05 14 10 12  0.0000000  0 14      -0.000000000000
G12  21253988.859 6 111690440.120 6     -2018.598          41.000    21253989.141 6  87031527.779 6     -1572.934          41.000  
G32  22788803.398 6 119755958.016 6     -1964.898          39.000    22788810.836 6  93316350.386 6     -1531.087          39.000  
G24  23832542.625 6 125240830.715 6     -3588.008          39.000    23832550.312 6  97590251.582 6     -2795.851          38.000  
G25  20172895.961 8 106009256.762 8      -312.043          51.000    20172897.906 8  82604636.934 8      -243.147          51.000  
G29  20811940.953 8 109367509.658 8      1837.766          51.000    20811940.758 8  85221416.957 8      1432.026          51.000  
R23  20870696.250 8 111643797.188 8      3690.988          51.000    20870699.867 6  86834061.375 6      2870.769          38.000  
R11  23327496.766 4 124654676.237 4     -3451.094          29.000    23327511.773 4  96953696.262 4     -2684.182          25.000  
R22  19608067.227 8 104668828.022 8     -1126.648          51.000    19608069.984 8  81409088.792 8      -876.279          49.000  
R12  19814388.617 8 105844496.198 8     -1324.305          51.000    19814391.047 8  82323505.133 8     -1030.015          48.000  
E31  23492989.266 8 123456486.299 8         1.477          51.000    23492993.016 8  94596537.843 8         1.125          51.000  
E09  25671216.453 5 134903151.297 5     -2641.723          34.000    25671220.734 6 103367344.691 6     -2024.271          40.000  
E33  24273196.641 8 127556524.996 8      1094.652          51.000    24273197.188 8  97738122.102 8       838.772          51.000  
C29  21683156.828 8 112909893.369 8       721.094          50.000  
C30  23551978.930 4 122641333.78124     -2362.355          28.000  
> 2020 05 14 10 12 30.0000000  0 14      -0.000000000000
G12  21265533.141 6 111751106.033 6     -2025.148          40.000    21265533.023 6  87078799.913 6     -1578.035          40.000  
G32  22800057.000 6 119815093.530 6     -1977.070          41.000    22800063.367 6  93362429.980 6     -1540.581          41.000  
G24  23853035.086 6 125348517.782 6     -3590.469          39.000    23853043.312 6  97674163.584 6     -2797.769          40.000  
G25  20174705.461 8 106018765.551 8      -321.438          51.000    20174707.367 8  82612046.375 8      -250.471          51.000  
G29  20801489.852 8 109312587.645 8      1824.320          51.000    20801489.180 8  85178620.651 8      1421.549          51.000  
R23  20850037.305 8 111533285.411 8      3677.070          50.000    20850041.102 6  86748107.842 6      2859.947          39.000  
R11  23346887.070 5 124758295.984 5     -3456.578          31.000    23346902.094 4  97034247.644 4     -2688.453          26.000  
R22  19614468.836 8 104703000.256 8     -1150.879          51.000    19614471.547 8  81435667.195 8      -895.128          49.000  
R12  19821866.516 8 105884441.826 8     -1338.070          51.000    19821869.148 8  82354573.922 8     -1040.722          49.000  
E01                                                                  26073263.656 5 104986231.027 5     -1527.377          35.000  
E31  23492995.664 8 123456521.077 8        -3.012          50.000    23492999.719 8  94596564.488 8        -2.380          51.000  
E09  25686303.414 6 134982430.294 6     -2642.336          36.000    25686307.164 6 103428090.879 6     -2024.891          39.000  
E33  24266984.375 8 127523879.266 8      1082.422          51.000    24266985.117 8  97713107.865 8       829.392          51.000  
C29  21679044.422 8 112888477.081 8       707.324          51.000  
> 2020 05 14 10 13  0.0000000  0 14      -0.000000000000
G12  21277124.055 6 111812017.547 6     -2035.520          37.000    21277124.008 6  87126263.434 6     -1586.120          36.000  
G32  22811392.672 6 119874660.199 6     -1993.824          41.000    22811397.805 6  93408845.508 6     -1553.633          41.000  
G24  23873554.281 6 125456344.541 6     -3597.504          41.000    23873563.016 6  97758184.383 6     -2803.254          41.000  
G25  20176581.375 8 106028623.335 8      -335.434          51.000    20176583.219 8  82619727.761 8      -261.377          51.000  
G29  20791128.594 8 109258137.216 8      1806.105          51.000    20791127.148 8  85136191.781 8      1407.358          51.000  
R23  20829468.688 8 111423259.049 8      3658.340          49.000    20829473.180 6  86662531.846 6      2845.379          39.000  
R22  19621018.961 8 104737965.312 8     -1179.742          51.000    19621021.688 8  81462862.241 8      -917.577          49.000  
R12  19829433.953 8 105924865.883 8     -1356.414          51.000    19829436.836 8  82386014.825 8     -1054.989          49.000  
E01  26084659.109 4 137075807.851 4     -2000.508          29.000                                                                  
E31  23493040.805 8 123456759.576 8       -12.312          50.000    23493045.188 8  94596747.229 8        -9.476          51.000  
E09  25701407.234 6 135061797.336 6     -2648.195          38.000    25701409.945 6 103488904.492 6     -2028.800          38.000  
E33  24260854.055 8 127491665.096 8      1065.594          51.000    24260855.055 8  97688424.297 8       816.476          51.000  
C29  21675023.219 8 112867537.674 8       689.031          50.000  
C30  23579291.320 4 122783566.668 4     -2381.488          29.000  
> 2020 05 14 10 13 30.0000000  0 13      -0.000000000000
G12  21288761.258 6 111873171.241 6     -2041.895          38.000    21288761.320 6  87173915.602 6     -1591.090          37.000  
G32  22822809.141 7 119934652.931 7     -2006.172          43.000    22822813.820 7  93455592.999 7     -1563.254          43.000  
G24  23894099.492 6 125564307.349 6     -3600.172          40.000    23894108.078 6  97842311.216 6     -2805.330          40.000  
G25  20178523.227 8 106038827.603 8      -345.160          51.000    20178524.969 8  82627679.133 8      -268.956          51.000  
G29  20780856.672 8 109204156.865 8      1792.254          51.000    20780855.266 8  85094129.178 8      1396.562          51.000  
R23  20808990.742 8 111313719.379 8      3643.918          50.000    20808995.992 6  86577334.387 6      2834.162          38.000  
R22  19627716.727 8 104773718.442 8     -1204.168          51.000    19627719.414 8  81490670.231 8      -936.575          50.000  
R12  19837090.555 8 105965766.069 8     -1370.570          51.000    19837093.828 8  82417826.063 8     -1066.002          50.000  
E31  23493124.453 8 123457199.813 8       -17.305          49.000    23493128.930 8  94597084.560 8       -13.283          51.000  
E09  25716527.148 6 135141247.766 6     -2649.168          40.000    25716528.086 6 103549782.108 6     -2029.946          37.000  
E33  24254805.328 8 127459880.678 8      1053.137          51.000    24254806.672 8  97664070.019 8       806.878          51.000  
C29  21671093.062 8 112847072.802 8       674.992          51.000  
C30  23593034.742 5 122855107.090 5     -2389.277          33.000  
> 2020 05 14 10 14  0.0000000  0 14      -0.000000000000
G12  21300443.547 6 111934561.115 6     -2050.426          41.000    21300443.141 7  87221751.843 7     -1597.735          42.000  
G32  22834304.898 6 119995063.656 6     -2020.652          41.000    22834309.398 6  93502666.276 6     -1574.535          41.000  
G24  23914669.031 6 125672398.635 6     -3605.547          39.000    23914676.891 6  97926538.157 6     -2809.518          40.000  
G25  20180529.938 8 106049372.861 8      -357.367          51.000    20180531.609 8  82635896.210 8      -278.468          51.000  
G29  20770672.914 8 109150641.757 8      1775.922          51.000    20770672.188 8  85052429.098 8      1383.836          51.000  
R23  20788603.898 8 111204664.055 8      3626.828          51.000    20788609.125 6  86492513.649 6      2820.867          38.000  
R22  19634560.539 8 104810251.585 8     -1230.938          51.000    19634563.453 8  81519084.886 8      -957.396          50.000  
R12  19844834.930 8 106007137.134 8     -1387.105          51.000    19844838.742 8  82450003.533 8     -1078.863          50.000  
E31  23493245.633 8 123457836.940 8       -24.805          49.000    23493250.047 8  94597572.736 8       -18.979          51.000  
E09  25731661.359 6 135220774.278 6     -2652.477          40.000    25731660.516 5 103610717.936 5     -2032.272          34.000  
E33  24248837.742 8 127428521.269 8      1037.941          51.000    24248839.273 8  97640041.377 8       795.303          51.000  
E26  24912020.461 5 130913552.279 5     -1699.059          32.000                                                                  
C29  21667253.555 8 112827077.161 8       658.426          51.000  
C30  23606831.617 5 122926948.471 5     -2398.625          31.000  
> 2020 05 14 10 14 30.0000000  0 13      -0.000000000000
G12  21312169.320 6 111996178.581 6     -2059.207          41.000    21312168.789 6  87269765.481 6     -1604.577          41.000  
G32  22845877.656 6 120055881.773 6     -2035.184          39.000    22845882.625 6  93550057.026 6     -1585.858          40.000  
G24  23935261.016 6 125780608.304 6     -3610.195          39.000    23935267.906 6  98010857.325 6     -2813.140          39.000  
G25  20182599.914 8 106060251.072 8      -369.527          51.000    20182601.648 8  82644372.740 8      -287.943          51.000  
G29  20760576.328 8 109097584.674 8      1759.609          51.000    20760575.734 8  85011085.904 8      1371.125          51.000  
R23  20768307.156 8 111096088.616 8      3609.820          50.000    20768311.508 6  86408066.124 6      2807.639          38.000  
R22  19641548.430 8 104847554.173 8     -1257.586          51.000    19641551.617 8  81548098.010 8      -978.123          50.000  
R12  19852666.102 8 106048971.241 8     -1403.469          51.000    19852670.203 8  82482541.180 8     -1091.584          49.000  
E31  23493402.891 8 123458663.415 8       -31.973          50.000    23493407.266 8  94598206.025 8       -24.543          51.000  
E09  25746807.914 6 135300366.755 6     -2655.523          41.000    25746804.953 5 103671704.346 5     -2034.723          32.000  
E33  24242949.719 8 127397579.479 8      1023.191          51.000    24242951.477 8  97616332.733 8       784.001          51.000  
C29  21663502.336 8 112807542.798 8       642.168          51.000  
C30  23620679.984 4 122999078.87324     -2408.133          28.000  
> 2020 05 14 10 15  0.0000000  0 13      -0.000000000000
G12  21323943.484 6 112058050.558 6     -2065.789          39.000    21323943.727 6  87317977.369 6     -1609.709          39.000  
G32  22857532.898 6 120117132.319 6     -2048.410          40.000    22857538.023 6  93597784.696 6     -1596.167          39.000  
G24  23955880.641 6 125888961.764 6     -3613.328          41.000    23955886.070 6  98095288.529 6     -2815.584          41.000  
G25  20184738.453 8 106071489.722 8      -380.012          51.000    20184740.281 8  82653130.128 8      -296.113          51.000  
G29  20750572.281 8 109045013.825 8      1744.938          51.000    20750571.617 8  84970121.606 8      1359.692          51.000  
R23  20748105.797 8 110988024.469 8      3594.270          49.000    20748110.000 6  86324016.256 6      2795.543          38.000  
R22  19648685.344 8 104885651.961 8     -1282.547          51.000    19648688.289 8  81577729.610 8      -997.537          49.000  
R12  19860589.148 8 106091296.637 8     -1418.336          50.000    19860593.625 8  82515460.940 8     -1103.150          49.000  
E31  23493601.688 8 123459707.381 8       -37.766          49.000    23493605.938 8  94599005.947 8       -28.916          51.000  
E09  25761971.703 6 135380050.705 6     -2657.070          40.000    25761967.312 5 103732760.812 5     -2035.657          32.000  
E33  24237146.547 8 127367083.510 8      1009.855          51.000    24237148.703 8  97592965.712 8       773.744          51.000  
C29  21659844.859 8 112788497.065 8       627.363          51.000  
C30  23634588.430 5 123071501.834 5     -2419.109          30.000  
> 2020 05 14 10 15 30.0000000  0 13      -0.000000000000
