     3.02           OBSERVATION DATA    M (MIXED)           RINEX VERSION / TYPE
SAVERINEX           SC600               20200509 135931 LCL PGM / RUN BY / DATE
       G = GPS       R = GLONASS       C = COMPASS          COMMENT
       S = SBAS      J = QZSS          E = GALILEO          COMMENT
BEAN                                                        MARKER NAME
1                                                           MARKER NUMBER
GEODETIC                                                    MARKER TYPE
Unige DICCA         GTER                                    OBSERVER / AGENCY
SC60291900056       SC600               2.12(191226)        REC # / TYPE / VERS
                    HEMA45          NONE                    ANT # / TYPE
  4509407.8091   693652.4678  4442337.6214                  APPROX POSITION XYZ
        0.0000        0.0000        0.0000                  ANTENNA: DELTA H/E/N
G    8 C1C L1C D1C S1C C2Y L2Y D2Y S2Y                      SYS / # / OBS TYPES
R    8 C1C L1C D1C S1C C2P L2P D2P S2P                      SYS / # / OBS TYPES
C    4 C1I L1I D1I S1I                                      SYS / # / OBS TYPES
E    8 C1C L1C D1C S1C C7Q L7Q D7Q S7Q                      SYS / # / OBS TYPES
DBHZ                                                        COMMENT
     30.000                                                 INTERVAL
  2020    05    09    11    00    0.0000000     GPS         TIME OF FIRST OBS
  2020    05    09    11    59   30.0000000     GPS         TIME OF LAST OBS
     0                                                      RCV CLOCK OFFS APPL
G L1C  0.00000                                              SYS / PHASE SHIFT
G L2Y  0.00000                                              SYS / PHASE SHIFT
R L1C  0.00000                                              SYS / PHASE SHIFT
R L2P  0.25000                                              SYS / PHASE SHIFT
C L1I  0.00000                                              SYS / PHASE SHIFT
E L1C  0.50000                                              SYS / PHASE SHIFT
E L7Q -0.25000                                              SYS / PHASE SHIFT
 14 R02 -4 R03  5 R04  6 R05  1 R10 -5 R12 -1 R13 -2 R14 -7 GLONASS SLOT / FRQ #
    R15  0 R16 -1 R17  4 R18 -3 R19  3 R23  3               GLONASS SLOT / FRQ #
 C1C   71.950 C2C   71.950 C2P   71.950                     GLONASS COD/PHS/BIS
    18                                                      LEAP SECONDS
*** Above antenna height is from mark to ANTENNA BOTTOM.    COMMENT
    17     4        0.0000        ANT MEASURE TYPE/HEIGT    COMMENT
    0.0000    0.0000    0.0458    0.0405    0.0000          COMMENT
                    BASE STATION                            COMMENT
                                                            END OF HEADER
> 2020 05 09 11 00  0.0000000  0 12        .000000000000
G12  21960210.375 5 115401679.856 5     -2431.309          35.000    21960203.453 5  89923395.582 5     -1894.520          33.000
G25  20361954.969 8 107002795.155 8      -920.465          51.000    20361956.711 8  83378805.230 8      -717.245          51.000
G29  20374862.594 8 107070629.192 8       970.805          51.000    20374861.633 8  83431654.816 8       756.471          51.000
G32  23518580.359 7 123591019.499 7     -2612.273          43.000    23518584.672 7  96304673.674 7     -2035.538          43.000
R15  20362151.055 8 108809159.286 8     -2201.922          51.000    20362154.586 8  84629347.256 8     -1712.606          48.000
R17  20376545.109 4 109039015.272 4     -2676.258          29.000    20376547.891 4  84808101.392 4     -2081.534          29.000
R18  19343094.172 8 103254849.414 8      1364.539          50.000    19343099.625 8  80309316.369 8      1061.308          50.000
C27  21594214.438 8 112446727.796 8       778.742          51.000
C28  23265921.445 6 121151736.251 6     -2263.430          37.000
C30  24418829.180 5 127155232.931 5      3097.719          35.000
E15  25097529.734 8 131888421.393 8      2789.324          49.000    25097533.102 8 101057374.243 8      2137.343          50.000
E30  22251051.500 8 116930061.648 8      -453.566          51.000    22251054.547 8  89595760.498 8      -347.523          51.000
> 2020 05 09 11 00 30.0000000  0 12        .000000000000
G12  21974107.461 6 115474701.291 6     -2437.180          37.000    21974097.156 6  89980295.322 6     -1899.098          37.000
G25  20367243.484 8 107030587.000 8      -931.645          51.000    20367245.125 8  83400461.193 8      -725.957          51.000
G29  20369367.984 8 107041754.977 8       954.699          51.000    20369366.617 8  83409155.435 8       743.921          51.000
G32  23533520.227 7 123669527.907 7     -2621.152          43.000    23533525.047 7  96365849.033 7     -2042.459          44.000
R15  20374558.422 8 108875458.287 8     -2217.406          51.000    20374561.391 8  84680913.097 8     -1724.652          48.000
R17  20391597.742 5 109119577.659 5     -2694.559          34.000    20391601.172 4  84870761.046 4     -2095.768          27.000
R18  19335498.469 8 103214303.100 8      1339.152          51.000    19335503.797 8  80277780.371 8      1041.563          50.000
C27  21589773.227 8 112423601.195 8       763.609          51.000
C28  23278990.109 6 121219785.654 6     -2272.930          39.000
C30  24401001.195 5 127062400.265 5      3091.785          33.000
E15  25081628.359 8 131804858.988 8      2782.004          48.000    25081632.695 8 100993345.936 8      2131.626          50.000
E30  22253663.531 8 116943787.498 8      -460.961          51.000    22253666.625 8  89606277.698 8      -353.210          51.000
> 2020 05 09 11 01  0.0000000  0 12        .000000000000
G12  21988043.195 6 115547931.863 6     -2443.992          39.000    21988037.180 6  90037357.959 6     -1904.419          39.000
G25  20372597.281 8 107058721.669 8      -943.070          51.000    20372598.961 8  83422384.299 8      -734.860          51.000
G29  20363966.555 8 107013370.672 8       938.441          51.000    20363965.102 8  83387037.813 8       731.253          51.000
G32  23548511.750 7 123748307.625 7     -2629.961          45.000    23548517.039 7  96427235.779 7     -2049.320          44.000
R15  20387053.727 8 108942227.325 8     -2233.055          51.000    20387056.367 8  84732844.540 8     -1736.820          48.000
R17  20406759.227 5 109200705.906 5     -2713.469          31.000    20406759.414 4  84933860.685 4     -2110.479          26.000
R18  19328047.367 8 103174527.577 8      1313.430          50.000    19328052.070 8  80246843.849 8      1021.556          49.000
C27  21585420.914 8 112400937.528 8       748.090          51.000
C28  23292115.414 6 121288131.233 6     -2282.555          37.000
C30  24383211.055 5 126969766.941 5      3085.047          30.000
E15  25065770.648 7 131721527.799 7      2774.152          47.000    25065776.031 8 100929494.769 8      2125.682          51.000
E30  22256319.445 8 116957744.511 8      -468.738          51.000    22256322.523 8  89616972.009 8      -359.187          51.000
> 2020 05 09 11 01 30.0000000  0 11        .000000000000
G12  22002017.820 6 115621368.322 6     -2450.617          39.000    22002013.164 6  90094581.080 6     -1909.575          38.000
G25  20378015.797 8 107087196.379 8      -954.082          51.000    20378017.406 8  83444572.382 8      -743.441          51.000
G29  20358657.656 8 106985473.844 8       922.457          51.000    20358656.367 8  83365300.037 8       718.798          51.000
G32  23563553.773 7 123827352.821 7     -2638.426          46.000    23563558.805 7  96488829.417 7     -2055.916          46.000
R15  20399636.094 8 109009463.401 8     -2248.348          51.000    20399638.766 8  84785139.252 8     -1748.715          48.000
R17  20422024.688 5 109282393.222 5     -2731.191          32.000    20422025.984 4  84997405.338 4     -2124.257          29.000
R18  19320739.891 8 103135520.839 8      1288.211          49.000    19320744.414 8  80216505.271 8      1001.945          49.000
C27  21581157.016 8 112378734.094 8       733.082          51.000
C28  23305295.891 5 121356768.245 5     -2292.613          35.000
E15  25049956.305 7 131638426.675 7      2766.770          47.000    25049962.922 8 100865819.876 8      2120.055          51.000
E30  22259019.023 8 116971930.399 8      -476.016          51.000    22259022.023 8  89627841.708 8      -364.727          51.000
> 2020 05 09 11 02  0.0000000  0 12        .000000000000
G12  22016030.086 6 115695002.523 6     -2458.547          40.000    22016026.398 6  90151958.306 6     -1915.754          39.000
G25  20383497.414 8 107116002.967 8      -966.414          51.000    20383499.133 8  83467019.058 8      -753.053          51.000
G29  20353439.930 8 106958056.264 8       905.238          51.000    20353438.703 8  83343935.685 8       705.380          51.000
G32  23578644.008 7 123906652.482 7     -2648.203          45.000    23578648.164 7  96550621.316 7     -2063.535          45.000
R15  20412304.047 8 109077157.715 8     -2264.805          51.000    20412306.867 8  84837790.361 8     -1761.515          48.000
R17  20437391.523 6 109364628.069 6     -2751.055          36.000    20437396.391 4  85061365.773 4     -2139.712          27.000
R18  19313575.312 8 103097275.699 8      1261.504          51.000    19313579.539 8  80186759.053 8       981.167          48.000
C27  21576979.820 8 112356983.003 8       716.883          51.000
C28  23318531.578 6 121425686.900 6     -2302.473          39.000
E02                                                                  26473430.430 5 106597530.978 5     -1720.829          32.000
E15  25034184.250 7 131555549.254 7      2758.195          47.000    25034192.227 8 100802316.368 8      2113.425          51.000
E30  22261760.984 8 116986337.677 8      -484.629          51.000    22261763.625 8  89638881.043 8      -371.294          51.000
> 2020 05 09 11 02 30.0000000  0 13        .000000000000
G12  22030081.234 6 115768843.470 6     -2464.062          38.000    22030079.352 6  90209496.623 6     -1920.052          38.000
G25  20389044.203 8 107145151.399 8      -976.738          51.000    20389046.031 8  83489732.114 8      -761.095          51.000
G29  20348315.688 8 106931128.097 8       890.016          51.000    20348314.227 8  83322952.714 8       693.519          51.000
G32  23593783.828 7 123986213.708 7     -2655.672          43.000    23593787.164 7  96612617.011 7     -2069.358          43.000
R15  20425059.492 8 109145319.996 8     -2279.258          51.000    20425062.219 7  84890805.440 7     -1772.756          47.000
R17  20452865.281 5 109447416.871 5     -2768.504          32.000    20452860.406 4  85125750.858 4     -2153.293          27.000
R18  19306555.836 8 103059803.242 8      1236.738          51.000    19306558.883 7  80157613.788 7       961.908          47.000
C27  21572891.547 8 112335694.336 8       702.480          51.000
C28  23331823.148 6 121494895.478 6     -2311.375          38.000
C30  24330085.922 5 126693163.215 5      3065.727          30.000
E02                                                                  26486260.047 5 106649197.343 5     -1723.460          31.000
E15  25018457.836 8 131472907.183 8      2751.449          49.000    25018466.352 8 100738993.219 8      2108.229          51.000
E30  22264547.180 8 117000976.943 8      -491.195          51.000    22264549.422 8  89650098.133 8      -376.367          51.000
> 2020 05 09 11 03  0.0000000  0 13        .000000000000
G12  22044172.805 5 115842897.996 5     -2472.059          33.000    22044171.984 5  90267201.436 5     -1926.279          34.000
G25  20394657.453 8 107174648.876 8      -988.891          51.000    20394659.055 8  83512717.153 8      -770.564          51.000
G29  20343285.945 8 106904696.567 8       873.098          51.000    20343284.625 8  83302356.720 8       680.336          51.000
G32  23608974.047 6 124066040.738 6     -2664.969          39.000    23608977.164 6  96674819.827 6     -2076.602          39.000
R15  20437903.633 8 109213957.050 8     -2295.422          51.000    20437906.320 7  84944189.780 7     -1785.328          47.000
R17  20468432.852 6 109530713.744 6     -2787.223          36.000    20468450.367 5  85190606.682 5     -2167.840          30.000
R18  19299682.578 8 103023111.670 8      1210.266          51.000    19299685.406 8  80129075.935 8       941.321          48.000
C27  21568893.398 8 112314875.244 8       686.445          51.000
C28  23345170.750 5 121564399.184 5     -2321.496          32.000
C30  24312446.531 5 126601334.610 5      3057.859          33.000
E02                                                                  26499116.977 5 106700972.305 5     -1727.390          32.000
E15  25002778.820 8 131390509.359 8      2742.848          51.000    25002786.656 8 100675857.241 8      2101.662          51.000
E30  22267378.742 8 117015856.007 8      -499.609          51.000    22267380.969 8  89661498.956 8      -382.815          51.000
> 2020 05 09 11 03 30.0000000  0 11        .000000000000
G25  20400333.531 8 107204476.696 8      -999.848          51.000    20400335.164 8  83535959.596 8      -779.102          51.000
G29  20338346.938 8 106878742.532 8       857.043          51.000    20338346.250 8  83282132.809 8       667.826          51.000
G32  23624210.719 6 124146111.836 6     -2673.266          37.000    23624214.188 6  96737212.923 6     -2083.061          37.000
R15  20450833.148 8 109283049.518 8     -2310.805          51.000    20450836.086 7  84997928.332 7     -1797.293          47.000
R17  20484116.664 6 109614594.964 6     -2805.062          41.000    20484118.766 4  85255847.499 4     -2181.724          25.000
R18  19292952.297 8 102987182.717 8      1184.742          51.000    19292954.883 7  80101131.235 7       921.466          47.000
C27  21564981.984 8 112294507.385 8       671.305          51.000
C28  23358570.352 5 121634177.551 5     -2330.820          32.000
C30  24294843.820 5 126509700.768 5      3051.078          34.000
E15  24987143.328 8 131308338.871 8      2735.176          51.000    24987149.789 8 100612895.466 8      2095.757          51.000
E30  22270252.367 8 117030956.836 8      -507.117          51.000    22270254.836 8  89673069.696 8      -388.525          51.000
> 2020 05 09 11 04  0.0000000  0 11        .000000000000
G25  20406075.578 8 107234651.397 8     -1011.906          51.000    20406077.438 8  83559472.334 8      -788.498          51.000
G29  20333502.195 8 106853282.891 8       840.145          51.000    20333501.773 8  83262294.122 8       654.658          51.000
G32  23639497.039 7 124226440.783 7     -2682.102          44.000    23639500.586 7  96799806.874 7     -2089.952          44.000
R15  20463850.656 8 109352613.478 8     -2326.801          51.000    20463854.367 8  85052033.602 8     -1809.737          48.000
R17  20499910.156 5 109699024.267 5     -2822.871          30.000    20499892.648 5  85321491.433 5     -2195.576          30.000
R18  19286367.719 8 102952034.083 8      1158.449          51.000    19286370.359 8  80073793.425 8       901.016          48.000
C27  21561160.578 8 112274607.211 8       655.352          51.000
C28  23372025.648 5 121704245.485 5     -2340.223          34.000
C30  24277282.883 5 126418279.656 5      3044.363          33.000
E15  24971554.375 8 131226413.951 8      2726.613          51.000    24971559.625 8 100550121.868 8      2089.232          51.000
E30  22273171.562 8 117046296.518 8      -515.363          51.000    22273174.016 8  89684823.466 8      -394.889          51.000
> 2020 05 09 11 04 30.0000000  0 10        .000000000000
G25  20411880.539 8 107265156.726 8     -1022.668          51.000    20411882.562 8  83583242.700 8      -796.884          51.000
G29  20328748.398 8 106828301.471 8       824.387          51.000    20328747.938 8  83242828.088 8       642.379          51.000
G32  23654828.984 8 124307008.426 8     -2689.879          48.000    23654832.250 8  96862586.781 8     -2096.013          48.000
R15  20476953.508 8 109422632.055 8     -2341.871          51.000    20476957.727 8  85106492.481 8     -1821.455          48.000
R18  19279926.594 8 102917650.381 8      1132.965          51.000    19279929.844 8  80047050.574 8       881.198          49.000
C27  21557425.812 8 112255158.686 8       640.406          51.000
C28  23385532.195 4 121774584.990 4     -2348.953          29.000
C30  24259762.844 6 126327056.738 6      3037.156          36.000
E15  24956009.055 8 131144720.113 8      2718.910          51.000    24956013.141 8 100487525.336 8      2083.333          51.000
E30  22276133.266 8 117061859.495 8      -522.840          51.000    22276135.617 8  89696748.329 8      -400.597          51.000
> 2020 05 09 11 05  0.0000000  0 10        .000000000000
G25  20417745.680 8 107295978.479 8     -1032.914          51.000    20417747.828 8  83607259.631 8      -804.871          51.000
G29  20324083.148 8 106803784.241 8       809.305          51.000    20324082.812 8  83223723.756 8       630.627          51.000
G32  23670203.180 7 124387797.640 7     -2696.922          47.000    23670205.875 7  96925539.320 7     -2101.501          47.000
R15  20490139.016 8 109493090.148 8     -2356.098          51.000    20490143.258 8  85161293.214 8     -1832.520          48.000
R17  20531746.562 5 109869489.968 5     -2857.715          30.000    20531740.133 4  85454060.418 4     -2222.673          28.000
R18  19273625.875 8 102884017.733 8      1108.328          50.000    19273629.227 8  80020891.868 8       862.033          48.000
C27  21553775.039 8 112236147.884 8       626.195          51.000
C30  24242279.578 6 126236019.516 6      3031.273          39.000
E15  24940505.078 8 131063244.861 8      2712.039          51.000    24940508.172 8 100425096.288 8      2078.008          51.000
E30  22279134.703 8 117077632.192 8      -529.406          51.000    22279137.000 8  89708833.896 8      -405.625          51.000
> 2020 05 09 11 05 30.0000000  0 11        .000000000000
G02  23572772.477 5 123875745.216 5     -1888.910          32.000
G25  20423679.492 8 107327161.105 8     -1044.336          51.000    20423681.609 8  83631557.769 8      -813.768          51.000
G29  20319514.656 8 106779775.537 8       792.973          51.000    20319514.492 8  83205015.686 8       617.901          51.000
G32  23685627.352 7 124468849.837 7     -2704.855          46.000    23685629.555 7  96988696.790 7     -2107.683          46.000
R15  20503415.195 8 109564032.717 8     -2371.598          51.000    20503419.273 8  85216470.711 8     -1844.576          48.000
R18  19267474.555 8 102851181.927 8      1082.402          51.000    19267477.945 8  79995352.890 8       841.868          49.000
C27  21550216.625 8 112217618.896 8       610.754          51.000
C28  23412704.031 5 121916096.368 5     -2366.789          32.000
C30  24224841.758 6 126145213.543 6      3024.270          41.000
E15  24925051.180 8 130982034.443 8      2703.680          49.000    24925054.008 8 100362870.155 8      2071.651          51.000
E30  22282184.477 8 117093659.681 8      -537.449          51.000    22282186.727 8  89721114.691 8      -411.800          51.000
> 2020 05 09 11 06  0.0000000  0 12        .000000000000
G02  23583590.523 5 123932598.167 5     -1902.871          32.000
G25  20429672.102 8 107358653.014 8     -1055.320          51.000    20429674.156 8  83656096.914 8      -822.328          51.000
G29  20315032.961 8 106756223.640 8       776.949          51.000    20315032.664 8  83186663.559 8       605.415          51.000
G32  23701090.789 7 124550110.601 7     -2712.641          42.000    23701093.281 7  97052016.815 7     -2113.746          42.000
R15  20516772.578 8 109635406.565 8     -2386.840          51.000    20516775.617 7  85271983.674 7     -1856.431          47.000
R18  19261462.859 8 102819091.379 8      1056.742          50.000    19261466.586 8  79970393.588 8       821.911          49.000
C27  21546740.812 8 112199520.666 8       595.566          51.000
C28  23426368.039 5 121987234.797 5     -2375.824          34.000
C30  24207439.828 7 126054589.254 7      3017.180          43.000
E02  26576765.656 5 139661843.680 5     -2279.285          31.000    26576762.438 5 107013607.555 5     -1746.337          31.000
E15  24909637.609 7 130901038.912 7      2695.816          46.000    24909640.969 8 100300808.672 8      2065.572          51.000
E30  22285273.062 8 117109891.005 8      -544.984          51.000    22285275.164 8  89733551.686 8      -417.570          51.000
> 2020 05 09 11 06 30.0000000  0 12        .000000000000
G02  23594489.766 5 123989873.674 5     -1914.805          31.000
G25  20435730.461 8 107390490.921 8     -1066.598          50.000    20435732.586 8  83680905.663 8      -831.115          50.000
G29  20310645.312 8 106733165.204 8       760.844          51.000    20310644.852 8  83168695.964 8       592.865          51.000
G32  23716599.828 6 124631613.625 6     -2720.238          41.000    23716603.531 6  97115525.645 6     -2119.666          41.000
R15  20530217.289 8 109707248.402 8     -2402.082          51.000    20530219.547 8  85327860.631 8     -1868.286          48.000
R18  19255597.906 8 102787783.962 8      1030.988          51.000    19255601.219 8  79946043.361 8       801.880          48.000
C27  21543354.781 8 112181889.560 8       580.410          51.000
C28  23440084.547 6 122058652.940 6     -2384.578          37.000
C30  24190080.383 7 125964184.532 7      3010.066          43.000
E02                                                                  26589792.000 5 107066056.268 5     -1749.087          32.000
E15  24894271.258 7 130820296.729 7      2687.598          45.000    24894276.047 8 100238941.250 8      2059.331          51.000
E30  22288407.602 8 117126363.480 8      -552.617          51.000    22288409.812 8  89746173.451 8      -423.425          51.000
> 2020 05 09 11 07  0.0000000  0 12        .000000000000
G25  20441851.891 8 107422660.074 8     -1077.727          49.000    20441854.211 8  83705972.524 8      -839.787          49.000
G29  20306348.562 8 106710585.667 8       744.816          51.000    20306348.266 8  83151101.537 8       580.376          51.000
G32  23732151.859 7 124713341.360 7     -2727.785          44.000    23732156.516 7  97179209.539 7     -2125.550          44.000
R15  20543746.570 8 109779542.645 8     -2417.219          51.000    20543748.781 8  85384089.446 8     -1880.059          48.000
R17  20596615.336 5 110216650.347 5     -2926.359          32.000    20596612.820 4  85724048.996 4     -2276.057          28.000
R18  19249877.164 8 102757245.546 8      1005.227          51.000    19249880.219 8  79922291.268 8       781.843          48.000
C27  21540055.859 8 112164711.035 8       565.270          51.000
C28  23453851.016 6 122130334.538 6     -2394.074          37.000
C30  24172760.711 7 125873986.313 7      3003.336          43.000
E02                                                                  26602842.961 5 107118623.218 5     -1752.850          32.000
E15  24878951.242 7 130739794.800 7      2679.363          47.000    24878956.883 8 100177257.941 8      2053.117          51.000
E30  22291585.391 8 117143063.005 8      -560.320          51.000    22291587.875 8  89758969.181 8      -429.324          51.000
> 2020 05 09 11 07 30.0000000  0 12        .000000000000
G12  22172702.500 5 116518297.088 5     -2529.461          33.000
G25  20448039.344 8 107455175.314 8     -1088.277          51.000    20448041.773 8  83731309.080 8      -848.008          51.000
G29  20302145.227 8 106688499.466 8       729.230          51.000    20302145.414 8  83133891.519 8       568.232          51.000
G32  23747749.227 7 124795305.737 7     -2734.766          46.000    23747753.898 7  97243077.844 7     -2130.986          46.000
R15  20557362.883 8 109852303.908 8     -2431.875          51.000    20557365.102 8  85440681.513 8     -1891.461          48.000
R17  20613102.969 4 110304755.628 4     -2942.012          28.000    20613075.383 5  85792561.334 5     -2288.243          31.000
R18  19244303.406 8 102727491.541 8       979.992          51.000    19244306.125 7  79899149.294 7       762.216          47.000
C27  21536846.445 8 112147999.869 8       550.488          51.000
C28  23467670.125 6 122202292.515 6     -2401.707          37.000
C30  24155483.242 7 125784010.931 7      2996.664          42.000
E15  24863681.438 8 130659549.672 8      2671.730          49.000    24863686.891 8 100115771.448 8      2047.227          51.000
E30  22294809.453 8 117160005.088 8      -567.555          51.000    22294811.898 8  89771950.771 8      -434.933          51.000
> 2020 05 09 11 08  0.0000000  0 12        .000000000000
G02  23627657.969 5 124164181.753 5     -1958.535          32.000
G12  22187164.898 5 116594338.026 5     -2538.348          33.000    22187165.633 5  90852726.597 5     -1977.939          31.000
G25  20454292.703 8 107488036.477 8     -1101.668          51.000    20454295.125 8  83756915.190 8      -858.440          51.000
G29  20298035.977 8 106666906.394 8       711.000          51.000    20298036.086 8  83117065.739 8       554.026          51.000
G32  23763391.148 8 124877503.572 8     -2744.293          48.000    23763394.438 8  97307128.060 8     -2138.410          48.000
R15  20571066.367 8 109925531.353 8     -2449.262          51.000    20571068.703 8  85497636.173 8     -1904.984          48.000
R18  19238876.461 8 102698522.417 8       951.965          51.000    19238878.586 7  79876617.766 7       740.417          47.000
C27  21533726.734 8 112131755.845 8       533.074          51.000
C28  23481541.102 5 122274524.882 5     -2412.672          34.000
C30  24138247.859 6 125694259.654 6      2987.277          40.000
E15  24848461.164 8 130579562.872 8      2661.391          51.000    24848466.180 8 100054482.906 8      2039.229          51.000
E30  22298079.789 8 117177190.191 8      -577.465          51.000    22298081.844 8  89785118.565 8      -442.440          51.000
> 2020 05 09 11 08 30.0000000  0 11        .000000000000
G12  22201668.547 5 116670568.187 5     -2543.988          34.000    22201663.859 5  90912126.914 5     -1982.329          33.000
G25  20460608.672 8 107521226.424 8     -1111.727          51.000    20460610.992 8  83782777.480 8      -866.280          51.000
G29  20294017.383 8 106645789.375 8       696.133          50.000    20294017.477 8  83100610.923 8       542.444          50.000
G32  23779073.594 8 124959914.837 8     -2750.355          49.000    23779075.000 8  97371344.590 8     -2143.134          49.000
R15  20584853.844 8 109999206.916 8     -2463.184          51.000    20584856.273 8  85554939.370 8     -1915.812          49.000
R18  19233593.234 8 102670321.496 8       927.223          50.000    19233595.641 7  79854683.762 7       721.176          47.000
C27  21530693.641 8 112115961.961 8       519.090          51.000
C28  23495461.641 5 122347012.902 5     -2420.176          34.000
C30  24121050.914 6 125604717.090 6      2981.156          37.000
E15  24833287.102 8 130499818.982 8      2654.105          51.000    24833291.656 8  99993380.492 8      2033.665          51.000
E30  22301393.219 8 117194601.758 8      -584.066          51.000    22301394.828 8  89798459.888 8      -447.567          51.000
> 2020 05 09 11 09  0.0000000  0 11        .000000000000
G12  22216211.336 5 116746991.382 5     -2551.043          32.000    22216214.258 5  90971677.434 5     -1987.829          31.000
G25  20466988.109 8 107554749.471 8     -1123.648          51.000    20466990.398 8  83808899.319 8      -875.570          51.000
G29  20290090.172 8 106625152.541 8       679.297          51.000    20290090.273 8  83084530.284 8       529.322          51.000
G32  23794796.969 8 125042541.033 8     -2758.273          49.000    23794797.219 8  97435728.592 8     -2149.304          49.000
R15  20598725.547 8 110073334.445 8     -2479.113          51.000    20598728.422 8  85612594.074 8     -1928.202          48.000
R18  19228454.812 8 102642893.429 8       900.715          50.000    19228457.109 7  79833350.830 7       700.556          47.000
C27  21527748.000 8 112100622.505 8       503.117          51.000
C28  23509432.180 6 122419759.253 6     -2430.000          36.000
C30  24103893.602 5 125515389.018 5      2973.703          35.000
E15  24818160.133 8 130420324.048 8      2645.066          51.000    24818164.477 8  99932468.800 8      2026.775          51.000
E30  22304750.672 8 117212244.780 8      -592.574          51.000    22304751.805 8  89811978.557 8      -454.065          51.000
> 2020 05 09 11 09 30.0000000  0 13        .000000000000
G02  23661523.211 4 124342143.226 4     -1996.398          29.000
G12  22230790.016 5 116823607.254 5     -2557.816          32.000    22230795.750 5  91031377.837 5     -1993.110          32.000
G25  20473430.984 8 107588605.973 8     -1134.270          51.000    20473433.031 8  83835280.993 8      -883.846          51.000
G29  20286254.578 8 106604996.105 8       663.734          51.000    20286254.023 8  83068823.975 8       517.196          51.000
G32  23810560.695 8 125125379.426 8     -2764.852          48.000    23810560.867 8  97500277.952 8     -2154.430          48.000
R15  20612682.266 8 110147913.674 8     -2493.617          51.000    20612684.656 8  85670600.135 8     -1939.480          48.000
R17  20679880.508 5 110662218.027 5     -3010.742          32.000    20679849.867 5  86070505.015 5     -2341.688          30.000
R18  19223461.430 8 102616239.033 8       875.414          50.000    19223464.164 8  79812619.641 8       680.878          48.000
C27  21524889.617 8 112085737.792 8       488.438          51.000
C28  23523451.352 6 122492762.418 6     -2437.887          36.000
C30  24086778.773 6 125426277.281 6      2966.949          39.000
E15  24803080.820 8 130341080.123 8      2637.145          51.000    24803085.000 8  99871749.444 8      2020.672          51.000
E30  22308152.328 8 117230120.240 8      -599.859          51.000    22308153.031 8  89825675.334 8      -459.603          51.000
> 2020 05 09 11 10  0.0000000  0 12        .000000000000
G25  20479933.711 8 107622777.275 8     -1145.734          51.000    20479935.539 8  83861907.957 8      -892.780          51.000
G29  20282506.977 8 106585301.446 8       647.402          51.000    20282505.789 8  83053477.494 8       504.469          51.000
G32  23826360.656 7 125208366.569 7     -2772.129          47.000    23826363.047 7  97564967.963 7     -2160.100          47.000
R15  20626719.531 8 110222924.829 8     -2508.914          51.000    20626722.133 8  85728942.070 8     -1951.381          48.000
R17  20696802.625 5 110752770.644 5     -3027.609          32.000    20696773.492 5  86140934.119 5     -2354.813          30.000
R18  19218609.789 8 102590339.890 8       849.289          50.000    19218612.719 8  79792475.881 8       660.558          48.000
C27  21522115.023 8 112071289.309 8       472.949          51.000
C28  23537514.234 5 122566002.149 5     -2446.328          32.000
C30  24069703.789 6 125337364.857 6      2959.078          40.000
E02  26681636.273 5 140212941.207 5     -2313.652          33.000
E15  24788046.016 8 130262070.205 8      2628.391          51.000    24788050.062 8  99811209.405 8      2013.938          51.000
E30  22311594.867 8 117248210.135 8      -607.969          51.000    22311595.617 8  89839536.405 8      -465.795          51.000
> 2020 05 09 11 10 30.0000000  0 11        .000000000000
G25  20486511.641 8 107657343.882 8     -1157.398          51.000    20486513.203 8  83888842.964 8      -901.869          51.000
G29  20278862.383 8 106566148.961 8       630.816          51.000    20278861.328 8  83038553.485 8       491.545          51.000
G32  23842211.414 7 125291664.110 7     -2779.484          47.000    23842214.984 7  97629875.076 7     -2165.835          47.000
R15  20640852.805 8 110298449.324 8     -2524.582          51.000    20640855.250 7  85787683.306 7     -1963.567          47.000
R18  19213915.148 8 102565278.120 8       822.828          50.000    19213918.180 8  79772983.373 8       639.977          48.000
C27  21519439.477 8 112057356.786 8       457.238          51.000
C28  23551636.812 5 122639563.465 5     -2454.992          30.000
C30  24052683.453 7 125248733.116 7      2951.121          43.000
E02  26694857.570 5 140282422.727 5     -2318.281          34.000
E15  24773071.148 8 130183376.467 8      2619.305          51.000    24773074.992 8  99750911.647 8      2006.964          51.000
E30  22315093.430 8 117266595.575 8      -616.320          51.000    22315094.461 8  89853623.942 8      -472.260          51.000
> 2020 05 09 11 11  0.0000000  0 11        .000000000000
G25  20493145.211 8 107692203.689 8     -1167.797          51.000    20493146.648 8  83916006.443 8      -909.972          51.000
G29  20275301.539 8 106547436.401 8       615.594          51.000    20275300.484 8  83023972.256 8       479.683          51.000
G32  23858093.469 7 125375125.002 7     -2785.590          47.000    23858097.734 7  97694909.483 7     -2170.593          46.000
R15  20655062.375 8 110374382.509 8     -2538.863          51.000    20655064.797 7  85846742.434 7     -1974.671          46.000
R18  19209357.992 8 102540950.230 8       797.738          51.000    19209361.227 8  79754061.693 8       620.466          49.000
C27  21516843.273 8 112043838.989 8       442.777          51.000
C28  23565801.625 5 122713329.648 5     -2463.512          30.000
C30  24035698.195 7 125160282.440 7      2944.430          45.000
E02                                                                  26708103.680 6 107542460.688 6     -1778.907          36.000
E15  24758137.008 8 130104898.573 8      2611.457          51.000    24758140.898 8  99690779.262 8      2000.990          51.000
E30  22318628.812 8 117285175.158 8      -623.445          51.000    22318630.102 8  89867860.226 8      -477.672          51.000
> 2020 05 09 11 11 30.0000000  0 12        .000000000000
G18  24139739.461 6 126855183.962 6      3745.652          36.000
G25  20499842.078 8 107727396.954 8     -1178.469          51.000    20499843.867 8  83943429.761 8      -918.290          51.000
G29  20271832.070 8 106529203.676 8       600.031          51.000    20271831.000 8  83009764.923 8       467.557          51.000
G32  23874013.703 7 125458786.470 7     -2791.754          45.000    23874018.211 7  97760100.211 7     -2175.390          45.000
R15  20669355.578 8 110450764.604 8     -2553.316          50.000    20669358.711 7  85906150.722 7     -1985.916          46.000
R18  19204946.203 8 102517397.433 8       772.434          51.000    19204949.328 8  79735742.863 8       600.782          49.000
C27  21514334.422 8 112030775.717 8       428.102          51.000
C28  23580015.586 5 122787328.745 5     -2471.590          30.000
C30  24018755.539 7 125072054.127 7      2937.516          46.000
E02                                                                  26721367.875 6 107595870.596 6     -1781.778          40.000
E15  24743251.961 8 130026678.409 8      2603.273          51.000    24743255.812 8  99630844.363 8      1994.680          51.000
E30  22322208.969 8 117303989.722 8      -630.895          51.000    22322210.234 8  89882276.579 8      -483.413          51.000
> 2020 05 09 11 12  0.0000000  0 13        .000000000000
G14  23241080.859 6 122132707.249 6     -1615.922          36.000
G18  24118364.141 5 126742854.012 5      3743.660          35.000
G25  20506601.914 8 107762920.896 8     -1189.477          51.000    20506604.008 8  83971110.749 8      -926.862          51.000
G29  20268453.289 8 106511447.955 8       584.062          51.000    20268452.266 8  82995929.309 8       455.117          51.000
G32  23889971.227 7 125542642.944 7     -2798.332          45.000    23889975.430 7  97825442.864 7     -2180.518          45.000
R15  20683732.570 8 110527592.159 8     -2568.148          51.000    20683736.156 7  85965905.469 7     -1997.449          47.000
R18  19200679.062 8 102494617.380 8       746.676          51.000    19200682.039 8  79718025.054 8       580.748          49.000
C27  21511912.438 8 112018164.167 8       413.016          51.000
C28  23594277.008 5 122861590.379 5     -2478.770          33.000
C30  24001855.250 7 124984047.009 7      2930.020          47.000
E02                                                                  26734655.148 6 107649373.516 6     -1784.684          40.000
E15  24728415.938 8 129948714.880 8      2594.754          51.000    24728419.531 8  99571106.086 8      1988.122          51.000
E30  22325833.516 8 117323037.129 8      -638.633          51.000    22325834.727 8  89896871.345 8      -489.270          51.000
> 2020 05 09 11 12 30.0000000  0 14        .000000000000
G14  23250342.047 5 122181373.996 5     -1628.070          34.000
G18  24096992.492 5 126630548.765 5      3743.035          33.000
G25  20513420.234 8 107798751.701 8     -1198.754          51.000    20513422.445 8  83999030.851 8      -934.094          51.000
G29  20265160.875 8 106494145.271 8       569.832          51.000    20265159.633 8  82982446.710 8       444.025          51.000
G32  23905960.797 7 125626667.672 7     -2802.953          45.000    23905964.195 7  97890916.608 7     -2184.119          45.000
R15  20698188.773 8 110604840.126 8     -2581.250          51.000    20698192.469 7  86025987.201 7     -2007.639          47.000
R16  19375186.609 6 103498771.625 6      1142.754          36.000    19375187.758 5  80499045.656 5       888.809          33.000
R18  19196551.828 8 102472585.985 8       722.594          51.000    19196554.672 8  79700889.547 8       562.017          48.000
C27  21509572.430 8 112005980.602 8       399.656          51.000
C28  23608581.336 5 122936072.106 5     -2485.258          32.000
C30  23984993.094 8 124896238.926 8      2924.266          48.000
E02                                                                  26747959.523 6 107702951.276 6     -1786.818          38.000
E15  24713624.742 8 129870985.826 8      2587.789          51.000    24713628.297 8  99511547.474 8      1982.768          51.000
E30  22329498.008 8 117342294.243 8      -644.703          51.000    22329499.289 8  89911626.790 8      -493.963          51.000
> 2020 05 09 11 13  0.0000000  0 14        .000000000000
G14  23259689.125 5 122230502.278 5     -1645.465          31.000
G25  20520308.547 8 107834950.051 8     -1213.398          51.000    20520310.852 8  84027237.355 8      -945.508          51.000
G29  20261966.062 8 106477356.297 8       550.418          51.000    20261964.789 8  82969364.375 8       428.894          51.000
G32  23921993.609 7 125710918.445 7     -2812.598          46.000    23921996.094 7  97956566.498 7     -2191.638          46.000
R15  20712734.891 8 110682569.694 8     -2599.656          51.000    20712738.609 8  86086443.485 8     -2021.958          48.000
R16  19368830.109 5 103464817.895 5      1121.559          35.000    19368832.695 5  80472637.185 5       872.323          34.000
R17  20800229.961 5 111306230.876 5     -3123.723          34.000
R18  19192576.352 8 102451365.087 8       693.277          51.000    19192579.109 8  79684384.415 8       539.216          49.000
C27  21507326.383 8 111994285.055 8       381.059          51.000
C28  23622939.695 5 123010832.267 5     -2496.824          31.000
C30  23968181.070 8 124808691.547 8      2913.254          48.000
E02                                                                  26761294.617 5 107756650.323 5     -1792.742          34.000
E15  24698889.930 8 129793553.625 8      2575.422          50.000    24698893.820 8  99452216.317 8      1973.369          51.000
E30  22333214.070 8 117361822.298 8      -656.098          51.000    22333215.883 8  89926589.840 8      -502.769          51.000
> 2020 05 09 11 13 30.0000000  0 13        .000000000000
G18  24054296.438 5 126406180.689 5      3739.059          31.000
G25  20527262.352 8 107871492.284 8     -1221.863          51.000    20527264.555 8  84055711.809 8      -952.101          51.000
G29  20258864.297 8 106461056.812 8       537.207          51.000    20258863.391 8  82956663.465 8       418.603          51.000
G32  23938064.477 8 125795368.667 8     -2816.230          48.000    23938066.164 8  98022371.807 8     -2194.468          48.000
R15  20727366.727 8 110760755.889 8     -2611.816          51.000    20727370.180 8  86147254.938 8     -2031.413          48.000
R16  19362574.227 6 103431403.347 6      1106.633          36.000    19362577.008 5  80446648.054 5       860.714          34.000
R17  20817796.375 5 111400134.033 5     -3137.062          34.000
R18  19188748.008 8 102430930.507 8       670.086          51.000    19188750.820 8  79668490.867 8       521.178          48.000
C27  21505169.648 8 111983053.926 8       368.730          51.000
C28  23637345.773 5 123085845.872 5     -2502.465          33.000
C30  23951414.812 8 124721382.901 8      2908.367          48.000
E15  24684207.086 8 129716396.210 8      2569.426          49.000    24684211.578 8  99393095.722 8      1968.814          51.000
E30  22336977.281 8 117381598.328 8      -661.227          51.000    22336979.703 8  89941742.880 8      -506.609          51.000
> 2020 05 09 11 14  0.0000000  0 14        .000000000000
G12  22363650.852 5 117521782.532 5     -2607.645          31.000
G25  20534270.367 8 107908319.062 8     -1227.879          51.000    20534272.391 8  84084407.983 8      -956.789          51.000
G29  20255844.523 8 106445187.439 8       526.105          51.000    20255843.891 8  82944297.728 8       409.952          51.000
G32  23954161.375 8 125879956.160 8     -2817.625          48.000    23954162.594 8  98088284.068 8     -2195.555          48.000
R15  20742072.469 8 110839337.586 8     -2621.582          51.000    20742075.781 8  86208373.999 8     -2039.008          48.000
R16  19356409.047 6 103398470.272 6      1094.398          37.000    19356411.539 5  80421033.465 5       851.199          34.000
R17  20835427.039 5 111494514.826 5     -3146.500          31.000
R18  19185055.773 8 102411222.520 8       649.164          51.000    19185058.578 8  79653162.446 8       504.905          48.000
C27  21503090.898 8 111972228.393 8       358.305          51.000
C28  23651788.797 5 123161052.443 5     -2505.828          33.000
C30  23934683.398 7 124634255.734 7      2905.492          47.000
E15  24669565.445 8 129639456.022 8      2565.207          48.000    24669570.453 8  99334141.566 8      1965.629          51.000
E30  22340776.578 8 117401563.709 8      -664.391          51.000    22340779.078 8  89957041.011 8      -509.082          51.000
E36  26717367.148 5 140400710.483 5     -2511.891          32.000
> 2020 05 09 11 14 30.0000000  0 14        .000000000000
G12  22378591.508 5 117600287.933 5     -2619.914          34.000    22378598.781 4  91636636.360 4     -2041.501          29.000
G25  20541344.469 8 107945493.571 8     -1244.281          51.000    20541346.352 8  84113375.123 8      -969.570          51.000
G29  20252918.516 8 106429811.084 8       504.934          51.000    20252917.938 8  82932316.155 8       393.458          51.000
G32  23970295.711 8 125964741.200 8     -2828.867          48.000    23970296.766 8  98154350.265 8     -2204.312          48.000
R15  20756863.953 8 110918378.384 8     -2641.742          51.000    20756867.031 8  86269850.116 8     -2054.691          48.000
R16  19350346.414 6 103366085.334 6      1070.484          36.000    19350348.461 5  80395845.182 5       832.599          34.000
R17  20853147.859 5 111589339.693 5     -3167.344          31.000    20853143.891 4  86791737.031 4     -2463.490          26.000
R18  19181511.602 8 102392305.152 8       617.938          50.000    19181514.523 8  79638448.930 8       480.618          48.000
C27  21501102.039 8 111961870.874 8       338.043          51.000
C28  23666281.039 5 123236512.808 5     -2518.930          34.000
C30  23917998.570 7 124547374.195 7      2892.504          46.000
E15  24654977.523 8 129562797.867 8      2551.172          49.000    24654982.484 8  99275403.514 8      1954.788          51.000
E30  22344624.031 8 117421782.194 8      -677.512          51.000    22344626.344 8  89972533.093 8      -519.168          51.000
E36  26731762.367 5 140476358.753 5     -2524.512          33.000
> 2020 05 09 11 15  0.0000000  0 15        .000000000000
G02  23791468.180 5 125025005.752 5     -2129.539          34.000
G12  22393575.766 5 117679034.493 5     -2616.230          31.000    22393584.648 4  91698001.083 4     -2038.636          29.000
G14  23297883.344 5 122431205.534 5     -1689.668          35.000
G25  20548492.711 8 107983057.642 8     -1245.797          51.000    20548494.438 8  84142645.815 8      -970.751          51.000
G29  20250094.234 8 106414970.017 8       498.652          51.000    20250093.945 8  82920751.709 8       388.560          51.000
G32  23986474.727 8 126049762.673 8     -2825.078          48.000    23986476.164 8  98220600.699 8     -2201.363          48.000
R15  20771749.516 8 110997919.979 8     -2646.656          51.000    20771751.711 8  86331715.779 8     -2058.513          48.000
R16  19344394.508 6 103334293.450 6      1062.965          38.000    19344397.883 6  80371118.136 6       826.750          36.000
R18  19178123.609 8 102374221.102 8       601.883          51.000    19178126.516 8  79624383.562 8       468.131          48.000
C27  21499211.148 8 111952022.626 8       332.520          51.000
C28  23680829.531 5 123312266.770 5     -2517.348          35.000
C30  23901368.414 7 124460781.105 7      2894.316          45.000
E15  24640451.859 8 129486465.179 8      2551.715          50.000    24640455.938 8  99216914.845 8      1955.264          51.000
E30  22348527.719 8 117442296.228 8      -675.883          51.000    22348530.039 8  89988251.621 8      -517.905          51.000
E36  26746209.414 5 140552278.466 5     -2521.945          34.000
> 2020 05 09 11 15 30.0000000  0 14        .000000000000
G02  23803706.602 5 125089312.493 5     -2153.367          35.000
G12  22408574.047 6 117757849.035 6     -2634.074          36.000    22408584.961 5  91759394.130 5     -2052.534          35.000
G25  20555680.781 8 108020831.406 8     -1268.273          51.000    20555682.656 8  84172079.894 8      -988.265          51.000
G29  20247337.344 8 106400483.044 8       471.387          51.000    20247337.398 8  82909463.185 8       367.317          51.000
G32  24002663.672 7 126134837.841 7     -2842.453          46.000    24002665.609 7  98286892.975 7     -2214.899          46.000
R15  20786694.172 8 111077778.593 8     -2673.086          51.000    20786696.336 8  86393827.985 8     -2079.070          48.000
R16  19338519.750 6 103302914.465 6      1033.730          38.000    19338524.453 6  80346712.230 6       804.010          36.000
R18  19174857.586 8 102356787.653 8       564.414          50.000    19174860.484 8  79610824.214 8       438.989          48.000
C27  21497383.766 8 111942505.294 8       306.105          51.000
C28  23695399.648 5 123388134.381 5     -2536.691          33.000
C30  23884759.203 7 124374299.730 7      2875.199          45.000
E15  24625954.539 8 129410279.748 8      2531.395          51.000    24625957.641 8  99158539.045 8      1939.571          51.000
E30  22352453.547 8 117462926.615 8      -695.312          51.000    22352456.016 8  90004059.316 8      -532.805          51.000
E36  26760673.617 5 140628284.372 5     -2540.762          35.000    26760674.852 5 107754148.245 5     -1947.144          33.000
> 2020 05 09 11 16  0.0000000  0 14        .000000000000
G02  23816040.062 5 125154119.843 5     -2161.500          35.000
G12  22423632.430 5 117836985.533 5     -2635.590          35.000
G25  20562955.531 8 108059060.730 8     -1274.812          51.000    20562957.500 8  84201868.959 8      -993.360          51.000
G29  20244694.633 8 106386596.133 8       459.918          51.000    20244694.750 8  82898642.239 8       358.381          51.000
G32  24018908.891 7 126220209.710 7     -2843.680          45.000    24018911.156 7  98353416.442 7     -2215.857          45.000
R15  20801744.188 8 111158203.732 8     -2683.152          51.000    20801746.820 8  86456380.841 8     -2086.896          48.000
R16  19332770.156 6 103272201.206 6      1020.293          39.000    19332773.914 5  80322824.146 5       793.561          35.000
R18  19171760.250 8 102340254.544 8       543.242          51.000    19171763.117 8  79597965.139 8       422.522          48.000
C27  21495666.586 8 111933562.365 8       295.488          51.000
C30  23868219.211 7 124288175.276 7      2871.812          47.000
E02  26841793.266 5 141054569.788 5     -2359.203          34.000
E15  24611532.367 8 129334489.135 8      2526.793          51.000    24611534.984 8  99100465.759 8      1936.099          51.000
E30  22356448.273 8 117483919.886 8      -698.758          51.000    22356451.031 8  90020145.063 8      -535.427          51.000
E36  26775201.289 5 140704624.734 5     -2542.828          35.000    26775201.680 5 107812641.770 5     -1948.829          32.000
> 2020 05 09 11 16 30.0000000  0 17        .000000000000
G02  23828429.500 5 125219226.587 5     -2176.336          32.000    23828436.766 5  97573464.813 5     -1695.846          30.000
G12  22438709.102 4 117916211.980 4     -2644.262          29.000    22438719.234 4  91882803.466 4     -2060.509          25.000
G25  20570279.070 8 108097546.203 8     -1288.934          51.000    20570280.898 8  84231857.619 8     -1004.364          51.000
G29  20242128.211 8 106373109.585 8       440.961          51.000    20242128.164 8  82888133.260 8       343.609          51.000
G32  24035172.258 7 126305675.957 7     -2852.266          45.000    24035174.414 7  98420013.477 7     -2222.548          45.000
R15  20816861.141 8 111238991.433 8     -2700.824          48.000    20816864.969 7  86519215.701 7     -2100.641          47.000
R16  19327107.172 6 103241952.302 6       998.289          38.000    19327110.312 6  80299297.241 6       776.444          36.000
R17  20924857.812 5 111973113.156 5     -3227.098          35.000
R18  19168793.664 8 102324419.022 8       514.320          51.000    19168796.820 8  79585648.628 8       400.027          48.000
R19  21522638.727 6 115131604.982 6      3846.203          36.000    21522635.258 5  89546795.805 5      2991.494          34.000
C27  21494021.555 8 111924996.067 8       277.355          51.000
C28  23724732.672 5 123540917.418 5     -2550.207          32.000
C30  23851710.797 8 124202211.525 8      2861.012          48.000
E02  26855282.320 5 141125460.622 5     -2366.457          33.000
E15  24597147.578 8 129258895.512 8      2514.512          51.000    24597150.406 8  99042543.423 8      1926.722          51.000
E30  22360474.164 8 117505077.295 8      -709.930          51.000    22360477.352 8  90036356.571 8      -543.993          51.000
E36  26789754.852 6 140781111.711 6     -2553.223          36.000
> 2020 05 09 11 17  0.0000000  0 17        .000000000000
G02  23840898.484 5 125284752.987 5     -2190.711          33.000
G12  22453829.289 5 117995678.179 5     -2652.219          33.000    22453848.430 4  91944707.661 4     -2066.664          29.000
G25  20577674.609 8 108136410.066 8     -1301.207          51.000    20577676.406 8  84262141.119 8     -1013.928          51.000
G29  20239661.047 8 106360145.513 8       424.016          51.000    20239661.242 8  82878031.398 8       330.402          51.000
G32  24051476.719 7 126391356.008 7     -2858.957          46.000    24051478.195 7  98486777.092 7     -2227.759          45.000
R15  20832069.367 8 111320265.336 8     -2716.551          49.000    20832074.312 8  86582428.720 8     -2112.873          48.000
R16  19321555.531 6 103212295.188 6       979.410          40.000    19321558.383 6  80276230.613 6       761.763          37.000
R17  20942999.625 5 112070165.129 5     -3242.637          34.000
R18  19165980.953 8 102309405.297 8       487.391          50.000    19165984.328 8  79573971.297 8       379.082          48.000
R19  21501108.656 5 115016441.404 5      3831.770          35.000    21501108.477 5  89457224.268 5      2980.268          35.000
C27  21492471.875 8 111916927.287 8       261.336          51.000
C28  23739450.883 6 123617572.672 6     -2559.402          36.000
C30  23835257.289 8 124116531.107 8      2851.938          50.000
E02  26868807.812 5 141196534.874 5     -2371.543          35.000
E15  24582823.789 8 129183622.735 8      2504.348          51.000    24582827.016 8  98984866.937 8      1918.874          51.000
E30  22364554.969 8 117526521.622 8      -719.008          51.000    22364558.211 8  90052787.940 8      -550.937          51.000
E36  26804354.906 6 140857833.953 6     -2560.973          37.000    26804355.930 5 107930029.345 5     -1962.594          33.000
> 2020 05 09 11 17 30.0000000  0 15        .000000000000
G18  23883985.375 5 125511188.167 5      3719.633          32.000    23884003.086 4  97800999.212 4      2898.412          28.000
G25  20585134.086 8 108175609.916 8     -1311.227          51.000    20585135.852 8  84292686.437 8     -1021.735          51.000
G29  20237285.203 8 106347661.391 8       409.125          51.000    20237285.672 8  82868303.526 8       318.799          51.000
G32  24067813.312 7 126477204.543 7     -2863.527          47.000    24067814.539 7  98553671.974 7     -2231.323          47.000
R15  20847361.656 8 111401981.424 8     -2730.242          51.000    20847366.719 8  86645985.643 8     -2123.525          48.000
R16  19316107.148 6 103183189.178 6       962.188          41.000    19316109.688 6  80253592.587 6       748.368          38.000
R18  19163314.164 8 102295170.194 8       462.461          50.000    19163317.664 8  79562899.542 8       359.689          48.000
R19  21479654.766 5 114901686.021 5      3819.281          35.000    21479657.781 6  89367970.118 6      2970.552          37.000
C27  21491009.734 8 111909313.822 8       247.148          51.000
C28  23754213.109 6 123694459.946 6     -2565.906          37.000
C30  23818850.617 8 124031093.470 8      2844.859          50.000
E02  26882356.688 5 141267737.892 5     -2374.406          32.000
E15  24568553.250 8 129108630.120 8      2496.109          51.000    24568556.648 8  98927405.103 8      1912.546          51.000
E30  22368682.430 8 117548211.186 8      -726.035          51.000    22368685.445 8  90069407.214 8      -556.304          51.000
E36  26818996.023 6 140934772.594 6     -2566.996          36.000    26818997.336 5 107988982.304 5     -1967.120          33.000
> 2020 05 09 11 18  0.0000000  0 17        .000000000000
G12  22484165.773 5 118155113.544 5     -2661.266          34.000
G14  23357534.508 5 122744664.502 5     -1779.719          33.000
G18  23862745.898 6 125399573.436 6      3719.008          36.000
G25  20592636.305 8 108215034.521 8     -1319.914          51.000    20592638.305 8  84323406.896 8     -1028.504          51.000
G29  20234979.781 8 106335545.596 8       395.742          51.000    20234979.969 8  82858862.647 8       308.371          51.000
G32  24084160.227 7 126563107.428 7     -2866.367          47.000    24084161.828 7  98620609.203 7     -2233.536          47.000
R15  20862716.031 8 111484025.862 8     -2742.230          51.000    20862719.906 7  86709797.978 7     -2132.846          47.000
R16  19310741.180 6 103154523.652 6       946.012          41.000    19310743.766 6  80231297.206 6       735.787          39.000
R17  20979497.672 4 112265509.647 4     -3266.758          29.000
R18  19160771.914 8 102281600.476 8       439.258          49.000    19160775.742 8  79552345.338 8       341.645          48.000
R19  21458258.273 6 114787228.660 6      3808.152          36.000    21458262.492 6  89278947.738 6      2961.896          40.000
C27  21489613.820 8 111902045.226 8       234.613          51.000
C28  23768999.859 5 123771467.358 5     -2570.906          35.000
C30  23802469.555 8 123945789.880 8      2839.293          50.000
E15  24554314.711 8 129033808.112 8      2489.145          50.000    24554318.008 8  98870073.967 8      1907.273          51.000
E30  22372835.453 8 117570035.415 8      -731.695          51.000    22372838.156 8  90086129.662 8      -560.650          51.000
E36  26833655.555 6 141011808.882 6     -2571.547          36.000    26833657.625 5 108048017.082 5     -1970.616          33.000
> 2020 05 09 11 18 30.0000000  0 16        .000000000000
G18  23841563.609 6 125288258.373 6      3712.395          38.000    23841564.867 5  97627214.312 5      2892.790          33.000
G25  20600242.914 8 108255007.870 8     -1334.320          51.000    20600244.992 8  84354554.940 8     -1039.730          51.000
G29  20232806.008 8 106324121.783 8       376.570          51.000    20232805.898 8  82849960.987 8       293.431          51.000
G32  24100578.539 7 126649385.896 7     -2875.020          46.000    24100580.938 7  98687839.082 7     -2240.278          46.000
R15  20878193.234 8 111566727.205 8     -2760.250          51.000    20878196.391 8  86774121.206 8     -2146.864          48.000
R16  19305519.164 6 103126630.090 6       924.367          40.000    19305522.211 6  80209602.187 6       718.952          39.000
R17  20997893.484 5 112363961.299 5     -3284.914          33.000
R18  19158415.977 8 102269025.161 8       410.047          50.000    19158419.680 8  79542564.541 8       318.925          48.000
R19  21436980.211 6 114673402.636 6      3791.082          38.000    21436984.891 7  89190416.420 7      2948.622          42.000
C27  21488345.734 8 111895442.315 8       216.215          51.000
C28  23783873.180 5 123848914.308 5     -2581.395          32.000
C30  23786175.727 8 123860942.797 8      2827.797          50.000
E02  26909524.992 5 141410506.188 5     -2383.891          35.000
E15  24540170.195 8 128959482.217 8      2476.531          49.000    24540173.242 8  98813122.957 8      1897.641          50.000
E30  22377075.984 8 117592318.905 8      -743.133          51.000    22377078.492 8  90103204.015 8      -569.410          51.000
E36  26848394.875 6 141089265.323 6     -2581.562          36.000    26848398.094 5 108107370.746 5     -1978.167          33.000
> 2020 05 09 11 19  0.0000000  0 16        .000000000000
G12  22514666.164 5 118315369.481 5     -2677.777          32.000    22514669.211 5  92193823.732 5     -2086.580          31.000
G18  23820372.445 6 125176898.259 6      3709.070          36.000    23820374.703 5  97540440.144 5      2890.179          32.000
G25  20607887.273 8 108295179.288 8     -1346.344          51.000    20607889.367 8  84385857.336 8     -1049.102          51.000
G29  20230697.078 8 106313038.785 8       359.801          51.000    20230696.664 8  82841324.880 8       280.364          51.000
G32  24117000.977 7 126735686.321 7     -2881.117          44.000    24117004.250 7  98755086.090 7     -2245.029          44.000
R15  20893726.078 8 111649727.818 8     -2775.676          51.000    20893728.633 7  86838677.180 7     -2158.862          47.000
R16  19300375.727 7 103099154.835 7       904.574          43.000    19300378.984 6  80188232.544 6       703.558          39.000
R18  19156179.367 8 102257087.766 8       383.215          49.000    19156183.445 8  79533279.933 8       298.059          48.000
R19  21415754.047 6 114559854.069 6      3776.305          39.000    21415759.320 7  89102100.909 7      2937.129          44.000
C27  21487138.656 8 111889157.396 8       200.285          51.000
C28  23798767.461 4 123926425.594 4     -2589.758          29.000
C30  23769903.016 8 123776206.277 8      2818.891          50.000
E02  26923138.602 5 141482050.896 5     -2388.770          35.000
