     3.02           OBSERVATION DATA    M (MIXED)           RINEX VERSION / TYPE
SAVERINEX           SC600               20200517 055931 LCL PGM / RUN BY / DATE
       G = GPS       R = GLONASS       C = COMPASS          COMMENT
       S = SBAS      J = QZSS          E = GALILEO          COMMENT
BEAN                                                        MARKER NAME
1                                                           MARKER NUMBER
GEODETIC                                                    MARKER TYPE
Unige DICCA         GTER                                    OBSERVER / AGENCY
SC60291900056       SC600               2.12(191202)        REC # / TYPE / VERS
                    HEMA45          NONE                    ANT # / TYPE
  4509407.8091   693652.4678  4442337.6214                  APPROX POSITION XYZ
        0.0000        0.0000        0.0000                  ANTENNA: DELTA H/E/N
G    8 C1C L1C D1C S1C C2Y L2Y D2Y S2Y                      SYS / # / OBS TYPES
R    8 C1C L1C D1C S1C C2P L2P D2P S2P                      SYS / # / OBS TYPES
C    8 C1I L1I D1I S1I C7I L7I D7I S7I                      SYS / # / OBS TYPES
E    8 C1C L1C D1C S1C C7Q L7Q D7Q S7Q                      SYS / # / OBS TYPES
DBHZ                                                        COMMENT
     30.000                                                 INTERVAL
  2020    05    17    03    00    0.0000000     GPS         TIME OF FIRST OBS
  2020    05    17    03    59   30.0000000     GPS         TIME OF LAST OBS
     0                                                      RCV CLOCK OFFS APPL
G L1C  0.00000                                              SYS / PHASE SHIFT
G L2Y  0.00000                                              SYS / PHASE SHIFT
R L1C  0.00000                                              SYS / PHASE SHIFT
R L2P  0.25000                                              SYS / PHASE SHIFT
C L1I  0.00000                                              SYS / PHASE SHIFT
C L7I  0.00000                                              SYS / PHASE SHIFT
E L1C  0.50000                                              SYS / PHASE SHIFT
E L7Q -0.25000                                              SYS / PHASE SHIFT
 12 R01  1 R02 -4 R07  5 R08  6 R09 -2 R10 -5 R11  0 R12 -1 GLONASS SLOT / FRQ #
    R13 -2 R21  4 R22 -3 R23  3                             GLONASS SLOT / FRQ #
 C1C   71.950 C2C   71.950 C2P   71.950                     GLONASS COD/PHS/BIS
    18                                                      LEAP SECONDS
*** Above antenna height is from mark to ANTENNA BOTTOM.    COMMENT
    17     4        0.0000        ANT MEASURE TYPE/HEIGT    COMMENT
    0.0000    0.0000    0.0458    0.0405    0.0000          COMMENT
                    BASE STATION                            COMMENT
                                                            END OF HEADER
> 2020 05 17 03 00  0.0000000  0 14        .000000000000
G05  20686240.789 8 108706923.197 8      -941.324          50.000    20686239.562 8  84706657.109 8      -733.499          50.000
G28  21733836.352 8 114212134.893 8      2234.469          48.000    21733834.672 6  88996484.675 6      1741.144          41.000
G30  20593141.305 8 108217691.068 8     -1061.516          51.000    20593141.188 8  84325537.927 8      -827.152          51.000
R01  22035458.156 7 117792118.876 7     -3486.195          46.000    22035459.023 6  91616101.170 6     -2711.488          36.000
R02  19098902.273 8 101915395.562 8       516.234          51.000    19098905.039 8  79267533.945 8       401.516          50.000
R12  19129622.938 8 102187029.293 8       207.391          51.000    19129625.523 8  79478796.038 8       161.304          50.000
C05  39809917.055 6 207300684.867 6         3.230          37.000    39809914.172 6 160298020.546 6         2.752          40.000
C14  21555314.164 8 112244199.690 8      -594.844          51.000    21555312.797 8  86794326.422 8      -459.944          51.000
C24  22065126.961 8 114898930.477 8      1168.301          51.000
C25  25668580.672 6 133663059.122 6      3159.258          36.000
C26  22312306.578 7 116185984.106 7     -1777.746          44.000
E01  24985736.328 8 131300936.645 8      2414.215          51.000    24985742.180 8 100607246.690 8      1849.856          51.000
E19  24375077.953 8 128091889.753 8     -1009.023          49.000    24375079.375 8  98148340.130 8      -773.178          50.000
E21  24030959.320 8 126283574.399 8      -275.477          51.000    24030961.312 8  96762732.437 8      -211.070          51.000
> 2020 05 17 03 00 30.0000000  0 14        .000000000000
G05  20691672.148 8 108735463.410 8      -960.695          51.000    20691670.648 8  84728896.240 8      -748.591          51.000
G28  21721123.758 8 114145328.500 8      2219.891          49.000    21721120.156 6  88944427.759 6      1729.785          41.000
G30  20599239.906 8 108249739.730 8     -1074.320          51.000    20599240.125 8  84350510.913 8      -837.133          51.000
R01  22055056.516 7 117896884.819 7     -3497.465          44.000    22055057.031 5  91697585.691 5     -2720.253          35.000
R02  19096057.477 8 101900215.407 8       496.477          51.000    19096060.078 8  79255727.166 8       386.148          50.000
R12  19128529.812 8 102181188.889 8       182.707          51.000    19128531.969 8  79474253.509 8       142.105          50.000
C05  39809899.352 6 207300592.428 6         3.680          37.000    39809896.453 6 160297949.092 6         2.752          40.000
C14  21558785.281 8 112262274.451 8      -609.461          51.000    21558784.141 8  86808302.968 8      -471.198          51.000
C24  22058438.281 8 114864099.953 8      1154.434          51.000
C25  25650391.289 5 133568352.911 5      3155.035          34.000
C26  22322581.672 7 116239485.579 7     -1788.434          45.000
E01  24971985.211 8 131228666.618 8      2404.539          51.000    24971988.766 8 100551870.977 8      1842.469          51.000
E19  24380865.312 8 128122301.264 8     -1017.500          50.000    24380866.656 8  98171642.453 8      -779.661          50.000
E21  24032574.898 8 126292063.768 8      -289.672          51.000    24032576.797 8  96769237.286 8      -221.962          51.000
> 2020 05 17 03 01  0.0000000  0 14        .000000000000
G05  20697208.844 8 108764557.368 8      -985.223          51.000    20697206.914 8  84751566.860 8      -767.706          51.000
G28  21708488.688 8 114078928.471 8      2200.426          51.000    21708484.070 7  88892687.459 7      1714.614          42.000
G30  20605406.320 8 108282145.399 8     -1092.246          51.000    20605406.891 8  84375762.101 8      -851.101          51.000
R01  22074711.359 7 118001952.343 7     -3513.547          43.000    22074710.961 5  91779304.848 5     -2732.759          35.000
R02  19093318.789 8 101885602.669 8       471.379          50.000    19093321.352 8  79244361.704 8       366.628          49.000
R12  19127570.141 8 102176062.082 8       152.762          51.000    19127572.445 8  79470266.019 8       118.818          50.000
C05  39809876.836 6 207300475.400 6        -1.633          36.000    39809873.922 6 160297858.617 6        -1.353          40.000
C14  21562335.133 8 112280757.614 8      -629.027          51.000    21562333.969 8  86822595.330 8      -486.440          51.000
C24  22051823.602 8 114829656.496 8      1135.504          51.000
C25  25632222.836 5 133473757.136 5      3145.352          32.000
C26  22332912.617 7 116293280.150 7     -1804.051          45.000
E01  24958283.422 8 131156657.193 8      2389.793          51.000    24958284.930 8 100496694.951 8      1831.107          51.000
E19  24386695.461 8 128152937.849 8     -1031.113          50.000    24386696.695 8  98195117.229 8      -790.152          51.000
E21  24034265.859 8 126300949.853 8      -308.996          51.000    24034267.797 8  96776046.117 8      -236.748          51.000
> 2020 05 17 03 01 30.0000000  0 14        .000000000000
G05  20702862.961 8 108794269.084 8      -998.531          51.000    20702860.914 8  84774718.823 8      -778.079          51.000
G28  21695943.750 8 114013001.649 8      2191.875          51.000    21695939.805 7  88841315.908 7      1707.955          44.000
G30  20611652.695 8 108314971.201 8     -1098.984          51.000    20611653.422 8  84401340.654 8      -856.351          51.000
R01  22094432.672 6 118107385.036 6     -3518.207          40.000    22094434.430 6  91861308.094 6     -2736.380          37.000
R02  19090698.898 8 101871624.762 8       457.500          50.000    19090701.766 8  79233490.008 8       355.836          49.000
R12  19126756.016 8 102171713.428 8       134.160          51.000    19126758.391 8  79466883.732 8       104.347          50.000
C05  39809861.852 6 207300396.599 6         4.016          36.000    39809859.000 6 160297798.429 6         3.311          40.000
C14  21565975.805 8 112299713.259 8      -637.598          51.000    21565974.531 8  86837253.040 8      -493.028          51.000
C24  22045295.969 8 114795664.158 8      1127.711          51.000
C25  25614088.461 5 133379336.923 5      3146.133          33.000
C26  22343311.547 7 116347429.960 7     -1808.664          46.000
E01  24944643.195 8 131084974.099 8      2386.176          51.000    24944643.539 8 100441768.963 8      1828.315          51.000
E19  24392580.805 8 128183864.182 8     -1033.582          50.000    24392581.953 8  98218814.001 8      -791.867          50.000
E21  24036044.586 8 126310296.491 8      -317.023          51.000    24036046.570 8  96783207.840 8      -242.881          51.000
> 2020 05 17 03 02  0.0000000  0 14        .000000000000
G05  20708620.539 8 108824524.420 8     -1018.234          51.000    20708618.266 8  84798294.397 8      -793.429          51.000
G28  21683475.297 8 113947477.205 8      2176.773          51.000    21683472.172 7  88790257.893 7      1696.187          46.000
G30  20617964.906 8 108348142.438 8     -1112.180          51.000    20617965.656 8  84427188.363 8      -866.634          51.000
R01  22114208.930 7 118213106.633 7     -3529.570          44.000    22114213.844 6  91943536.011 6     -2745.221          40.000
R02  19088184.805 8 101858208.722 8       437.160          50.000    19088187.656 8  79223055.338 8       340.013          48.000
R12  19126073.383 8 102168067.560 8       109.141          51.000    19126075.984 8  79464048.061 8        84.887          51.000
C05  39809840.531 6 207300285.373 6         3.758          37.000    39809837.672 6 160297712.457 6         2.734          40.000
C14  21569693.141 8 112319068.946 8      -652.574          51.000    21569691.844 8  86852220.075 8      -504.485          51.000
C24  22038840.922 8 114762050.470 8      1113.535          51.000
C25  25595975.391 5 133285020.673 5      3141.879          34.000
C26  22353764.320 7 116401860.679 7     -1819.629          47.000
E01  24931050.977 8 131013545.268 8      2376.121          51.000    24931051.008 8 100387037.793 8      1820.694          51.000
E19  24398507.227 8 128215007.290 8     -1042.273          49.000    24398508.320 8  98242676.879 8      -798.646          50.000
E21  24037896.914 8 126320029.722 8      -331.461          51.000    24037898.680 8  96790665.778 8      -253.959          51.000
> 2020 05 17 03 02 30.0000000  0 15        .000000000000
G05  20714485.969 8 108855347.548 8     -1036.250          51.000    20714483.703 8  84822312.441 8      -807.468          51.000
G28  21671088.531 8 113882381.666 8      2163.422          51.000    21671085.891 7  88739534.119 7      1685.783          45.000
G30  20624347.375 8 108381682.668 8     -1123.520          51.000    20624348.219 8  84453323.614 8      -875.470          51.000
R01  22134045.586 7 118319140.899 7     -3538.953          47.000    22134051.609 6  92026007.135 6     -2752.519          41.000
R02  19085780.625 8 101845381.989 8       418.438          49.000    19085783.859 8  79213078.996 8       325.451          48.000
R11  21298784.375 5 113814245.291 5     -3374.633          34.000
R12  19125526.789 8 102165148.931 8        85.930          51.000    19125529.906 8  79461778.036 8        66.837          50.000
C05  39809817.609 6 207300165.501 6         4.891          37.000    39809814.648 6 160297619.755 6         3.591          40.000
C14  21573491.961 8 112338849.520 8      -665.688          50.000    21573490.742 8  86867515.650 8      -514.706          51.000
C24  22032463.023 8 114728840.259 8      1100.992          51.000
C25  25577888.914 6 133190834.517 6      3138.055          36.000
C26  22364275.555 8 116456595.320 8     -1828.914          48.000
E01  24917512.211 8 130942396.909 8      2367.688          51.000    24917512.391 8 100332521.526 8      1814.187          51.000
E19  24404479.672 8 128246392.376 8     -1049.473          50.000    24404480.570 8  98266725.174 8      -804.099          49.000
E21  24039827.289 8 126330173.801 8      -344.211          51.000    24039828.891 8  96798438.526 8      -263.782          51.000
> 2020 05 17 03 03  0.0000000  0 17        .000000000000
G05  20720457.117 8 108886727.931 8     -1057.680          51.000    20720455.547 8  84846764.681 8      -824.166          51.000
G07  22601702.914 5 118772749.740 5     -2492.848          33.000
G28  21658781.820 8 113817707.724 8      2146.316          51.000    21658779.219 7  88689138.863 7      1672.454          45.000
G30  20630797.953 8 108415581.026 8     -1138.203          51.000    20630798.617 8  84479737.929 8      -886.912          51.000
R01  22153938.703 7 118425476.154 7     -3551.961          47.000    22153944.742 6  92108712.364 6     -2762.636          41.000
R02  19083485.570 8 101833136.704 8       396.074          50.000    19083489.195 8  79203554.889 8       308.058          48.000
R11  21317818.320 5 113915844.479 5     -3389.250          33.000    21317824.773 5  88601327.976 5     -2636.080          30.000
R12  19125114.352 8 102162947.078 8        59.008          50.000    19125117.695 8  79460065.472 8        45.895          50.000
R13  21526781.133 6 114951804.064 6      3690.938          37.000    21526780.219 5  89406960.363 5      2870.729          33.000
C05  39809791.062 6 207300027.491 6         2.703          37.000    39809788.195 6 160297513.023 6         2.036          40.000
C14  21577370.250 8 112359045.758 8      -682.477          50.000    21577369.141 8  86883132.631 8      -527.698          51.000
C24  22026160.531 8 114696024.290 8      1084.832          50.000
C25  25559827.586 6 133096770.081 6      3130.895          38.000
C26  22374842.930 7 116511622.804 7     -1841.508          47.000
E01  24904025.531 8 130871520.762 8      2355.676          51.000    24904025.594 8 100278213.829 8      1804.947          51.000
E19  24410496.250 8 128278010.082 8     -1060.074          48.000    24410497.047 8  98290951.722 8      -812.339          49.000
E21  24041834.008 8 126340718.615 8      -360.516          51.000    24041835.508 8  96806518.324 8      -276.233          51.000
> 2020 05 17 03 03 30.0000000  0 16        .000000000000
G05  20726537.781 8 108918682.637 8     -1071.484          51.000    20726536.539 8  84871664.458 8      -834.923          51.000
G28  21646558.922 8 113753475.143 8      2137.059          51.000    21646555.664 7  88639087.528 7      1665.240          43.000
G30  20637319.750 8 108449853.572 8     -1145.391          51.000    20637320.109 8  84506443.822 8      -892.512          51.000
R01  22173890.852 7 118532128.285 7     -3556.984          47.000    22173896.727 6  92191664.040 6     -2766.540          41.000
R02  19081303.336 8 101821491.849 8       381.465          49.000    19081307.055 8  79194497.776 8       296.692          48.000
R11  21336867.398 5 114017632.354 5     -3395.035          30.000    21336867.086 4  88680496.320 4     -2640.586          29.000
R12  19124839.031 8 102161478.143 8        40.102          50.000    19124843.031 8  79458922.983 8        31.190          50.000
R13  21506069.141 6 114841204.639 6      3683.430          37.000    21506072.562 6  89320938.582 6      2864.890          38.000
C05  39809764.430 6 207299888.629 6         8.293          36.000    39809761.570 6 160297405.670 6         6.126          40.000
C14  21581331.516 8 112379675.045 8      -691.566          49.000    21581330.328 8  86899084.516 8      -534.688          51.000
C24  22019937.320 8 114663619.895 8      1076.602          51.000
C25  25541793.648 6 133002845.906 6      3131.664          39.000
C26  22385469.328 7 116566958.619 7     -1846.383          47.000
E01  24890594.227 8 130800935.483 8      2351.367          51.000    24890593.992 8 100224128.991 8      1801.703          51.000
E19  24416560.250 8 128309878.013 8     -1062.996          48.000    24416561.305 8  98315369.983 8      -814.599          49.000
E21  24043920.039 8 126351680.901 8      -368.934          51.000    24043921.547 8  96814918.004 8      -282.755          51.000
> 2020 05 17 03 04  0.0000000  0 16        .000000000000
G05  20732721.281 8 108951178.360 8     -1090.883          50.000    20732720.453 8  84896985.795 8      -850.039          50.000
G28  21634413.820 8 113689654.303 8      2121.785          49.000    21634410.086 7  88589357.047 7      1653.342          42.000
G30  20643906.453 8 108484466.943 8     -1158.020          51.000    20643906.922 8  84533415.289 8      -902.353          51.000
R01  22193895.477 7 118639062.834 7     -3567.859          46.000    22193901.414 6  92274835.370 6     -2775.002          40.000
R02  19079227.805 8 101810417.102 8       361.035          50.000    19079231.914 7  79185884.070 7       280.802          47.000
R11  21355975.250 4 114119855.990 4     -3406.953          27.000    21355970.062 4  88759873.143 4     -2649.852          27.000
R12  19124694.758 8 102160708.983 8        15.289          50.000    19124698.898 8  79458324.740 8        11.888          49.000
R13  21485424.477 6 114730965.634 6      3670.199          37.000    21485428.672 6  89235197.125 6      2854.599          40.000
C05  39809731.492 6 207299718.318 6         7.438          36.000    39809728.703 6 160297273.160 6         5.944          40.000
C14  21585369.562 8 112400705.843 8      -706.395          48.000    21585368.781 8  86915346.853 8      -546.205          51.000
C24  22013787.328 8 114631595.549 8      1062.438          51.000
C25  25523780.781 6 132909031.424 6      3126.980          38.000
C26  22396148.820 8 116622569.418 8     -1856.859          48.000
E01  24877212.008 8 130730610.343 8      2341.156          51.000    24877212.008 8 100170243.474 8      1793.858          51.000
E19  24422665.953 8 128341964.384 8     -1071.832          48.000    24422667.141 8  98339955.625 8      -821.259          49.000
E21  24046079.250 8 126363027.957 8      -383.301          51.000    24046080.820 8  96823612.515 8      -293.668          51.000
> 2020 05 17 03 04 30.0000000  0 15        .000000000000
G05  20739014.789 8 108984251.872 8     -1110.230          51.000    20739014.422 8  84922757.345 8      -865.115          50.000
G28  21622353.461 7 113626284.849 7      2106.594          43.000    21622350.023 7  88539978.303 7      1641.505          43.000
G30  20650564.805 8 108519457.351 8     -1170.719          51.000    20650565.641 8  84560680.557 8      -912.248          51.000
R01  22213958.898 7 118746316.371 7     -3578.246          44.000    22213965.086 6  92358254.788 6     -2783.080          41.000
R02  19077266.633 8 101799952.101 8       340.609          51.000    19077270.578 7  79177744.602 7       264.918          47.000
R12  19124688.602 8 102160676.773 8        -9.281          51.000    19124692.875 8  79458299.696 8        -7.219          49.000
R13  21464854.617 6 114621128.235 6      3656.461          37.000    21464859.102 7  89149768.005 7      2843.914          42.000
C05  39809699.516 6 207299551.650 6         7.113          37.000    39809696.656 6 160297144.286 6         5.630          40.000
C14  21589492.008 8 112422175.475 8      -721.070          48.000    21589491.695 8  86931948.511 8      -557.598          51.000
C24  22007717.242 8 114599988.539 8      1048.527          50.000
C25  25505796.047 5 132815365.094 5      3121.441          35.000
C26  22406887.766 8 116678490.715 8     -1867.207          48.000
E01  24863886.109 8 130660584.075 8      2331.117          51.000    24863886.867 8 100116586.975 8      1786.184          51.000
E19  24428820.461 7 128374307.226 7     -1080.457          47.000    24428821.867 8  98364737.797 8      -827.904          49.000
E21  24048318.734 8 126374796.673 8      -397.406          51.000    24048320.438 8  96832630.104 8      -304.539          51.000
> 2020 05 17 03 05  0.0000000  0 15        .000000000000
G05  20745431.781 8 109017972.970 8     -1131.539          50.000    20745431.602 8  84949033.503 8      -881.722          50.000
G28  21610392.758 7 113563439.646 7      2089.445          44.000    21610390.953 7  88491008.013 7      1628.139          43.000
G30  20657308.078 8 108554894.038 8     -1185.332          51.000    20657309.055 8  84588293.567 8      -923.635          51.000
R01  22234094.117 6 118853958.832 6     -3591.199          41.000    22234101.430 6  92441976.686 6     -2793.155          41.000
R02  19075433.945 8 101790170.679 8       317.996          51.000    19075437.523 7  79170136.832 7       247.330          47.000
R12  19124833.766 8 102161451.945 8       -35.938          51.000    19124838.148 8  79458902.619 8       -27.951          49.000
R13  21444374.859 6 114511766.751 6      3641.020          38.000    21444379.172 7  89064709.053 7      2831.904          42.000
C05  39809681.953 6 207299459.622 6         4.922          36.000    39809678.922 6 160297073.111 6         4.132          40.000
C14  21593712.719 8 112444154.048 8      -737.793          49.000    21593712.328 8  86948943.726 8      -570.466          51.000
C24  22001740.742 8 114568868.947 8      1032.500          51.000
C25  25487854.047 5 132721917.978 5      3114.688          33.000
C26  22417699.258 8 116734790.772 8     -1879.750          48.000
E01  24850630.398 8 130590928.598 8      2319.004          51.000    24850631.953 8 100063214.575 8      1776.929          51.000
E19  24435036.953 7 128406977.335 7     -1091.051          45.000    24435038.688 8  98389770.729 8      -836.030          49.000
E21  24050651.703 8 126387056.976 8      -413.512          51.000    24050653.445 8  96842024.370 8      -316.835          51.000
> 2020 05 17 03 05 30.0000000  0 15        .000000000000
G05  20751944.820 8 109052199.214 8     -1150.914          51.000    20751944.594 8  84975703.277 8      -896.816          51.000
G28  21598506.852 8 113500979.031 8      2073.969          49.000    21598505.836 7  88442337.390 7      1616.077          44.000
G30  20664109.086 8 108590633.935 8     -1198.074          51.000    20664110.047 8  84616142.819 8      -933.567          51.000
R01  22254274.141 6 118961844.209 6     -3602.145          39.000    22254283.281 6  92525887.504 6     -2801.668          40.000
R02  19073702.352 8 101780930.443 8       297.211          51.000    19073706.008 7  79162949.939 7       231.161          47.000
R12  19125103.102 8 102162889.421 8       -60.754          51.000    19125107.234 8  79460020.667 8       -47.256          48.000
R13  21423957.977 6 114402740.250 6      3626.797          37.000    21423961.953 7  88979910.637 7      2820.842          42.000
C05  39809651.625 6 207299301.960 6         4.414          37.000    39809648.633 6 160296951.198 6         3.667          40.000
C14  21598004.438 8 112466501.272 8      -752.707          50.000    21598003.531 8  86966224.021 8      -582.059          51.000
C24  21995831.578 8 114538096.505 8      1018.297          51.000
C25  25469928.398 5 132628550.937 5      3108.988          31.000
C26  22428556.477 8 116791327.492 8     -1890.102          49.000
E01  24837418.547 8 130521503.382 8      2308.688          51.000    24837420.469 8 100010018.623 8      1768.997          51.000
E19  24441288.945 7 128439833.151 7     -1099.879          46.000    24441290.578 8  98414945.967 8      -842.896          49.000
E21  24053051.266 8 126399666.492 8      -427.793          51.000    24053052.648 8  96851686.212 8      -327.798          51.000
> 2020 05 17 03 06  0.0000000  0 15        .000000000000
G05  20758569.734 8 109087013.280 8     -1170.117          51.000    20758569.086 8  85002831.115 8      -911.780          51.000
G28  21586711.445 8 113438989.175 8      2058.570          51.000    21586710.391 7  88394033.582 7      1604.081          46.000
G30  20670983.523 8 108626759.676 8     -1210.484          51.000    20670984.602 8  84644292.729 8      -943.235          51.000
R01  22274516.297 7 119070056.063 7     -3612.344          42.000    22274525.375 6  92610052.261 6     -2809.601          37.000
R02  19072088.625 8 101772318.708 8       276.680          51.000    19072092.062 8  79156251.911 8       215.195          48.000
R12  19125512.023 8 102165073.433 8       -85.055          50.000    19125515.922 8  79461719.355 8       -66.154          48.000
R13  21403620.141 6 114294136.243 6      3613.180          37.000    21403623.656 7  88895440.823 7      2810.248          42.000
C05  39809624.742 6 207299161.891 6         4.488          37.000    39809621.742 6 160296842.893 6         3.356          40.000
C14  21602383.070 8 112489300.541 8      -767.312          50.000    21602381.352 8  86983853.865 8      -593.341          51.000
C24  21990005.352 8 114507754.519 8      1004.340          51.000
C25  25452032.133 5 132535348.496 5      3104.238          34.000
C26  22439474.906 8 116848182.450 8     -1900.359          49.000
E01  24824267.039 8 130452393.677 8      2298.574          51.000    24824269.086 8  99957064.435 8      1761.212          51.000
E19  24447592.398 7 128472958.942 7     -1108.461          45.000    24447593.773 8  98440328.067 8      -849.349          49.000
E21  24055533.008 8 126412708.503 8      -441.707          51.000    24055534.359 8  96861679.442 8      -338.499          51.000
> 2020 05 17 03 06 30.0000000  0 16        .000000000000
G05  20765305.875 8 109122411.063 8     -1189.512          51.000    20765304.703 8  85030413.811 8      -926.892          51.000
G07  22702006.477 5 119299848.321 5     -2530.160          33.000
G28  21575005.359 8 113377468.408 8      2043.059          51.000    21575004.008 7  88346095.317 7      1591.994          47.000
G30  20677930.539 8 108663266.295 8     -1223.004          51.000    20677931.672 8  84672739.441 8      -952.987          51.000
R01  22294820.133 7 119178588.807 7     -3622.758          42.000    22294827.383 5  92694466.593 5     -2817.701          34.000
R02  19070592.422 8 101764333.207 8       256.023          51.000    19070595.711 8  79150040.947 8       199.129          48.000
R12  19126059.914 8 102167999.199 8      -109.664          51.000    19126063.633 8  79463994.966 8       -85.294          49.000
R13  21383361.344 6 114185953.362 6      3599.312          37.000    21383363.703 6  88811298.572 6      2799.465          40.000
C05  39809600.508 6 207299035.825 6         4.391          37.000    39809597.539 6 160296745.396 6         3.277          40.000
C14  21606847.977 8 112512548.303 8      -782.219          51.000    21606845.703 8  87001830.516 8      -604.903          51.000
C24  21984261.070 8 114477839.471 8       990.219          51.000
C25  25434163.742 5 132442308.215 5      3098.551          35.000
C26  22450453.523 8 116905350.338 8     -1910.574          49.000
E01  24811175.516 8 130383597.083 8      2288.125          51.000    24811177.250 8  99904350.175 8      1753.263          51.000
E19  24453946.680 7 128506351.203 7     -1117.297          45.000    24453948.016 8  98465914.340 8      -856.135          50.000
E21  24058096.109 8 126426178.675 8      -455.879          50.000    24058097.773 8  96872000.741 8      -349.373          51.000
> 2020 05 17 03 07  0.0000000  0 17        .000000000000
G05  20772150.398 8 109158377.983 8     -1205.426          51.000    20772148.852 8  85058439.975 8      -939.293          51.000
G07  22716453.609 5 119375777.702 5     -2532.754          32.000
G28  21563386.031 8 113316405.173 8      2030.719          51.000    21563384.391 7  88298513.585 7      1582.381          47.000
G30  20684947.266 8 108700138.718 8     -1232.207          51.000    20684948.375 8  84701471.195 8      -960.161          51.000
R01  22315180.828 6 119287426.806 6     -3629.859          40.000    22315185.969 5  92779118.321 5     -2823.227          32.000
R02  19069211.094 8 101756961.445 8       238.363          51.000    19069214.320 8  79144307.345 8       185.394          49.000
R11  21472011.797 5 114739844.872 5     -3475.836          32.000
R12  19126743.609 8 102171651.384 8      -130.871          51.000    19126747.227 8  79466835.561 8      -101.786          48.000
R13  21363178.773 6 114078180.284 6      3588.391          36.000    21363179.695 6  88727475.096 6      2790.970          39.000
C05  39809576.391 6 207298910.302 6         7.043          36.000    39809573.445 6 160296648.314 6         5.845          40.000
C14  21611396.516 8 112536231.105 8      -793.812          51.000    21611393.852 8  87020143.553 8      -613.739          51.000
C24  21978596.227 8 114448337.913 8       979.375          51.000
C25  25416322.062 5 132349417.791 5      3096.461          34.000
C26  22461489.344 8 116962815.967 8     -1917.668          50.000
E01  24798141.500 8 130315101.113 8      2281.121          51.000    24798142.930 8  99851866.280 8      1747.920          51.000
E19  24460349.070 7 128539996.557 7     -1122.879          46.000    24460350.820 8  98491694.529 8      -860.307          51.000
E21  24060737.953 8 126440062.612 8      -466.723          50.000    24060739.734 8  96882639.083 8      -357.610          51.000
> 2020 05 17 03 07 30.0000000  0 17        .000000000000
G05  20779095.867 8 109194875.780 8     -1227.449          51.000    20779094.117 8  85086879.806 8      -956.454          51.000
G07  22730964.469 6 119451975.275 6     -2540.875          38.000    22730945.164 4  93079451.040 4     -1979.915          29.000
G28  21551846.656 8 113255764.537 8      2012.215          50.000    21551845.141 7  88251261.156 7      1567.960          47.000
G30  20692026.328 8 108737338.539 8     -1247.488          51.000    20692027.398 8  84730458.071 8      -972.069          51.000
R01  22335589.883 6 119396530.613 6     -3643.254          39.000    22335595.102 5  92863976.791 5     -2833.639          33.000
R02  19067938.305 8 101750168.380 8       214.730          51.000    19067941.305 8  79139023.855 8       167.013          49.000
R11  21491568.938 6 114844339.903 6     -3489.898          36.000
R12  19127556.180 8 102175991.595 8      -158.211          51.000    19127559.461 8  79470211.297 8      -123.053          48.000
R13  21343065.883 6 113970782.445 6      3571.781          37.000    21343066.477 6  88643943.488 6      2778.055          39.000
C05  39809545.336 6 207298748.666 6         3.664          37.000    39809542.383 6 160296523.322 6         3.202          40.000
C14  21616021.461 8 112560312.258 8      -811.387          51.000    21616018.359 8  87038764.644 8      -627.352          51.000
C24  21973003.461 8 114419213.163 8       962.551          51.000
C25  25398501.766 5 132256641.535 5      3088.492          35.000
C26  22472574.805 8 117020540.884 8     -1930.469          49.000
E01  24785157.898 8 130246869.969 8      2267.949          51.000    24785159.344 8  99799585.291 8      1737.800          51.000
E19  24466792.531 7 128573858.210 7     -1134.219          45.000    24466794.773 8  98517640.447 8      -869.083          51.000
E21  24063451.508 8 126454322.531 8      -483.555          50.000    24063453.023 8  96893565.504 8      -370.519          51.000
> 2020 05 17 03 08  0.0000000  0 17        .000000000000
G05  20786168.516 8 109232042.190 8     -1244.602          51.000    20786166.508 8  85115840.658 8      -969.816          51.000
G07  22745497.586 6 119528341.913 6     -2544.305          37.000    22745475.578 5  93138957.395 5     -1982.575          33.000
G28  21540414.047 8 113195687.769 8      1998.594          49.000    21540412.891 7  88204448.095 7      1557.346          46.000
G30  20699193.852 8 108775003.416 8     -1257.828          51.000    20699194.984 8  84759807.335 8      -980.126          51.000
R01  22356075.625 7 119506039.194 7     -3651.488          43.000    22356081.695 5  92949150.119 5     -2840.046          35.000
R02  19066800.633 8 101744095.992 8       195.879          51.000    19066803.477 8  79134300.879 8       152.350          50.000
R11  21511207.195 5 114949264.131 5     -3499.188          35.000
R12  19128523.469 8 102181159.431 8      -180.504          51.000    19128526.891 8  79474230.747 8      -140.392          48.000
R13  21323050.391 6 113863903.478 6      3559.238          38.000    21323051.938 6  88560815.418 6      2768.296          41.000
C05  39809533.852 6 207298688.564 6         5.766          37.000    39809530.875 6 160296476.867 6         4.362          40.000
C14  21620749.414 8 112584929.639 8      -824.191          51.000    21620745.898 8  87057800.372 8      -637.242          51.000
C24  21967509.273 8 114390603.058 8       950.457          51.000
C25  25380731.531 6 132164118.543 6      3085.332          36.000
C26  22483736.266 8 117078661.227 8     -1938.535          50.000
E01  24772251.234 8 130179043.870 8      2259.566          51.000    24772252.602 8  99747614.656 8      1731.362          51.000
E19  24473303.758 7 128608075.306 7     -1140.922          46.000    24473306.016 8  98543858.745 8      -874.261          51.000
E21  24066262.898 8 126469096.709 8      -495.586          50.000    24066264.398 8  96904885.972 8      -379.732          51.000
> 2020 05 17 03 08 30.0000000  0 16        .000000000000
G05  20793330.555 8 109269679.103 8     -1264.176          51.000    20793328.695 8  85145168.132 8      -985.072          51.000
G28  21529051.258 8 113135979.450 8      1982.406          49.000    21529050.773 7  88157922.114 7      1544.732          45.000
G30  20706412.086 8 108812934.534 8     -1270.582          51.000    20706413.172 8  84789364.041 8      -990.064          51.000
R01  22376601.297 7 119615750.548 7     -3662.262          46.000    22376606.516 6  93034481.191 6     -2848.426          38.000
R02  19065761.023 8 101738545.717 8       174.527          51.000    19065763.484 8  79129984.014 8       135.743          51.000
R11  21530883.812 6 115054413.063 6     -3510.871          36.000    21530876.688 4  89486814.243 4     -2730.678          26.000
R12  19129607.883 8 102186953.021 8      -205.328          51.000    19129611.391 8  79478736.881 8      -159.697          48.000
R13  21303095.414 6 113757346.249 6      3544.805          38.000    21303098.359 7  88477937.594 7      2757.070          43.000
C05  39809504.336 6 207298534.512 6         5.273          36.000    39809501.234 6 160296357.739 6         4.057          40.000
C14  21625542.734 8 112609887.583 8      -839.316          51.000    21625539.125 8  87077099.455 8      -649.040          51.000
C24  21962076.055 8 114362311.932 8       935.992          51.000
C25  25362973.609 5 132071654.120 5      3079.883          34.000
C26  22494935.750 8 117136979.607 8     -1948.965          50.000
E01  24759384.289 8 130111426.538 8      2248.633          51.000    24759385.195 8  99695803.973 8      1722.960          51.000
E19  24479845.406 7 128642450.761 7     -1150.078          46.000    24479847.336 8  98570198.384 8      -881.363          51.000
E21  24069134.562 8 126484186.920 8      -510.094          51.000    24069136.281 8  96916448.612 8      -390.812          51.000
> 2020 05 17 03 09  0.0000000  0 16        .000000000000
G05  20800591.227 8 109307834.843 8     -1280.656          51.000    20800589.539 8  85174899.878 8      -997.914          51.000
G28  21517768.711 8 113076690.962 8      1969.094          49.000    21517768.555 7  88111723.283 7      1534.359          45.000
G30  20713690.094 8 108851179.920 8     -1280.238          51.000    20713690.914 8  84819165.630 8      -997.588          51.000
R01  22397174.008 7 119725712.759 7     -3669.746          47.000    22397178.500 6  93120007.316 6     -2854.247          39.000
R02  19064828.531 8 101733569.434 8       156.090          51.000    19064831.094 8  79126113.560 8       121.403          51.000
R11  21550610.508 6 115159833.367 6     -3518.672          37.000    21550605.156 4  89568807.725 4     -2736.748          29.000
R12  19130818.484 8 102193421.324 8      -226.984          51.000    19130822.297 8  79483767.818 8      -176.540          49.000
R13  21283210.695 6 113651162.781 6      3533.184          37.000    21283214.453 7  88395350.462 7      2748.032          43.000
C05  39809466.086 6 207298335.477 6         7.430          36.000    39809463.031 6 160296203.828 6         5.519          40.000
C14  21630410.727 8 112635235.168 8      -851.633          51.000    21630407.438 8  87096699.810 8      -658.537          51.000
C24  21956713.125 8 114334388.821 8       924.469          51.000
C25  25345237.078 5 131979298.685 5      3075.848          32.000
C26  22506182.422 8 117195543.333 8     -1956.328          50.000
E01  24746566.445 8 130044068.612 8      2240.738          51.000    24746567.062 8  99644192.030 8      1716.962          51.000
E19  24486426.586 7 128677034.042 7     -1156.375          47.000    24486428.266 8  98596697.253 8      -886.089          51.000
E21  24072075.656 8 126499641.862 8      -521.359          51.000    24072077.508 8  96928290.707 8      -399.555          51.000
> 2020 05 17 03 09 30.0000000  0 16        .000000000000
G05  20807965.125 8 109346585.426 8     -1297.266          51.000    20807963.375 8  85205095.157 8     -1010.853          51.000
G07  22789210.320 6 119758099.207 6     -2556.262          37.000    22789212.297 4  93318013.440 4     -1991.892          28.000
G28  21506581.570 8 113017901.356 8      1955.805          50.000    21506581.133 7  88065913.222 7      1524.007          43.000
G30  20721042.180 8 108889815.239 8     -1289.957          51.000    20721042.953 8  84849271.075 8     -1005.161          51.000
R01  22417807.508 7 119836002.169 7     -3677.316          47.000    22417811.039 6  93205787.979 6     -2860.135          39.000
R02  19064018.859 8 101729246.793 8       137.648          51.000    19064020.711 8  79122751.545 8       107.063          50.000
R11  21570401.227 5 115265600.044 5     -3526.711          35.000    21570398.328 4  89651070.639 4     -2743.000          25.000
R12  19132169.812 8 102200641.178 8      -248.707          51.000    19132173.719 8  79489383.272 8      -193.439          48.000
R13  21263411.125 6 113545433.385 6      3521.086          37.000    21263415.016 7  88313116.499 7      2738.622          43.000
C05  39809433.938 6 207298167.942 6         9.156          37.000    39809430.883 6 160296074.240 6         7.138          40.000
C14  21635368.023 8 112661048.700 8      -863.902          51.000    21635365.172 8  87116660.470 8      -667.997          51.000
C24  21951435.516 8 114306910.115 8       912.836          51.000
C26  22517490.438 8 117254427.079 8     -1963.816          49.000
E01  24733812.578 8 129977048.302 8      2232.820          51.000    24733812.750 8  99592838.794 8      1710.817          50.000
E19  24493062.148 7 128711902.513 7     -1162.562          47.000    24493063.641 8  98623414.659 8      -890.863          51.000
E21  24075100.469 8 126515537.792 8      -532.816          51.000    24075102.367 8  96940470.696 8      -408.262          51.000
> 2020 05 17 03 10  0.0000000  0 18        .000000000000
G05  20815455.523 8 109385948.667 8     -1326.875          51.000    20815454.117 8  85235767.808 8     -1033.932          51.000
G07  22803850.328 6 119835033.878 6     -2572.250          37.000    22803849.430 5  93377935.340 5     -2004.357          32.000
G13  21086999.570 5 110812929.826 5      1854.184          30.000
G28  21495493.680 8 112959631.419 8      1929.180          51.000    21495492.430 7  88020508.102 7      1503.260          43.000
G30  20728471.742 8 108928858.092 8     -1312.617          51.000    20728472.703 8  84879694.073 8     -1022.819          51.000
R01  22438504.727 7 119946636.204 7     -3698.016          44.000    22438507.180 6  93291836.724 6     -2876.231          37.000
R02  19063335.461 8 101725598.633 8       105.840          50.000    19063337.023 8  79119914.113 8        82.320          50.000
R11  21590260.234 5 115371728.746 5     -3548.070          35.000
R12  19133665.172 8 102208630.577 8      -283.711          51.000    19133669.008 8  79495597.253 8      -220.661          48.000
R13  21243701.195 6 113440180.618 6      3495.996          36.000    21243705.055 7  88231253.246 7      2719.108          43.000
C05  39809411.398 6 207298050.534 6        -1.398          36.000    39809408.359 6 160295983.445 6        -1.142          40.000
C14  21640418.391 8 112687346.966 8      -889.133          51.000    21640415.883 8  87136995.966 8      -687.615          51.000
C24  21946246.781 8 114279894.502 8       888.266          51.000
C25  25309868.500 5 131795132.894 5      3057.852          31.000
C26  22528863.055 8 117313647.881 8     -1984.043          49.000
E01  24721126.516 8 129910385.693 8      2211.621          51.000    24721125.875 8  99541759.656 8      1694.562          48.000
E19  24499755.766 8 128747075.348 8     -1182.008          48.000    24499757.047 8  98650365.273 8      -905.718          51.000
E21  24078212.773 8 126531892.846 8      -557.387          51.000    24078214.641 8  96953002.498 8      -427.077          51.000
> 2020 05 17 03 10 30.0000000  0 16        .000000000000
G05  20823049.359 8 109425855.699 8     -1337.469          51.000    20823048.617 8  85266864.179 8     -1042.183          51.000
G28  21484492.070 8 112901815.390 8      1921.473          51.000    21484490.133 7  87975456.675 7      1497.251          43.000
G30  20735965.711 8 108968239.330 8     -1316.453          51.000    20735966.695 8  84910380.745 8     -1025.808          51.000
R01  22459252.281 7 120057543.813 7     -3699.516          42.000    22459254.102 6  93378098.200 6     -2877.401          36.000
R02  19062765.344 8 101722557.582 8        93.105          51.000    19062767.180 8  79117548.852 8        72.415          50.000
R11  21610174.320 5 115478146.696 5     -3550.383          32.000
R12  19135291.648 8 102217319.135 8      -299.352          51.000    19135295.602 8  79502355.042 8      -232.826          49.000
R13  21224067.375 5 113335337.884 5      3489.789          35.000    21224072.117 7  88149708.872 7      2714.280          43.000
C05  39809385.578 6 207297916.773 6         6.758          36.000    39809382.539 6 160295879.617 6         5.180          40.000
C14  21645548.758 8 112714062.831 8      -895.660          51.000    21645546.844 8  87157654.348 8      -692.521          51.000
C24  21941134.695 8 114253274.918 8       882.578          51.000
C25  25292237.977 6 131703310.553 6      3060.262          37.000
C26  22540287.555 8 117373136.967 8     -1985.617          50.000
E01  24708495.836 8 129844014.205 8      2209.406          51.000    24708494.492 8  99490903.596 8      1692.883          48.000
E19  24506494.352 8 128782484.834 8     -1182.281          49.000    24506495.484 8  98677497.219 8      -905.967          51.000
E21  24081399.289 8 126548638.509 8      -562.730          51.000    24081401.578 8  96965833.599 8      -431.267          51.000
> 2020 05 17 03 11  0.0000000  0 15        .000000000000
G05  20830750.719 8 109466327.157 8     -1358.863          51.000    20830750.422 8  85298400.358 8     -1058.855          51.000
G28  21473581.133 8 112844477.480 8      1902.816          51.000    21473579.070 7  87930777.800 7      1482.714          43.000
G30  20743527.898 8 109007979.427 8     -1330.934          51.000    20743528.828 8  84941347.056 8     -1037.091          51.000
R01  22480053.766 6 120168745.599 6     -3711.906          41.000    22480055.594 6  93464588.416 6     -2887.041          37.000
R02  19062313.719 8 101720147.343 8        69.363          51.000    19062315.508 8  79115674.240 8        53.949          50.000
R12  19137053.109 8 102226727.823 8      -326.004          51.000    19137056.656 8  79509672.919 8      -253.559          48.000
R13  21204515.438 6 113230930.070 6      3472.660          38.000    21204520.188 7  88068502.743 7      2700.958          43.000
C05  39809360.805 6 207297786.886 6         4.008          37.000    39809357.727 6 160295779.556 6         2.879          40.000
C14  21650763.398 8 112741218.041 8      -912.883          51.000    21650762.047 8  87178652.467 8      -705.878          51.000
C24  21936103.000 8 114227073.049 8       866.043          51.000
C25  25274638.875 6 131611651.341 6      3052.035          40.000
C26  22551767.453 8 117432914.366 8     -1997.770          50.000
E01  24695925.336 8 129777956.898 8      2196.266          51.000    24695923.656 8  99440288.285 8      1682.799          49.000
E19  24513282.258 8 128818153.342 8     -1193.582          50.000    24513282.867 8  98704827.622 8      -914.593          51.000
E21  24084664.172 8 126565795.861 8      -579.145          51.000    24084666.812 8  96978980.155 8      -443.775          51.000
> 2020 05 17 03 11 30.0000000  0 16        .000000000000
G05  20838550.133 8 109507312.569 8     -1376.203          51.000    20838550.031 8  85330337.051 8     -1072.366          51.000
G07  22847926.289 6 120066626.727 6     -2580.816          37.000
G28  21462751.836 8 112787569.870 8      1888.285          51.000    21462750.062 7  87886434.220 7      1471.391          45.000
G30  20751148.727 8 109048027.509 8     -1341.457          51.000    20751149.547 8  84972553.365 8     -1045.291          51.000
R01  22500900.867 6 120280189.410 6     -3720.383          41.000    22500903.336 6  93551266.843 6     -2893.634          36.000
R02  19061970.789 8 101718319.304 8        49.738          51.000    19061972.898 8  79114252.415 8        38.685          50.000
R12  19138939.586 8 102236804.429 8      -348.520          50.000    19138942.789 8  79517510.294 8      -271.071          49.000
R13  21185036.836 6 113126908.840 6      3459.473          40.000    21185040.344 7  87987597.338 7      2690.701          42.000
C05  39809327.461 6 207297613.345 6         4.820          37.000    39809324.414 6 160295645.334 6         3.887          40.000
C14  21656053.023 8 112768763.348 8      -926.129          51.000    21656051.828 8  87199952.242 8      -716.127          51.000
C24  21931142.078 8 114201239.765 8       853.492          51.000
C25  25257060.914 6 131520107.342 6      3048.164          41.000
C26  22563292.609 8 117492929.248 8     -2005.922          49.000
E01  24683405.680 8 129712165.342 8      2187.113          51.000    24683404.312 8  99389876.585 8      1675.873          51.000
E19  24520110.133 8 128854031.252 8     -1200.852          51.000    24520109.883 8  98732318.485 8      -920.139          50.000
E21  24087998.008 8 126583314.558 8      -591.445          51.000    24088000.227 8  96992403.565 8      -453.152          51.000
> 2020 05 17 03 12  0.0000000  0 17        .000000000000
G05  20846456.648 8 109548861.263 8     -1393.609          50.000    20846456.688 8  85362712.639 8     -1085.929          50.000
G07  22862673.055 6 120144114.765 6     -2584.770          36.000    22862688.805 5  93618895.016 5     -2014.097          34.000
G28  21452014.633 8 112731144.814 8      1873.438          51.000    21452013.117 7  87842466.646 7      1459.821          46.000
G30  20758837.578 8 109088432.447 8     -1352.027          51.000    20758838.398 8  85004037.727 8     -1053.528          51.000
R01  22521803.281 7 120391923.874 7     -3728.543          45.000    22521805.477 6  93638171.432 6     -2899.978          38.000
R02  19061747.141 8 101717125.819 8        29.902          51.000    19061749.281 8  79113324.157 8        23.257          50.000
R11  21670214.883 5 115799057.515 5     -3580.578          34.000
R12  19140960.602 8 102247598.809 8      -371.168          50.000    19140963.570 8  79525905.908 8      -288.686          50.000
R13  21165640.750 6 113023328.576 6      3446.051          41.000    21165642.211 6  87907034.929 6      2680.262          41.000
C05  39809295.219 6 207297445.353 6         6.508          37.000    39809292.141 6 160295515.455 6         4.763          40.000
C14  21661427.219 8 112796748.646 8      -939.590          51.000    21661425.641 8  87221592.257 8      -726.490          51.000
C24  21926261.445 8 114175824.810 8       840.953          51.000
C25  25239514.305 7 131428729.620 7      3043.668          42.000
C26  22574872.531 8 117553229.733 8     -2014.074          49.000
E01  24670946.719 8 129646690.975 8      2177.895          51.000    24670946.195 8  99339707.929 8      1668.678          51.000
E19  24526987.242 8 128890169.169 8     -1208.211          50.000    24526986.586 8  98760008.567 8      -925.763          50.000
E21  24091410.016 8 126601244.026 8      -603.750          51.000    24091411.836 8  97006141.728 8      -462.629          51.000
> 2020 05 17 03 12 30.0000000  0 17        .000000000000
G05  20854458.500 8 109590910.892 8     -1412.941          50.000    20854458.102 8  85395478.565 8     -1100.993          50.000
G07  22877436.984 5 120221695.228 5     -2590.773          35.000    22877447.586 5  93679347.169 5     -2018.784          32.000
G28  21441358.203 8 112675143.223 8      1856.773          51.000    21441356.906 8  87798829.038 8      1446.836          48.000
G30  20766582.508 8 109129132.073 8     -1364.512          51.000    20766583.398 8  85035751.718 8     -1063.256          51.000
R01  22542748.430 7 120503885.561 7     -3738.742          43.000    22542751.469 6  93725252.734 6     -2907.908          40.000
R02  19061630.922 8 101716506.698 8         8.180          51.000    19061633.383 8  79112842.604 8         6.359          50.000
R11  21690366.953 5 115906693.270 5     -3590.613          35.000    21690378.062 5  90149680.291 5     -2792.696          30.000
R12  19143103.844 8 102259047.608 8      -395.332          50.000    19143106.734 8  79534810.520 8      -307.484          50.000
R13  21146315.266 6 112920129.239 6      3430.480          40.000    21146314.891 6  87826768.784 6      2668.151          40.000
C05  39809252.523 6 207297222.933 6         5.547          36.000    39809249.453 6 160295343.433 6         4.168          40.000
C14  21666874.289 8 112825113.540 8      -954.754          50.000    21666872.352 8  87243525.785 8      -738.210          51.000
C24  21921449.414 8 114150767.916 8       826.379          51.000
C25  25221987.680 7 131337459.051 7      3037.742          42.000
C26  22586495.531 8 117613753.978 8     -2024.059          48.000
E01  24658536.961 8 129581474.134 8      2166.703          51.000    24658537.461 8  99289736.598 8      1660.222          51.000
E19  24533902.070 8 128926506.505 8     -1217.461          50.000    24533901.453 8  98787851.427 8      -932.827          49.000
E21  24094888.469 8 126619522.674 8      -618.016          51.000    24094890.562 8  97020147.459 8      -473.538          51.000
> 2020 05 17 03 13  0.0000000  0 17        .000000000000
G05  20862580.766 8 109633591.687 8     -1431.738          51.000    20862579.250 8  85428736.320 8     -1115.640          51.000
G07  22892242.852 5 120299498.407 5     -2595.965          32.000    22892251.078 4  93739972.923 4     -2022.836          28.000
G28  21430807.531 8 112619698.729 8      1840.363          51.000    21430806.711 8  87755625.559 8      1434.052          48.000
G30  20774408.211 8 109170256.349 8     -1376.402          51.000    20774409.008 8  85067796.612 8     -1072.521          51.000
R01  22563759.984 6 120616206.197 6     -3748.215          41.000    22563764.484 6  93812613.237 6     -2915.278          40.000
R02  19061647.648 8 101716596.785 8       -13.332          51.000    19061650.453 8  79112912.660 8       -10.369          49.000
R11  21710553.945 5 116014578.574 5     -3601.277          31.000    21710563.156 4  90233630.186 4     -2800.987          26.000
R12  19145394.836 8 102271282.837 8      -419.344          50.000    19145397.461 8  79544326.800 8      -326.153          51.000
R13  21127086.055 6 112817447.463 6      3415.680          40.000    21127085.297 6  87746905.198 6      2656.640          39.000
C05  39809224.312 6 207297076.308 6         4.738          36.000    39809221.352 6 160295230.026 6         3.909          40.000
C14  21672419.289 8 112853988.243 8      -969.422          50.000    21672417.211 8  87265853.524 8      -749.697          51.000
C24  21916731.602 8 114126199.248 8       812.344          51.000
C25  25204506.023 6 131246427.019 6      3032.062          40.000
C26  22598185.883 7 117674630.479 7     -2033.621          47.000
E01  24646201.242 8 129516647.368 8      2155.863          51.000    24646202.547 8  99240064.156 8      1651.916          51.000
E19  24540879.719 8 128963174.598 8     -1226.277          50.000    24540879.109 8  98815947.736 8      -939.615          49.000
E21  24098457.992 8 126638281.044 8      -631.750          51.000    24098460.258 8  97034520.762 8      -484.068          51.000
> 2020 05 17 03 13 30.0000000  0 16        .000000000000
G05  20870805.125 8 109676808.560 8     -1450.055          51.000    20870802.523 8  85462411.801 8     -1129.910          51.000
G28  21420344.984 8 112564719.013 8      1824.363          50.000    21420344.797 8  87712784.250 8      1421.582          49.000
G30  20782296.547 8 109211709.773 8     -1387.781          51.000    20782297.180 8  85100097.979 8     -1081.388          51.000
R01  22584818.039 6 120728787.887 6     -3757.348          39.000    22584825.828 6  93900176.897 6     -2922.375          38.000
R02  19061779.539 8 101717301.481 8       -34.445          51.000    19061782.547 8  79113460.736 8       -26.791          48.000
R11  21730794.188 5 116122731.274 5     -3610.383          31.000    21730793.789 5  90317749.031 5     -2808.072          30.000
R12  19147814.586 8 102284207.024 8      -442.895          51.000    19147817.062 8  79554378.955 8      -344.474          50.000
R13  21107935.883 6 112715189.648 6      3400.793          39.000    21107934.875 6  87667371.353 6      2645.061          39.000
C05  39809192.852 6 207296912.073 6         5.094          37.000    39809189.781 6 160295103.003 6         4.159          40.000
C14  21678044.289 8 112883279.404 8      -983.969          50.000    21678041.812 8  87288503.277 8      -760.840          51.000
C24  21912089.883 8 114102025.397 8       798.629          51.000
C25  25187050.797 6 131155541.370 6      3026.598          36.000
C26  22609925.531 7 117735764.167 7     -2042.656          46.000
E01  24633921.602 8 129452117.616 8      2145.438          51.000    24633923.391 8  99190619.301 8      1643.892          51.000
E19  24547902.328 8 129000079.867 8     -1234.727          49.000    24547901.719 8  98844225.785 8      -946.080          48.000
E21  24102100.812 8 126657424.122 8      -645.133          51.000    24102102.258 8  97049188.825 8      -494.305          51.000
> 2020 05 17 03 14  0.0000000  0 15        .000000000000
G05  20879150.500 8 109720662.324 8     -1469.500          51.000    20879147.391 8  85496583.575 8     -1145.065          51.000
G28  21409990.602 8 112510308.540 8      1807.152          50.000    21409990.812 8  87670386.475 8      1408.171          48.000
G30  20790266.664 8 109253593.357 8     -1400.289          51.000    20790267.258 8  85132734.540 8     -1091.134          51.000
R01  22605946.070 7 120841732.881 7     -3767.746          43.000    22605954.820 6  93988023.066 6     -2930.469          37.000
R02  19062046.734 8 101718726.663 8       -56.520          51.000    19062049.602 8  79114569.191 8       -43.963          48.000
R12  19150382.523 8 102297922.814 8      -467.320          50.000    19150384.930 8  79565046.787 8      -363.471          51.000
R13  21088884.812 6 112613462.600 6      3384.766          38.000    21088883.859 6  87588250.334 6      2632.595          39.000
C05  39809177.320 6 207296831.788 6         4.203          36.000    39809174.359 6 160295040.925 6         3.326          40.000
C14  21683768.797 8 112913088.294 8      -999.320          51.000    21683765.695 8  87311553.387 8      -772.705          51.000
C24  21907543.109 8 114078347.759 8       783.902          51.000
C25  25169637.898 4 131064916.789 4      3019.398          28.000
C26  22621734.188 7 117797254.936 7     -2052.590          46.000
E01  24621717.602 8 129387988.406 8      2133.926          51.000    24621719.555 8  99141481.337 8      1635.146          51.000
E19  24554989.367 8 129037324.652 8     -1244.184          48.000    24554989.008 8  98872763.958 8      -953.282          48.000
E21  24105836.148 8 126677053.476 8      -659.438          51.000    24105837.445 8  97064229.502 8      -505.298          51.000
> 2020 05 17 03 14 30.0000000  0 15        .000000000000
G05  20887588.891 8 109765006.522 8     -1486.801          51.000    20887585.852 8  85531137.500 8     -1158.546          51.000
G28  21399716.992 8 112456323.489 8      1791.859          49.000    21399717.547 7  87628320.185 7      1396.254          47.000
G30  20798290.742 8 109295760.367 8     -1410.773          51.000    20798291.242 8  85165591.945 8     -1099.304          51.000
R01  22627116.094 7 120954891.514 7     -3775.992          46.000    22627123.250 6  94076035.288 6     -2936.886          37.000
R02  19062421.484 8 101720726.211 8       -76.738          51.000    19062424.070 7  79116124.372 7       -59.688          47.000
R12  19153070.531 8 102312280.785 8      -489.789          51.000    19153073.055 8  79576214.099 8      -380.947          50.000
R13  21069906.195 6 112512120.433 6      3371.152          38.000    21069906.711 6  87509428.676 6      2622.007          41.000
C05  39809150.344 6 207296691.543 6         5.098          37.000    39809147.438 6 160294932.483 6         3.987          40.000
C14  21689564.930 8 112943270.914 8     -1012.832          50.000    21689561.609 8  87334892.504 8      -783.159          51.000
C24  21903063.883 8 114055022.249 8       771.184          51.000
C25  25152245.531 5 130974350.306 5      3014.785          30.000
C26  22633583.836 7 117858957.123 7     -2060.680          47.000
E01  24609562.258 8 129324115.521 8      2124.293          50.000    24609563.812 8  99092539.754 8      1627.741          51.000
E19  24562113.312 7 129074763.767 7     -1251.738          47.000    24562113.430 8  98901451.055 8      -959.088          48.000
E21  24109636.211 8 126697022.908 8      -671.773          51.000    24109637.906 8  97079530.763 8      -514.682          51.000
> 2020 05 17 03 15  0.0000000  0 15        .000000000000
G05  20896125.836 8 109809869.761 8     -1504.230          51.000    20896123.164 8  85566095.887 8     -1172.125          51.000
G28  21389530.492 8 112402795.647 8      1776.371          49.000    21389531.117 7  87586610.152 7      1384.185          46.000
G30  20806374.219 8 109338239.324 8     -1421.324          51.000    20806374.633 8  85198692.414 8     -1107.525          51.000
R01  22648331.484 7 121068291.901 7     -3784.176          47.000    22648337.711 6  94164235.520 6     -2943.248          39.000
