     3.02           OBSERVATION DATA    M (MIXED)           RINEX VERSION / TYPE
SAVERINEX           SC600               20200505 195930 LCL PGM / RUN BY / DATE
       G = GPS       R = GLONASS       C = COMPASS          COMMENT
       S = SBAS      J = QZSS          E = GALILEO          COMMENT
BEAN                                                        MARKER NAME
1                                                           MARKER NUMBER
GEODETIC                                                    MARKER TYPE
Unige DICCA         GTER                                    OBSERVER / AGENCY
SC60291900056       SC600               2.12(191226)        REC # / TYPE / VERS
                    HEMA45          NONE                    ANT # / TYPE
  4509407.8091   693652.4678  4442337.6214                  APPROX POSITION XYZ
        0.0000        0.0000        0.0000                  ANTENNA: DELTA H/E/N
G    8 C1C L1C D1C S1C C2Y L2Y D2Y S2Y                      SYS / # / OBS TYPES
R    8 C1C L1C D1C S1C C2P L2P D2P S2P                      SYS / # / OBS TYPES
C    8 C1I L1I D1I S1I C7I L7I D7I S7I                      SYS / # / OBS TYPES
E    8 C1C L1C D1C S1C C7Q L7Q D7Q S7Q                      SYS / # / OBS TYPES
DBHZ                                                        COMMENT
     30.000                                                 INTERVAL
  2020    05    05    17    00    0.0000000     GPS         TIME OF FIRST OBS
  2020    05    05    17    59   30.0000000     GPS         TIME OF LAST OBS
     0                                                      RCV CLOCK OFFS APPL
G L1C  0.00000                                              SYS / PHASE SHIFT
G L2Y  0.00000                                              SYS / PHASE SHIFT
R L1C  0.00000                                              SYS / PHASE SHIFT
R L2P  0.25000                                              SYS / PHASE SHIFT
C L1I  0.00000                                              SYS / PHASE SHIFT
C L7I  0.00000                                              SYS / PHASE SHIFT
E L1C  0.50000                                              SYS / PHASE SHIFT
E L7Q -0.25000                                              SYS / PHASE SHIFT
 13 R01  1 R02 -4 R03  5 R07  5 R08  6 R10 -5 R12 -1 R13 -2 GLONASS SLOT / FRQ #
    R14 -7 R15  0 R17  4 R22 -3 R23  3                      GLONASS SLOT / FRQ #
 C1C   71.950 C2C   71.950 C2P   71.950                     GLONASS COD/PHS/BIS
    18                                                      LEAP SECONDS
*** Above antenna height is from mark to ANTENNA BOTTOM.    COMMENT
    17     4        0.0000        ANT MEASURE TYPE/HEIGT    COMMENT
    0.0000    0.0000    0.0458    0.0405    0.0000          COMMENT
                    BASE STATION                            COMMENT
                                                            END OF HEADER
> 2020 05 05 17 00  0.0000000  0 12        .000000000000
G10  20923205.945 8 109952199.197 8      -184.496          51.000    20923208.047 8  85677060.329 8      -143.763          51.000
G16  22264560.461 7 117001053.521 7     -3115.449          47.000    22264559.336 7  91169633.738 7     -2427.626          44.000
G21  24997499.336 5 131362708.802 5     -2600.984          32.000
G27  20283084.867 8 106588320.549 8      -158.379          51.000    20283085.883 8  83055842.034 8      -123.412          51.000
R01  20685913.891 5 110578045.383 5      -633.914          32.000
R02  21514883.906 8 114807533.635 8      3804.680          50.000    21514890.414 7  89294740.878 7      2959.195          47.000
R15  21577229.172 6 115302168.464 6     -2372.895          40.000
C05  39618959.734 5 206306319.540 5       -13.406          35.000    39618963.445 6 159529148.221 6       -10.345          37.000
C14  22531308.930 7 117326490.488 7       604.340          47.000    22531307.141 7  90724213.253 7       467.344          47.000
C28  21703273.961 6 113014629.949 6       779.688          38.000
E31  25271667.289 8 132803510.959 8     -1882.594          50.000    25271673.375 8 101758539.506 8     -1442.528          51.000
E33  23570926.156 7 123866044.280 7        73.988          47.000    23570927.703 7  94910335.216 7        56.734          47.000
> 2020 05 05 17 00 30.0000000  0 11        .000000000000
G10  20924331.977 8 109958115.332 8      -207.984          51.000    20924334.188 8  85681670.311 8      -162.066          51.000
G16  22282395.320 7 117094778.002 7     -3130.844          47.000    22282394.328 7  91242665.763 7     -2439.619          44.000
G27  20284049.023 8 106593386.916 8      -177.391          51.000    20284049.812 8  83059789.850 8      -138.226          51.000
R01  20689563.188 6 110597563.676 6      -665.898          36.000    20689570.805 4  86020353.750 4      -517.918          27.000
R02  21493549.781 8 114693685.369 8      3787.242          51.000    21493555.625 7  89206192.205 7      2945.630          46.000
R15  21590615.984 6 115373756.099 6     -2397.969          41.000
C05                                                                  39619060.484 6 159529538.828 6       -13.961          37.000
C14  22527894.805 7 117308712.591 7       582.621          47.000    22527892.156 7  90710466.260 7       450.668          46.000
C28  21698824.062 6 112991459.070 6       767.219          39.000
E31  25282466.445 8 132860261.257 8     -1898.816          50.000    25282471.102 8 101802023.460 8     -1454.856          50.000
E33  23570537.672 7 123864000.120 7        64.172          46.000    23570538.477 7  94908768.918 7        49.159          47.000
> 2020 05 05 17 01  0.0000000  0 12        .000000000000
G10  20925550.188 8 109964516.751 8      -223.020          51.000    20925552.531 8  85686658.441 8      -173.781          51.000
G16  22300275.562 7 117188742.106 7     -3137.512          46.000    22300275.258 7  91315884.527 7     -2444.811          44.000
G27  20285080.344 8 106598806.300 8      -188.066          51.000    20285080.828 8  83064012.759 8      -146.545          51.000
R01  20693352.773 5 110617819.292 5      -689.152          32.000    20693358.281 4  86036116.092 4      -536.007          25.000
R02  21472272.672 8 114580141.772 8      3778.207          51.000    21472278.352 7  89117880.559 7      2938.605          44.000
R15  21604106.125 7 115445882.932 7     -2414.703          42.000    21604125.969 5  89791247.749 5     -1878.102          30.000
R24  20579182.078 5 110046090.463 5     -1789.637          30.000    20579183.367 5  85591436.968 5     -1391.940          31.000
C05  39619138.625 5 206307250.801 5       -14.645          34.000    39619142.562 6 159529869.088 6       -11.249          37.000
C14  22524563.422 8 117291365.003 8       569.707          48.000    22524560.312 7  90697052.036 7       440.434          47.000
C28  21694404.945 6 112968447.794 6       763.086          40.000
E31  25293316.195 8 132917277.001 8     -1906.391          50.000    25293318.820 8 101845710.840 8     -1460.792          50.000
E33  23570163.773 7 123862034.344 7        62.629          45.000    23570164.273 7  94907262.672 7        48.060          47.000
> 2020 05 05 17 01 30.0000000  0 13        .000000000000
G10  20926842.852 8 109971309.269 8      -239.172          51.000    20926845.062 8  85691951.310 8      -186.365          51.000
G16  22318183.117 7 117282849.887 7     -3145.543          47.000    22318183.742 7  91389215.251 7     -2451.072          44.000
G27  20286161.070 8 106604485.715 8      -199.941          51.000    20286161.586 8  83068438.277 8      -155.798          51.000
R01  20697261.406 5 110638715.696 5      -713.461          33.000
R02  21451035.445 8 114466812.021 8      3767.723          48.000    21451040.258 6  89029735.300 6      2930.454          38.000
R15  21617681.875 6 115518449.995 6     -2432.652          39.000    21617707.305 4  89847695.678 4     -1892.060          25.000
R24  20589213.844 6 110099727.388 6     -1796.027          36.000    20589211.875 4  85633154.463 4     -1396.910          29.000
C05  39619187.750 5 206307506.595 5       -12.219          34.000    39619191.781 6 159530067.272 6        -9.273          37.000
C11  25010804.273 5 130237797.825 5     -2446.402          31.000    25010796.695 4 100708114.238 4     -1891.991          28.000
C14  22521297.141 8 117274355.595 8       555.160          49.000    22521294.141 8  90683899.308 8       429.330          48.000
C28  21689999.125 6 112945504.105 6       757.371          41.000
E31  25304198.672 8 132974463.082 8     -1915.203          51.000    25304200.133 8 101889528.721 8     -1467.481          51.000
E33  23569786.422 7 123860053.272 7        60.059          45.000    23569787.383 8  94905744.700 8        46.040          48.000
> 2020 05 05 17 02  0.0000000  0 12        .000000000000
G10  20928312.375 8 109979031.803 8      -265.332          51.000    20928314.477 8  85697968.879 8      -206.752          51.000
G16  22336220.492 7 117377638.105 7     -3163.512          46.000    22336221.688 7  91463076.194 7     -2465.074          45.000
G27  20287394.039 8 106610965.292 8      -221.727          51.000    20287394.945 8  83073487.296 8      -172.774          51.000
R01  20701392.188 5 110660808.657 5      -748.301          32.000
R02  21429940.305 6 114354248.446 6      3747.043          39.000    21429941.359 6  88942186.064 6      2914.373          36.000
R15  21631443.383 6 115592002.010 6     -2460.504          41.000
R24  20599361.961 6 110154000.953 6     -1812.051          37.000    20599362.867 5  85675367.207 5     -1409.376          32.000
C05  39619306.773 5 206308126.149 5       -19.082          34.000    39619310.812 6 159530546.748 6       -15.024          37.000
C14  22518198.281 8 117258219.364 8       530.828          49.000    22518195.773 8  90671421.778 8       410.458          49.000
C28  21685708.609 6 112923163.286 6       741.980          40.000
E31  25315216.359 8 133032357.477 8     -1934.023          51.000    25315217.375 8 101933889.328 8     -1481.905          51.000
E33  23569508.883 7 123858596.357 7        47.418          46.000    23569510.508 8  94904628.349 8        36.249          48.000
> 2020 05 05 17 02 30.0000000  0 13        .000000000000
G10  20929834.633 8 109987031.571 8      -275.527          51.000    20929836.430 8  85704202.464 8      -214.697          51.000
G16  22354263.195 7 117472451.946 7     -3165.113          47.000    22354264.305 7  91536957.070 7     -2466.322          44.000
G27  20288655.211 8 106617593.526 8      -227.723          51.000    20288656.484 8  83078652.142 8      -177.446          51.000
R01  20705622.195 5 110683418.059 5      -766.902          32.000
R02  21408860.898 6 114241792.953 6      3742.344          40.000    21408865.500 6  88854720.627 6      2910.709          40.000
R15  21645266.062 6 115665872.145 6     -2471.848          41.000
R23  23437101.305 4 125372687.657 4     -3019.227          29.000
R24  20609507.680 6 110208247.409 6     -1812.121          40.000    20609509.391 5  85717558.806 5     -1409.431          32.000
C05  39619371.500 5 206308462.821 5       -10.984          34.000    39619375.539 6 159530807.829 6        -8.304          37.000
C14  22515143.273 8 117242310.529 8       522.285          50.000    22515141.102 8  90659120.060 8       403.897          50.000
C28  21681409.891 6 112900779.833 6       742.621          41.000
E31  25326244.602 8 133090306.441 8     -1936.758          51.000    25326245.766 8 101978291.746 8     -1483.979          51.000
E33  23569207.320 7 123857011.351 7        50.723          47.000    23569209.242 8  94903413.830 8        38.803          48.000
> 2020 05 05 17 03  0.0000000  0 11        .000000000000
G10  20931464.758 8 109995598.305 8      -303.152          51.000    20931466.250 8  85710877.848 8      -236.220          51.000
G16  22372365.844 8 117567578.811 8     -3184.164          48.000    22372366.609 7  91611081.868 7     -2481.167          44.000
G27  20290000.070 8 106624661.323 8      -251.066          51.000    20290001.391 8  83084159.514 8      -195.636          51.000
R02  21387863.578 7 114129744.448 7      3719.941          47.000    21387869.141 7  88767571.849 7      2893.294          45.000
R15  21659203.945 6 115740351.884 6     -2501.156          41.000    21659216.945 5  90020200.893 5     -1945.344          30.000
R24  20619702.422 6 110262761.909 6     -1830.254          38.000    20619702.797 5  85759958.962 5     -1423.534          31.000
C05                                                                  39619441.258 6 159531073.053 6       -15.109          37.000
C14  22512187.344 8 117226917.274 8       496.570          50.000    22512185.484 8  90647217.032 8       383.937          50.000
C28  21677158.414 7 112878642.220 7       725.992          42.000
E31  25337338.031 8 133148598.764 8     -1956.969          51.000    25337339.477 8 102022957.258 8     -1499.436          51.000
E33  23568936.867 7 123855588.506 7        36.641          47.000    23568938.539 8  94902323.583 8        28.081          48.000
> 2020 05 05 17 03 30.0000000  0 13        .000000000000
G10  20933235.617 8 110004905.073 8      -314.562          51.000    20933237.227 8  85718129.893 8      -245.114          51.000
G16  22390560.812 8 117663190.135 8     -3187.133          48.000    22390561.211 7  91685584.156 7     -2483.480          44.000
G27  20291461.766 8 106632343.053 8      -258.336          51.000    20291462.922 8  83090145.292 8      -201.301          51.000
G32  24682167.594 6 129705671.358 6      3011.957          41.000    24682171.180 7 101069357.500 7      2346.980          42.000
R01  20714587.133 5 110731343.557 5      -823.129          30.000
R02  21366977.586 8 114018284.279 8      3713.602          51.000    21366983.078 7  88680880.664 7      2888.357          46.000
R15  21673287.227 6 115815614.088 6     -2513.469          39.000    21673308.047 5  90078738.177 5     -1954.917          33.000
R24  20629980.328 6 110317721.163 6     -1831.176          41.000    20629980.711 5  85802705.009 5     -1424.251          32.000
C05  39619537.344 5 206309327.819 5       -12.914          34.000    39619541.156 6 159531475.527 6        -9.681          37.000
C14  22509363.289 8 117212212.253 8       486.559          49.000    22509361.828 8  90635846.189 8       376.265          50.000
C28  21672987.789 7 112856923.361 7       724.887          44.000
E31  25348528.883 8 133207406.601 8     -1960.754          51.000    25348530.555 8 102068017.777 8     -1502.474          50.000
E33  23568730.281 7 123854501.494 7        38.617          47.000    23568731.352 7  94901490.681 7        29.623          47.000
> 2020 05 05 17 04  0.0000000  0 12        .000000000000
G10  20935098.328 8 110014694.149 8      -339.395          51.000    20935099.836 8  85725757.746 8      -264.463          51.000
G16  22408798.414 8 117759026.528 8     -3203.297          48.000    22408798.953 7  91760261.820 7     -2496.075          44.000
G27  20292991.477 8 106640382.293 8      -279.082          51.000    20292992.594 8  83096409.624 8      -217.467          51.000
G32  24664986.828 6 129615394.526 6      3005.090          39.000    24664990.078 6 100999011.935 6      2341.628          39.000
R02  21346153.656 8 113907155.616 8      3693.559          51.000    21346158.617 8  88594447.300 8      2872.771          48.000
R15  21687468.680 6 115891393.823 6     -2540.125          38.000    21687491.852 5  90137677.977 5     -1975.650          30.000
R24  20640292.094 7 110372863.837 7     -1846.297          43.000    20640291.211 4  85845593.615 4     -1436.009          28.000
C05  39619622.492 5 206309770.658 5       -18.484          34.000    39619626.125 6 159531818.359 6       -14.387          37.000
C14  22506622.703 8 117197941.122 8       463.305          48.000    22506621.367 8  90624810.841 8       358.371          50.000
C28  21668849.102 7 112835369.246 7       710.613          44.000
E31  25359768.117 8 133266471.329 8     -1978.141          51.000    25359769.938 8 102113275.125 8     -1515.751          50.000
E33  23568538.562 7 123853493.210 7        27.238          47.000    23568538.898 7  94900718.106 7        20.850          47.000
> 2020 05 05 17 04 30.0000000  0 13        .000000000000
G10  20937057.602 8 110024990.429 8      -350.805          51.000    20937059.406 8  85733780.829 8      -273.354          51.000
G16  22427082.805 8 117855110.089 8     -3206.117          49.000    22427083.727 7  91835132.074 7     -2498.273          44.000
G20  22071748.617 5 115987822.009 5     -2468.695          35.000
G27  20294594.219 8 106648805.191 8      -286.277          51.000    20294595.586 8  83102972.908 8      -223.073          51.000
G32  24647803.992 6 129525102.843 6      3010.586          36.000    24647805.438 6 100928654.869 6      2345.911          37.000
R02  21325396.898 8 113796388.814 8      3687.000          51.000    21325401.805 8  88508295.389 8      2867.667          48.000
R15  21701752.688 6 115967712.842 6     -2552.086          40.000    21701775.828 4  90197037.342 4     -1984.953          28.000
R24  20650642.680 6 110428215.257 6     -1847.574          37.000    20650640.969 5  85888647.768 5     -1437.008          32.000
C05  39619697.797 5 206310162.304 5       -11.332          34.000    39619701.305 6 159532121.192 6        -8.748          37.000
C14  22503970.086 7 117184129.664 7       453.582          46.000    22503969.219 8  90614130.954 8       350.729          50.000
C28  21664747.211 7 112814006.007 7       709.781          45.000
E31  25371060.562 8 133325816.958 8     -1982.035          50.000    25371062.711 8 102158747.716 8     -1518.735          50.000
E33  23568366.578 7 123852589.187 7        29.172          47.000    23568366.531 8  94900025.399 8        22.323          48.000
> 2020 05 05 17 05  0.0000000  0 14        .000000000000
G10  20939125.984 8 110035859.777 8      -372.391          51.000    20939128.031 8  85742250.467 8      -290.175          51.000
G11  22565621.828 4 118583143.008 4      2983.379          29.000
G16  22445426.477 8 117951505.213 8     -3218.898          49.000    22445427.477 7  91910245.134 7     -2508.236          45.000
G20  22085890.523 5 116062136.778 5     -2484.039          34.000
G27  20296282.938 8 106657678.896 8      -303.859          51.000    20296284.531 8  83109887.473 8      -236.774          51.000
G32  24630632.953 6 129434865.670 6      3006.320          39.000    24630632.906 6 100858340.297 6      2342.593          39.000
R02  21304720.781 8 113686055.671 8      3669.855          51.000    21304725.328 7  88422480.732 7      2854.332          47.000
R15  21716149.383 6 116044635.240 6     -2574.625          39.000    21716171.219 5  90256865.904 5     -2002.483          30.000
R24  20661044.164 6 110483843.392 6     -1859.547          37.000    20661045.297 5  85931914.011 5     -1446.314          33.000
C05  39619775.656 5 206310568.701 5       -14.539          34.000    39619779.219 6 159532435.046 6       -11.079          37.000
C14  22501418.352 7 117170844.293 7       433.379          45.000    22501418.031 8  90603857.842 8       335.189          49.000
C28  21660694.664 7 112792900.378 7       698.637          44.000
E31  25382419.031 8 133385508.500 8     -1996.078          50.000    25382421.672 8 102204485.360 8     -1529.465          51.000
E33  23568226.828 7 123851855.943 7        21.012          47.000    23568227.109 8  94899463.555 8        16.064          49.000
> 2020 05 05 17 05 30.0000000  0 12        .000000000000
G10  20941308.734 8 110047329.962 8      -391.941          51.000    20941310.719 8  85751188.274 8      -305.409          51.000
G16  22463834.258 8 118048237.818 8     -3229.680          49.000    22463834.969 7  91985621.159 7     -2516.637          44.000
G27  20298062.977 8 106667032.482 8      -319.367          51.000    20298064.461 8  83117175.957 8      -248.861          51.000
G32  24613478.555 7 129344714.503 7      3003.797          42.000    24613479.352 7 100788092.732 7      2340.624          42.000
R02  21284131.797 8 113576189.348 8      3654.840          51.000    21284135.930 8  88337029.152 8      2842.653          48.000
R15  21730662.664 6 116122185.891 6     -2595.156          39.000    21730683.531 5  90317183.040 5     -2018.458          30.000
R24  20671504.148 6 110539776.919 6     -1868.863          38.000    20671505.094 5  85975417.803 5     -1453.563          34.000
C05  39619861.805 5 206311016.534 5       -15.203          34.000    39619865.273 6 159532781.737 6       -11.774          38.000
C14  22498973.305 7 117158113.581 7       415.461          45.000    22498973.172 8  90594013.621 8       321.318          48.000
C28  21656696.469 7 112772081.371 7       689.531          43.000
E31  25393848.633 8 133445572.852 8     -2007.965          50.000    25393852.180 8 102250508.669 8     -1538.541          51.000
E33  23568124.859 7 123851321.941 7        14.934          47.000    23568125.781 8  94899054.371 8        11.464          50.000
> 2020 05 05 17 06  0.0000000  0 12        .000000000000
G10  20943590.664 8 110059320.939 8      -409.320          51.000    20943592.570 8  85760531.905 8      -318.951          51.000
G16  22482290.680 8 118145225.889 8     -3238.148          50.000    22482290.711 7  92061196.240 7     -2523.233          43.000
G27  20299919.297 8 106676787.252 8      -332.805          51.000    20299920.586 8  83124777.051 8      -259.328          51.000
G32  24596325.914 7 129254573.063 7      3003.512          43.000    24596328.820 7 100717852.717 7      2340.402          43.000
R02  21263616.391 8 113466714.031 8      3641.609          51.000    21263619.836 7  88251881.712 7      2832.363          47.000
R15  21745277.773 6 116200280.492 6     -2613.324          41.000    21745297.023 5  90377923.194 5     -2032.589          31.000
R24  20682004.414 5 110595969.317 5     -1877.238          31.000    20682007.133 5  86019099.446 5     -1460.089          33.000
C05  39619941.000 5 206311428.838 5       -13.449          34.000    39619944.312 6 159533100.573 6       -10.756          37.000
C14  22496619.336 7 117145859.151 7       399.559          45.000    22496619.320 7  90584537.732 7       308.967          46.000
C28  21652738.242 7 112751471.123 7       682.586          44.000
E31  25405333.805 8 133505929.080 8     -2017.648          50.000    25405338.289 8 102296755.621 8     -1546.035          51.000
E33  23568045.812 8 123850907.833 8        10.891          48.000    23568047.281 8  94898737.057 8         8.363          50.000
> 2020 05 05 17 06 30.0000000  0 14        .000000000000
G10  20945980.477 8 110071878.598 8      -427.652          51.000    20945982.266 8  85770317.095 8      -333.236          51.000
G16  22500803.914 8 118242513.328 8     -3247.488          49.000    22500803.398 7  92137004.586 7     -2530.513          43.000
G20  22128751.047 5 116287370.639 5     -2519.789          34.000
G26  24727969.125 5 129946354.428 5     -3710.211          30.000
G27  20301860.945 8 106686990.390 8      -347.324          51.000    20301861.773 8  83132727.531 8      -270.642          51.000
G32  24579184.352 7 129164490.962 7      3001.953          43.000    24579188.789 7 100647658.934 7      2339.184          43.000
R02  21243183.773 8 113357681.001 8      3627.445          50.000    21243186.680 7  88167078.292 7      2821.349          46.000
R15  21760002.422 6 116278962.341 6     -2632.223          40.000    21760021.094 4  90439120.131 4     -2047.287          27.000
R24  20692558.109 6 110652399.561 6     -1885.145          40.000    20692560.570 5  86062989.727 5     -1466.220          33.000
C05  39620022.133 5 206311851.958 5       -13.941          34.000    39620025.445 6 159533427.361 6       -10.956          37.000
C14  22494366.797 8 117134127.725 8       382.652          48.000    22494365.820 7  90575466.285 7       295.891          45.000
C28  21648829.328 7 112731116.618 7       674.508          44.000
E31  25416883.125 8 133566622.248 8     -2028.309          49.000    25416888.125 8 102343260.741 8     -1554.185          51.000
E33  23567998.547 8 123850660.248 8         5.793          48.000    23568000.320 8  94898547.340 8         4.409          50.000
> 2020 05 05 17 07  0.0000000  0 13        .000000000000
G10  20948474.555 8 110084984.434 8      -442.160          51.000    20948476.383 8  85780529.437 8      -344.540          51.000
G11  22497715.227 5 118226290.718 5      2968.312          30.000
G16  22519370.000 8 118340079.853 8     -3253.137          49.000    22519368.828 7  92213030.396 7     -2534.915          42.000
G27  20303884.672 8 106697624.763 8      -357.934          51.000    20303885.109 8  83141014.033 8      -278.909          51.000
G32  24562050.945 7 129074453.563 7      3004.336          43.000    24562056.328 7 100577499.928 7      2341.041          42.000
R02  21222830.930 8 113249076.649 8      3616.828          49.000    21222834.070 7  88082608.285 7      2813.092          46.000
R15  21774833.070 6 116358209.560 6     -2646.992          41.000
R24  20703159.500 6 110709083.843 6     -1889.738          39.000    20703161.445 5  86107077.575 5     -1469.793          35.000
C05  39620102.094 5 206312268.298 5       -10.383          34.000    39620105.195 6 159533748.483 6        -7.627          37.000
C14  22492211.656 8 117122902.040 8       369.500          48.000    22492209.641 7  90566785.900 7       285.796          45.000
C28  21644966.148 7 112711001.126 7       670.262          43.000
E31  25428493.047 8 133627633.017 8     -2035.273          50.000    25428498.078 8 102390009.219 8     -1559.352          51.000
E33  23567979.703 8 123850561.424 8         4.625          49.000    23567981.305 8  94898471.611 8         3.550          50.000
> 2020 05 05 17 07 30.0000000  0 13        .000000000000
G10  20951076.734 8 110098658.572 8      -465.469          51.000    20951078.492 8  85791184.613 8      -362.703          51.000
G16  22537992.219 8 118437943.419 8     -3267.262          48.000    22537990.516 7  92289287.674 7     -2545.921          42.000
G27  20305994.492 8 106708711.774 8      -377.301          51.000    20305995.031 8  83149653.244 8      -294.004          51.000
G32  24544930.258 6 128984484.667 6      2997.582          41.000    24544936.312 7 100507394.311 7      2335.778          42.000
R02  21202562.727 8 113140926.464 8      3597.160          49.000    21202566.852 7  87998491.511 7      2797.794          46.000
R15  21789773.664 6 116438039.595 6     -2670.895          40.000    21789770.453 4  90562831.469 4     -2077.362          26.000
R24  20713810.156 5 110766043.412 5     -1903.648          34.000    20713813.953 5  86151379.363 5     -1480.618          33.000
C05  39620184.445 5 206312696.583 5       -15.137          34.000    39620187.578 6 159534080.044 6       -11.167          37.000
C14  22490157.320 8 117112203.061 8       347.594          48.000    22490154.648 7  90558512.808 7       268.763          45.000
C28  21641153.023 7 112691146.058 7       657.438          45.000
E07  26283229.164 6 138119290.483 6       -61.617          41.000
E31  25440167.156 8 133688980.712 8     -2050.742          51.000    25440172.266 8 102437015.858 8     -1571.279          51.000
E33  23567993.195 8 123850632.241 8        -5.309          49.000    23567994.367 8  94898525.880 8        -4.116          49.000
> 2020 05 05 17 08  0.0000000  0 14        .000000000000
G10  20953758.352 8 110112750.694 8      -481.355          51.000    20953760.211 8  85802165.490 8      -375.082          51.000
G11  22463908.977 5 118048629.341 5      2956.297          31.000
G16  22556642.047 8 118535951.973 8     -3273.961          48.000    22556640.102 7  92365657.930 7     -2551.141          42.000
G27  20308162.172 8 106720102.472 8      -389.387          51.000    20308162.945 8  83158529.086 8      -303.421          51.000
G32  24527794.758 7 128894437.746 7      2998.227          43.000    24527800.852 7 100437227.904 7      2336.280          42.000
R02  21182352.641 8 113033083.811 8      3584.914          50.000    21182357.000 7  87914613.892 7      2788.266          45.000
R15  21804793.445 6 116518296.264 6     -2686.562          38.000    21804795.453 5  90625253.339 5     -2089.546          32.000
R24  20724485.992 7 110823125.732 7     -1909.297          42.000    20724486.961 5  86195776.757 5     -1485.006          32.000
C05  39620241.008 5 206312990.783 5       -12.293          34.000    39620244.102 6 159534304.569 6        -9.527          37.000
C14  22488175.758 8 117101882.953 8       333.098          49.000    22488172.938 7  90550532.674 7       257.584          47.000
C28  21637361.766 7 112671404.078 7       651.695          45.000
E07  26283590.688 5 138121198.882 5       -72.922          33.000
E31  25451876.602 8 133750514.155 8     -2058.816          50.000    25451882.141 8 102484164.850 8     -1577.544          51.000
E33  23568010.672 8 123850723.185 8        -7.906          50.000    23568011.328 8  94898595.572 8        -6.145          49.000
> 2020 05 05 17 08 30.0000000  0 14        .000000000000
G10  20956585.039 8 110127605.345 8      -499.398          51.000    20956586.797 8  85813740.546 8      -389.142          51.000
G11  22447073.477 5 117960175.280 5      2951.484          30.000
G16  22575385.297 8 118634448.432 8     -3282.832          50.000    22575383.289 7  92442408.371 7     -2558.054          43.000
G27  20310453.508 8 106732142.807 8      -403.664          51.000    20310454.320 8  83167911.144 8      -314.543          51.000
G32  24510710.844 7 128804661.253 7      2996.258          44.000    24510716.742 7 100367272.228 7      2334.746          44.000
R02  21162266.992 8 112925902.390 8      3570.168          51.000    21162270.711 7  87831250.558 7      2776.797          45.000
R15  21819955.422 6 116599326.812 6     -2705.348          37.000    21819959.484 5  90688277.131 5     -2104.156          34.000
R24  20735248.977 5 110880682.367 5     -1917.891          33.000    20735250.609 5  86240542.980 5     -1491.702          31.000
C05  39620337.414 5 206313492.755 5       -12.059          34.000    39620340.508 6 159534692.698 6        -9.104          37.000
C14  22486332.375 8 117092284.262 8       316.305          48.000    22486330.047 8  90543110.385 8       244.614          48.000
C28  21633657.578 7 112652118.224 7       643.535          43.000
E07  26284080.766 6 138123766.239 6       -86.965          37.000
E31  25463686.898 8 133812577.127 8     -2069.078          51.000    25463692.562 8 102531719.560 8     -1585.344          51.000
E33  23568097.766 8 123851179.647 8       -12.695          51.000    23568097.945 8  94898945.315 8        -9.802          49.000
> 2020 05 05 17 09  0.0000000  0 13        .000000000000
G10  20959521.703 8 110143038.029 8      -521.008          51.000    20959523.234 8  85825766.019 8      -405.980          51.000
G16  22594186.383 8 118733246.399 8     -3295.242          51.000    22594184.117 7  92519393.752 7     -2567.724          44.000
G27  20312833.742 8 106744649.589 8      -421.672          51.000    20312834.305 8  83177656.692 8      -328.575          51.000
G32  24493644.156 7 128714974.546 7      2991.105          46.000    24493649.320 7 100297386.522 7      2330.732          46.000
R02  21142271.359 8 112819200.830 8      3551.707          51.000    21142274.719 7  87748260.477 7      2762.439          45.000
R15  21835228.945 6 116680940.553 6     -2726.980          40.000    21835233.469 6  90751754.341 6     -2120.994          36.000
R24  20746065.484 6 110938526.364 6     -1930.074          36.000    20746067.359 4  86285532.631 4     -1501.169          29.000
C05  39620438.562 5 206314019.998 5       -15.188          34.000    39620441.945 6 159535100.789 6       -11.581          37.000
C14  22484592.828 7 117083225.314 7       296.086          47.000    22484590.656 8  90536105.447 8       228.901          48.000
C28  21630005.805 6 112633107.241 6       632.113          41.000
E07  26284653.500 5 138126768.619 5      -104.816          34.000    26284656.180 5 105837413.644 5       -79.943          34.000
E31  25475562.922 8 133874984.337 8     -2082.863          51.000    25475567.773 8 102579538.050 8     -1596.020          51.000
E33  23568219.438 8 123851817.962 8       -21.180          51.000    23568219.281 8  94899434.394 8       -16.273          50.000
> 2020 05 05 17 09 30.0000000  0 13        .000000000000
G10  20962541.648 8 110158908.475 8      -537.902          51.000    20962543.305 8  85838132.596 8      -419.148          51.000
G16  22613017.977 8 118832203.862 8     -3302.832          51.000    22613015.391 7  92596503.417 7     -2573.635          45.000
G27  20315276.188 8 106757483.979 8      -434.801          51.000    20315276.422 8  83187657.510 8      -338.806          51.000
G32  24476568.898 7 128625241.264 7      2990.207          46.000    24476572.734 7 100227464.542 7      2330.034          46.000
R02  21122339.734 8 112712841.313 8      3538.004          51.000    21122343.312 7  87665536.448 7      2751.784          46.000
R15  21850584.883 6 116762991.830 6     -2743.992          39.000    21850589.672 6  90815571.948 6     -2134.219          37.000
R24  20756910.039 6 110996515.680 6     -1936.898          37.000    20756910.469 4  86330635.424 4     -1506.480          27.000
C05  39620518.406 5 206314436.408 5       -13.750          34.000    39620521.727 6 159535422.011 6       -10.521          37.000
C14  22482930.141 7 117074568.143 7       280.469          47.000    22482928.164 7  90529411.186 7       216.771          47.000
C28  21626380.422 7 112614233.895 7       625.312          42.000
E07                                                                  26285287.961 5 105839962.229 5       -89.853          30.000
E31  25487477.477 8 133937594.759 8     -2091.953          50.000    25487481.398 8 102627512.236 8     -1602.916          51.000
E33  23568349.016 8 123852498.718 8       -25.012          51.000    23568348.984 8  94899955.998 8       -19.120          50.000
> 2020 05 05 17 10  0.0000000  0 15        .000000000000
G10  20965648.789 8 110175237.122 8      -553.734          51.000    20965650.492 8  85850856.219 8      -431.481          51.000
G11  22396691.680 5 117695361.501 5      2937.176          32.000
G16  22631883.367 8 118931339.267 8     -3309.152          51.000    22631880.438 7  92673751.727 7     -2578.563          45.000
G27  20317785.062 8 106770667.801 8      -447.039          51.000    20317785.195 8  83197930.603 8      -348.342          51.000
G32  24459489.680 7 128535485.659 7      2990.453          47.000    24459491.883 7 100157525.181 7      2330.226          47.000
R01  20787435.352 5 111120753.800 5     -1168.523          33.000
R02  21102477.234 8 112606849.974 8      3525.090          51.000    21102481.312 7  87583098.803 7      2741.737          46.000
R15  21866024.133 5 116845498.112 5     -2758.598          32.000    21866030.977 6  90879743.402 6     -2145.579          37.000
R24  20767785.484 6 111054671.931 6     -1943.457          38.000    20767784.812 4  86375863.978 4     -1511.575          26.000
C05  39620580.781 5 206314760.306 5       -11.504          34.000    39620584.055 6 159535672.812 6        -8.424          37.000
C14  22481348.883 7 117066334.134 7       265.832          46.000    22481346.945 7  90523044.122 7       205.446          47.000
C28  21622786.445 7 112595520.008 7       619.422          44.000
E07  26285975.734 6 138133719.823 6      -129.148          39.000
E31  25499434.164 8 134000428.048 8     -2099.941          50.000    25499437.789 8 102675657.208 8     -1609.016          51.000
E33  23568490.484 8 123853243.219 8       -27.711          50.000    23568491.117 8  94900526.452 8       -21.158          51.000
> 2020 05 05 17 10 30.0000000  0 13        .000000000000
G10  20968909.055 8 110192370.406 8      -575.000          51.000    20968910.805 8  85864206.838 8      -448.052          51.000
G16  22650847.938 8 119030997.255 8     -3321.184          51.000    22650844.781 7  92751407.252 7     -2587.935          44.000
G27  20320426.625 8 106784548.885 8      -464.949          51.000    20320426.789 8  83208747.020 8      -362.298          51.000
G32  24442473.008 8 128446058.231 8      2984.805          49.000    24442472.812 7 100087841.569 7      2325.825          45.000
R02  21082750.719 8 112501583.993 8      3506.266          51.000    21082754.672 7  87501225.319 7      2727.099          47.000
R15  21881613.078 5 116928808.775 5     -2780.852          32.000    21881621.453 5  90944540.527 5     -2162.888          35.000
R24  20778757.758 6 111113348.363 6     -1954.988          36.000    20778758.609 4  86421487.204 4     -1520.543          27.000
C05  39620691.641 5 206315338.251 5       -13.984          35.000    39620694.953 6 159536119.376 6       -10.928          37.000
C14  22479914.953 7 117058867.635 7       245.570          44.000    22479912.844 7  90517270.536 7       189.836          46.000
C28  21619289.883 7 112577310.540 7       607.848          44.000
E07  26286801.359 6 138138060.158 6      -146.586          38.000
E31  25511499.297 8 134063829.877 8     -2113.438          51.000    25511502.648 8 102724237.808 8     -1619.378          50.000
E33  23568710.227 8 123854398.805 8       -35.961          50.000    23568711.562 8  94901411.897 8       -27.560          51.000
> 2020 05 05 17 11  0.0000000  0 13        .000000000000
G10  20972243.383 8 110209892.028 8      -593.887          51.000    20972245.203 8  85877860.048 8      -462.769          51.000
G16  22669831.961 8 119130759.790 8     -3330.488          50.000    22669829.258 7  92829144.250 7     -2595.189          44.000
G27  20323121.898 8 106798712.309 8      -480.109          51.000    20323122.180 8  83219783.447 8      -374.111          51.000
G32  24425440.164 8 128356546.541 8      2981.746          49.000    24425437.969 7 100018092.308 7      2323.442          45.000
R02  21063081.875 8 112396625.752 8      3490.066          51.000    21063085.086 7  87419591.231 7      2714.499          45.000
R15  21897272.117 4 117012496.966 4     -2799.574          29.000    21897281.953 5  91009631.421 5     -2177.447          32.000
R24  20789748.758 5 111172122.550 5     -1963.984          34.000
C05  39620772.109 5 206315756.841 5       -14.180          34.000    39620775.289 6 159536443.445 6       -11.318          37.000
C14  22478549.266 7 117051757.270 7       227.906          43.000    22478547.367 7  90511772.332 7       176.126          47.000
C28  21615811.250 7 112559194.695 7       598.984          44.000
E07  26287680.242 6 138142690.976 6      -161.574          37.000
E31  25523593.672 8 134127383.236 8     -2124.234          51.000    25523596.016 8 102772934.497 8     -1627.648          50.000
E33  23568929.328 8 123855550.156 8       -41.605          51.000    23568931.086 8  94902294.095 8       -31.874          51.000
> 2020 05 05 17 11 30.0000000  0 13        .000000000000
G10  20975683.727 8 110227970.949 8      -604.039          51.000    20975685.500 8  85891947.529 8      -470.680          51.000
G16  22688867.211 8 119230794.153 8     -3331.062          49.000    22688865.688 7  92907093.076 7     -2595.633          44.000
G27  20325903.273 8 106813328.507 8      -486.777          51.000    20325903.453 8  83231172.690 8      -379.307          51.000
G32  24408424.000 8 128267123.580 8      2987.215          49.000    24408421.078 7  99948412.164 7      2327.703          46.000
R02  21043503.586 8 112292151.849 8      3482.355          51.000    21043505.367 7  87338333.826 7      2708.499          44.000
R15  21913033.391 6 117096731.579 6     -2808.980          36.000    21913043.188 4  91075147.238 4     -2184.763          26.000
R24  20800790.797 6 111231167.141 6     -1964.312          36.000    20800799.977 4  86513156.885 4     -1527.808          27.000
C05                                                                  39620857.648 6 159536775.257 6        -5.389          37.000
C14  22477284.023 7 117045171.568 7       218.535          42.000    22477282.977 7  90506679.840 7       169.040          45.000
C28  21612383.016 7 112541341.700 7       598.641          45.000
E07  26288639.297 6 138147739.965 6      -167.629          38.000
E31  25535748.977 8 134191256.363 8     -2126.496          51.000    25535749.891 8 102821876.200 8     -1629.435          50.000
E33  23569180.039 8 123856867.186 8       -38.746          51.000    23569181.859 8  94903303.244 8       -29.677          51.000
> 2020 05 05 17 12  0.0000000  0 13        .000000000000
G10  20979216.906 8 110246537.351 8      -639.148          51.000    20979218.477 8  85906414.845 8      -498.038          51.000
G16  22707940.641 8 119331029.148 8     -3356.578          48.000    22707940.305 7  92985198.244 7     -2615.515          44.000
G27  20328757.688 8 106828329.047 8      -518.586          51.000    20328757.641 8  83242861.407 8      -404.093          51.000
G32  24391412.062 7 128177723.478 7      2967.387          47.000    24391409.594 7  99878749.798 7      2312.252          47.000
R02  21024003.234 8 112188096.926 8      3449.211          49.000    21024005.055 7  87257402.268 7      2682.720          45.000
R15  21928885.570 6 117181438.632 6     -2843.570          41.000    21928891.969 4  91141054.395 4     -2211.672          28.000
R24  20811871.039 5 111290411.752 5     -1990.688          32.000    20811883.141 4  86559235.927 4     -1548.319          28.000
C05  39620925.812 5 206316556.824 5       -23.270          34.000    39620928.828 6 159537062.059 6       -18.323          37.000
C11  25312364.195 4 131808121.957 4     -2543.555          28.000    25312367.406 5 101922413.195 5     -1967.237          32.000
C14  22476106.570 7 117039042.356 7       184.750          42.000    22476106.039 7  90501940.326 7       142.788          43.000
C28  21608992.297 7 112523683.988 7       573.168          46.000
E31  25547951.117 8 134255378.681 8     -2153.758          51.000    25547951.477 8 102871008.836 8     -1650.231          51.000
E33  23569449.133 8 123858281.012 8       -60.906          51.000    23569450.797 8  94904386.545 8       -46.612          51.000
> 2020 05 05 17 12 30.0000000  0 14        .000000000000
G10  20982879.953 8 110265786.626 8      -646.996          51.000    20982881.625 8  85921414.288 8      -504.153          51.000
G16  22727089.164 8 119431657.869 8     -3354.684          48.000    22727089.758 7  93063610.216 7     -2614.039          44.000
G27  20331722.602 8 106843910.735 8      -522.941          51.000    20331722.734 8  83255002.964 8      -407.487          51.000
G32  24374442.211 7 128088545.726 7      2974.965          45.000    24374441.281 7  99809260.691 7      2318.157          44.000
R01  20822179.609 5 111306475.954 5     -1301.855          35.000    20822182.305 4  86571729.526 4     -1012.557          25.000
R02  21004619.039 8 112084663.804 8      3443.465          49.000    21004622.070 7  87176954.306 7      2678.250          47.000
R15  21944864.430 7 117266813.545 7     -2850.547          42.000    21944871.164 5  91207457.010 5     -2217.092          30.000
R24  20823027.016 6 111350056.305 6     -1988.520          36.000
C05  39621023.211 5 206317064.240 5       -13.082          34.000    39621026.070 6 159537454.379 6       -10.071          38.000
C11                                                                  25326999.102 5 101981331.584 5     -1962.721          32.000
C14  22475054.461 7 117033564.412 7       177.781          44.000    22475054.039 7  90497704.413 7       137.315          42.000
C28  21605676.688 7 112506417.010 7       574.980          46.000
E31  25560237.109 8 134319944.915 8     -2153.555          51.000    25560237.922 8 102920481.639 8     -1650.189          51.000
E33  23569773.953 8 123859988.067 8       -55.793          51.000    23569775.453 8  94905694.537 8       -42.730          51.000
> 2020 05 05 17 13  0.0000000  0 15        .000000000000
G10  20986617.750 8 110285429.148 8      -670.516          51.000    20986619.383 8  85936720.155 8      -522.480          51.000
G16  22746257.352 8 119532389.098 8     -3368.656          48.000    22746258.406 7  93142102.067 7     -2624.927          42.000
G27  20334743.344 8 106859785.443 8      -543.371          51.000    20334743.672 8  83267372.842 8      -423.406          51.000
G32  24357460.000 7 127999304.706 7      2966.332          42.000    24357460.578 7  99739722.285 7      2311.431          42.000
R01  20829551.102 5 111345885.986 5     -1334.254          33.000    20829555.445 4  86602369.777 4     -1037.750          26.000
R02  20985298.219 8 111981564.585 8      3421.551          51.000    20985302.289 8  87096766.005 8      2661.206          49.000
R15  21960913.062 7 117352558.668 7     -2873.902          42.000    21960919.922 5  91274147.564 5     -2235.260          34.000
R24  20834201.398 6 111409807.156 6     -2002.980          38.000
C05                                                                  39621094.828 6 159537731.241 6       -14.496          37.000
C11                                                                  25341622.375 5 102040227.189 5     -1970.197          32.000
C14  22474072.992 7 117028451.801 7       155.129          45.000    22474072.031 6  90493751.071 6       119.859          41.000
C28  21602381.266 7 112489255.536 7       560.922          47.000
E07  26291999.727 6 138165389.183 6      -222.461          36.000    26291997.703 5 105866979.793 5      -170.607          32.000
E31  25572552.453 8 134384664.751 8     -2169.145          51.000    25572554.477 8 102970072.132 8     -1662.096          51.000
E33  23570099.617 8 123861699.687 8       -66.434          51.000    23570100.859 8  94907006.036 8       -50.910          51.000
> 2020 05 05 17 13 30.0000000  0 15        .000000000000
G10  20990492.570 8 110305791.746 8      -689.969          51.000    20990493.977 8  85952587.082 8      -537.638          51.000
G11  22280224.766 5 117083361.299 5      2891.309          30.000
G16  22765507.094 8 119633548.120 8     -3378.320          49.000    22765508.055 6  93220927.251 6     -2632.457          40.000
G27  20337882.344 8 106876281.359 8      -559.434          51.000    20337882.797 8  83280226.790 8      -435.922          51.000
G32  24340528.406 6 127910331.200 6      2962.082          39.000    24340529.938 6  99670392.355 6      2308.116          39.000
R01  20837102.289 5 111386256.673 5     -1360.852          35.000
R02  20966103.453 8 111879136.020 8      3403.797          50.000    20966108.492 8  87017099.341 8      2647.398          49.000
R15  21977091.000 6 117439003.072 6     -2892.516          40.000    21977098.250 5  91341382.074 5     -2249.734          32.000
R24  20845457.750 5 111469997.756 5     -2013.211          35.000
C05  39621194.562 5 206317957.273 5       -20.273          34.000    39621197.250 6 159538143.769 6       -15.674          38.000
C11                                                                  25356301.695 4 102099321.205 4     -1973.625          28.000
C14  22473224.047 7 117024029.480 7       136.535          46.000    22473222.680 7  90490331.523 7       105.517          42.000
C28  21599168.344 7 112472525.195 7       551.164          46.000
E31  25584959.422 8 134449864.300 8     -2180.582          51.000    25584963.062 8 103020030.182 8     -1670.866          51.000
E33  23570488.531 8 123863743.744 8       -72.922          51.000    23570489.453 8  94908572.250 8       -55.866          51.000
> 2020 05 05 17 14  0.0000000  0 14        .000000000000
G10  20994444.930 8 110326562.620 8      -699.922          51.000    20994446.695 8  85968772.203 8      -545.394          51.000
G16  22784778.812 8 119734821.447 8     -3378.230          49.000    22784778.539 6  93299841.472 6     -2632.390          39.000
G27  20341080.570 8 106893088.245 8      -566.141          51.000    20341081.234 8  83293323.047 8      -441.149          51.000
G32  24323588.023 5 127821317.796 5      2967.188          34.000    24323591.469 5  99601031.231 5      2312.091          35.000
R01  20844775.031 5 111427270.029 5     -1378.398          31.000    20844785.758 4  86665679.326 4     -1072.091          26.000
R02  20946975.633 8 111777066.493 8      3395.492          50.000    20946981.375 8  86937711.982 8      2640.941          48.000
R15  21993339.367 6 117525826.947 6     -2900.836          40.000    21993344.602 5  91408911.709 5     -2256.209          31.000
R24  20856736.641 6 111530311.607 6     -2013.168          37.000
C05  39621271.602 5 206318357.868 5       -11.762          34.000    39621274.250 6 159538453.920 6        -9.472          37.000
C14  22472448.648 7 117019989.621 7       127.531          47.000    22472447.508 7  90487207.688 7        98.670          43.000
C28  21595978.914 7 112455918.958 7       550.785          46.000
E07  26294673.039 5 138179442.426 5      -244.766          33.000
E31  25597398.266 8 134515231.122 8     -2182.387          51.000    25597403.203 8 103070116.413 8     -1672.290          51.000
E33  23570881.648 8 123865809.568 8       -70.000          51.000    23570882.336 8  94910155.152 8       -53.639          51.000
> 2020 05 05 17 14 30.0000000  0 13        .000000000000
G10  20998533.430 8 110348048.125 8      -723.207          51.000    20998535.289 8  85985514.139 8      -563.541          51.000
G16  22804130.586 8 119836513.876 8     -3391.809          49.000    22804128.688 6  93379082.245 6     -2642.971          39.000
G27  20344396.477 8 106910513.825 8      -586.281          51.000    20344397.273 8  83306901.413 8      -456.843          51.000
G32  24306697.859 6 127732574.701 6      2958.582          37.000    24306704.094 6  99531880.753 6      2305.389          37.000
R01  20852623.281 6 111469236.933 6     -1409.840          36.000    20852643.383 4  86698320.454 4     -1096.539          26.000
R02  20927974.492 8 111675672.701 8      3373.484          49.000    20927980.180 8  86858850.210 8      2623.824          48.000
R15  22009716.602 6 117613338.433 6     -2923.488          39.000    22009719.461 5  91476976.118 5     -2273.827          32.000
R24  20868096.609 5 111591061.703 5     -2026.730          33.000    20868100.039 4  86793063.823 4     -1576.352          28.000
C05  39621381.773 5 206318931.227 5       -17.113          35.000    39621384.375 6 159538897.234 6       -13.155          37.000
C14  22471805.055 7 117016636.833 7       105.094          46.000    22471803.852 7  90484615.161 7        81.446          44.000
C28  21592872.062 7 112439742.106 7       536.961          47.000
E31  25609926.633 8 134581070.843 8     -2197.609          49.000    25609932.719 8 103120565.005 8     -1683.847          51.000
E33  23571337.422 8 123868204.541 8       -80.348          51.000    23571338.102 8  94911990.259 8       -61.583          51.000
> 2020 05 05 17 15  0.0000000  0 13        .000000000000
G10  21002700.766 8 110369947.926 8      -739.715          51.000    21002702.578 8  86002578.917 8      -576.401          51.000
G16  22823504.875 8 119938323.425 8     -3398.266          48.000    22823502.375 6  93458414.297 6     -2647.999          40.000
G27  20347773.242 8 106928259.317 8      -599.602          51.000    20347774.070 8  83320729.044 8      -467.222          51.000
G32  24289805.047 7 127643805.790 7      2956.496          42.000    24289812.062 6  99462710.173 6      2303.766          41.000
R01  20860596.273 4 111511850.965 4     -1433.559          27.000
R02  20909043.555 8 111574654.753 8      3358.105          48.000    20909049.031 8  86780280.689 8      2611.857          48.000
R15  22026162.617 5 117701229.160 5     -2939.199          34.000    22026166.094 5  91545335.578 5     -2286.044          34.000
R24  20879482.219 6 111651943.315 6     -2034.766          37.000    20879475.547 4  86840402.172 4     -1582.589          28.000
C05  39621468.047 5 206319380.895 5       -15.809          34.000    39621470.602 6 159539243.583 6       -12.203          37.000
C14  22471236.312 7 117013674.674 7        89.465          46.000    22471234.875 7  90482324.647 7        69.165          45.000
C28  21589791.297 8 112423698.932 8       529.660          48.000
E31  25622488.055 8 134647082.545 8     -2205.992          50.000    25622494.078 8 103171145.377 8     -1690.291          51.000
E33  23571798.953 8 123870629.460 8       -84.129          51.000    23571799.703 8  94913848.304 8       -64.438          51.000
> 2020 05 05 17 15 30.0000000  0 13        .000000000000
G10  21006974.844 8 110392408.501 8      -757.395          51.000    21006977.047 8  86020080.672 8      -590.178          51.000
G16  22842928.883 8 120040394.660 8     -3406.059          48.000    22842926.430 7  93537950.274 7     -2654.072          42.000
G27  20351239.078 8 106946472.624 8      -614.363          51.000    20351239.914 8  83334921.220 8      -478.728          51.000
G32  24272937.023 7 127555161.671 7      2953.230          44.000    24272944.203 7  99393636.862 7      2301.219          44.000
R01  20868715.344 6 111555250.089 6     -1459.508          39.000
R02  20890210.961 8 111474166.584 8      3341.340          50.000    20890216.930 7  86702123.163 7      2598.817          46.000
R15  22042705.055 6 117789645.010 6     -2954.816          36.000    22042711.523 5  91614103.447 5     -2298.197          34.000
R24  20890919.695 6 111713106.295 6     -2042.531          36.000    20890920.656 5  86887973.321 5     -1588.645          34.000
C05  39621558.680 5 206319852.693 5       -15.242          34.000    39621561.047 6 159539608.025 6       -11.883          37.000
C14  22470770.367 7 117011249.355 7        72.418          43.000    22470769.102 7  90480449.249 7        55.992          45.000
C28  21586764.578 8 112407936.473 8       521.223          49.000
E31  25635110.336 8 134713412.093 8     -2215.672          51.000    25635115.125 8 103221969.273 8     -1697.714          51.000
E33  23572294.320 8 123873231.926 8       -89.102          51.000    23572295.156 8  94915842.394 8       -68.252          51.000
> 2020 05 05 17 16  0.0000000  0 13        .000000000000
G10  21011348.117 8 110415389.906 8      -776.160          51.000    21011350.125 8  86037988.248 8      -604.800          51.000
G16  22862394.609 7 120142686.245 7     -3414.809          47.000    22862392.852 7  93617657.985 7     -2660.893          43.000
G27  20354786.602 8 106965115.280 8      -630.047          51.000    20354787.289 8  83349447.950 8      -490.949          51.000
G32  24256086.336 7 127466606.533 7      2948.879          46.000    24256093.164 7  99324632.878 7      2297.828          47.000
R01  20876978.094 6 111599412.632 6     -1485.730          36.000    20876995.062 4  86799584.826 4     -1155.565          26.000
R02  20871472.773 8 111374172.927 8      3323.363          51.000    20871477.141 7  86624350.309 7      2584.838          44.000
R15  22059339.609 5 117878542.380 5     -2973.012          34.000    22059345.359 5  91683245.720 5     -2312.352          32.000
R24  20902402.375 6 111774511.318 6     -2052.387          37.000    20902404.414 5  86935732.721 5     -1596.301          33.000
C05  39621646.078 5 206320307.665 5       -16.680          34.000    39621648.250 6 159539959.814 6       -12.711          37.000
C14  22470399.961 7 117009322.386 7        54.516          42.000    22470398.828 7  90478959.194 7        42.004          44.000
C28  21583784.430 8 112392416.975 8       511.965          49.000
E31  25647785.758 8 134780018.867 8     -2226.238          51.000    25647789.359 8 103273005.569 8     -1705.819          51.000
E33  23572816.062 8 123875973.115 8       -95.141          51.000    23572816.984 8  94917942.783 8       -72.912          51.000
> 2020 05 05 17 16 30.0000000  0 13        .000000000000
G10  21015824.273 8 110438912.455 8      -792.398          51.000    21015826.117 8  86056317.513 8      -617.453          51.000
G11  22181616.539 4 116565181.542 4      2861.785          29.000
G16  22881905.828 8 120245217.019 8     -3420.887          48.000    22881904.531 7  93697552.060 7     -2665.629          43.000
G27  20358420.023 8 106984209.113 8      -643.250          51.000    20358420.828 8  83364326.245 8      -501.234          51.000
G32  24239257.367 7 127378164.930 7      2946.938          47.000    24239263.555 7  99255717.389 7      2296.318          47.000
R01  20885384.109 6 111644348.478 6     -1510.406          36.000
R02  20852832.500 8 111274699.814 8      3307.801          51.000    20852834.547 7  86546982.379 7      2572.737          43.000
R15  22076069.102 6 117967938.367 6     -2987.629          36.000    22076071.781 5  91752775.912 5     -2323.708          30.000
C05  39621734.383 5 206320767.633 5       -14.566          35.000    39621736.359 6 159540315.475 6       -11.170          37.000
C14  22470129.555 6 117007915.042 6        38.883          40.000    22470128.719 7  90477870.913 7        30.200          45.000
C28  21580855.094 8 112377162.594 8       504.793          49.000
E31  25660517.727 8 134846922.589 8     -2234.340          51.000    25660520.531 8 103324269.405 8     -1711.988          51.000
E33  23573368.258 8 123878874.567 8       -98.742          51.000    23573369.180 8  94920165.966 8       -75.648          51.000
> 2020 05 05 17 17  0.0000000  0 13        .000000000000
G01  24130591.945 5 126807111.300 5      3130.105          35.000
G10  21020402.477 8 110462971.008 8      -809.793          51.000    21020404.492 8  86075064.432 8      -631.008          51.000
G16  22901461.266 7 120347980.104 7     -3428.234          46.000    22901460.469 7  93777627.146 7     -2671.355          43.000
G27  20362138.695 8 107003750.434 8      -657.684          51.000    20362139.641 8  83379553.231 8      -512.481          51.000
G32  24222449.664 7 127289835.918 7      2943.344          47.000    24222455.180 7  99186889.630 7      2293.515          47.000
R01  20893934.492 6 111690051.384 6     -1535.379          37.000    20893949.188 4  86870071.491 4     -1194.184          29.000
R02  20834289.445 8 111175746.884 8      3290.742          51.000    20834290.016 7  86470019.084 7      2559.469          43.000
R15  22092891.414 6 118057824.965 6     -3003.125          41.000    22092892.188 5  91822687.723 5     -2335.764          34.000
C05  39621822.844 5 206321227.622 5       -13.859          35.000    39621824.797 6 159540671.965 6       -11.143          37.000
C14  22469957.070 5 117007023.179 5        22.188          35.000    22469957.188 7  90477181.264 7        17.196          44.000
C28  21577976.039 8 112362170.027 8       496.508          50.000
E31  25673304.508 8 134914117.434 8     -2243.547          50.000    25673307.336 8 103375756.327 8     -1719.111          51.000
E33  23573950.117 8 123881932.220 8      -103.402          51.000    23573950.969 8  94922508.839 8       -79.245          51.000
> 2020 05 05 17 17 30.0000000  0 13        .000000000000
G10  21025078.188 8 110487542.613 8      -829.684          51.000    21025079.961 8  86094211.131 8      -646.507          51.000
G11  22149011.250 5 116393838.974 5      2849.535          32.000
G16  22921055.805 7 120450951.324 7     -3437.809          43.000    22921055.719 7  93857864.426 7     -2678.812          42.000
G27  20365938.461 8 107023717.850 8      -674.770          51.000    20365939.359 8  83395112.248 8      -525.794          51.000
