     3.02           OBSERVATION DATA    M (MIXED)           RINEX VERSION / TYPE
SAVERINEX           SC600               20200505 065931 LCL PGM / RUN BY / DATE
       G = GPS       R = GLONASS       C = COMPASS          COMMENT
       S = SBAS      J = QZSS          E = GALILEO          COMMENT
BEAN                                                        MARKER NAME
1                                                           MARKER NUMBER
GEODETIC                                                    MARKER TYPE
Unige DICCA         GTER                                    OBSERVER / AGENCY
SC60291900056       SC600               2.12(191226)        REC # / TYPE / VERS
                    HEMA45          NONE                    ANT # / TYPE
  4509407.8091   693652.4678  4442337.6214                  APPROX POSITION XYZ
        0.0000        0.0000        0.0000                  ANTENNA: DELTA H/E/N
G    8 C1C L1C D1C S1C C2Y L2Y D2Y S2Y                      SYS / # / OBS TYPES
R    8 C1C L1C D1C S1C C2P L2P D2P S2P                      SYS / # / OBS TYPES
C    8 C1I L1I D1I S1I C7I L7I D7I S7I                      SYS / # / OBS TYPES
E    8 C1C L1C D1C S1C C7Q L7Q D7Q S7Q                      SYS / # / OBS TYPES
DBHZ                                                        COMMENT
     30.000                                                 INTERVAL
  2020    05    05    04    00    0.0000000     GPS         TIME OF FIRST OBS
  2020    05    05    04    59   30.0000000     GPS         TIME OF LAST OBS
     0                                                      RCV CLOCK OFFS APPL
G L1C  0.00000                                              SYS / PHASE SHIFT
G L2Y  0.00000                                              SYS / PHASE SHIFT
R L1C  0.00000                                              SYS / PHASE SHIFT
R L2P  0.25000                                              SYS / PHASE SHIFT
C L1I  0.00000                                              SYS / PHASE SHIFT
C L7I  0.00000                                              SYS / PHASE SHIFT
E L1C  0.50000                                              SYS / PHASE SHIFT
E L7Q -0.25000                                              SYS / PHASE SHIFT
 13 R03  5 R04  6 R05  1 R06 -4 R09 -2 R10 -7 R14 -7 R15  0 GLONASS SLOT / FRQ #
    R16 -1 R17  4 R18 -3 R19  3 R20  2                      GLONASS SLOT / FRQ #
 C1C   71.950 C2C   71.950 C2P   71.950                     GLONASS COD/PHS/BIS
    18                                                      LEAP SECONDS
*** Above antenna height is from mark to ANTENNA BOTTOM.    COMMENT
    17     4        0.0000        ANT MEASURE TYPE/HEIGT    COMMENT
    0.0000    0.0000    0.0458    0.0405    0.0000          COMMENT
                    BASE STATION                            COMMENT
                                                            END OF HEADER
> 2020 05 05 04 00  0.0000000  0 16        .000000000000
G05  20827435.297 8 109448912.267 8     -1340.418          49.000    20827435.352 8  85284860.191 8     -1044.482          49.000
G07  22825266.578 5 119947581.832 5     -2572.562          32.000
G28  21475696.312 8 112855535.909 8      1911.453          51.000    21475693.391 7  87939379.436 7      1489.444          43.000
G30  20732755.922 8 108951424.933 8     -1317.180          51.000    20732757.094 8  84897204.876 8     -1026.374          51.000
R05  21815952.766 8 116618741.342 8     -3438.711          48.000    21815957.539 7  90703472.299 7     -2674.553          45.000
R06  19099943.531 7 101920949.372 7       262.879          47.000
R15  21839579.289 5 116704072.495 5     -3700.777          30.000    21839572.008 4  90769821.293 4     -2878.382          28.000
R16  19093793.617 7 101995648.028 7      -186.859          46.000    19093795.664 7  79329930.602 7      -145.335          44.000
C05  39784618.836 6 207168949.982 6         8.348          36.000    39784617.461 6 160196149.056 6         6.766          41.000
C19  25596160.328 6 133285879.708 6     -3265.180          41.000
C21  22597368.422 5 117670445.073 5      1607.906          33.000
C22  22297001.000 8 116106316.456 8     -1529.840          51.000
E02  23619675.883 8 124122243.055 8       -17.625          51.000    23619677.906 8  95106682.925 8       -13.526          51.000
E03  26444137.086 6 138964941.216 6     -2364.125          39.000    26444142.133 6 106479575.176 6     -1811.535          41.000
E08  21488440.078 8 112922518.262 8      -438.781          51.000    21488441.844 8  86525041.706 8      -336.263          51.000
E30  23819355.375 8 125171539.224 8      2569.062          50.000    23819358.430 8  95910674.334 8      1968.547          51.000
> 2020 05 05 04 00 30.0000000  0 16        .000000000000
G05  20835173.133 8 109489575.197 8     -1366.426          50.000    20835173.547 8  85316545.594 8     -1064.747          50.000
G07  22840011.430 6 120025088.212 6     -2585.449          37.000
G28  21464863.266 8 112798606.617 8      1888.078          51.000    21464860.398 7  87895018.941 7      1471.230          44.000
G30  20740342.102 8 108991290.540 8     -1336.480          51.000    20740343.164 8  84928268.988 8     -1041.413          51.000
R05  21835319.328 8 116722261.427 8     -3458.363          49.000    21835323.336 7  90783987.878 7     -2689.838          45.000
R06  19098558.852 8 101913560.016 8       233.855          48.000
R09  22056791.406 5 117782044.532 5      3834.539          33.000    22056792.039 5  91608253.522 5      2982.419          34.000
R16  19094943.711 7 102001792.995 7      -218.535          46.000    19094945.969 7  79334710.034 7      -169.972          43.000
C05                                                                  39784600.367 6 160196080.164 6         1.027          41.000
C19  25615015.039 6 133384067.734 6     -3276.629          41.000
C21  22588152.953 5 117622553.659 5      1588.336          30.000
C22  22305886.430 8 116152586.044 8     -1550.805          51.000
E02  23619850.070 8 124123157.269 8       -39.203          51.000    23619851.633 8  95107383.415 8       -30.030          51.000
E03  26457678.484 6 139036110.959 6     -2376.418          39.000    26457683.141 6 106534107.670 6     -1820.808          38.000
E08  21491004.031 8 112935993.240 8      -455.352          51.000    21491005.883 8  86535366.680 8      -348.876          51.000
E30  23804746.297 8 125094769.555 8      2553.039          51.000    23804748.570 8  95851850.830 8      1956.285          49.000
> 2020 05 05 04 01  0.0000000  0 16        .000000000000
G05  20843039.812 8 109530914.031 8     -1375.996          51.000    20843040.266 8  85348757.678 8     -1072.205          51.000
G07  22854797.648 5 120102798.891 5     -2581.875          35.000    22854812.312 4  93586636.547 4     -2011.851          29.000
G28  21454143.312 8 112742271.921 8      1881.078          51.000    21454140.789 7  87851121.767 7      1465.775          45.000
G30  20748017.820 8 109031626.905 8     -1339.184          51.000    20748018.773 8  84959699.917 8     -1043.523          51.000
R05  21854774.906 8 116826258.740 8     -3461.148          48.000    21854778.172 7  90864874.639 7     -2692.007          44.000
R06  19097316.398 7 101906929.634 7       221.715          47.000
R09  22035299.641 6 117667234.595 6      3832.945          39.000    22035294.461 6  91518956.371 6      2981.180          38.000
R16  19096251.992 7 102008781.439 7      -233.730          45.000    19096254.055 7  79340145.477 7      -181.790          44.000
C05  39784607.281 5 207168889.320 5         9.953          35.000    39784605.789 6 160196102.121 6         7.633          41.000
C19  25633914.305 6 133482485.629 6     -3271.629          41.000
C22  22314871.883 8 116199379.259 8     -1555.457          51.000
E02  23620126.922 8 124124610.815 8       -44.465          51.000    23620128.031 8  95108497.165 8       -33.975          51.000
E03  26471271.492 6 139107547.601 6     -2372.480          37.000    26471273.734 6 106588844.835 6     -1817.890          36.000
E08  21493642.172 8 112949858.354 8      -455.520          51.000    21493643.805 8  86545990.590 8      -349.064          51.000
E25  26660108.094 5 140099813.893 5     -2470.672          32.000
E30  23790208.984 8 125018375.675 8      2553.238          51.000    23790209.289 8  95793315.285 8      1956.437          48.000
> 2020 05 05 04 01 30.0000000  0 15        .000000000000
G05  20850963.203 8 109572550.676 8     -1398.312          50.000    20850963.398 8  85381201.785 8     -1089.594          50.000
G07  22869563.234 4 120180398.655 4     -2590.699          29.000
G28  21443464.898 8 112686156.219 8      1861.441          50.000    21443462.867 7  87807395.224 7      1450.474          47.000
G30  20755711.078 8 109072055.027 8     -1354.664          51.000    20755712.109 8  84991202.334 8     -1055.582          51.000
R05  21874247.500 8 116930347.116 8     -3476.598          49.000    21874249.461 7  90945832.201 7     -2704.023          42.000
R06  19096144.562 8 101900677.097 8       196.477          48.000
R09  22013814.289 6 117552482.030 6      3818.395          40.000    22013805.211 6  91429704.336 6      2969.859          40.000
R16  19097645.906 7 102016227.684 7      -261.215          45.000    19097648.164 7  79345937.013 7      -203.164          44.000
C05  39784563.492 5 207168662.143 5         6.461          35.000    39784561.945 6 160195925.651 6         5.114          41.000
C19  25652785.961 7 133580757.846 7     -3278.520          42.000
C22  22323885.609 8 116246321.388 8     -1572.555          51.000
E02  23620434.383 8 124126225.599 8       -61.930          51.000    23620435.328 8  95109734.473 8       -47.509          51.000
E03  26484842.078 5 139178784.285 5     -2381.277          32.000    26484845.266 6 106643496.997 6     -1824.400          38.000
E08  21496282.867 8 112963736.415 8      -468.238          51.000    21496284.031 8  86556624.427 8      -358.756          51.000
E30  23775671.797 8 124941981.259 8      2540.977          51.000    23775669.625 7  95734779.312 7      1947.027          47.000
> 2020 05 05 04 02  0.0000000  0 14        .000000000000
G05  20859003.539 8 109614800.376 8     -1416.477          51.000    20859002.906 8  85414123.619 8     -1103.748          51.000
G28  21432888.320 8 112630577.561 8      1845.633          48.000    21432887.195 8  87764087.193 8      1438.155          48.000
G30  20763481.750 8 109112889.870 8     -1365.852          51.000    20763482.859 8  85023021.680 8     -1064.300          51.000
R05  21893797.094 8 117034846.759 8     -3488.039          49.000    21893797.820 6  91027109.624 6     -2712.922          41.000
R06  19095104.289 7 101895124.949 7       175.477          47.000
R09  21992397.617 6 117438110.847 6      3807.832          37.000    21992388.391 6  91340748.918 6      2961.644          41.000
R16  19099185.547 7 102024452.442 7      -284.973          45.000    19099187.961 7  79352334.047 7      -221.645          44.000
C05  39784530.648 5 207168490.860 5         6.867          35.000    39784529.086 6 160195793.197 6         5.138          41.000
C19  25671690.016 7 133679196.517 7     -3281.984          43.000
C22  22332988.547 8 116293725.386 8     -1585.734          51.000
E02  23620832.641 8 124128317.611 8       -75.629          51.000    23620833.633 8  95111337.445 8       -57.961          51.000
E03  26498453.328 5 139250310.996 5     -2385.562          34.000    26498458.789 6 106698306.324 6     -1828.078          41.000
E08  21498986.250 8 112977944.394 8      -477.074          51.000    21498987.375 8  86567511.053 8      -365.562          51.000
E30  23761195.094 8 124865904.052 8      2532.633          51.000    23761191.305 7  95676486.394 7      1940.565          46.000
> 2020 05 05 04 02 30.0000000  0 16        .000000000000
G05  20867141.961 8 109657565.344 8     -1428.441          51.000    20867140.281 8  85447446.948 8     -1113.071          51.000
G28  21422395.852 8 112575441.680 8      1836.141          50.000    21422395.617 7  87721124.179 7      1430.759          47.000
G30  20771311.164 8 109154033.541 8     -1370.910          51.000    20771312.125 8  85055081.680 8     -1068.245          51.000
R05  21913404.180 8 117139657.515 8     -3493.270          48.000    21913405.047 7  91108628.975 7     -2716.990          43.000
R06  19094176.969 7 101890176.746 7       160.574          47.000
R09  21971030.211 5 117324025.471 5      3803.797          33.000    21971024.430 6  91252015.816 6      2958.503          40.000
R15  21944175.570 5 117263019.810 5     -3739.258          32.000
R16  19100852.430 7 102033356.125 7      -302.309          45.000    19100854.695 7  79359259.119 7      -235.126          45.000
C05  39784490.375 6 207168280.955 6        13.348          36.000    39784488.836 6 160195630.873 6        10.074          41.000
C19  25690607.961 7 133777704.678 7     -3279.223          43.000
C21  22552019.844 5 117434253.266 5      1551.996          32.000
C22  22342162.469 8 116341495.077 8     -1592.828          51.000
E02  23621303.312 8 124130789.880 8       -83.047          51.000    23621304.102 8  95113231.773 8       -63.672          51.000
E03  26512086.961 6 139321950.213 6     -2384.098          40.000    26512093.180 7 106753198.619 7     -1826.785          42.000
E08  21501734.156 8 112992386.260 8      -479.617          51.000    21501735.641 8  86578576.881 8      -367.502          51.000
E30  23746760.820 8 124790048.823 8      2530.469          51.000    23746756.477 7  95618363.549 7      1938.984          47.000
> 2020 05 05 04 03  0.0000000  0 15        .000000000000
G05  20875385.461 8 109700883.525 8     -1455.035          51.000    20875382.961 8  85481201.373 8     -1133.794          51.000
G28  21411995.883 8 112520789.955 8      1811.887          50.000    21411995.719 7  87678538.393 7      1411.857          47.000
G30  20779206.555 8 109195524.212 8     -1390.629          51.000    20779207.344 8  85087412.067 8     -1083.607          51.000
R05  21933076.570 7 117244817.764 7     -3513.055          46.000    21933078.203 7  91190420.236 7     -2732.373          44.000
R06  19093370.805 7 101885874.517 7       130.742          47.000
R09  21949723.906 5 117210268.887 5      3784.168          34.000    21949721.047 6  91163538.375 6      2943.242          37.000
R15  21965233.656 5 117375505.173 5     -3755.684          33.000
R16  19102653.609 7 102042977.215 7      -334.500          45.000    19102655.883 7  79366742.188 7      -260.167          44.000
C05  39784450.320 6 207168072.604 6         5.270          36.000    39784448.625 6 160195468.949 6         3.939          41.000
C19  25709546.594 7 133876320.067 7     -3290.672          42.000
C22  22351414.055 8 116389669.081 8     -1614.414          51.000
E02  23621853.641 8 124133681.432 8      -105.223          51.000    23621854.047 8  95115447.380 8       -80.607          51.000
E03  26525749.242 6 139393736.876 6     -2397.027          41.000    26525754.414 7 106808203.953 7     -1836.791          42.000
E08  21504534.516 8 113007102.063 8      -496.934          51.000    21504535.867 8  86589852.618 8      -380.803          51.000
E30  23732376.664 8 124714456.416 8      2513.488          51.000    23732372.500 7  95560442.104 7      1926.003          47.000
> 2020 05 05 04 03 30.0000000  0 14        .000000000000
G05  20883750.859 8 109744843.808 8     -1476.434          51.000    20883748.180 8  85515456.131 8     -1150.471          51.000
G28  21401705.773 8 112466714.344 8      1792.496          51.000    21401705.352 7  87636401.524 7      1396.750          46.000
G30  20787184.781 8 109237450.532 8     -1405.246          51.000    20787185.633 8  85120081.919 8     -1094.997          51.000
R05  21952829.555 7 117350417.162 7     -3527.730          44.000    21952833.062 7  91272553.157 7     -2743.787          45.000
R06  19092703.023 7 101882310.634 7       105.945          46.000
R09  21928498.078 6 117096935.006 6      3770.320          38.000    21928496.617 5  91075389.751 5      2932.471          35.000
R16  19104606.016 7 102053405.967 7      -361.500          45.000    19104608.078 7  79374853.405 7      -281.167          44.000
C05  39784427.406 6 207167953.170 6         1.910          36.000    39784425.797 6 160195376.563 6         1.719          41.000
C19  25728522.633 7 133975130.653 7     -3297.391          42.000
C22  22360760.180 8 116438336.141 8     -1630.859          51.000
E02  23622500.633 8 124137081.905 8      -122.184          51.000    23622500.969 8  95118052.931 8       -93.618          51.000
E03  26539456.508 7 139465760.855 7     -2404.996          42.000    26539460.375 7 106863391.071 7     -1842.801          44.000
E08  21507404.492 8 113022182.393 8      -509.133          51.000    21507405.234 8  86601407.651 8      -390.127          51.000
E30  23718059.695 8 124639218.202 8      2501.645          51.000    23718056.125 8  95502792.033 8      1916.952          48.000
> 2020 05 05 04 04  0.0000000  0 15        .000000000000
G05  20892208.359 8 109789289.056 8     -1487.918          51.000    20892205.703 8  85550088.788 8     -1159.417          51.000
G28  21391495.820 8 112413060.424 8      1783.102          50.000    21391494.945 7  87594593.262 7      1389.430          46.000
G30  20795215.992 8 109279655.051 8     -1409.754          51.000    20795216.812 8  85152968.545 8     -1098.510          51.000
R05  21972635.508 7 117456295.467 7     -3532.293          47.000    21972640.008 7  91354902.938 7     -2747.339          46.000
R06  19092144.156 7 101879328.316 7        91.371          46.000
R09  21907323.203 6 116983867.901 6      3765.926          38.000    21907322.031 5  90987448.638 5      2929.053          30.000
R16  19106679.477 7 102064481.854 7      -378.371          45.000    19106681.898 7  79383467.989 7      -294.289          45.000
C05  39784392.008 5 207167768.958 5         8.824          35.000    39784390.406 6 160195234.068 6         6.947          41.000
C19  25747506.039 6 134073980.324 6     -3294.055          40.000
C21  22525636.875 5 117296892.370 5      1510.277          31.000
C22  22370171.648 8 116487340.942 8     -1637.488          51.000
E02  23623214.609 8 124140834.677 8      -129.266          51.000    23623215.125 8  95120928.434 8       -99.021          51.000
E03  26553178.633 7 139537865.667 7     -2403.148          42.000    26553181.812 7 106918640.146 7     -1841.376          44.000
E08  21510314.289 8 113037471.632 8      -511.422          51.000    21510314.234 8  86613122.763 8      -391.827          51.000
E30  23703780.117 8 124564179.393 8      2499.676          51.000    23703777.797 8  95445294.753 8      1915.306          49.000
> 2020 05 05 04 04 30.0000000  0 15        .000000000000
G05  20900767.672 8 109834270.158 8     -1509.609          51.000    20900765.406 8  85585139.011 8     -1176.319          51.000
G28  21381376.273 8 112359882.188 8      1763.277          50.000    21381375.438 7  87553155.687 7      1373.982          46.000
G30  20803309.758 8 109322188.431 8     -1424.598          51.000    20803310.516 8  85186111.412 8     -1110.079          51.000
R05  21992503.898 8 117562503.469 8     -3547.309          48.000    21992508.273 7  91437509.101 7     -2759.018          46.000
R06  19091704.320 7 101876982.025 7        66.137          45.000
R09  21886208.875 6 116871123.002 6      3751.219          37.000    21886211.000 4  90899758.111 4      2917.612          29.000
R16  19108883.906 7 102076256.621 7      -405.695          44.000    19108886.242 7  79392626.134 7      -315.541          44.000
C05  39784354.055 6 207167571.542 6         5.215          36.000    39784352.523 6 160195081.427 6         4.141          41.000
C19  25766506.305 6 134172919.358 6     -3301.098          39.000
C21  22516983.555 5 117251837.885 5      1494.027          31.000
C22  22379658.062 8 116536734.491 8     -1654.305          51.000
E02  23624005.289 8 124144991.328 8      -146.637          51.000    23624006.148 8  95124113.398 8      -112.361          51.000
E03  26566925.477 7 139610103.014 7     -2411.652          42.000    26566928.367 7 106973990.783 7     -1847.710          44.000
E08  21513273.906 8 113053022.336 8      -524.074          51.000    21513273.016 8  86625038.229 8      -401.575          51.000
E30  23689548.359 8 124489393.328 8      2487.266          51.000    23689547.898 8  95387991.114 8      1905.917          51.000
> 2020 05 05 04 05  0.0000000  0 17        .000000000000
G05  20909426.008 8 109879772.466 8     -1524.871          51.000    20909424.422 8  85620595.359 8     -1188.211          51.000
G07  22973728.734 5 120727782.866 5     -2621.516          31.000
G13  20970862.320 6 110202617.327 6      1767.629          36.000
G28  21371344.906 8 112307168.129 8      1749.945          49.000    21371343.625 7  87512079.783 7      1363.594          44.000
G30  20811463.289 8 109365036.173 8     -1432.906          51.000    20811464.109 8  85219499.249 8     -1116.550          51.000
R05  22012431.695 8 117669026.054 8     -3555.449          50.000    22012435.086 7  91520359.978 7     -2765.349          46.000
R06  19091381.539 7 101875259.834 7        47.605          46.000
R09  21865153.891 6 116758689.363 6      3743.145          37.000    21865161.633 4  90812309.685 4      2911.332          29.000
R15  22049907.422 5 117827977.897 5     -3783.305          32.000
R16  19111215.867 7 102088714.874 7      -426.059          44.000    19111218.055 7  79402315.869 7      -331.382          44.000
C05  39784311.141 6 207167348.148 6         8.242          36.000    39784309.641 6 160194908.636 6         6.678          41.000
C19  25785520.297 6 134271933.404 6     -3301.148          36.000
C22  22389216.414 8 116586503.280 8     -1664.641          51.000
E02  23624870.461 8 124149538.276 8      -157.465          51.000    23624871.484 8  95127597.407 8      -120.634          51.000
E03  26580694.766 7 139682459.456 7     -2413.133          44.000    26580696.984 7 107029432.746 7     -1849.000          44.000
E08  21516280.758 8 113068821.952 8      -530.191          51.000    21516279.523 8  86637144.404 8      -406.221          51.000
E30  23675362.758 8 124414848.205 8      2481.391          51.000    23675363.844 8  95330872.109 8      1901.340          51.000
> 2020 05 05 04 05 30.0000000  0 16        .000000000000
G05  20918197.000 8 109925866.786 8     -1543.707          51.000    20918195.781 8  85656512.993 8     -1202.889          51.000
G13  20960813.352 5 110149822.811 5      1757.840          35.000    20960816.508 5  85831038.958 5      1369.745          31.000
G28  21361415.922 8 112254992.393 8      1732.723          49.000    21361414.336 7  87471423.332 7      1350.170          44.000
G30  20819690.031 8 109408268.935 8     -1444.969          51.000    20819690.992 8  85253187.087 8     -1125.953          51.000
R05  22032431.758 8 117775934.342 8     -3567.418          50.000    22032434.492 7  91603510.861 7     -2774.658          46.000
R06  19091189.555 7 101874236.289 7        24.957          45.000
R09  21844172.273 6 116646642.892 6      3730.613          36.000    21844182.945 5  90725162.301 5      2901.582          30.000
R15  22071185.820 5 117941681.309 5     -3792.309          34.000
R16  19113689.305 7 102101928.488 7      -450.355          43.000    19113691.891 7  79412593.098 7      -350.276          45.000
C05  39784276.875 6 207167169.146 6         8.016          36.000    39784275.500 6 160194770.987 6         6.008          41.000
C19  25804561.703 6 134371092.467 6     -3305.543          36.000
C22  22398860.180 8 116636718.003 8     -1678.730          51.000
E02  23625823.492 8 124154546.992 8      -172.215          51.000    23625824.773 8  95131435.249 8      -131.912          51.000
E03  26594500.234 7 139755006.788 7     -2419.004          44.000    26594501.453 7 107085020.944 7     -1853.513          42.000
E08  21519348.648 8 113084942.971 8      -540.234          51.000    21519347.422 8  86649496.860 8      -413.946          51.000
E30  23661237.219 8 124340617.272 8      2471.613          51.000    23661239.383 8  95273993.858 8      1893.855          51.000
> 2020 05 05 04 06  0.0000000  0 15        .000000000000
G05  20927071.367 8 109972501.713 8     -1563.137          51.000    20927069.961 8  85692851.896 8     -1218.029          51.000
G28  21351580.359 8 112203306.761 8      1715.000          48.000    21351579.156 7  87431148.792 7      1336.364          46.000
G30  20827980.344 8 109451835.303 8     -1457.379          51.000    20827981.344 8  85287134.883 8     -1135.620          51.000
R05  22052494.086 8 117883175.789 8     -3579.867          50.000    22052496.250 7  91686920.863 7     -2784.341          44.000
R06  19091119.031 7 101873861.778 7         1.965          46.000
R09  21823255.086 5 116534935.483 5      3718.211          35.000    21823261.898 5  90638278.548 5      2891.939          35.000
R15  22092505.195 5 118055607.326 5     -3800.391          33.000
R16  19116294.547 7 102115845.012 7      -475.105          45.000    19116296.938 7  79423417.029 7      -369.530          45.000
C05  39784241.828 6 207166986.994 6         6.730          36.000    39784240.555 6 160194630.149 6         4.851          41.000
C19  25823621.383 5 134470345.573 5     -3309.816          35.000
C22  22408579.328 8 116687328.490 8     -1693.188          51.000
E02  23626854.750 8 124159966.919 8      -187.141          51.000    23626856.344 8  95135588.182 8      -143.381          51.000
E03  26608332.406 7 139827694.577 7     -2424.902          44.000    26608332.648 7 107140716.771 7     -1858.129          42.000
E08  21522468.367 8 113101335.860 8      -550.594          51.000    21522467.156 8  86662057.623 8      -421.887          51.000
E30  23647162.125 8 124266651.858 8      2461.422          51.000    23647164.906 8  95217319.052 8      1886.016          51.000
> 2020 05 05 04 06 30.0000000  0 16        .000000000000
G05  20936040.742 8 110019634.557 8     -1571.188          51.000    20936039.078 8  85729578.777 8     -1224.302          51.000
G07  23018800.812 5 120964603.372 5     -2627.031          33.000    23018793.047 5  94258109.406 5     -2047.037          32.000
G28  21341830.453 8 112152071.402 8      1708.516          49.000    21341829.523 7  87391225.135 7      1331.308          45.000
G30  20836326.172 8 109495692.798 8     -1458.605          51.000    20836327.125 8  85321309.552 8     -1136.576          51.000
R05  22072610.156 8 117990706.901 8     -3580.820          49.000    22072611.938 7  91770556.148 7     -2785.086          44.000
R06  19091162.891 7 101874096.404 7        -9.676          46.000
R09  21802392.438 6 116423527.426 6      3716.973          38.000    21802396.492 6  90551627.776 6      2890.979          40.000
R15  22113857.250 5 118169710.637 5     -3798.168          35.000
R16  19119023.227 7 102130420.801 7      -488.480          45.000    19119025.797 7  79434753.756 7      -379.929          45.000
C05  39784198.281 6 207166760.198 6        16.242          36.000    39784197.055 6 160194454.711 6        12.792          41.000
C19  25842691.828 5 134569650.740 5     -3302.699          32.000
C22  22418365.906 8 116738293.462 8     -1696.582          51.000
E02  23627956.492 8 124165756.496 8      -190.941          51.000    23627958.297 8  95140024.351 8      -146.249          51.000
E03  26622183.391 7 139900481.507 7     -2419.527          44.000    26622182.930 7 107196488.501 7     -1853.971          42.000
E08  21525632.102 8 113117960.074 8      -549.789          51.000    21525630.797 8  86674795.648 8      -421.240          51.000
E30  23633129.703 8 124192912.151 8      2462.547          50.000    23633132.867 8  95160817.199 8      1886.860          51.000
> 2020 05 05 04 07  0.0000000  0 15        .000000000000
G05  20945113.453 8 110067309.607 8     -1608.297          51.000    20945111.539 8  85766728.142 8     -1253.218          51.000
G28  21332175.789 8 112101333.932 8      1672.859          50.000    21332174.539 7  87351689.418 7      1303.527          45.000
G30  20844735.773 8 109539885.285 8     -1488.762          51.000    20844736.758 8  85355745.251 8     -1160.077          51.000
R05  22092788.250 8 118098571.721 8     -3611.379          48.000    22092790.234 7  91854450.906 7     -2808.853          44.000
R06  19091329.617 7 101874986.928 7       -50.891          46.000
R09  21781594.125 6 116312467.462 6      3685.590          39.000    21781596.922 7  90465247.768 7      2866.567          43.000
R15  22135251.375 6 118284033.749 6     -3824.793          37.000
R16  19121883.680 7 102145700.155 7      -531.168          46.000    19121886.273 7  79446637.688 7      -413.131          45.000
C05  39784154.812 6 207166533.476 6        -2.719          36.000    39784153.562 6 160194279.387 6        -1.855          41.000
C19  25861780.320 4 134669075.341 4     -3325.109          29.000
C22  22428228.977 8 116789657.062 8     -1728.809          51.000
E02  23629137.188 8 124171960.381 8      -223.836          51.000    23629138.953 8  95144777.965 8      -171.496          51.000
E03  26636061.688 7 139973412.377 7     -2443.371          43.000    26636060.719 7 107252370.529 7     -1872.355          42.000
E08  21528848.469 8 113134861.262 8      -578.062          51.000    21528847.047 8  86687745.900 8      -442.961          51.000
E30  23619148.914 8 124119444.638 8      2434.176          50.000    23619152.273 8  95104523.902 8      1865.240          51.000
> 2020 05 05 04 07 30.0000000  0 15        .000000000000
G05  20954282.898 8 110115493.199 8     -1616.305          51.000    20954280.906 8  85804273.785 8     -1259.458          51.000
G07  23048942.250 5 121122993.587 5     -2644.555          35.000    23048943.062 6  94381568.996 6     -2060.692          36.000
G28  21322610.062 8 112051063.480 8      1666.117          50.000    21322608.398 7  87312517.632 7      1298.273          44.000
G30  20853202.734 8 109584379.083 8     -1489.883          51.000    20853203.664 8  85390415.726 8     -1160.948          51.000
R05  22113022.742 8 118206735.261 8     -3612.203          48.000    22113024.953 7  91938578.043 7     -2809.491          44.000
R06  19091613.508 7 101876502.067 7       -62.773          46.000
R09  21760854.172 6 116201725.287 6      3684.215          40.000    21760857.203 7  90379114.890 7      2865.494          43.000
R15  22156679.750 5 118398540.321 5     -3821.672          35.000    22156687.812 4  92087812.916 4     -2972.411          27.000
R16  19124869.102 7 102161648.627 7      -544.488          46.000    19124872.117 7  79459042.055 7      -423.491          44.000
C05  39784105.133 6 207166274.931 6         7.055          36.000    39784103.906 6 160194079.432 6         5.685          41.000
C22  22438162.281 8 116841386.668 8     -1732.109          51.000
E02  23630390.492 8 124178545.715 8      -227.609          51.000    23630392.164 8  95149823.869 8      -174.423          51.000
E03  26649961.289 7 140046454.635 7     -2438.281          42.000    26649960.453 7 107308337.887 7     -1868.255          42.000
E08  21532111.422 8 113152007.662 8      -577.336          51.000    21532109.773 8  86700884.041 8      -442.374          51.000
E30  23605214.203 8 124046218.241 8      2435.105          51.000    23605217.664 8  95048415.372 8      1865.872          51.000
> 2020 05 05 04 08  0.0000000  0 16        .000000000000
G05  20963570.062 8 110164296.487 8     -1645.797          51.000    20963568.227 8  85842302.321 8     -1282.439          51.000
G07  23064056.523 5 121202429.825 5     -2660.695          35.000
G28  21313154.891 8 112001374.739 8      1637.719          51.000    21313152.961 7  87273799.154 7      1276.144          44.000
G30  20861748.273 8 109629285.799 8     -1512.535          51.000    20861748.984 8  85425407.960 8     -1178.599          51.000
R05  22133333.914 8 118315310.561 8     -3634.965          48.000    22133336.891 7  92023025.478 7     -2827.195          46.000
R06  19092036.516 7 101878757.776 7       -96.426          47.000
R09  21740194.406 6 116091418.146 6      3660.520          41.000    21740199.430 7  90293320.384 7      2847.068          44.000
R15  22178163.047 6 118513342.171 6     -3840.418          37.000    22178171.477 4  92177103.157 4     -2986.992          29.000
R16  19128000.953 7 102178379.269 7      -579.520          45.000    19128004.305 7  79472054.782 7      -450.737          44.000
C05  39784071.016 6 207166097.553 6        -3.797          36.000    39784069.617 6 160193941.494 6        -3.144          41.000
C19  25900026.172 5 134868209.444 5     -3333.426          34.000
C22  22448187.609 8 116893593.583 8     -1756.824          51.000
E02  23631737.789 8 124185624.953 8      -252.879          51.000    23631739.430 8  95155248.217 8      -193.809          51.000
E03  26663903.477 6 140119720.850 6     -2454.641          41.000    26663904.070 7 107364476.886 7     -1880.823          44.000
E08  21535442.625 8 113169512.729 8      -598.207          51.000    21535440.922 8  86714297.021 8      -458.366          51.000
E30  23591347.141 8 123973347.272 8      2414.395          51.000    23591350.883 8  94992579.169 8      1849.961          51.000
> 2020 05 05 04 08 30.0000000  0 15        .000000000000
G05  20972968.211 8 110213684.745 8     -1654.605          51.000    20972966.828 8  85880786.674 8     -1289.300          51.000
G28  21303804.539 8 111952236.488 8      1630.117          51.000    21303802.180 7  87235509.605 7      1270.221          45.000
G30  20870365.766 8 109674570.846 8     -1514.324          51.000    20870366.602 8  85460695.014 8     -1179.990          51.000
R05  22153714.984 7 118424261.806 7     -3636.516          46.000    22153718.805 7  92107765.331 7     -2828.401          47.000
R06  19092592.172 7 101881721.848 7      -109.125          46.000
R09  21719610.648 7 115981514.895 7      3658.160          42.000    21719617.297 7  90207840.053 7      2845.236          44.000
R15  22199694.375 5 118628401.993 5     -3838.691          34.000    22199703.555 4  92266594.089 4     -2985.646          28.000
R16  19131272.695 7 102195856.555 7      -593.652          46.000    19131276.109 7  79485648.234 7      -461.733          44.000
C05  39784045.828 6 207165966.574 6         4.352          36.000    39784044.445 6 160193840.171 6         3.830          41.000
C19  25919188.055 5 134967983.048 5     -3327.172          35.000
C22  22458298.750 8 116946244.233 8     -1761.023          51.000
E02  23633172.672 8 124193164.313 8      -257.605          51.000    23633173.984 8  95161025.126 8      -197.374          51.000
E03  26677881.836 6 140193177.514 6     -2450.316          41.000    26677884.086 7 107420761.827 7     -1877.515          45.000
E08  21538835.766 8 113187343.793 8      -598.480          51.000    21538834.344 8  86727959.772 8      -458.573          51.000
E30  23577541.266 8 123900799.776 8      2414.230          50.000    23577545.812 8  94936990.800 8      1849.853          51.000
> 2020 05 05 04 09  0.0000000  0 15        .000000000000
G05  20982455.078 8 110263540.229 8     -1669.918          51.000    20982454.141 8  85919635.107 8     -1301.235          51.000
G28  21294537.000 8 111903532.965 8      1615.859          51.000    21294534.609 7  87197558.801 7      1259.111          46.000
G30  20879032.742 8 109720115.767 8     -1522.816          51.000    20879033.875 8  85496184.563 8     -1186.610          51.000
R05  22174142.664 6 118533468.246 6     -3644.992          41.000    22174147.773 7  92192703.711 7     -2834.991          46.000
R06  19093258.562 7 101885276.106 7      -128.652          47.000
R09  21699081.789 7 115871898.804 7      3648.812          43.000    21699088.594 7  90122583.098 7      2837.965          43.000
R15  22221250.172 5 118743597.670 5     -3841.926          35.000    22221260.930 4  92356190.619 4     -2988.168          27.000
R16  19134661.641 7 102213959.975 7      -614.176          47.000    19134665.203 7  79499728.679 7      -477.692          44.000
C05  39784007.438 6 207165766.046 6         7.363          36.000    39784006.164 6 160193685.887 6         5.860          41.000
C19  25938353.422 5 135067777.697 5     -3326.859          34.000
C22  22468473.164 8 116999221.912 8     -1771.656          51.000
E02  23634672.633 8 124201046.117 8      -268.645          51.000    23634673.383 8  95167064.425 8      -205.859          51.000
E03  26691873.852 6 140266707.207 6     -2452.754          40.000    26691877.648 7 107477102.763 7     -1879.116          45.000
E08  21542268.688 8 113205384.189 8      -605.051          51.000    21542267.594 8  86741782.921 8      -463.598          51.000
E30  23563774.938 8 123828459.902 8      2407.520          50.000    23563780.062 8  94881561.497 8      1844.789          51.000
> 2020 05 05 04 09 30.0000000  0 16        .000000000000
G05  20992042.664 8 110313925.545 8     -1688.512          51.000    20992042.078 8  85958896.384 8     -1315.723          50.000
G07  23109556.289 5 121441544.053 5     -2663.098          31.000
G28  21285364.625 8 111855330.601 8      1598.234          51.000    21285362.242 7  87159998.527 7      1245.377          47.000
G30  20887761.219 8 109765983.761 8     -1534.574          51.000    20887762.414 8  85531925.857 8     -1195.772          51.000
R05  22194629.125 6 118642993.302 6     -3656.375          40.000    22194635.844 7  92277889.843 7     -2843.850          45.000
R06  19094047.836 7 101889487.823 7      -151.527          45.000
R09  21678620.516 7 115762637.953 7      3635.918          43.000    21678626.602 7  90037602.454 7      2827.936          42.000
R15  22242842.656 5 118858991.204 5     -3850.117          34.000    22242853.391 4  92445940.671 4     -2994.536          25.000
R16  19138179.828 7 102232752.849 7      -638.164          46.000    19138183.359 7  79514345.359 7      -496.350          43.000
C05  39783968.250 5 207165562.006 5         6.516          35.000    39783966.953 6 160193528.093 6         5.138          41.000
C19  25957533.648 5 135167655.993 5     -3330.980          31.000
C22  22478722.258 8 117052589.898 8     -1785.605          51.000
E02  23636249.922 8 124209334.316 8      -283.168          51.000    23636250.406 8  95173415.121 8      -216.985          51.000
E03  26705891.625 6 140340374.124 6     -2457.961          40.000    26705897.102 7 107533548.838 7     -1883.343          45.000
E08  21545753.773 8 113223698.986 8      -615.254          51.000    21545752.797 8  86755816.321 8      -471.401          51.000
E30  23550061.211 8 123756393.382 8      2397.465          51.000    23550066.109 8  94826341.670 8      1837.027          51.000
> 2020 05 05 04 10  0.0000000  0 16        .000000000000
G05  21001736.680 8 110364870.432 8     -1707.508          50.000    21001736.422 8  85998593.685 8     -1330.526          50.000
G07  23124783.445 5 121521534.897 5     -2668.293          34.000    23124779.992 5  94692107.230 5     -2079.189          34.000
G28  21276293.617 8 111807662.115 8      1579.945          51.000    21276291.008 7  87122854.260 7      1231.126          46.000
G30  20896556.906 8 109812204.759 8     -1546.746          51.000    20896557.766 8  85567942.211 8     -1205.260          51.000
R05  22215184.109 7 118752867.425 7     -3668.391          45.000    22215189.133 7  92363347.439 7     -2853.199          44.000
R06  19094966.344 7 101894389.974 7      -174.977          45.000
R09  21658232.648 7 115653766.975 7      3622.453          43.000    21658239.188 7  89952925.014 7      2817.464          43.000
R15  22264477.727 5 118974611.227 5     -3857.656          33.000    22264488.188 4  92535858.885 4     -3000.399          26.000
R16  19141832.609 7 102252265.259 7      -662.586          47.000    19141835.820 7  79529521.672 7      -515.345          43.000
C05  39783934.180 5 207165384.662 5         5.156          35.000    39783932.922 6 160193390.924 6         4.038          41.000
C21  22426631.422 5 116781396.900 5      1354.051          31.000
C22  22489051.914 8 117106378.638 8     -1800.133          51.000
E02  23637910.445 8 124218059.702 8      -298.172          51.000    23637910.898 8  95180100.812 8      -228.460          51.000
E03  26719941.602 6 140414209.273 6     -2463.965          41.000    26719947.781 7 107590123.815 7     -1887.985          44.000
E08  21549297.219 8 113242320.004 8      -625.863          51.000    21549296.062 8  86770084.356 8      -479.519          51.000
E30  23536406.141 8 123684632.847 8      2386.828          51.000    23536410.008 8  94771356.302 8      1828.895          51.000
> 2020 05 05 04 10 30.0000000  0 15        .000000000000
G05  21011527.156 8 110416320.432 8     -1722.836          51.000    21011527.000 8  86038684.591 8     -1342.470          51.000
G07  23140024.156 5 121601599.974 5     -2670.406          34.000    23140025.203 5  94754505.517 5     -2080.851          31.000
G28  21267314.344 8 111760476.497 8      1565.246          51.000    21267311.602 7  87086086.228 7      1219.672          46.000
G30  20905409.461 8 109858724.494 8     -1555.184          51.000    20905409.953 8  85604191.343 8     -1211.831          51.000
R05  22235795.016 8 118863034.094 8     -3676.691          48.000    22235797.805 7  92449032.555 7     -2859.652          44.000
R06  19096004.453 7 101899929.950 7      -194.770          45.000
R09  21637908.664 7 115545234.405 7      3612.695          44.000    21637915.508 7  89868510.773 7      2809.874          44.000
R15  22286145.992 5 119090400.788 5     -3861.758          34.000    22286156.562 4  92625915.463 4     -3003.586          25.000
R16  19145609.656 7 102272441.485 7      -683.020          46.000    19145613.047 7  79545214.306 7      -531.237          43.000
C05  39783895.156 5 207165181.566 5         7.387          35.000    39783893.883 6 160193233.842 6         6.156          41.000
C22  22499452.594 8 117160534.905 8     -1810.844          51.000
E02  23639643.938 8 124227168.724 8      -309.414          51.000    23639643.953 8  95187080.444 8      -237.110          51.000
E03  26734013.281 6 140488159.410 6     -2466.555          41.000    26734019.406 7 107646786.873 7     -1889.778          43.000
E08  21552888.953 8 113261194.788 8      -632.805          51.000    21552887.523 8  86784546.837 8      -484.879          51.000
E30  23522799.562 8 123613126.623 8      2379.836          51.000    23522801.969 8  94716565.814 8      1823.520          51.000
> 2020 05 05 04 11  0.0000000  0 14        .000000000000
G05  21021416.336 8 110468287.696 8     -1741.152          51.000    21021415.906 8  86079178.555 8     -1356.742          51.000
G28  21258429.703 8 111713788.438 8      1547.660          51.000    21258426.828 7  87049705.896 7      1205.969          46.000
G30  20914321.039 8 109905554.817 8     -1566.500          51.000    20914321.539 8  85640682.490 8     -1220.649          51.000
R05  22256462.398 8 118973505.151 8     -3687.723          48.000    22256464.141 7  92534954.403 7     -2868.232          44.000
R06  19097164.867 7 101906122.238 7      -217.750          45.000
R09  21617650.758 7 115437055.951 7      3599.730          45.000    21617657.188 7  89784371.966 7      2799.790          43.000
R15  22307848.281 5 119206369.672 5     -3869.707          32.000
R16  19149513.156 7 102293293.245 7      -706.562          46.000    19149516.547 7  79561432.345 7      -549.552          42.000
C05  39783853.750 5 207164965.874 5         7.086          35.000    39783852.492 6 160193067.065 6         5.437          41.000
C22  22509926.430 8 117215071.068 8     -1824.523          51.000
E02  23641452.727 8 124236673.954 8      -323.781          51.000    23641452.391 8  95194363.663 8      -248.086          51.000
E03  26748109.062 6 140562237.349 6     -2471.754          40.000    26748114.734 7 107703547.828 7     -1893.923          42.000
E08  21556531.289 8 113280337.019 8      -642.844          51.000    21556530.094 8  86799214.229 8      -492.530          51.000
E30  23509243.898 8 123541889.108 8      2369.824          51.000    23509245.180 8  94661981.239 8      1815.791          51.000
> 2020 05 05 04 11 30.0000000  0 13        .000000000000
G05  21031425.047 8 110520881.612 8     -1758.465          51.000    21031424.305 8  86120160.800 8     -1370.235          51.000
G28  21249661.109 8 111667710.585 8      1530.824          51.000    21249658.430 7  87013801.082 7      1192.850          46.000
G30  20923312.477 8 109952805.296 8     -1576.840          51.000    20923313.195 8  85677501.029 8     -1228.706          51.000
R05  22277206.609 8 119084391.532 8     -3697.906          48.000    22277208.383 7  92621199.267 7     -2876.149          43.000
R06  19098468.867 7 101913080.788 7      -239.555          46.000
R09  21597480.477 7 115329347.089 7      3587.613          47.000    21597485.242 7  89700598.404 7      2790.366          42.000
R16  19153563.797 7 102314931.389 7      -729.145          46.000    19153566.625 7  79578262.016 7      -567.112          42.000
C05  39783831.117 5 207164847.719 5         7.379          35.000    39783829.859 6 160192975.674 6         5.615          41.000
C22  22520493.867 8 117270096.428 8     -1837.289          51.000
E02  23643357.922 8 124246685.782 8      -337.102          51.000    23643357.953 8  95202035.059 8      -258.299          51.000
E03  26762250.281 6 140636553.724 6     -2475.953          41.000    26762256.008 7 107760491.483 7     -1897.162          43.000
E08  21560245.633 8 113299858.157 8      -651.973          51.000    21560245.086 8  86814171.957 8      -499.548          51.000
E30  23495760.438 8 123471032.547 8      2360.566          51.000    23495760.914 8  94607688.581 8      1808.752          51.000
> 2020 05 05 04 12  0.0000000  0 13        .000000000000
G05  21041508.648 8 110573867.850 8     -1775.508          51.000    21041507.461 8  86161448.750 8     -1383.513          51.000
G28  21240964.719 8 111622012.043 8      1514.098          50.000    21240962.297 7  86978191.832 7      1179.816          46.000
G30  20932339.320 8 110000241.960 8     -1587.160          51.000    20932340.172 8  85714464.647 8     -1236.748          51.000
R05  22297982.891 7 119195454.558 7     -3707.949          46.000    22297985.086 7  92707581.537 7     -2883.967          42.000
R06  19099872.438 7 101920570.328 7      -261.508          46.000
R09  21577354.867 8 115221873.541 8      3575.656          49.000    21577356.945 7  89617007.845 7      2781.063          42.000
R16  19157717.234 7 102337117.384 7      -751.445          46.000    19157719.953 7  79595517.789 7      -584.457          42.000
C05  39783782.883 6 207164596.540 6         8.070          36.000    39783781.695 6 160192781.433 6         5.914          41.000
C22  22531110.359 8 117325379.698 8     -1849.883          51.000
E02  23645315.078 8 124256970.923 8      -350.191          51.000    23645315.367 8  95209915.876 8      -268.340          51.000
E03  26776392.875 6 140710875.604 6     -2480.359          41.000    26776399.117 7 107817439.346 7     -1900.526          44.000
E08  21563987.930 8 113319526.038 8      -660.863          51.000    21563988.219 8  86829242.124 8      -506.403          51.000
E30  23482305.055 8 123400325.509 8      2351.590          51.000    23482305.391 8  94553510.478 8      1801.877          51.000
> 2020 05 05 04 12 30.0000000  0 13        .000000000000
G05  21051695.992 8 110627399.919 8     -1792.281          51.000    21051694.445 8  86203162.044 8     -1396.583          51.000
G28  21232370.398 8 111576849.426 8      1497.672          49.000    21232368.320 7  86943000.163 7      1167.017          46.000
G30  20941430.930 8 110048018.762 8     -1597.031          51.000    20941431.703 8  85751693.290 8     -1244.443          51.000
R05  22318820.812 7 119306850.274 7     -3717.617          45.000    22318824.180 7  92794222.572 7     -2891.483          42.000
R06  19101405.508 7 101928749.743 7      -282.805          47.000
R09  21557303.719 8 115114795.596 8      3563.816          49.000    21557303.664 7  89533725.000 7      2771.857          43.000
R16  19162002.336 7 102360007.137 7      -773.551          46.000    19162004.945 7  79613320.924 7      -601.651          43.000
C05  39783738.656 5 207164366.441 5         8.355          35.000    39783737.508 6 160192603.478 6         6.839          41.000
C22  22541805.430 8 117381074.088 8     -1862.121          51.000
E02  23647353.711 8 124267684.072 8      -362.977          51.000    23647353.641 8  95218124.639 8      -278.086          51.000
E03  26790566.320 6 140785357.908 6     -2484.145          41.000    26790572.977 7 107874510.175 7     -1903.417          46.000
E08  21567787.805 8 113339496.430 8      -669.473          50.000    21567788.734 8  86844544.091 8      -512.955          51.000
E30  23468907.852 8 123329924.542 8      2342.895          51.000    23468908.570 8  94499566.885 8      1795.157          51.000
> 2020 05 05 04 13  0.0000000  0 14        .000000000000
G05  21061968.812 8 110681383.697 8     -1825.777          51.000    21061967.406 8  86245227.318 8     -1422.684          51.000
G07  23216524.945 5 122003627.669 5     -2704.910          35.000    23216533.141 5  95067795.150 5     -2107.728          33.000
G28  21223860.719 8 111532131.894 8      1464.332          49.000    21223859.414 7  86908155.313 7      1141.038          47.000
G30  20950569.336 8 110096041.890 8     -1623.758          51.000    20950570.211 8  85789113.882 8     -1265.269          51.000
R05  22339703.336 7 119418482.473 7     -3744.133          45.000    22339707.883 7  92881047.577 7     -2912.106          44.000
R06  19103050.508 8 101937525.978 8      -321.625          48.000
R09  21537308.953 8 115008021.948 8      3534.840          48.000    21537307.523 7  89450678.840 7      2749.320          43.000
R16  19166401.375 7 102383504.861 7      -812.512          46.000    19166403.812 7  79631596.934 7      -631.954          43.000
C05  39783680.891 5 207164065.930 5        -7.855          35.000    39783679.781 6 160192371.069 6        -5.772          41.000
C22  22552561.984 8 117437087.242 8     -1891.074          51.000
E02  23649456.062 8 124278732.161 8      -392.707          51.000    23649455.930 8  95226590.042 8      -300.855          51.000
E03  26804752.555 7 140859907.871 7     -2504.977          42.000    26804760.172 7 107931632.831 7     -1919.419          47.000
E08  21571627.758 8 113359677.360 8      -695.051          49.000    21571629.188 8  86860007.393 8      -532.523          51.000
E30  23455551.953 8 123259738.453 8      2317.152          51.000    23455553.078 8  94445787.917 8      1775.447          51.000
> 2020 05 05 04 13 30.0000000  0 13        .000000000000
G05  21072375.062 8 110736070.434 8     -1826.730          51.000    21072373.922 8  86287840.352 8     -1423.426          51.000
G28  21215484.094 8 111488112.892 8      1463.461          49.000    21215483.156 7  86873854.769 7      1140.356          47.000
G30  20959802.320 8 110144562.013 8     -1617.754          51.000    20959803.484 8  85826921.773 8     -1260.587          51.000
R05  22360678.414 7 119530605.542 7     -3737.484          47.000    22360683.766 7  92968254.372 7     -2906.932          44.000
R06  19104855.617 8 101947156.506 8      -327.234          49.000
R09  21517418.711 7 114901810.982 7      3539.043          47.000    21517416.578 7  89368070.297 7      2752.589          44.000
R16  19170961.609 7 102407864.548 7      -818.281          45.000    19170963.961 7  79650543.365 7      -636.444          42.000
C05  39783657.695 5 207163944.785 5         9.305          35.000    39783656.586 6 160192277.382 6         6.917          41.000
C22  22563428.062 8 117493668.112 8     -1887.672          51.000
E02  23651669.758 8 124290366.532 8      -389.664          51.000    23651670.047 8  95235504.700 8      -298.568          51.000
E03  26818999.508 7 140934777.156 7     -2493.090          43.000    26819008.070 7 107989000.174 7     -1910.275          47.000
E08  21575555.773 8 113380321.364 8      -687.949          49.000    21575557.438 8  86875825.530 8      -527.115          51.000
E30  23442285.578 8 123190020.395 8      2324.012          51.000    23442286.961 8  94392367.576 8      1780.790          51.000
> 2020 05 05 04 14  0.0000000  0 15        .000000000000
G05  21082844.625 8 110791089.486 8     -1840.121          51.000    21082843.602 8  86330712.324 8     -1433.861          51.000
G28  21207170.969 8 111444425.696 8      1450.090          51.000    21207170.102 7  86839812.779 7      1129.940          47.000
G30  20969059.555 8 110193209.457 8     -1624.379          51.000    20969060.914 8  85864828.874 8     -1265.750          51.000
R05  22381675.852 8 119642843.019 8     -3743.812          48.000    22381679.836 7  93055550.225 7     -2911.854          44.000
R06  19106750.680 8 101957267.683 8      -345.738          48.000
R09  21497563.188 7 114795790.786 7      3530.070          47.000    21497562.305 7  89285610.122 7      2745.610          45.000
R15  22438785.391 5 119905991.246 5     -3899.273          31.000
R16  19175612.664 7 102432709.681 7      -836.977          44.000    19175614.422 7  79669867.334 7      -650.982          43.000
C05                                                                  39783597.742 6 160192040.266 6         9.929          41.000
C21  22366607.086 5 116468793.210 5      1254.902          32.000
C22  22574333.023 8 117550450.975 8     -1896.777          51.000
E02  23653924.930 8 124302218.207 8      -399.215          51.000    23653925.273 8  95244585.838 8      -305.922          51.000
E03  26833237.633 7 141009597.068 7     -2493.660          44.000    26833245.883 7 108046329.699 7     -1910.772          47.000
E08  21579502.117 8 113401060.502 8      -693.414          50.000    21579503.859 8  86891716.574 8      -531.320          51.000
E30  23429038.656 8 123120403.253 8      2318.324          51.000    23429039.961 8  94339024.576 8      1776.342          51.000
> 2020 05 05 04 14 30.0000000  0 16        .000000000000
G05  21093410.570 8 110846615.933 8     -1861.379          50.000    21093410.078 8  86373979.669 8     -1450.425          50.000
G07  23262689.516 5 122246229.676 5     -2700.750          35.000    23262660.383 5  95256778.166 5     -2104.468          34.000
G28  21198954.781 8 111401248.590 8      1428.711          51.000    21198954.102 7  86806168.292 7      1113.281          47.000
G30  20978374.445 8 110242159.630 8     -1638.703          51.000    20978375.773 8  85902971.846 8     -1276.915          51.000
R05  22402727.648 8 119755372.541 8     -3757.902          48.000    22402730.656 7  93143073.177 7     -2922.816          45.000
R06  19108769.734 8 101968040.589 8      -372.176          48.000
R09  21477778.367 8 114690143.473 8      3513.281          50.000    21477778.820 7  89203439.986 7      2732.552          46.000
R15  22460706.062 5 120023110.541 5     -3908.473          34.000
R16  19180387.898 7 102458217.965 7      -863.312          44.000    19180390.008 7  79689707.099 7      -671.465          43.000
C05  39783538.039 6 207163321.325 6         8.934          36.000    39783536.906 6 160191795.240 6         6.745          41.000
C21  22359431.742 5 116431429.297 5      1236.953          35.000
C22  22585310.148 8 117607610.189 8     -1913.512          51.000
E02  23656254.953 8 124314463.276 8      -416.738          51.000    23656255.297 8  95253968.419 8      -319.316          51.000
E03  26847500.164 7 141084544.043 7     -2502.441          45.000    26847507.250 7 108103756.555 7     -1917.401          46.000
E08  21583500.562 8 113422072.041 8      -706.891          51.000    21583502.086 8  86907816.328 8      -541.664          51.000
E30  23415844.727 8 123051065.005 8      2304.586          51.000    23415845.969 8  94285895.266 8      1765.855          51.000
> 2020 05 05 04 15  0.0000000  0 15        .000000000000
G05  21104109.391 8 110902842.079 8     -1879.438          49.000    21104109.469 8  86417792.227 8     -1464.497          50.000
G28  21190872.656 8 111358776.144 8      1410.301          51.000    21190872.000 7  86773072.890 7      1098.936          46.000
G30  20987783.477 8 110291604.428 8     -1650.043          51.000    20987784.805 8  85941500.260 8     -1285.745          51.000
R05  22423870.008 8 119868388.783 8     -3768.766          48.000    22423873.133 7  93230974.650 7     -2931.262          46.000
R06  19110949.523 7 101979672.207 7      -395.574          47.000
R09  21458101.430 8 114585067.662 8      3499.445          51.000    21458102.727 7  89121714.361 7      2721.791          46.000
R15  22482688.336 5 120140582.071 5     -3915.039          35.000    22482684.531 4  93442729.129 4     -3045.030          26.000
R16  19185323.719 7 102484583.881 7      -886.715          44.000    19185325.922 7  79710213.911 7      -689.667          43.000
C05  39783512.016 5 207163186.897 5         7.645          35.000    39783510.914 6 160191690.452 6         6.147          41.000
C21  22352371.555 6 116394653.296 6      1221.844          36.000
C22  22596395.453 8 117665336.517 8     -1927.348          51.000
E02  23658696.539 8 124327294.315 8      -430.973          51.000    23658697.078 8  95263799.991 8      -330.235          51.000
E03  26861823.219 7 141159810.969 7     -2507.738          44.000    26861829.094 7 108161428.548 7     -1921.645          45.000
E08  21587587.938 8 113443549.704 8      -717.211          51.000    21587589.258 8  86924273.229 8      -549.530          51.000
E30  23402740.500 8 122982200.062 8      2294.039          51.000    23402741.984 8  94233128.627 8      1757.749          51.000
> 2020 05 05 04 15 30.0000000  0 15        .000000000000
G05  21114885.992 8 110959475.379 8     -1897.078          50.000    21114886.148 8  86461922.056 8     -1478.240          50.000
G28  21182869.812 8 111316719.805 8      1392.430          51.000    21182868.789 7  86740301.727 7      1085.013          46.000
G30  20997231.086 8 110341252.040 8     -1660.836          51.000    20997232.570 8  85980186.719 8     -1294.155          51.000
R05  22445047.719 8 119981594.146 8     -3779.137          48.000    22445050.891 7  93319023.233 7     -2939.332          47.000
R06  19113234.789 7 101991868.334 7      -418.539          46.000
R09  21438476.703 8 114480270.684 8      3485.918          51.000    21438478.242 7  89040205.596 7      2711.270          46.000
R15  22504679.273 5 120258107.248 5     -3921.039          35.000    22504678.531 4  93534141.127 4     -3049.697          28.000
R16  19190364.359 7 102511510.102 7      -909.469          43.000    19190366.375 7  79731156.503 7      -707.365          44.000
C05  39783465.648 5 207162945.070 5         7.414          35.000    39783464.477 6 160191503.434 6         5.751          41.000
C21  22345365.945 5 116358178.958 5      1207.855          32.000
C22  22607533.859 8 117723341.324 8     -1940.660          51.000
E02  23661194.461 8 124340420.229 8      -444.945          51.000    23661194.984 8  95273857.497 8      -340.944          51.000
E03  26876151.664 7 141235107.001 7     -2512.812          44.000    26876156.469 7 108219122.865 7     -1925.426          45.000
E08  21591708.836 8 113465203.494 8      -727.246          51.000    21591709.766 8  86940865.078 8      -557.229          51.000
