     3.02           OBSERVATION DATA    M (MIXED)           RINEX VERSION / TYPE
SAVERINEX           SC600               20200512 155931 LCL PGM / RUN BY / DATE
       G = GPS       R = GLONASS       C = COMPASS          COMMENT
       S = SBAS      J = QZSS          E = GALILEO          COMMENT
BEAN                                                        MARKER NAME
1                                                           MARKER NUMBER
GEODETIC                                                    MARKER TYPE
Unige DICCA         GTER                                    OBSERVER / AGENCY
SC60291900056       SC600               2.12(191226)        REC # / TYPE / VERS
                    HEMA45          NONE                    ANT # / TYPE
  4509407.8091   693652.4678  4442337.6214                  APPROX POSITION XYZ
        0.0000        0.0000        0.0000                  ANTENNA: DELTA H/E/N
G    8 C1C L1C D1C S1C C2Y L2Y D2Y S2Y                      SYS / # / OBS TYPES
R    8 C1C L1C D1C S1C C2P L2P D2P S2P                      SYS / # / OBS TYPES
C    8 C1I L1I D1I S1I C7I L7I D7I S7I                      SYS / # / OBS TYPES
E    8 C1C L1C D1C S1C C7Q L7Q D7Q S7Q                      SYS / # / OBS TYPES
DBHZ                                                        COMMENT
     30.000                                                 INTERVAL
  2020    05    12    13    00    0.0000000     GPS         TIME OF FIRST OBS
  2020    05    12    13    59   30.0000000     GPS         TIME OF LAST OBS
     0                                                      RCV CLOCK OFFS APPL
G L1C  0.00000                                              SYS / PHASE SHIFT
G L2Y  0.00000                                              SYS / PHASE SHIFT
R L1C  0.00000                                              SYS / PHASE SHIFT
R L2P  0.25000                                              SYS / PHASE SHIFT
C L1I  0.00000                                              SYS / PHASE SHIFT
C L7I  0.00000                                              SYS / PHASE SHIFT
E L1C  0.50000                                              SYS / PHASE SHIFT
E L7Q -0.25000                                              SYS / PHASE SHIFT
 12 R05  1 R06 -4 R07  5 R08  6 R09 -2 R10 -5 R11  0 R12 -1 GLONASS SLOT / FRQ #
    R20  2 R21  4 R22 -3 R23  3                             GLONASS SLOT / FRQ #
 C1C   71.950 C2C   71.950 C2P   71.950                     GLONASS COD/PHS/BIS
    18                                                      LEAP SECONDS
*** Above antenna height is from mark to ANTENNA BOTTOM.    COMMENT
    17     4        0.0000        ANT MEASURE TYPE/HEIGT    COMMENT
    0.0000    0.0000    0.0458    0.0405    0.0000          COMMENT
                    BASE STATION                            COMMENT
                                                            END OF HEADER
> 2020 05 12 13 00  0.0000000  0 19        .000000000000
G18  20452308.531 8 107477676.278 8       952.605          51.000    20452308.570 8  83748822.335 8       742.290          51.000
G21  20726244.039 8 108917208.963 8       631.137          49.000    20726243.586 8  84870528.942 8       491.795          49.000
G25  23795487.820 7 125046108.589 7     -3355.598          47.000    23795490.398 7  97438541.055 7     -2614.754          47.000
G29  21683166.125 6 113945807.594 6     -2229.824          36.000    21683166.148 6  88788945.181 6     -1737.519          37.000
G31  21997546.484 8 115597924.819 8     -2260.191          50.000    21997546.469 8  90076266.195 8     -1761.191          50.000
R11  20978483.461 7 112102680.274 7     -3560.539          47.000    20978490.062 7  87190932.883 7     -2769.308          47.000
R12  19235601.602 8 102753122.175 8        94.215          50.000    19235606.305 8  79919097.129 8        73.278          49.000
R22  19283314.398 8 102935632.117 8       201.254          49.000    19283316.938 7  80061076.445 7       156.531          45.000
R23  22803423.133 7 121982974.157 7      3536.613          42.000    22803432.023 6  94875644.690 6      2750.702          39.000
C05  39625379.008 5 206339746.203 5        15.289          35.000
C11  21792288.406 8 113478189.626 8       273.066          51.000    21792287.562 8  87748560.213 8       211.134          51.000
C12  23283463.023 5 121243081.098 5     -2288.672          33.000    23283466.961 5  93752859.707 5     -1769.487          32.000
C24  26297554.633 5 136938267.833 5     -3486.668          31.000
C25  22692962.664 8 118168202.367 8     -1951.242          51.000
E13  23151041.281 8 121659554.819 8       383.820          51.000    23151043.062 8  93219681.569 8       294.087          51.000
E15  24854068.750 5 130609011.152 5     -2159.246          35.000    24854073.648 5 100077056.270 5     -1654.445          34.000
E21  23527329.875 8 123636955.142 8       329.320          51.000    23527332.031 8  94734796.955 8       252.324          51.000
E26  25053921.195 7 131659228.166 7      2604.328          45.000    25053925.414 7 100881820.961 7      1995.620          43.000
E27  24823183.508 8 130446686.247 8     -2263.125          51.000    24823187.039 8  99952661.893 8     -1734.122          51.000
> 2020 05 12 13 00 30.0000000  0 18        .000000000000
G18  20446922.938 8 107449374.645 8       934.125          51.000    20446922.961 8  83726769.152 8       727.893          50.000
G21  20722687.906 8 108898521.875 8       614.770          49.000    20722687.438 8  84855967.600 8       479.044          49.000
G25  23814659.664 7 125146856.815 7     -3360.898          46.000    23814662.500 7  97517046.086 7     -2618.885          46.000
G29  21695913.352 6 114012794.088 6     -2236.270          37.000    21695912.352 6  88841142.365 6     -1742.551          37.000
G31  22010489.211 8 115665937.777 8     -2274.004          51.000    22010488.805 8  90129263.251 8     -1771.954          51.000
R11  20998514.281 7 112209720.822 7     -3575.457          45.000    20998521.055 7  87274186.595 7     -2780.908          47.000
R12  19235143.266 8 102750673.819 8        68.953          51.000    19235148.086 8  79917192.846 8        53.630          49.000
R22  19282235.438 8 102929873.785 8       182.539          48.000    19282237.945 7  80056597.745 7       141.975          45.000
R23  22783612.695 6 121877000.862 6      3528.047          41.000    22783621.719 6  94793221.103 6      2744.039          39.000
C05                                                                  39625287.938 5 159554612.878 5        12.270          35.000
C11  21790744.836 8 113470151.497 8       262.887          51.000    21790744.156 8  87742344.630 8       203.311          51.000
C12  23296658.734 5 121311792.207 5     -2292.414          31.000    23296660.422 5  93805991.519 5     -1772.773          34.000
C25  22704242.391 8 118226939.082 8     -1964.570          51.000
E13  23148882.219 8 121648209.144 8       372.520          51.000    23148883.938 8  93210988.135 8       285.506          51.000
E15  24866409.539 5 130673864.060 5     -2164.883          34.000    24866413.477 5 100126748.719 5     -1658.501          34.000
E21  23525482.234 8 123627245.853 8       317.879          51.000    23525484.719 8  94727357.359 8       243.599          51.000
E26  25039068.977 7 131581184.823 7      2598.637          43.000    25039075.477 7 100822021.546 7      1991.049          44.000
E27  24836126.383 8 130514702.676 8     -2271.305          51.000    24836130.742 8 100004778.352 8     -1740.323          51.000
> 2020 05 12 13 01  0.0000000  0 19        .000000000000
G18  20441643.688 8 107421632.574 8       915.375          51.000    20441643.477 8  83705151.974 8       713.279          49.000
G21  20719225.648 8 108880327.505 8       598.266          50.000    20719224.828 8  84841790.167 8       466.181          49.000
G25  23833860.586 7 125247759.875 7     -3366.059          45.000    23833864.156 7  97595671.777 7     -2622.906          45.000
G29  21708696.414 6 114079968.532 6     -2242.332          37.000    21708695.859 6  88893486.071 6     -1747.272          38.000
G31  22023511.055 8 115734366.098 8     -2287.836          51.000    22023510.477 8  90182583.972 8     -1782.729          51.000
R11  21018630.156 8 112317213.109 8     -3590.484          48.000    21018637.016 7  87357791.735 7     -2792.599          47.000
R12  19234828.516 8 102748990.258 8        43.352          51.000    19234832.898 8  79915883.402 8        33.718          49.000
R22  19281262.656 8 102924680.705 8       163.656          48.000    19281265.289 7  80052558.675 7       127.288          46.000
R23  22763849.102 6 121771280.224 6      3519.520          39.000    22763858.445 6  94710993.999 6      2737.404          38.000
C05  39625199.086 5 206338808.847 5        15.793          35.000    39625197.766 5 159554250.316 5        12.215          35.000
C11  21789260.312 8 113462421.425 8       252.488          50.000    21789259.898 8  87736367.248 8       195.349          51.000
C12  23309879.695 5 121380634.715 5     -2296.789          32.000    23309880.562 6  93859224.862 6     -1776.050          37.000
C24  26337772.023 5 137147678.519 5     -3487.398          32.000
C25  22715599.438 8 118286079.230 8     -1978.023          51.000
E13  23146788.031 8 121637204.522 8       361.141          51.000    23146789.727 8  93202556.024 8       276.724          51.000
E15                                                                  24878786.430 5 100176573.845 5     -1663.179          34.000
E21  23523700.547 8 123617883.469 8       306.320          51.000    23523703.305 8  94720183.576 8       234.722          51.000
E26  25024251.773 7 131503322.030 7      2592.453          42.000    25024259.547 7 100762360.415 7      1986.428          45.000
E27  24849116.336 8 130582965.782 8     -2279.492          51.000    24849121.219 8 100057083.815 8     -1746.654          51.000
> 2020 05 12 13 01 30.0000000  0 18        .000000000000
G18  20436473.664 8 107394464.289 8       896.344          51.000    20436473.234 8  83683981.896 8       698.450          49.000
G21  20715859.992 8 108862639.420 8       581.512          50.000    20715858.633 8  84828007.242 8       453.126          50.000
G25  23853093.352 7 125348830.344 7     -3371.398          44.000    23853097.461 7  97674427.945 7     -2627.067          44.000
G29  21721517.664 5 114147343.952 5     -2249.035          34.000    21721517.602 5  88945986.361 5     -1752.498          35.000
G31  22036613.922 8 115803221.060 8     -2301.934          51.000    22036613.164 8  90236237.171 8     -1793.714          51.000
R11  21038834.117 8 112425167.977 8     -3605.781          51.000    21038839.453 7  87441756.646 7     -2804.497          46.000
R12  19234659.727 8 102748086.489 8        17.426          51.000    19234663.758 8  79915180.454 8        13.550          49.000
R22  19280397.922 8 102920065.479 8       144.488          48.000    19280400.586 7  80048969.052 7       112.377          45.000
R23  22744134.047 5 121665827.530 5      3510.773          33.000    22744144.672 6  94628975.243 6      2730.602          37.000
C05  39625110.523 5 206338347.458 5        15.328          35.000    39625109.367 5 159553894.303 5        11.907          35.000
C11  21787837.242 8 113455012.299 8       242.043          50.000    21787837.008 8  87730638.034 8       187.078          51.000
C12                                                                  23323129.234 6  93912569.501 6     -1779.590          36.000
C25  22727036.305 8 118345635.049 8     -1991.793          51.000
E13  23144761.383 8 121626554.241 8       349.441          51.000    23144762.992 8  93194395.427 8       267.763          51.000
E15                                                                  24891195.062 5 100226541.081 5     -1667.513          34.000
E21  23521987.727 8 123608882.614 8       294.309          51.000    23521990.312 8  94713286.811 8       225.515          51.000
E26  25009472.875 7 131425654.266 7      2586.012          45.000    25009480.375 7 100702848.764 7      1981.454          46.000
E27  24862155.914 8 130651488.576 8     -2288.066          51.000    24862160.391 8 100109588.250 8     -1753.146          51.000
> 2020 05 12 13 02  0.0000000  0 18        .000000000000
G18  20431410.258 8 107367856.256 8       877.660          51.000    20431410.031 8  83663248.386 8       683.891          50.000
G21  20712587.875 8 108845443.474 8       565.102          50.000    20712586.164 8  84814607.801 8       440.339          50.000
G25  23872355.570 7 125450053.068 7     -3376.605          47.000    23872359.844 7  97753302.727 7     -2631.121          47.000
G29  21734374.359 5 114214904.961 5     -2254.551          35.000    21734374.383 5  88998631.277 5     -1756.799          35.000
G31  22049794.930 8 115872486.705 8     -2315.621          51.000    22049794.031 8  90290210.369 8     -1804.380          51.000
R11  21059121.789 8 112533568.290 8     -3620.711          51.000    21059125.672 7  87526067.958 7     -2816.112          45.000
R12  19234634.281 8 102747949.122 8        -8.031          51.000    19234638.133 8  79915073.599 8        -6.247          49.000
R22  19279638.547 7 102916012.752 7       125.758          47.000    19279641.359 7  80045816.919 7        97.812          45.000
R23  22724467.406 5 121560630.284 5      3502.410          33.000    22724478.188 6  94547155.183 6      2724.100          37.000
C05  39625021.258 6 206337883.012 6        15.898          36.000    39625020.109 5 159553535.164 5        12.194          35.000
C11  21786473.148 8 113447909.789 8       231.664          51.000    21786473.039 8  87725145.924 8       179.080          51.000
C12                                                                  23336402.656 6  93966013.766 6     -1783.070          36.000
C25  22738550.312 8 118405591.281 8     -2005.082          51.000
E13  23142799.445 8 121616243.913 8       338.133          51.000    23142801.133 8  93186495.313 8       259.119          51.000
E15                                                                  24903636.891 5 100276638.665 5     -1672.144          35.000
E21  23520341.258 8 123600230.191 8       282.656          51.000    23520343.586 8  94706657.032 8       216.638          51.000
E26  24994729.273 7 131348168.401 7      2579.871          47.000    24994735.742 7 100643476.517 7      1976.826          46.000
E27  24875242.336 8 130720256.409 8     -2296.312          51.000    24875245.664 8 100162280.431 8     -1759.386          51.000
> 2020 05 12 13 02 30.0000000  0 19        .000000000000
G18  20426454.367 8 107341813.622 8       858.633          51.000    20426454.469 8  83642955.448 8       669.065          51.000
G21  20709410.047 8 108828743.962 8       548.379          50.000    20709408.039 8  84801595.210 8       427.311          50.000
G25  23891647.531 7 125551431.588 7     -3381.754          47.000    23891651.742 8  97832298.916 8     -2635.136          48.000
G29  21747266.695 6 114282655.409 6     -2260.977          36.000    21747266.227 6  89051423.810 6     -1761.803          36.000
G31  22063054.578 8 115942165.778 8     -2329.496          50.000    22063053.688 8  90344505.725 8     -1815.192          50.000
R11  21079492.680 8 112642415.702 8     -3635.664          51.000    21079494.578 6  87610726.969 6     -2827.742          41.000
R12  19234753.297 8 102748583.925 8       -34.109          51.000    19234757.211 8  79915567.336 8       -26.530          49.000
R21  21316461.852 4 114068691.935 4     -3231.375          29.000
R22  19278985.086 8 102912526.005 8       106.754          48.000    19278988.367 7  80043105.039 7        83.031          45.000
R23  22704852.148 5 121455694.613 5      3493.406          34.000    22704860.914 6  94465538.584 6      2717.094          37.000
C05  39624932.180 5 206337419.258 5        15.352          35.000    39624931.039 5 159553177.009 5        12.109          35.000
C11  21785168.953 8 113441117.937 8       221.250          51.000    21785168.914 8  87719894.026 8       171.060          51.000
C12                                                                  23349701.586 5  94019560.440 5     -1786.716          33.000
C25  22750142.031 8 118465951.220 8     -2018.715          51.000
E13  23140902.820 8 121606277.774 8       326.477          51.000    23140904.852 8  93178858.941 8       250.139          51.000
E15  24916109.781 5 130935040.272 5     -2187.324          32.000    24916112.594 5 100326869.102 5     -1676.433          35.000
E21  23518762.156 8 123591931.833 8       270.648          51.000    23518764.484 8  94700298.542 8       207.398          51.000
E26  24980021.383 7 131270869.996 7      2573.273          47.000    24980026.492 7 100584247.918 7      1971.876          46.000
E27  24888376.047 8 130789273.338 8     -2304.719          51.000    24888378.297 8 100215163.491 8     -1765.959          50.000
> 2020 05 12 13 03  0.0000000  0 18        .000000000000
G18  20421605.023 8 107316330.328 8       839.430          51.000    20421605.000 8  83623098.328 8       654.101          51.000
G21  20706325.500 8 108812534.346 8       531.496          50.000    20706323.273 8  84788964.324 8       414.153          50.000
G25  23910967.547 7 125652958.188 7     -3387.336          46.000    23910971.719 7  97911410.477 7     -2639.486          46.000
G29  21760194.008 5 114350587.817 5     -2268.457          35.000    21760192.773 5  89104358.128 5     -1767.629          35.000
G31  22076390.883 8 116012248.640 8     -2343.547          49.000    22076390.117 8  90399115.748 8     -1826.140          49.000
R11  21099944.258 8 112751700.611 8     -3650.715          50.000    21099944.164 7  87695726.180 7     -2839.451          43.000
R12  19235015.500 8 102749985.412 8       -60.184          50.000    19235019.711 8  79916657.384 8       -46.809          49.000
R22  19278436.516 7 102909597.205 7        87.734          47.000    19278439.781 7  80040827.085 7        68.241          44.000
R23  22685286.148 6 121351015.348 6      3484.203          39.000    22685292.445 6  94384121.452 6      2709.939          38.000
C05  39624842.047 5 206336949.804 5        14.988          35.000
C11  21783923.094 8 113434629.762 8       210.500          51.000    21783923.055 8  87714876.961 8       162.781          51.000
C12                                                                  23363025.469 5  94073203.605 5     -1790.138          33.000
C25  22761809.906 8 118526706.982 8     -2032.398          51.000
E13  23139070.398 8 121596648.909 8       314.641          51.000    23139072.633 8  93171480.981 8       241.070          51.000
E15                                                                  24928620.547 5 100377226.433 5     -1681.168          35.000
E21  23517249.430 8 123583981.883 8       258.535          51.000    23517251.641 8  94694207.016 8       198.068          51.000
E26  24965347.695 7 131193753.343 7      2566.875          47.000    24965351.391 7 100525158.594 7      1966.731          45.000
E27  24901555.594 8 130858532.160 8     -2313.352          51.000    24901557.000 8 100268231.886 8     -1772.538          50.000
> 2020 05 12 13 03 30.0000000  0 18        .000000000000
G18  20416865.023 8 107291422.063 8       820.078          51.000    20416865.023 8  83603689.286 8       639.022          51.000
G21  20703336.898 8 108796829.480 8       514.465          49.000    20703334.914 8  84776726.775 8       400.885          49.000
G25  23930318.273 7 125754646.863 7     -3392.977          45.000    23930322.172 7  97990648.371 7     -2643.878          45.000
G29  21773158.664 5 114418716.367 5     -2274.625          35.000    21773157.141 5  89157445.298 5     -1772.438          33.000
G31  22089806.148 8 116082748.525 8     -2357.578          48.000    22089805.898 8  90454050.737 8     -1837.071          48.000
R11  21120478.867 8 112861435.575 8     -3665.891          48.000    21120480.320 7  87781075.564 7     -2851.248          46.000
R12  19235424.609 8 102752169.935 8       -86.473          51.000    19235428.758 8  79918356.449 8       -67.260          48.000
R22  19277994.859 7 102907240.760 7        68.371          47.000    19277998.531 7  80038994.310 7        53.178          44.000
R23  22665770.539 7 121246609.293 7      3475.086          43.000    22665775.422 6  94302916.832 6      2702.848          38.000
C05  39624753.719 5 206336489.805 5        14.902          35.000    39624752.430 5 159552456.798 5        11.487          35.000
C11  21782738.305 8 113428459.761 8       199.684          51.000    21782738.125 8  87710105.931 8       154.462          51.000
C12  23376366.898 5 121726886.756 5     -2319.480          30.000    23376377.562 5  94126954.023 5     -1794.195          32.000
C25  22773556.406 8 118587872.277 8     -2046.289          51.000
E13  23137305.000 8 121587372.114 8       302.750          51.000    23137307.305 8  93164372.772 8       231.968          51.000
E15                                                                  24941162.828 6 100427721.179 6     -1685.972          37.000
E21  23515806.117 8 123576396.483 8       246.164          51.000    23515807.945 8  94688394.823 8       188.640          51.000
E26  24950711.086 7 131116834.555 7      2560.008          46.000    24950713.781 7 100466220.857 7      1961.543          45.000
E27  24914784.062 8 130928047.470 8     -2321.992          51.000    24914784.898 8 100321496.821 8     -1779.201          50.000
> 2020 05 12 13 04  0.0000000  0 17        .000000000000
G18  20412230.875 8 107267069.862 8       803.383          51.000    20412231.023 8  83584713.547 8       626.013          51.000
G21  20700440.375 8 108781610.030 8       500.129          49.000    20700438.773 8  84764867.465 8       389.711          49.000
G25  23949695.656 7 125856477.108 7     -3395.695          44.000    23949699.672 7  98069996.564 7     -2645.996          44.000
G31  22103296.930 8 116153643.593 8     -2368.758          50.000    22103296.664 8  90509293.669 8     -1845.782          50.000
R11  21141093.484 8 112971597.729 8     -3678.156          50.000    21141096.586 8  87866757.254 8     -2860.788          48.000
R12  19235976.820 8 102755118.571 8      -110.098          51.000    19235980.562 8  79920649.824 8       -85.632          48.000
R21  21370998.391 5 114360510.985 5     -3248.504          34.000    21371001.992 4  88947091.763 4     -2526.608          25.000
R22  19277656.656 7 102905435.435 7        51.949          45.000    19277660.117 7  80037590.168 7        40.402          42.000
R23  22646301.836 7 121142458.672 7      3468.332          46.000    22646305.820 6  94221910.890 6      2697.595          37.000
C05  39624663.617 5 206336020.336 5        16.711          35.000    39624662.203 5 159552093.777 5        12.714          35.000
C11  21781610.805 8 113422588.212 8       191.762          50.000    21781610.453 8  87705565.671 8       148.313          51.000
C25  22785377.320 8 118649426.530 8     -2057.352          51.000
E13  23135602.742 8 121578427.536 8       293.629          51.000    23135605.289 8  93157519.138 8       225.006          51.000
E15                                                                  24953734.742 6 100478337.478 6     -1688.234          37.000
E21  23514428.586 8 123569157.174 8       236.504          51.000    23514430.273 8  94682847.819 8       181.217          51.000
E26  24936107.820 7 131040095.162 7      2555.934          46.000    24936110.281 7 100407420.578 7      1958.550          46.000
E27  24928057.477 8 130997799.278 8     -2327.980          51.000    24928058.555 8 100374942.958 8     -1783.804          51.000
> 2020 05 12 13 04 30.0000000  0 17        .000000000000
G18  20407706.258 8 107243292.553 8       782.258          51.000    20407706.180 8  83566185.762 8       609.552          51.000
G21  20697639.961 8 108766894.016 8       481.320          50.000    20697638.664 8  84753400.441 8       375.055          50.000
G25  23969103.312 7 125958466.103 7     -3403.105          43.000    23969107.727 7  98149468.460 7     -2651.774          43.000
G31  22116866.336 8 116224950.011 8     -2384.465          50.000    22116865.586 8  90564857.100 8     -1858.025          50.000
R11  21161792.109 8 113082202.740 8     -3694.906          51.000    21161795.375 8  87952783.347 8     -2873.819          48.000
R12  19236675.727 8 102758850.758 8      -138.254          51.000    19236678.789 7  79923552.622 7      -107.531          47.000
R21  21389239.430 5 114458107.911 5     -3257.293          31.000    21389246.016 4  89023022.488 4     -2533.450          27.000
R22  19277424.859 7 102904198.724 7        30.949          46.000    19277427.977 7  80036628.267 7        24.072          42.000
R23  22626883.188 7 121038583.326 7      3457.094          47.000    22626887.500 5  94141119.030 5      2688.854          35.000
C05  39624575.078 6 206335559.539 6        14.465          36.000    39624573.836 5 159551737.949 5        11.122          35.000
C11  21780543.812 8 113417032.729 8       179.160          50.000    21780543.641 8  87701269.831 8       138.484          51.000
C25  22797275.805 8 118711386.546 8     -2072.855          51.000
E13  23133967.211 8 121569833.166 8       279.875          51.000    23133969.914 8  93150933.840 8       214.471          51.000
E15                                                                  24966338.758 6 100529088.400 6     -1694.532          37.000
E21  23513120.406 8 123562283.179 8       222.309          51.000    23513122.375 8  94677580.731 8       170.319          51.000
E26  24921541.336 7 130963554.331 7      2547.230          45.000    24921544.359 7 100348772.450 7      1951.720          46.000
E27  24941378.977 8 131067805.213 8     -2338.461          48.000    24941380.844 8 100428583.865 8     -1791.850          51.000
> 2020 05 12 13 05  0.0000000  0 16        .000000000000
G18  20403301.398 8 107220145.197 8       764.160          51.000    20403301.180 8  83548148.861 8       595.449          51.000
G21  20694945.852 8 108752736.114 8       465.691          50.000    20694945.062 8  84742368.322 8       362.876          50.000
G25  23988551.500 7 126060667.511 7     -3406.914          42.000    23988556.406 7  98229105.843 7     -2654.741          42.000
G31  22130524.086 8 116296720.109 8     -2397.008          50.000    22130522.602 8  90620781.795 8     -1867.798          50.000
R11  21182583.750 8 113193303.443 8     -3708.516          51.000    21182586.422 7  88039194.975 7     -2884.401          47.000
R12  19237531.641 8 102763423.211 8      -163.227          51.000    19237534.547 8  79927108.960 8      -126.957          48.000
R22  19277309.727 7 102903584.807 7        13.250          46.000    19277312.984 7  80036150.782 7        10.309          42.000
R23  22607525.172 7 120935040.568 7      3449.004          45.000    22607531.664 5  94060585.817 5      2682.559          35.000
C05  39624498.891 5 206335162.759 5        15.426          35.000    39624497.453 5 159551429.824 5        12.100          35.000
C11  21779547.758 8 113411847.074 8       169.742          50.000    21779547.875 8  87697259.965 8       131.174          51.000
C25  22809262.508 8 118773805.146 8     -2085.184          51.000
E13  23132408.734 8 121561643.306 8       269.277          51.000    23132411.328 8  93144658.489 8       206.314          51.000
E15                                                                  24978985.289 6 100580014.830 6     -1698.097          37.000
E21  23511892.352 8 123555830.201 8       211.086          51.000    23511894.414 8  94672636.227 8       161.783          51.000
E26  24907022.922 7 130887267.666 7      2541.742          46.000    24907026.695 7 100290319.082 7      1947.494          46.000
E27  24954758.016 7 131138119.396 7     -2345.824          47.000    24954761.820 8 100482461.000 8     -1797.540          51.000
> 2020 05 12 13 05 30.0000000  0 16        .000000000000
G18  20398994.695 8 107197513.024 8       744.809          51.000    20398994.484 8  83530513.420 8       580.370          51.000
G21  20692335.938 8 108739020.679 8       448.953          50.000    20692335.305 8  84731680.994 8       349.834          50.000
G25  24008017.891 7 126162964.941 7     -3412.164          42.000    24008023.180 7  98308818.080 7     -2658.832          42.000
G31  22144247.695 8 116368836.657 8     -2410.625          51.000    22144245.430 8  90676976.466 8     -1878.409          51.000
R11  21203445.188 8 113304779.456 8     -3723.039          51.000    21203447.258 7  88125898.504 7     -2895.700          46.000
R12  19238523.078 8 102768719.568 8      -189.559          50.000    19238526.391 8  79931228.331 8      -147.438          49.000
R22  19277289.500 7 102903475.543 7        -5.723          46.000    19277292.578 7  80036065.797 7        -4.454          42.000
R23  22588207.906 7 120831714.730 7      3439.691          45.000    22588216.336 6  93980221.312 6      2675.316          36.000
C05  39624412.727 6 206334714.014 6        15.160          36.000    39624411.336 5 159551084.350 5        11.400          35.000
C11  21778600.984 8 113406916.495 8       159.203          50.000    21778600.867 8  87693447.317 8       123.115          51.000
C25  22821315.086 8 118836566.785 8     -2098.703          51.000
E13  23130905.125 8 121553742.348 8       257.641          51.000    23130907.602 8  93138604.496 8       197.449          51.000
E15                                                                  24991652.938 6 100631027.514 6     -1702.425          36.000
E21  23510722.758 8 123549683.926 8       198.840          51.000    23510724.828 8  94667926.742 8       152.352          51.000
E26  24892531.469 7 130811120.870 7      2534.930          47.000    24892535.812 7 100231972.848 7      1942.421          47.000
E27  24968174.734 8 131208626.028 8     -2354.367          50.000    24968179.562 8 100536485.584 8     -1803.975          51.000
> 2020 05 12 13 06  0.0000000  0 17        .000000000000
G18  20394797.062 8 107175453.907 8       725.797          51.000    20394796.867 8  83513324.513 8       565.556          51.000
G21  20689821.281 8 108725805.230 8       432.238          50.000    20689820.500 8  84721383.265 8       336.809          50.000
G25  24027513.523 7 126265414.729 7     -3417.547          43.000    24027518.594 7  98388649.007 7     -2663.027          43.000
G31  22158047.445 8 116441354.242 8     -2423.910          51.000    22158044.930 8  90733483.653 8     -1888.761          51.000
R11  21224386.766 8 113416686.476 8     -3737.430          50.000    21224388.469 7  88212937.234 7     -2906.890          45.000
R12  19239660.781 8 102774798.782 8      -215.648          51.000    19239664.383 8  79935956.606 8      -167.724          49.000
R21  21444142.367 5 114751936.594 5     -3275.094          30.000
R22  19277373.836 7 102903927.846 7       -24.512          44.000    19277377.797 7  80036417.604 7       -19.062          43.000
R23  22568944.156 7 120728665.743 7      3430.312          47.000    22568952.531 6  93900072.153 6      2668.024          36.000
C05  39624327.797 5 206334271.468 5        14.859          35.000    39624326.461 5 159550742.165 5        11.140          35.000
C11  21777713.945 8 113402297.465 8       148.797          49.000    21777713.812 8  87689875.582 8       115.111          51.000
C25  22833443.828 8 118899727.036 8     -2111.953          51.000
E13  23129467.305 8 121546187.326 8       246.109          51.000    23129469.734 8  93132815.581 8       188.619          51.000
E15                                                                  25004352.867 5 100682169.500 5     -1706.681          35.000
E21  23509622.602 8 123543902.731 8       186.625          51.000    23509624.852 8  94663496.995 8       143.010          51.000
E26  24878078.125 7 130735172.216 7      2528.344          47.000    24878082.805 7 100173778.448 7      1937.347          47.000
E27  24981639.719 8 131279381.963 8     -2362.660          51.000    24981644.781 8 100590701.157 8     -1810.332          51.000
> 2020 05 12 13 06 30.0000000  0 17        .000000000000
G18  20390703.469 8 107153942.073 8       707.434          51.000    20390703.180 8  83496562.055 8       551.247          49.000
G21  20687396.688 8 108713063.044 8       416.250          50.000    20687395.844 8  84711454.297 8       324.354          50.000
G25  24047033.148 7 126367989.590 7     -3421.676          44.000    24047037.289 7  98468577.397 7     -2666.244          44.000
G29  21851696.086 5 114831432.715 5     -2309.660          34.000
G31  22171917.914 8 116514244.866 8     -2436.406          51.000    22171915.930 8  90790281.538 8     -1898.498          51.000
R11  21245403.102 8 113528994.521 8     -3750.785          50.000    21245405.258 7  88300287.863 7     -2917.277          46.000
R12  19240940.594 8 102781635.316 8      -241.008          51.000    19240944.281 8  79941273.925 8      -187.451          49.000
R22  19277558.688 7 102904913.887 7       -42.379          45.000    19277562.617 7  80037184.507 7       -32.964          42.000
R23  22549728.055 8 120625868.260 8      3421.797          50.000    22549735.578 6  93820118.610 6      2661.401          36.000
C05  39624239.078 6 206333810.338 6        15.191          36.000    39624237.695 5 159550384.261 5        11.832          35.000
C11  21776881.391 8 113397963.571 8       139.176          49.000    21776881.773 8  87686524.354 8       107.604          51.000
C25  22845643.828 8 118963258.529 8     -2124.418          51.000
E13  23128090.500 8 121538951.678 8       235.293          51.000    23128092.609 8  93127271.389 8       180.289          51.000
E15  25017079.719 5 131465639.212 5     -2232.434          35.000    25017080.188 5 100733419.795 5     -1710.668          35.000
E21  23508587.078 8 123538461.395 8       175.188          51.000    23508589.430 8  94659327.664 8       134.202          51.000
E26  24863658.234 8 130659396.457 8      2522.371          48.000    24863663.070 8 100115716.525 8      1932.732          48.000
E27  24995146.977 8 131350360.410 8     -2370.164          51.000    24995152.039 8 100645087.214 8     -1816.148          51.000
> 2020 05 12 13 07  0.0000000  0 17        .000000000000
G18  20386717.078 8 107132993.587 8       686.270          51.000    20386716.727 8  83480238.570 8       534.755          49.000
G21  20685064.867 8 108700809.610 8       397.633          50.000    20685064.234 8  84701906.189 8       309.847          50.000
G25  24066579.305 7 126470704.121 7     -3428.812          45.000    24066582.398 7  98548614.598 7     -2671.805          44.000
G26  20687423.539 5 108713158.536 5      1476.137          32.000    20687415.539 5  84711513.197 5      1150.246          30.000
G31  22185861.602 8 116587521.594 8     -2451.602          51.000    22185860.805 8  90847380.287 8     -1910.339          51.000
R11  21266497.016 8 113641716.747 8     -3766.848          50.000    21266500.508 8  88387960.669 8     -2929.773          48.000
R12  19242365.258 8 102789245.693 8      -269.207          51.000    19242369.094 8  79947193.107 8      -209.383          49.000
R22  19277846.297 7 102906448.000 7       -62.793          45.000    19277849.250 6  80038377.710 6       -48.836          41.000
R23  22530562.086 8 120523340.232 8      3410.422          51.000    22530568.227 5  93740374.659 5      2652.553          35.000
C05  39624149.500 5 206333343.271 5        13.262          35.000
C11  21776106.602 8 113393929.781 8       126.984          49.000    21776107.164 8  87683405.176 8        98.114          51.000
C25  22857917.945 8 119027175.412 8     -2139.527          51.000
E13  23126777.414 8 121532050.701 8       221.871          51.000    23126779.242 8  93121983.639 8       170.005          51.000
E15  25029836.547 6 131532680.825 6     -2239.875          36.000    25029837.500 5 100784789.321 5     -1716.166          35.000
E21  23507619.391 8 123533376.569 8       160.965          51.000    23507621.852 8  94655431.490 8       123.346          51.000
E26  24849274.789 8 130583810.165 8      2513.816          50.000    24849280.094 8 100057799.802 8      1926.144          49.000
E27  25008699.156 8 131421576.371 8     -2380.434          51.000    25008704.172 8 100699655.245 8     -1823.954          51.000
> 2020 05 12 13 07 30.0000000  0 16        .000000000000
G18  20382853.055 8 107112688.035 8       668.113          51.000    20382852.742 8  83464416.084 8       520.608          49.000
G21  20682841.250 8 108689123.969 8       381.977          51.000    20682840.258 8  84692800.496 8       297.644          49.000
G25  24086166.812 7 126573636.443 7     -3432.664          44.000    24086169.297 7  98628821.536 7     -2674.803          43.000
G31  22199893.484 8 116661261.604 8     -2463.781          51.000    22199893.914 8  90904840.051 8     -1919.830          51.000
R11  21287683.539 8 113754930.781 8     -3779.969          51.000    21287688.086 8  88476015.992 8     -2939.976          49.000
R12  19243950.125 8 102797711.441 8      -294.453          51.000    19243954.078 8  79953777.563 8      -229.019          49.000
R22  19278251.734 7 102908609.696 7       -80.504          45.000    19278254.375 7  80040059.062 7       -62.614          42.000
R23  22511461.070 8 120421163.626 8      3402.047          48.000    22511465.859 5  93660904.061 5      2646.043          35.000
C05                                                                  39624072.898 5 159549720.423 5        10.433          35.000
C11  21775404.766 8 113390274.311 8       117.566          49.000    21775405.023 8  87680578.525 8        90.907          51.000
C25  22870280.664 8 119091554.864 8     -2151.762          50.000
E13  23125542.875 8 121525563.269 8       211.418          51.000    23125544.602 8  93117012.770 8       161.948          51.000
E15                                                                  25042639.445 5 100836337.993 5     -1719.569          35.000
E21  23506734.773 8 123528728.462 8       149.609          51.000    23506737.656 8  94651869.949 8       114.663          51.000
E26  24834943.008 8 130508493.552 8      2508.078          49.000    24834948.609 8 100000089.714 8      1921.750          50.000
E27  25022311.305 8 131493108.514 8     -2387.719          51.000    25022315.945 8 100754465.549 8     -1829.473          51.000
> 2020 05 12 13 08  0.0000000  0 16        .000000000000
G18  20379082.297 8 107092873.162 8       648.059          51.000    20379082.094 8  83448975.951 8       504.981          50.000
G21  20680696.742 8 108677853.473 8       364.344          51.000    20680695.203 8  84684018.278 8       283.904          50.000
G25  24105765.945 7 126676632.867 7     -3438.566          42.000    24105769.000 6  98709078.430 6     -2679.402          41.000
G31  22213984.242 8 116735309.929 8     -2477.676          51.000    22213985.336 8  90962540.026 8     -1930.656          51.000
R11  21308932.781 8 113868478.475 8     -3794.668          51.000    21308937.766 8  88564330.805 8     -2951.411          49.000
R12  19245666.445 8 102806877.700 8      -321.488          51.000    19245669.812 8  79960906.884 8      -250.046          49.000
R22  19278745.180 7 102911242.443 7      -100.125          44.000    19278747.164 6  80042106.741 6       -77.878          40.000
R23  22492395.992 7 120319184.569 7      3391.602          46.000    22492401.094 6  93581587.111 6      2637.915          36.000
C05  39623984.406 5 206332483.737 5        12.828          35.000    39623983.234 5 159549360.012 5         9.835          35.000
C11  21774746.242 8 113386845.321 8       106.242          49.000    21774746.562 8  87677927.014 8        82.214          51.000
C25  22882703.133 8 119156244.271 8     -2165.812          50.000
E13  23124357.867 8 121519336.386 8       198.957          51.000    23124359.453 8  93112241.535 8       152.418          51.000
E15                                                                  25055456.484 5 100887947.891 5     -1724.337          33.000
E21  23505904.516 8 123524365.363 8       136.324          51.000    23505907.828 8  94648526.784 8       104.495          51.000
E26  24820633.586 8 130433294.946 8      2500.305          49.000    24820638.945 8  99942470.038 8      1915.818          50.000
E27  25035954.086 8 131564803.625 8     -2396.812          51.000    25035958.344 8 100809400.733 8     -1836.504          51.000
> 2020 05 12 13 08 30.0000000  0 16        .000000000000
G18  20375431.828 8 107073690.086 8       631.695          51.000    20375431.594 8  83434028.120 8       492.230          50.000
G21  20678657.703 8 108667138.366 8       350.652          51.000    20678656.164 8  84675668.866 8       273.236          50.000
G25  24125403.758 7 126779833.078 7     -3440.801          42.000    24125407.750 7  98789494.141 7     -2681.147          42.000
G31  22228160.281 8 116809804.729 8     -2487.793          51.000    22228160.555 8  91020587.893 8     -1938.543          51.000
R11  21330270.453 8 113982499.645 8     -3805.723          49.000    21330275.617 8  88653013.906 8     -2960.007          48.000
R12  19247540.477 8 102816888.470 8      -344.969          51.000    19247543.812 8  79968693.018 8      -268.309          49.000
R22  19279353.172 7 102914488.108 7      -115.770          43.000    19279354.844 6  80044631.168 6       -90.040          40.000
R23  22473394.406 7 120217547.943 7      3384.824          44.000    22473401.711 6  93502536.484 6      2632.644          38.000
C05  39623906.945 5 206332079.930 5        15.125          35.000    39623905.539 5 159549046.752 5        11.572          35.000
C11  21774157.773 8 113383781.795 8        98.715          49.000    21774158.344 8  87675558.116 8        76.432          51.000
C25  22895212.219 8 119221381.749 8     -2175.895          50.000
E13  23123249.203 8 121513510.445 8       190.309          51.000    23123250.703 8  93107777.501 8       145.854          51.000
E15                                                                  25068314.969 5 100939725.954 5     -1726.432          32.000
E21  23505155.633 8 123520428.959 8       126.945          51.000    23505159.086 8  94645510.577 8        97.255          51.000
E26  24806373.086 7 130358355.911 7      2496.449          47.000    24806377.984 8  99885049.248 8      1912.876          50.000
E27  25049654.617 8 131636801.837 8     -2402.152          51.000    25049658.312 8 100864568.168 8     -1840.619          51.000
> 2020 05 12 13 09  0.0000000  0 16        .000000000000
G18  20371884.883 8 107055051.014 8       612.461          51.000    20371884.938 8  83419504.171 8       477.242          51.000
G21  20676707.586 8 108656890.392 8       334.055          51.000    20676705.773 8  84667683.436 8       260.302          50.000
G25  24145063.898 7 126883147.879 7     -3445.574          44.000    24145068.516 7  98869999.122 7     -2684.866          43.000
G31  22242404.477 8 116884656.125 8     -2500.754          51.000    22242402.305 8  91078913.602 8     -1948.642          51.000
R11  21351678.406 7 114096901.947 7     -3819.469          46.000    21351684.367 7  88741993.452 7     -2970.698          46.000
R12  19249555.703 8 102827654.557 8      -371.293          51.000    19249559.180 8  79977066.617 8      -288.783          48.000
R22  19280059.164 6 102918255.556 6      -134.137          41.000    19280060.844 6  80047561.385 6      -104.329          39.000
R23  22454440.344 7 120116165.359 7      3375.309          42.000    22454450.039 6  93423683.451 6      2625.240          38.000
C05  39623824.875 6 206331653.522 6        14.848          36.000    39623823.398 5 159548716.271 5        11.294          35.000
C11  21773622.867 8 113380996.022 8        88.441          50.000    21773623.148 8  87673403.971 8        68.455          51.000
C25  22907790.812 8 119286878.561 8     -2189.055          51.000
E13  23122199.914 8 121507996.874 8       178.836          51.000    23122201.633 8  93103552.832 8       137.009          51.000
E15  25081201.398 5 131802679.541 5     -2258.750          33.000    25081198.367 5 100991603.738 5     -1730.650          32.000
E21  23504471.211 8 123516832.095 8       114.449          51.000    23504474.609 8  94642754.534 8        87.683          51.000
E26  24792145.125 8 130283589.308 8      2489.523          48.000    24792149.789 8  99827760.583 8      1907.575          51.000
E27  25063396.164 8 131709014.415 8     -2410.383          51.000    25063399.727 8 100919899.856 8     -1846.938          51.000
> 2020 05 12 13 09 30.0000000  0 16        .000000000000
G18  20368443.719 8 107036967.785 8       593.375          51.000    20368443.953 8  83405413.342 8       462.370          50.000
G21  20674848.602 8 108647120.840 8       317.590          51.000    20674845.977 8  84660070.786 8       247.473          49.000
G25  24164748.227 7 126986587.751 7     -3450.164          45.000    24164752.562 7  98950601.552 7     -2688.443          45.000
G31  22256718.125 8 116959872.641 8     -2513.391          51.000    22256713.828 8  91137523.786 8     -1958.489          51.000
R11  21373158.828 7 114211693.773 7     -3832.977          45.000    21373165.250 7  88831276.018 7     -2981.204          43.000
R12  19251714.719 8 102839188.502 8      -397.379          51.000    19251718.406 8  79986037.453 8      -309.076          49.000
R22  19280864.570 7 102922555.135 7      -152.254          43.000    19280866.625 6  80050905.496 6      -118.420          39.000
R23  22435537.281 6 120015050.268 6      3366.102          41.000    22435547.875 6  93345038.411 6      2618.082          37.000
C05  39623740.500 5 206331214.228 5        14.895          35.000    39623738.938 5 159548377.057 5        11.635          35.000
C11  21773143.398 8 113378498.926 8        78.293          50.000    21773143.391 8  87671473.062 8        60.496          51.000
C25  22920440.602 8 119352744.755 8     -2201.758          51.000
E13  23121212.219 8 121502806.905 8       167.461          51.000    23121214.117 8  93099576.103 8       128.311          51.000
E15  25094115.922 5 131870464.911 5     -2264.484          31.000    25094109.406 5 101043579.117 5     -1734.741          31.000
E21  23503853.555 8 123513587.242 8       102.051          51.000    23503857.094 8  94640268.214 8        78.267          51.000
E26  24777952.438 8 130209007.559 8      2482.871          49.000    24777957.180 8  99770613.543 8      1902.415          51.000
E27  25077180.578 8 131781452.385 8     -2418.527          51.000    25077184.359 8 100975404.223 8     -1853.133          51.000
> 2020 05 12 13 10  0.0000000  0 16        .000000000000
G18  20365111.523 8 107019456.742 8       574.320          50.000    20365111.812 8  83391768.379 8       447.522          50.000
G21  20673083.516 8 108637845.446 8       301.012          51.000    20673080.602 8  84652843.236 8       234.558          49.000
G25  24184459.297 7 127090167.669 7     -3455.082          45.000    24184462.578 7  99031313.112 7     -2692.272          45.000
G31  22271103.555 8 117035468.345 8     -2526.156          49.000    22271098.984 8  91196429.476 8     -1968.433          49.000
R11  21394716.469 8 114326888.928 8     -3846.469          48.000    21394720.266 6  88920872.203 6     -2991.701          39.000
R12  19254020.578 8 102851507.076 8      -423.652          51.000    19254024.422 8  79995618.542 8      -329.507          49.000
R22  19281772.852 7 102927401.991 7      -170.473          43.000    19281775.031 6  80054675.309 6      -132.587          38.000
R23  22416689.180 7 119914220.444 7      3356.273          42.000    22416698.273 6  93266615.249 6      2610.438          36.000
C05  39623656.820 6 206330778.158 6        14.656          36.000    39623655.344 5 159548039.133 5        11.194          35.000
C11  21772722.422 8 113376305.959 8        68.090          50.000    21772722.383 8  87669777.327 8        52.666          51.000
C25  22933163.945 8 119418994.848 8     -2214.656          51.000
E13  23120289.164 8 121497956.172 8       156.066          51.000    23120291.203 8  93095859.303 8       119.637          51.000
E15                                                                  25107051.102 5 101095689.511 5     -1738.471          32.000
E21  23503306.156 8 123510711.416 8        89.820          50.000    23503310.023 8  94638064.649 8        68.811          51.000
E26  24763798.352 8 130134627.712 8      2476.117          50.000    24763803.312 8  99713621.211 8      1897.270          51.000
E27  25091010.867 8 131854131.163 8     -2426.602          51.000    25091014.945 8 101031093.108 8     -1859.266          51.000
> 2020 05 12 13 10 30.0000000  0 16        .000000000000
G18  20361888.492 8 107002520.551 8       554.707          50.000    20361888.789 8  83378571.335 8       432.239          50.000
G21  20671412.734 8 108629066.185 8       284.047          51.000    20671409.820 8  84646002.290 8       221.338          48.000
G25  24204197.195 7 127193888.844 7     -3459.836          45.000    24204198.781 7  99112134.711 7     -2695.979          45.000
G31  22285560.523 7 117111443.336 7     -2539.004          47.000    22285557.109 7  91255630.735 7     -1978.445          47.000
R11  21416350.227 8 114442486.564 8     -3860.148          50.000    21416350.289 6  89010781.382 6     -3002.341          38.000
R12  19256474.102 8 102864613.358 8      -450.250          51.000    19256477.977 8  80005812.305 8      -350.194          49.000
R22  19282783.281 7 102932797.110 7      -189.391          44.000    19282785.227 6  80058871.521 6      -147.304          38.000
R23  22397895.641 7 119813679.732 7      3346.254          43.000    22397901.984 6  93188416.976 6      2602.645          37.000
C05  39623574.461 5 206330348.846 5        13.711          35.000    39623572.977 5 159547707.907 5        11.233          35.000
C11  21772360.070 8 113374418.983 8        57.637          50.000    21772360.312 8  87668318.202 8        44.590          51.000
C12  23565821.539 5 122713402.690 5     -2376.332          30.000
C25  22945960.914 8 119485629.719 8     -2227.848          51.000
E13  23119430.938 8 121493446.617 8       144.402          51.000    23119433.281 8  93092403.918 8       110.709          51.000
E21  23502829.758 8 123508207.871 8        77.055          51.000    23502833.688 8  94636146.335 8        59.042          51.000
E26  24749683.492 8 130060452.953 8      2468.848          51.000    24749688.289 8  99656786.038 8      1891.702          51.000
E27  25104887.133 8 131927052.454 8     -2434.883          50.000    25104891.531 8 101086967.838 8     -1865.680          51.000
> 2020 05 12 13 11  0.0000000  0 18        .000000000000
G18  20358775.617 8 106986162.960 8       535.766          50.000    20358775.883 8  83365825.152 8       417.480          50.000
G20  24099424.148 5 126643321.616 5      3323.535          35.000
G21  20669836.984 8 108620786.300 8       268.004          51.000    20669833.875 8  84639550.441 8       208.834          48.000
G25  24223962.141 7 127297753.732 7     -3463.988          44.000    24223963.148 7  99193068.302 7     -2699.218          44.000
G31  22300089.844 8 117187798.678 8     -2551.289          48.000    22300087.641 8  91315128.381 8     -1988.020          48.000
R11  21438059.266 8 114558487.182 8     -3873.004          51.000    21438057.852 6  89101004.001 6     -3012.339          40.000
R12  19259075.664 8 102878511.236 8      -476.109          51.000    19259079.477 8  80016621.743 8      -370.310          49.000
R22  19283897.016 7 102938742.761 7      -207.102          42.000    19283899.211 6  80063495.898 6      -161.079          39.000
R23  22379157.594 7 119713433.395 7      3336.945          42.000    22379160.852 6  93110447.666 6      2595.405          37.000
C05  39623494.172 5 206329931.065 5        14.297          35.000    39623492.812 5 159547385.408 5        10.817          35.000
C11  21772057.102 8 113372841.116 8        47.672          50.000    21772057.344 8  87667098.096 8        36.935          51.000
C12  23579526.344 4 122784778.338 4     -2380.371          28.000    23579527.898 5  94944985.216 5     -1840.630          31.000
C25  22958832.094 8 119552651.404 8     -2240.176          51.000
E13  23118638.312 8 121489281.386 8       133.430          51.000    23118640.758 8  93089212.387 8       102.250          51.000
E15                                                                  25133022.383 5 101200266.839 5     -1746.471          31.000
E21  23502425.047 8 123506081.065 8        64.840          51.000    23502428.859 8  94634516.708 8        49.706          51.000
E26  24735608.695 8 129986487.757 8      2462.301          51.000    24735612.625 8  99600111.446 8      1886.725          51.000
E27  25118809.664 8 132000219.196 8     -2442.672          48.000    25118814.914 8 101143030.662 8     -1871.643          51.000
> 2020 05 12 13 11 30.0000000  0 17        .000000000000
G18  20355774.469 8 106970392.080 8       515.645          50.000    20355774.867 8  83353536.153 8       401.801          50.000
G20  24080453.953 5 126543662.955 5      3321.516          33.000
G21  20668357.602 8 108613013.371 8       250.336          50.000    20668354.688 8  84633493.631 8       195.067          48.000
G25  24243755.266 7 127401769.133 7     -3469.875          43.000    24243757.375 7  99274119.164 7     -2703.802          44.000
G31  22314693.125 8 117264539.986 8     -2564.785          49.000    22314691.758 8  91374926.766 8     -1998.534          49.000
R11  21459844.289 8 114674895.726 8     -3887.332          51.000    21459843.266 7  89191543.924 7     -3023.480          42.000
R12  19261827.117 8 102893209.266 8      -503.555          51.000    19261830.656 8  80028053.536 8      -391.654          49.000
R22  19285114.938 7 102945245.338 7      -226.391          45.000    19285117.508 6  80068553.482 6      -176.085          40.000
R23  22360475.539 7 119613490.723 7      3326.109          42.000    22360477.148 6  93032714.566 6      2586.974          38.000
C05  39623417.453 5 206329531.837 5        12.832          35.000    39623416.086 5 159547076.197 5         9.868          34.000
C11  21771814.898 8 113371579.580 8        36.492          50.000    21771814.883 8  87666122.593 8        28.206          51.000
C12                                                                  23593253.984 5  95000258.694 5     -1844.010          32.000
C25  22971778.672 8 119620066.347 8     -2253.969          51.000
E13  23117912.719 8 121485467.960 8       121.047          51.000    23117915.102 8  93086290.421 8        92.765          51.000
E21  23502093.609 8 123504339.788 8        51.367          51.000    23502097.469 8  94633182.477 8        39.341          51.000
E26  24721575.453 8 129912740.883 8      2454.371          51.000    24721578.430 8  99543604.148 8      1880.580          50.000
E27  25132780.422 8 132073638.621 8     -2451.730          48.000    25132786.602 8 101199287.101 8     -1878.620          51.000
> 2020 05 12 13 12  0.0000000  0 18        .000000000000
G18  20352877.789 8 106955170.210 8       498.012          50.000    20352878.266 8  83341674.959 8       388.061          50.000
G20  24061480.250 4 126443953.353 4      3319.988          28.000
G21  20666967.516 8 108605709.069 8       235.387          50.000    20666964.977 8  84627801.991 8       183.418          49.000
G25  24263569.781 7 127505896.034 7     -3472.801          43.000    24263573.109 7  99355256.963 7     -2706.082          44.000
G29  21998870.383 4 115604844.002 4     -2375.711          28.000
G31  22329362.523 8 117341626.748 8     -2575.566          50.000    22329361.836 8  91434994.329 8     -2006.938          51.000
R11  21481697.797 8 114791670.622 8     -3898.730          51.000    21481697.680 7  89282368.812 7     -3032.346          45.000
R12  19264721.000 8 102908669.165 8      -528.191          50.000    19264724.664 8  80040077.900 8      -410.816          49.000
R22  19286430.016 6 102952265.036 6      -242.848          41.000    19286432.656 6  80074013.239 6      -188.878          40.000
R23  22341842.141 7 119513814.937 7      3317.695          42.000    22341844.203 6  92955188.989 6      2580.430          39.000
C05  39623337.148 5 206329113.911 5        13.859          35.000    39623335.844 5 159546753.006 5        10.898          35.000
C11  21771626.078 8 113370596.417 8        27.934          50.000    21771626.047 8  87665362.350 8        21.618          51.000
C12  23606995.000 5 122927809.231 5     -2387.438          31.000    23606998.711 5  95055602.521 5     -1846.245          33.000
C25  22984793.141 8 119687835.491 8     -2265.094          51.000
E13  23117246.789 8 121481968.016 8       111.188          51.000    23117249.094 8  93083608.654 8        85.217          51.000
E21  23501828.445 8 123502947.047 8        40.434          51.000    23501832.336 8  94632115.302 8        30.964          51.000
E26  24707576.477 8 129839175.311 8      2448.973          51.000    24707579.281 8  99487235.780 8      1876.486          50.000
E27  25146792.789 8 132147272.203 8     -2458.207          50.000    25146798.672 8 101255707.630 8     -1883.597          51.000
> 2020 05 12 13 12 30.0000000  0 16        .000000000000
G18  20350088.602 8 106940513.205 8       479.621          51.000    20350089.047 8  83330253.917 8       373.728          51.000
G21  20665669.664 8 108598888.685 8       219.777          49.000    20665666.992 8  84622487.394 8       171.255          49.000
G25  24283408.602 7 127610149.071 7     -3476.836          44.000    24283412.859 7  99436493.028 7     -2709.226          44.000
G31  22344100.352 8 117419072.261 8     -2586.836          51.000    22344100.211 8  91495341.442 8     -2015.719          51.000
R11  21503622.109 8 114908824.675 8     -3910.988          51.000    21503622.812 7  89373488.590 7     -3041.883          47.000
R12  19267760.781 8 102924907.261 8      -553.664          50.000    19267764.438 8  80052707.532 8      -430.628          48.000
R22  19287843.938 7 102959816.306 7      -260.074          44.000    19287847.305 6  80079886.457 6      -202.283          39.000
R23  22323261.703 7 119414423.019 7      3308.715          45.000    22323264.844 6  92877884.229 6      2573.445          39.000
C05  39623256.398 5 206328692.962 5        14.512          35.000    39623255.180 5 159546427.515 5        11.185          35.000
C11  21771493.656 8 113369906.605 8        18.633          50.000    21771493.594 8  87664828.942 8        14.456          51.000
C12  23620761.172 5 122999486.427 5     -2390.023          32.000    23620763.008 5  95111028.080 5     -1848.239          30.000
C25  22997878.250 8 119755972.899 8     -2276.867          51.000
E13  23116643.312 8 121478796.805 8       100.703          51.000    23116645.594 8  93081178.769 8        77.174          51.000
E21  23501632.852 8 123501919.408 8        28.680          51.000    23501636.469 8  94631327.888 8        21.990          51.000
E26  24693614.727 8 129765807.631 8      2442.754          50.000    24693618.312 8  99431019.037 8      1871.744          50.000
E27  25160849.188 8 132221135.003 8     -2465.391          51.000    25160853.867 8 101312303.764 8     -1889.078          50.000
> 2020 05 12 13 13  0.0000000  0 18        .000000000000
G18  20347401.344 8 106926391.601 8       463.418          51.000    20347401.930 8  83319250.089 8       361.105          51.000
