     3.02           OBSERVATION DATA    M (MIXED)           RINEX VERSION / TYPE
SAVERINEX           SC600               20200517 225931 LCL PGM / RUN BY / DATE
       G = GPS       R = GLONASS       C = COMPASS          COMMENT
       S = SBAS      J = QZSS          E = GALILEO          COMMENT
BEAN                                                        MARKER NAME
1                                                           MARKER NUMBER
GEODETIC                                                    MARKER TYPE
Unige DICCA         GTER                                    OBSERVER / AGENCY
SC60291900056       SC600               2.12(191202)        REC # / TYPE / VERS
                    HEMA45          NONE                    ANT # / TYPE
  4509407.8091   693652.4678  4442337.6214                  APPROX POSITION XYZ
        0.0000        0.0000        0.0000                  ANTENNA: DELTA H/E/N
G    8 C1C L1C D1C S1C C2Y L2Y D2Y S2Y                      SYS / # / OBS TYPES
R    8 C1C L1C D1C S1C C2P L2P D2P S2P                      SYS / # / OBS TYPES
C    8 C1I L1I D1I S1I C7I L7I D7I S7I                      SYS / # / OBS TYPES
E    8 C1C L1C D1C S1C C7Q L7Q D7Q S7Q                      SYS / # / OBS TYPES
DBHZ                                                        COMMENT
     30.000                                                 INTERVAL
  2020    05    17    20    00    0.0000000     GPS         TIME OF FIRST OBS
  2020    05    17    20    59   30.0000000     GPS         TIME OF LAST OBS
     0                                                      RCV CLOCK OFFS APPL
G L1C  0.00000                                              SYS / PHASE SHIFT
G L2Y  0.00000                                              SYS / PHASE SHIFT
R L1C  0.00000                                              SYS / PHASE SHIFT
R L2P  0.25000                                              SYS / PHASE SHIFT
C L1I  0.00000                                              SYS / PHASE SHIFT
C L7I  0.00000                                              SYS / PHASE SHIFT
E L1C  0.50000                                              SYS / PHASE SHIFT
E L7Q -0.25000                                              SYS / PHASE SHIFT
 13 R01  1 R06 -4 R07  5 R08  6 R09 -2 R10 -5 R11  0 R16 -1 GLONASS SLOT / FRQ #
    R19  3 R20  2 R21  4 R22 -3 R23  3                      GLONASS SLOT / FRQ #
 C1C   71.950 C2C   71.950 C2P   71.950                     GLONASS COD/PHS/BIS
    18                                                      LEAP SECONDS
*** Above antenna height is from mark to ANTENNA BOTTOM.    COMMENT
    17     4        0.0000        ANT MEASURE TYPE/HEIGT    COMMENT
    0.0000    0.0000    0.0458    0.0405    0.0000          COMMENT
                    BASE STATION                            COMMENT
                                                            END OF HEADER
> 2020 05 17 20 00  0.0000000  0 17        .000000000000
G01  20399500.430 8 107200091.417 8      -801.883          51.000    20399502.328 8  83532544.189 8      -624.844          51.000
G03  20493049.258 7 107691727.774 7       861.043          45.000    20493052.656 7  83915635.179 7       670.943          45.000
G04  23066327.539 7 121214385.957 7      3541.250          43.000    23066330.977 5  94452747.876 5      2759.416          35.000
G11  21474890.875 8 112851322.952 8     -2994.574          51.000    21474889.906 7  87936046.880 7     -2333.434          46.000
G22  20748709.977 8 109035224.454 8      -727.324          51.000    20748707.359 8  84962506.515 8      -566.746          51.000
R01  22645582.484 6 121053565.537 6      3706.594          39.000    22645581.898 5  94152809.938 5      2882.909          30.000
R07  19900088.211 7 106526760.666 7     -2166.617          42.000    19900091.570 5  82854162.034 5     -1685.147          35.000
R08  19680944.320 8 105390652.512 8      1546.547          49.000    19680945.820 7  81970453.174 7      1202.870          45.000
R22  19820784.734 8 105804692.161 8     -2133.141          51.000    19820787.133 8  82292538.613 8     -1659.109          49.000
C05  39703292.594 5 206745463.260 5       -35.766          35.000    39703289.742 5 159868695.459 5       -27.708          35.000
C19  21686267.047 8 112926056.627 8       906.168          50.000
C20  22874269.828 8 119112325.838 8     -1903.285          51.000
C22  25508116.406 7 132827498.674 7      2882.359          45.000
C29  22792705.188 8 118687582.064 8     -2467.977          51.000
E03  24076781.156 8 126524336.538 8      1702.266          48.000    24076782.031 8  96947260.273 8      1304.324          51.000
E05  24075082.656 8 126515427.693 8     -1103.758          51.000    24075085.477 7  96940403.810 7      -845.737          47.000
E36  27465744.773 7 144333432.523 7     -2794.289          45.000    27465748.922 7 110593201.835 7     -2141.070          42.000
> 2020 05 17 20 00 30.0000000  0 17        .000000000000
G01  20404118.766 8 107224360.875 8      -816.016          51.000    20404120.625 8  83551455.449 8      -635.856          51.000
G03  20488168.227 7 107666077.038 7       849.145          45.000    20488171.352 7  83895647.606 7       661.671          45.000
G04  23046130.539 7 121108252.289 7      3534.297          42.000    23046133.688 5  94370046.361 5      2753.998          33.000
G11  21492021.375 8 112941346.135 8     -3007.191          48.000    21492020.969 7  88006194.822 7     -2343.266          47.000
G22  20752890.453 8 109057192.909 8      -737.188          51.000    20752887.758 8  84979624.804 8      -574.432          51.000
R01  22624805.133 6 120942500.063 6      3697.715          38.000    22624803.867 5  94066425.758 5      2876.003          32.000
R07  19912272.891 7 106591988.903 7     -2181.734          43.000    19912276.805 6  82904895.082 6     -1696.905          37.000
R08  19672334.703 8 105344548.150 8      1527.098          49.000    19672336.133 7  81934594.246 7      1187.743          46.000
R22  19832831.625 8 105868997.921 8     -2153.863          51.000    19832833.672 8  82342554.164 8     -1675.227          48.000
C05  39703497.336 5 206746528.797 5       -35.070          34.000    39703494.367 5 159869519.312 5       -27.282          35.000
C19  21681078.453 8 112899041.909 8       894.797          49.000
C20  22885256.625 8 119169537.596 8     -1910.918          51.000
C22  25491523.594 7 132741096.153 7      2877.668          46.000
C29  22806955.922 8 118761788.572 8     -2479.223          51.000
E03  24067091.914 8 126473423.173 8      1691.891          49.000    24067093.906 8  96908248.739 8      1296.405          51.000
E05  24081413.984 8 126548699.262 8     -1114.352          51.000    24081417.086 7  96965897.617 7      -853.758          46.000
E36  27481705.328 7 144417311.411 7     -2797.770          44.000    27481709.430 7 110657472.624 7     -2143.638          42.000
> 2020 05 17 20 01  0.0000000  0 17        .000000000000
G01  20408817.375 8 107249052.170 8      -829.328          51.000    20408819.484 8  83570695.413 8      -646.233          51.000
G03  20483356.195 7 107640789.779 7       837.594          44.000    20483358.609 7  83875943.241 7       652.670          44.000
G04  23025973.992 7 121002332.551 7      3527.797          43.000    23025976.945 5  94287511.554 5      2748.936          30.000
G11  21509224.172 7 113031752.036 7     -3019.312          46.000    21509225.391 7  88076640.952 7     -2352.711          46.000
G22  20757127.727 8 109079459.733 8      -746.559          51.000    20757125.234 8  84996975.586 8      -581.734          51.000
R01  22604077.766 6 120831707.399 6      3689.199          38.000    22604077.977 5  93980253.731 5      2869.380          34.000
R07  19924544.562 6 106657677.700 6     -2196.848          39.000    19924548.641 6  82955986.339 6     -1708.662          37.000
R08  19663835.820 8 105299034.254 8      1508.004          51.000    19663837.469 7  81899194.578 7      1172.892          47.000
R22  19844995.914 8 105933930.221 8     -2174.125          51.000    19844997.430 8  82393057.009 8     -1690.989          48.000
C05  39703702.102 5 206747594.488 5       -34.508          34.000    39703699.141 5 159870343.154 5       -26.717          35.000
C19  21675957.438 8 112872376.416 8       883.762          49.000
C20  22896288.078 8 119226981.163 8     -1917.977          51.000
C22  25474959.766 7 132654843.114 7      2873.324          46.000
C29  22821272.742 8 118836337.747 8     -2490.000          50.000
E03  24057464.125 8 126422829.449 8      1681.754          51.000    24057466.648 8  96869482.155 8      1288.602          51.000
E05  24087807.352 8 126582295.774 8     -1124.707          51.000    24087809.586 7  96991640.407 7      -861.771          46.000
E36  27497686.602 7 144501299.492 7     -2800.887          43.000    27497690.328 6 110721827.061 6     -2146.017          40.000
> 2020 05 17 20 01 30.0000000  0 18        .000000000000
G01  20413585.141 8 107274106.793 8      -839.598          51.000    20413587.344 8  83590218.474 8      -654.232          51.000
G03  20478602.148 7 107615807.012 7       829.176          44.000    20478604.094 7  83856476.199 7       646.114          44.000
G04  23005847.523 7 120896570.613 7      3524.328          42.000    23005849.602 5  94205099.736 5      2746.236          34.000
G11  21526488.469 7 113122480.131 7     -3028.047          46.000    21526490.836 7  88147338.179 7     -2359.514          46.000
G17  22842784.719 5 120039637.329 5      2168.348          35.000    22842774.859 5  93537345.115 5      1689.622          32.000
G22  20761410.328 8 109101965.185 8      -752.590          51.000    20761407.992 8  85014512.312 8      -586.434          51.000
R01  22583390.094 6 120721129.430 6      3683.730          39.000    22583392.617 5  93894248.684 5      2865.127          35.000
R07  19936889.000 6 106723763.849 6     -2207.770          40.000    19936894.133 6  83007386.721 6     -1717.151          38.000
R08  19655436.227 8 105254051.077 8      1492.234          51.000    19655437.531 7  81864207.681 7      1160.630          46.000
R22  19857266.562 8 105999428.499 8     -2191.055          51.000    19857268.055 8  82444000.063 8     -1704.154          49.000
C05                                                                  39703892.992 5 159871123.505 5       -24.013          35.000
C19  21670892.594 8 112846001.698 8       875.871          50.000
C20  22907352.648 8 119284596.849 8     -1921.781          51.000
C22  25458413.961 7 132568682.253 7      2871.988          47.000
C29  22835643.539 8 118911169.916 8     -2497.559          49.000
E03  24047886.641 8 126372497.215 8      1674.996          51.000    24047889.250 8  96830915.921 8      1283.466          51.000
E05  24094251.062 8 126616157.311 8     -1131.555          51.000    24094253.070 7  97017586.260 7      -867.101          46.000
E36  27513677.812 7 144585337.216 7     -2800.316          44.000    27513680.539 6 110786219.585 6     -2145.805          39.000
> 2020 05 17 20 02  0.0000000  0 17        .000000000000
G01  20418458.695 8 107299717.034 8      -858.738          51.000    20418460.703 8  83610174.506 8      -669.147          51.000
G03  20473942.789 7 107591320.743 7       812.008          44.000    20473944.508 7  83837396.026 7       632.733          44.000
G04  22985787.734 6 120791160.996 6      3511.863          38.000    22985789.164 5  94122962.452 5      2736.517          32.000
G11  21543850.500 8 113213720.361 8     -3045.723          48.000    21543853.617 7  88218434.500 7     -2373.290          47.000
G22  20765774.789 8 109124901.051 8      -767.531          51.000    20765772.414 8  85032384.409 8      -598.076          51.000
R01  22562780.547 6 120610963.560 6      3669.656          41.000    22562784.312 5  93808564.212 5      2854.180          35.000
R07  19949344.750 6 106790440.401 6     -2228.117          41.000    19949350.039 6  83059246.240 6     -1732.983          39.000
R08  19647172.070 8 105209794.992 8      1467.352          50.000    19647172.727 7  81829786.312 7      1141.273          46.000
R22  19869679.383 8 106065686.227 8     -2216.945          51.000    19869680.867 8  82495533.852 8     -1724.291          51.000
C05  39704115.133 5 206749745.669 5       -36.133          34.000    39704112.312 5 159872006.558 5       -27.635          35.000
C19  21665920.578 8 112820107.897 8       859.293          51.000
C20  22918486.539 8 119342573.604 8     -1934.387          51.000
C22  25441922.797 8 132482804.711 8      2862.055          48.000
C29  22850104.289 8 118986473.974 8     -2513.828          48.000
E03  24038395.727 8 126322619.166 8      1659.156          51.000    24038398.469 8  96792697.706 8      1271.320          51.000
E05  24100781.477 8 126650474.810 8     -1147.242          51.000    24100784.117 7  97043881.506 7      -879.065          45.000
E36  27529715.242 7 144669616.048 7     -2809.086          44.000    27529717.672 6 110850796.836 6     -2152.428          39.000
> 2020 05 17 20 02 30.0000000  0 17        .000000000000
G01  20423393.984 8 107325652.317 8      -871.668          51.000    20423395.836 8  83630383.802 8      -679.222          51.000
G03  20469333.828 7 107567100.018 7       801.352          43.000    20469335.289 7  83818522.762 7       624.433          43.000
G04  22965752.242 5 120685875.478 5      3505.820          34.000    22965753.984 5  94040921.872 5      2731.802          32.000
G11  21561266.453 8 113305240.252 8     -3057.109          49.000    21561269.055 8  88289748.701 8     -2382.166          48.000
G22  20770177.016 8 109148035.293 8      -776.152          51.000    20770174.625 8  85050411.093 8      -604.794          51.000
R01  22542204.945 6 120500976.854 6      3661.555          41.000    22542209.062 5  93723019.110 5      2847.879          35.000
R07  19961866.508 6 106857468.864 6     -2241.871          37.000    19961870.258 6  83111379.513 6     -1743.674          39.000
R08  19638999.242 8 105166030.834 8      1448.852          49.000    19639000.000 7  81795747.556 7      1126.888          46.000
R22  19882189.922 8 106132467.779 8     -2236.453          51.000    19882191.883 8  82547475.067 8     -1739.464          51.000
C05  39704316.047 5 206750792.410 5       -35.305          34.000    39704313.297 5 159872815.611 5       -26.980          35.000
C19  21660997.039 8 112794466.185 8       848.855          51.000
C20  22929645.414 8 119400681.346 8     -1940.746          51.000
C22  25425442.562 8 132396982.619 8      2858.141          49.000
C29  22864611.414 8 119062019.745 8     -2523.934          49.000
E03  24028947.180 8 126272965.083 8      1649.652          51.000    24028950.414 8  96754651.102 8      1263.995          51.000
E05  24107354.492 8 126685016.404 8     -1156.891          51.000    24107357.312 7  97070348.467 7      -886.410          44.000
E36  27545754.828 7 144753904.454 7     -2811.555          44.000    27545758.375 6 110915381.418 6     -2154.299          41.000
> 2020 05 17 20 03  0.0000000  0 16        .000000000000
G01  20428411.891 8 107352022.850 8      -886.555          50.000    20428414.109 8  83650932.257 8      -690.822          51.000
G03  20464796.320 7 107543254.766 7       788.395          42.000    20464797.594 7  83799942.040 7       614.330          43.000
G11  21578756.438 8 113397147.497 8     -3070.316          51.000    21578757.867 7  88361364.720 7     -2392.457          46.000
G22  20774637.906 8 109171477.265 8      -786.891          51.000    20774635.508 8  85068677.545 8      -613.162          51.000
R01  22521684.086 6 120391283.504 6      3651.051          39.000    22521688.148 5  93637702.137 5      2839.706          35.000
R07  19974474.609 6 106924958.805 6     -2257.641          40.000    19974477.797 6  83163871.646 6     -1755.946          40.000
R08  19630939.055 8 105122871.029 8      1428.254          50.000    19630940.336 7  81762178.829 7      1110.864          47.000
R22  19894819.023 8 106199883.659 8     -2258.125          51.000    19894821.562 8  82599909.636 8     -1756.319          51.000
C05  39704519.477 5 206751851.453 5       -35.648          34.000    39704516.859 5 159873635.932 5       -27.575          35.000
C19  21656142.523 8 112769185.378 8       836.434          51.000
C20  22940850.094 8 119459027.600 8     -1949.203          51.000
C22  25408994.008 8 132311325.784 8      2852.156          49.000
C29  22879185.695 8 119137914.768 8     -2535.934          48.000
E03  24019562.125 8 126223645.564 8      1638.137          51.000    24019565.836 8  96716860.849 8      1255.145          51.000
E05  24113990.859 8 126719890.939 8     -1168.418          51.000    24113992.891 7  97097070.519 7      -895.120          43.000
E36  27561817.438 7 144838311.749 7     -2815.859          45.000    27561822.828 7 110980057.094 7     -2157.696          43.000
> 2020 05 17 20 03 30.0000000  0 19        .000000000000
G01  20433505.547 8 107378791.613 8      -899.434          50.000    20433508.336 8  83671791.007 8      -700.857          50.000
G03  20460322.945 7 107519747.576 7       777.574          42.000    20460324.453 7  83781624.761 7       605.902          42.000
G04  22925817.516 5 120476037.380 5      3490.961          35.000    22925814.117 5  93877392.004 5      2720.241          30.000
G11  21596312.758 8 113489403.040 8     -3081.457          51.000    21596313.086 7  88433252.116 7     -2401.138          45.000
G14  22757655.484 5 119592281.425 5     -2171.316          30.000
G17  22794021.867 5 119783379.920 5      2107.887          30.000
G22  20779150.203 8 109195188.947 8      -795.328          51.000    20779147.672 8  85087154.190 8      -619.733          51.000
R01  22501211.305 6 120281847.449 6      3643.398          39.000    22501215.242 5  93552585.256 5      2833.757          34.000
R07  19987161.609 6 106992868.853 6     -2271.219          40.000    19987164.438 6  83216690.582 6     -1766.503          40.000
R08  19622984.789 8 105080278.024 8      1409.801          48.000    19622986.602 7  81729050.948 7      1096.512          47.000
R22  19907559.711 8 106267894.221 8     -2277.461          51.000    19907562.484 8  82652806.746 8     -1771.359          51.000
C05  39704718.430 5 206752887.472 5       -34.566          34.000    39704715.797 5 159874437.071 5       -26.732          35.000
C19  21651350.000 8 112744228.370 8       826.098          51.000
C20  22952093.422 8 119517574.148 8     -1955.398          51.000
C22  25392569.336 7 132225798.185 7      2848.250          47.000
C29  22893819.945 8 119214120.633 8     -2545.918          49.000
E03  24010233.852 8 126174623.973 8      1628.586          51.000    24010237.500 8  96679298.870 8      1247.890          51.000
E05  24120683.281 8 126755060.015 8     -1177.773          51.000    24120684.586 7  97124018.286 7      -902.480          43.000
E36  27577895.672 7 144922799.980 7     -2818.191          44.000    27577902.836 7 111044794.812 7     -2159.402          46.000
> 2020 05 17 20 04  0.0000000  0 17        .000000000000
G01  20438690.000 8 107406036.912 8      -915.145          51.000    20438693.250 8  83693021.106 8      -713.100          51.000
G03  20455928.719 7 107496656.447 7       763.633          44.000    20455930.094 7  83763631.693 7       595.039          44.000
G04  22905912.430 6 120371473.197 6      3481.539          40.000    22905913.391 5  93795913.464 5      2712.888          31.000
G11  21613949.750 8 113582082.806 8     -3095.391          51.000    21613949.016 7  88505470.093 7     -2411.993          44.000
G22  20783728.500 8 109219247.852 8      -806.758          51.000    20783725.781 8  85105901.401 8      -628.639          51.000
R01  22480802.148 6 120172749.851 6      3631.746          39.000    22480806.172 5  93467731.603 5      2824.691          34.000
R07  19999940.156 6 107061275.921 6     -2287.586          41.000    19999943.984 6  83269896.084 6     -1779.234          40.000
R08  19615151.219 8 105038331.603 8      1388.492          50.000    19615153.148 7  81696425.991 7      1079.938          46.000
R22  19920426.398 8 106336577.709 8     -2299.605          51.000    19920429.453 8  82706227.217 8     -1788.582          51.000
C05  39704927.656 5 206753976.560 5       -36.305          34.000    39704925.219 5 159875280.523 5       -28.182          34.000
C19  21646634.297 8 112719672.423 8       812.844          51.000
C20  22963389.828 8 119576397.029 8     -1964.375          51.000
C22  25376183.203 7 132140478.110 7      2841.500          46.000
C29  22908528.914 8 119290713.348 8     -2558.621          50.000
E03  24000977.141 8 126125979.036 8      1616.188          51.000    24000980.531 8  96642025.502 8      1238.380          51.000
E05  24127446.328 8 126790600.713 8     -1189.797          50.000    24127447.680 7  97151250.787 7      -911.636          43.000
E36  27594003.836 7 145007446.559 7     -2823.066          44.000    27594012.617 7 111109653.867 7     -2163.216          47.000
> 2020 05 17 20 04 30.0000000  0 17        .000000000000
G01  20443952.664 8 107433692.690 8      -928.680          51.000    20443956.133 8  83714571.051 8      -723.647          51.000
G03  20451601.234 7 107473914.940 7       752.449          44.000    20451602.078 7  83745911.048 7       586.324          44.000
G04  22886051.711 6 120267128.002 6      3474.688          41.000    22886055.383 5  93714605.594 5      2707.552          31.000
G11  21631654.195 8 113675118.906 8     -3106.918          50.000    21631653.016 7  88577965.730 7     -2420.975          44.000
G22  20788360.148 8 109243586.867 8      -815.848          51.000    20788357.094 8  85124866.873 8      -635.725          51.000
R01  22460444.438 6 120063925.478 6      3622.871          40.000    22460448.406 5  93383090.434 5      2817.789          32.000
R07  20012800.188 6 107130109.511 6     -2301.379          38.000    20012802.305 6  83323433.278 6     -1789.964          38.000
R08  19607426.273 8 104996964.636 8      1369.402          49.000    19607427.664 7  81664251.704 7      1065.091          46.000
R22  19933406.148 8 106405865.516 8     -2319.512          51.000    19933409.422 8  82760117.690 8     -1804.065          50.000
C05  39705134.648 5 206755054.011 5       -36.004          34.000    39705132.211 5 159876113.937 5       -27.602          35.000
C19  21641982.953 8 112695451.671 8       801.934          51.000
C20  22974726.359 8 119635429.178 8     -1971.031          51.000
C22  25359825.062 8 132055300.603 8      2837.004          48.000
C29  22923299.883 8 119367625.741 8     -2568.922          51.000
E03  23991779.398 8 126077645.073 8      1606.078          51.000    23991782.648 8  96604990.401 8      1230.640          51.000
E05  24134267.430 8 126826445.579 8     -1199.664          50.000    24134269.008 7  97178716.361 7      -919.184          43.000
E36  27610129.312 7 145092184.550 7     -2826.012          43.000    27610139.164 8 111174582.961 8     -2165.359          48.000
> 2020 05 17 20 05  0.0000000  0 19        .000000000000
G01  20449293.484 8 107461758.678 8      -942.363          51.000    20449296.766 8  83736440.652 8      -734.306          51.000
G03  20447340.289 7 107451522.523 7       740.574          45.000    20447341.117 7  83728462.424 7       577.071          45.000
G04  22866235.547 6 120163003.872 6      3467.148          38.000    22866240.586 6  93633469.976 6      2701.680          38.000
G11  21649425.719 8 113768508.789 8     -3118.836          51.000    21649424.828 7  88650737.049 7     -2430.262          44.000
G14  22795207.109 5 119789612.792 5     -2210.934          33.000
G17  22758304.484 4 119595699.002 4      2063.027          29.000
G22  20793044.898 8 109268204.922 8      -825.379          51.000    20793041.523 8  85144049.761 8      -643.152          51.000
R01  22440138.305 6 119955375.576 6      3613.902          39.000    22440142.180 5  93298662.821 5      2810.813          32.000
R07  20025737.516 6 107199365.842 6     -2315.402          37.000    20025739.867 6  83377299.423 6     -1800.859          38.000
R08  19599809.016 8 104956176.446 8      1349.926          49.000    19599810.906 8  81632527.573 8      1049.942          48.000
R22  19946498.695 8 106475755.588 8     -2339.676          51.000    19946501.977 8  82814476.599 8     -1819.748          50.000
C05  39705339.438 5 206756120.551 5       -35.605          34.000    39705337.016 5 159876937.655 5       -27.255          34.000
C19  21637395.703 8 112671565.506 8       790.605          51.000
C20  22986102.727 8 119694668.787 8     -1978.199          51.000
C22  25343495.695 8 131970266.081 8      2832.016          49.000
C29  22938132.281 8 119444855.898 8     -2579.711          51.000
E03  23982640.914 8 126029622.229 8      1595.602          51.000    23982644.000 8  96568193.683 8      1222.613          51.000
E05  24141146.141 8 126862593.095 8     -1209.965          49.000    24141147.680 7  97206413.830 7      -927.074          43.000
E36  27626271.883 7 145177012.754 7     -2828.859          44.000    27626282.195 8 111239581.221 8     -2167.714          48.000
> 2020 05 17 20 05 30.0000000  0 18        .000000000000
G01  20454713.742 8 107490242.199 8      -956.648          51.000    20454716.766 8  83758635.611 8      -745.440          51.000
G03  20443147.125 7 107429486.189 7       728.371          45.000    20443148.320 7  83711291.264 7       567.562          46.000
G04  22846464.875 6 120059110.574 6      3458.746          38.000    22846469.703 6  93552514.197 6      2695.133          36.000
G11  21667265.539 8 113862257.564 8     -3131.137          51.000    21667264.781 7  88723788.027 7     -2439.847          44.000
G17  22746571.312 4 119534034.607 4      2047.789          29.000
G22  20797783.938 8 109293108.502 8      -835.020          51.000    20797780.422 8  85163455.146 8      -650.665          51.000
R01  22419885.469 6 119847109.163 6      3603.668          38.000    22419888.039 5  93214455.722 5      2802.856          31.000
R07  20038754.984 6 107269049.364 6     -2330.156          41.000    20038758.094 6  83431497.683 6     -1812.344          36.000
R08  19592302.250 8 104915974.624 8      1330.035          49.000    19592303.766 7  81601259.499 7      1034.472          47.000
R22  19959704.867 8 106546253.540 8     -2360.250          49.000    19959708.375 8  82869308.323 8     -1835.750          50.000
C05                                                                  39705540.953 5 159877759.712 5       -27.596          34.000
C19  21632874.070 8 112648020.688 8       778.984          51.000
C20  22997520.031 8 119754121.542 8     -1985.512          51.000
C22  25327195.609 8 131885382.440 8      2826.684          50.000
C29  22953026.523 8 119522409.368 8     -2590.770          51.000
E03  23973563.156 8 125981918.148 8      1584.492          51.000    23973566.133 8  96531641.215 8      1214.103          51.000
E05  24148083.391 8 126899049.213 8     -1220.797          48.000    24148084.672 7  97234347.772 7      -935.377          43.000
E36  27642432.836 7 145261937.679 7     -2832.742          44.000    27642443.062 8 111304653.588 8     -2170.516          48.000
> 2020 05 17 20 06  0.0000000  0 17        .000000000000
G01  20460215.750 8 107519154.965 8      -970.578          51.000    20460218.703 8  83781165.042 8      -756.295          51.000
G03  20439023.633 7 107407817.353 7       716.266          44.000    20439025.133 7  83694406.451 7       558.129          44.000
G04  22826741.555 7 119955462.086 7      3451.066          42.000    22826745.766 6  93471749.196 6      2689.146          37.000
G11  21685175.461 8 113956374.816 8     -3143.195          51.000    21685174.297 7  88797126.127 7     -2449.246          43.000
G22  20802579.219 8 109318308.411 8      -844.781          51.000    20802575.867 8  85183091.433 8      -658.271          50.000
R01  22399686.047 6 119739140.533 6      3594.164          36.000    22399687.844 4  93130480.133 4      2795.461          29.000
R07  20051853.727 6 107339168.853 6     -2344.133          40.000    20051856.695 5  83486035.086 5     -1823.214          32.000
R08  19584907.094 8 104876371.195 8      1310.340          48.000    19584907.578 7  81570456.829 7      1019.153          46.000
R22  19973026.250 7 106617369.861 7     -2380.707          47.000    19973030.719 8  82924621.080 8     -1851.661          50.000
C05  39705748.562 5 206758251.496 5       -36.105          34.000    39705746.047 5 159878585.040 5       -27.430          34.000
C19  21628420.406 8 112624828.546 8       767.336          51.000
C20  23008980.102 8 119813797.552 8     -1992.789          51.000
C22  25310926.703 8 131800661.949 8      2821.473          49.000
C29  22967984.312 8 119600296.137 8     -2601.605          51.000
E03  23964548.211 8 125934544.950 8      1573.684          51.000    23964551.352 8  96495342.295 8      1205.827          51.000
E05  24155081.461 8 126935824.385 8     -1231.070          49.000    24155082.656 7  97262526.157 7      -943.186          44.000
E36  27658614.219 7 145346970.093 7     -2836.078          44.000    27658623.875 8 111369808.326 8     -2173.090          48.000
> 2020 05 17 20 06 30.0000000  0 16        .000000000000
G01  20465800.070 8 107548500.520 8      -984.570          51.000    20465803.000 8  83804031.706 8      -767.198          51.000
G03  20434970.484 7 107386519.227 7       704.387          43.000    20434972.273 7  83677810.493 7       548.870          43.000
G04  22807066.203 7 119852064.352 7      3442.973          44.000    22807070.367 6  93391179.571 6      2682.833          37.000
G11  21703155.617 8 114050861.798 8     -3154.980          50.000    21703153.742 7  88870752.309 7     -2458.426          42.000
G22  20807431.492 8 109343807.431 8      -854.195          51.000    20807428.227 8  85202960.791 8      -665.610          50.000
R01  22379543.898 6 119631474.586 6      3584.535          41.000    22379546.812 4  93046740.002 4      2787.975          29.000
R07  20065034.406 6 107409725.235 6     -2358.504          37.000    20065034.336 5  83540912.164 5     -1834.392          31.000
R08  19577623.734 7 104837369.188 7      1290.855          47.000    19577624.016 8  81540121.958 8      1003.999          48.000
R22  19986464.242 8 106689106.107 8     -2400.770          50.000    19986468.977 8  82980415.999 8     -1867.262          49.000
C05  39705955.859 5 206759330.772 5       -34.992          34.000    39705953.180 5 159879419.308 5       -27.819          34.000
C19  21624034.742 8 112601992.183 8       756.004          51.000
C20  23020483.391 8 119873698.815 8     -1999.719          51.000
C22  25294689.414 7 131716108.779 7      2816.445          47.000
C29  22983006.211 8 119678517.972 8     -2612.277          51.000
E03  23955596.836 8 125887506.569 8      1563.156          51.000    23955600.297 8  96459299.918 8      1197.782          51.000
E05  24162140.680 8 126972920.835 8     -1241.059          48.000    24162142.430 7  97290950.717 7      -950.845          44.000
> 2020 05 17 20 07  0.0000000  0 16        .000000000000
G01  20471460.117 8 107578244.180 8      -998.375          51.000    20471462.797 8  83827208.580 8      -777.955          51.000
G03  20430981.508 7 107365556.860 7       692.730          44.000    20430983.203 7  83661476.149 7       539.790          44.000
G04  22787432.586 7 119748885.069 7      3435.375          44.000    22787436.523 6  93310780.246 6      2676.919          36.000
G11  21721198.906 8 114145681.657 8     -3166.512          49.000    21721197.047 7  88944637.849 7     -2467.412          44.000
G22  20812334.031 8 109369570.071 8      -863.422          51.000    20812330.719 8  85223035.569 8      -672.796          50.000
R01  22359453.500 7 119524077.655 7      3575.172          42.000    22359457.969 4  92963209.123 4      2780.692          27.000
R07  20078287.773 6 107480679.435 6     -2372.008          41.000    20078289.297 5  83596098.818 5     -1844.895          33.000
R08  19570445.602 7 104798933.617 7      1271.492          47.000    19570446.773 8  81510227.647 8       988.938          48.000
R22  20000012.438 8 106761425.500 8     -2420.652          51.000    20000016.383 7  83036664.400 7     -1882.733          47.000
C05  39706158.352 5 206760385.446 5       -34.984          34.000    39706155.492 5 159880233.783 5       -26.789          34.000
C19  21619710.391 8 112579476.896 8       744.867          51.000
C20  23032023.234 8 119933789.403 8     -2006.316          51.000
C22  25278477.336 7 131631689.248 7      2811.434          46.000
C29  22998085.047 8 119757038.821 8     -2622.547          50.000
E03  23946702.719 8 125840768.748 8      1552.594          51.000    23946706.328 8  96423487.835 8      1189.683          51.000
E05  24169254.141 8 127010302.589 8     -1251.102          48.000    24169256.711 7  97319593.916 7      -958.654          45.000
> 2020 05 17 20 07 30.0000000  0 17        .000000000000
G01  20477201.969 8 107608417.062 8     -1013.117          51.000    20477204.320 8  83850719.916 8      -789.442          51.000
G03  20427062.258 7 107344961.021 7       680.266          44.000    20427064.047 7  83645427.436 7       530.077          44.000
G04  22767846.531 7 119645957.797 7      3426.352          43.000    22767850.664 6  93230577.254 6      2669.887          40.000
G11  21739310.969 8 114240863.320 8     -3178.988          48.000    21739310.117 7  89018805.343 7     -2477.134          46.000
G14  22859249.203 5 120126170.143 5     -2275.855          31.000
G22  20817292.422 8 109395626.012 8      -873.652          51.000    20817288.992 8  85243338.912 8      -680.768          50.000
R01  22339420.000 7 119416983.269 7      3564.453          44.000    22339425.703 4  92879913.561 4      2772.355          27.000
R07  20091622.453 6 107552060.183 6     -2386.621          40.000    20091624.539 5  83651617.132 5     -1856.261          33.000
R08  19563378.914 7 104761096.316 7      1250.980          46.000    19563381.086 7  81480798.645 7       972.985          47.000
R22  20013675.773 8 106834358.242 8     -2441.410          51.000    20013678.898 7  83093389.781 7     -1898.878          44.000
C05                                                                  39706359.180 5 159881053.467 5       -27.511          34.000
C19  21615453.953 8 112557313.144 8       732.746          51.000
C20  23043605.156 8 119994098.716 8     -2014.098          51.000
C22  25262297.141 7 131547434.832 7      2805.699          46.000
C29  23013226.094 8 119835887.860 8     -2633.930          48.000
E03  23937871.891 8 125794362.966 8      1541.152          51.000    23937875.422 8  96387930.166 8      1180.871          51.000
E05  24176427.625 8 127047999.496 8     -1262.008          48.000    24176430.469 7  97348478.560 7      -966.975          44.000
> 2020 05 17 20 08  0.0000000  0 16        .000000000000
G01  20483024.875 8 107639015.892 8     -1027.191          51.000    20483027.023 8  83874563.162 8      -800.409          51.000
G03  20423211.867 7 107324728.206 7       668.219          45.000    20423213.992 7  83629661.639 7       520.690          44.000
G04  22748307.883 7 119543281.673 7      3418.156          42.000    22748312.680 6  93150569.931 6      2663.498          41.000
G11  21757490.773 7 114336401.628 7     -3190.617          47.000    21757491.578 7  89093250.782 7     -2486.195          46.000
G22  20822305.977 8 109421971.388 8      -883.141          51.000    20822302.234 8  85263867.785 8      -688.162          50.000
R01  22319442.391 7 119310189.767 7      3554.422          44.000    22319448.445 4  92796852.123 4      2764.556          27.000
R07  20105035.398 6 107623861.078 6     -2400.570          40.000    20105037.188 5  83707462.278 5     -1867.110          33.000
R08  19556423.672 7 104723853.807 7      1231.395          45.000    19556426.195 7  81451832.264 7       957.751          47.000
R22  20027452.859 8 106907898.998 8     -2461.586          51.000    20027454.281 7  83150588.059 7     -1914.570          42.000
C05  39706566.430 5 206762510.439 5       -35.699          34.000    39706563.648 5 159881876.732 5       -27.415          34.000
C19  21611264.430 8 112535497.346 8       721.215          51.000
C20  23055228.242 8 120054622.048 8     -2021.129          51.000
C22  25246147.695 7 131463343.036 7      2800.277          45.000
C29  23028430.062 8 119915060.331 8     -2644.621          50.000
E03  23929103.758 8 125748286.384 8      1530.172          51.000    23929107.117 8  96352624.741 8      1172.508          51.000
E05  24183660.297 7 127086007.023 7     -1272.352          47.000    24183662.875 7  97377601.208 7      -974.829          45.000
> 2020 05 17 20 08 30.0000000  0 16        .000000000000
G01  20488929.750 8 107670045.616 8     -1041.203          51.000    20488931.828 8  83898742.158 8      -811.327          51.000
G03  20419431.570 7 107304862.971 7       656.359          45.000    20419433.500 7  83614182.254 7       511.449          45.000
G04  22728818.461 7 119440863.988 7      3409.707          43.000    22728823.578 7  93070763.966 7      2656.915          42.000
G11  21775738.758 7 114432299.097 7     -3202.371          46.000    21775741.188 7  89167976.122 7     -2495.354          46.000
G22  20827375.375 8 109448610.510 8      -892.605          51.000    20827371.406 8  85284625.546 8      -695.537          51.000
R01  22299521.875 7 119203703.787 7      3544.742          42.000    22299528.102 5  92714029.810 5      2757.025          31.000
R07  20118527.844 6 107696084.031 6     -2414.414          41.000    20118529.961 5  83763635.646 5     -1877.881          35.000
R08  19549580.484 7 104687210.941 7      1211.574          46.000    19549583.523 7  81423332.293 7       942.336          47.000
R22  20041344.094 8 106982051.071 8     -2481.695          50.000    20041344.984 7  83208261.857 7     -1930.207          46.000
C05  39706772.359 5 206763582.278 5       -35.809          34.000    39706769.734 5 159882707.349 5       -27.493          34.000
C19  21607142.461 8 112514033.936 8       709.766          51.000
C20  23066892.953 8 120115362.738 8     -2028.129          50.000
C22  25230029.750 7 131379419.306 7      2794.848          44.000
C29  23043697.539 8 119994559.342 8     -2655.133          51.000
E03  23920399.344 8 125702544.236 8      1519.492          51.000    23920402.500 8  96317575.592 8      1164.268          51.000
E05  24190952.695 7 127124328.737 7     -1282.270          47.000    24190955.367 7  97406964.617 7      -982.566          45.000
> 2020 05 17 20 09  0.0000000  0 16        .000000000000
G01  20494915.734 8 107701501.812 8     -1055.605          51.000    20494917.805 8  83923253.472 8      -822.550          51.000
G03  20415720.227 7 107285360.734 7       644.020          43.000    20415722.188 7  83598985.719 7       501.836          43.000
G04  22709378.211 7 119338702.747 7      3401.082          44.000    22709382.836 7  92991157.835 7      2650.194          43.000
G11  21794054.359 8 114528549.185 8     -3214.086          48.000    21794057.508 7  89242976.233 7     -2504.483          46.000
G22  20832499.539 8 109475538.007 8      -902.395          51.000    20832495.594 8  85305608.023 8      -703.165          51.000
R01  22279658.188 7 119097522.891 7      3534.344          43.000    22279665.266 5  92631444.772 5      2748.937          33.000
R07  20132097.914 6 107768721.385 6     -2428.203          37.000    20132099.992 5  83820131.407 5     -1888.599          35.000
R08  19542848.531 7 104651162.730 7      1191.844          46.000    19542852.047 7  81395294.790 7       926.990          47.000
R22  20055348.305 8 107056808.320 8     -2502.039          50.000    20055350.789 8  83266406.376 8     -1946.030          50.000
C05                                                                  39706976.680 5 159883539.950 5       -27.970          34.000
C19  21603087.539 8 112492918.233 8       698.156          51.000
C20  23078598.039 8 120176315.018 8     -2035.238          49.000
C22  25213943.562 7 131295660.071 7      2789.160          44.000
C29  23059026.836 8 120074378.882 8     -2665.996          51.000
E03  23911757.898 8 125657132.598 8      1508.168          51.000    23911760.906 8  96282779.689 8      1155.642          51.000
E05  24198303.734 7 127162959.060 7     -1292.699          46.000    24198306.945 7  97436564.483 7      -990.579          45.000
> 2020 05 17 20 09 30.0000000  0 16        .000000000000
G01  20500980.781 8 107733373.569 8     -1069.195          51.000    20500982.836 8  83948088.599 8      -833.139          51.000
G03  20412075.703 7 107266210.243 7       632.664          44.000    20412078.117 7  83584063.260 7       492.985          44.000
G04  22689985.477 7 119236789.404 7      3393.020          46.000    22689989.039 7  92911744.884 7      2643.914          43.000
G11  21812435.195 8 114625138.782 8     -3225.211          50.000    21812437.898 7  89318240.866 7     -2513.151          45.000
G22  20837676.234 8 109502742.279 8      -911.297          51.000    20837672.648 8  85326806.167 8      -710.101          51.000
R01  22259849.703 7 118991637.393 7      3524.711          43.000    22259856.984 5  92549089.423 5      2741.442          34.000
R07  20145740.742 6 107841759.183 6     -2440.828          40.000    20145744.336 5  83876938.564 5     -1898.422          34.000
R08  19536225.375 7 104615698.456 7      1172.594          47.000    19536229.445 7  81367711.471 7       912.017          46.000
R22  20069463.945 8 107132157.617 8     -2521.406          51.000    20069467.359 8  83325011.423 8     -1961.094          51.000
C05  39707184.469 5 206765728.621 5       -35.277          34.000    39707182.086 5 159884367.095 5       -27.514          34.000
C19  21599097.375 8 112472139.072 8       687.227          51.000
C20  23090341.367 8 120237466.586 8     -2041.395          48.000
C22  25197887.984 7 131212055.103 7      2784.434          45.000
C29  23074414.781 8 120154506.411 8     -2675.898          51.000
E03  23903177.570 8 125612040.894 8      1497.848          51.000    23903180.375 8  96248228.921 8      1147.686          51.000
E05  24205711.305 7 127201885.756 7     -1302.414          45.000    24205714.469 7  97466391.422 7      -997.972          45.000
> 2020 05 17 20 10  0.0000000  0 16        .000000000000
G01  20507125.117 8 107765662.408 8     -1083.160          51.000    20507127.078 8  83973248.733 8      -844.021          51.000
G03  20408498.906 7 107247412.778 7       620.613          45.000    20408501.000 7  83569415.895 7       483.595          45.000
G04  22670640.672 7 119135127.967 7      3384.504          47.000    22670642.930 7  92832528.232 7      2637.279          43.000
G11  21830880.828 8 114722067.364 8     -3236.430          50.000    21830882.055 7  89393769.632 7     -2521.896          44.000
G22  20842905.781 8 109530223.990 8      -920.645          51.000    20842902.438 8  85348220.489 8      -717.385          51.000
R01  22240097.547 7 118886050.785 7      3514.719          44.000    22240104.141 5  92466966.578 5      2733.673          35.000
R07  20159459.695 6 107915195.882 6     -2454.715          37.000    20159462.203 5  83934055.964 5     -1909.223          35.000
R08  19529712.383 8 104580819.071 8      1152.914          48.000    19529715.672 7  81340583.057 7       896.711          46.000
R22  20083691.023 8 107208099.040 8     -2541.176          51.000    20083694.406 8  83384076.995 8     -1976.470          51.000
C05  39707388.828 5 206766792.856 5       -35.641          34.000    39707386.484 5 159885190.013 5       -27.418          34.000
C19  21595171.781 8 112451697.668 8       675.781          51.000
C20  23102123.000 7 120298817.598 7     -2048.238          47.000
C22  25181863.336 7 131128606.564 7      2779.012          45.000
C29  23089861.109 8 120234941.854 8     -2686.270          51.000
E03  23894658.602 8 125567271.099 8      1487.008          51.000    23894661.328 8  96213924.800 8      1139.387          51.000
E05  24213175.180 7 127241109.069 7     -1312.266          43.000    24213177.648 7  97496445.668 7     -1005.607          45.000
> 2020 05 17 20 10 30.0000000  0 16        .000000000000
G01  20513349.117 8 107798370.537 8     -1097.680          51.000    20513351.195 8  83998735.591 8      -855.335          51.000
G03  20404989.492 7 107228970.267 7       608.246          45.000    20404991.484 7  83555045.108 7       473.955          45.000
G04  22651344.398 8 119033723.015 8      3375.406          48.000    22651345.727 7  92753511.454 7      2630.190          42.000
G11  21849390.789 8 114819335.020 8     -3248.305          50.000    21849390.078 7  89469562.574 7     -2531.147          42.000
G22  20848188.367 8 109557984.467 8      -930.445          51.000    20848185.109 8  85369852.026 8      -725.022          51.000
R01  22220401.820 7 118780766.848 7      3503.930          43.000    22220407.969 6  92385079.174 6      2725.282          36.000
R07  20173252.375 6 107989030.681 6     -2468.309          36.000    20173255.555 6  83991483.043 6     -1919.796          36.000
R08  19523309.227 8 104546526.889 8      1132.801          49.000    19523311.391 7  81313911.409 7       881.067          45.000
R22  20098028.883 8 107284632.721 8     -2561.445          51.000    20098031.766 8  83443603.185 8     -1992.238          50.000
C05                                                                  39707590.227 5 159886010.412 5       -27.705          34.000
C19  21591311.406 8 112431595.700 8       663.984          51.000
C20  23113943.195 7 120360368.770 7     -2055.434          46.000
C22  25165869.266 7 131045317.429 7      2773.055          43.000
C29  23105366.273 8 120315685.703 8     -2697.090          50.000
E03  23886201.086 8 125522825.769 8      1475.695          51.000    23886204.039 8  96179869.307 8      1130.683          51.000
E05  24220695.461 7 127280629.996 7     -1322.863          43.000    24220697.688 7  97526727.937 7     -1013.569          45.000
> 2020 05 17 20 11  0.0000000  0 16        .000000000000
G01  20519655.711 8 107831512.968 8     -1111.895          51.000    20519658.211 8  84024560.858 8      -866.408          51.000
G03  20401550.078 7 107210897.446 7       596.527          44.000    20401552.430 7  83540962.410 7       464.830          44.000
G04  22632099.945 7 118932592.072 7      3366.480          47.000    22632100.750 6  92674708.174 6      2623.235          39.000
G11  21867967.391 8 114916954.627 8     -3259.711          51.000    21867965.266 6  89545629.754 6     -2540.034          41.000
G22  20853526.805 8 109586038.124 8      -939.992          51.000    20853523.461 8  85391712.019 8      -732.461          51.000
R01  22200764.641 6 118675802.715 6      3493.453          40.000    22200772.391 6  92303440.454 6      2717.130          37.000
R07  20187121.180 6 108063275.420 6     -2481.566          37.000    20187125.695 6  84049228.979 6     -1930.110          36.000
R08  19517018.719 8 104512837.162 8      1113.059          49.000    19517019.602 7  81287708.302 7       865.712          46.000
R22  20112480.008 8 107361772.317 8     -2581.340          51.000    20112482.219 8  83503600.606 8     -2007.709          49.000
C05  39707798.391 5 206768925.893 5       -36.031          34.000    39707796.172 5 159886839.818 5       -27.638          34.000
C19  21587519.484 8 112411847.849 8       652.473          51.000
C20  23125804.570 7 120422133.609 7     -2062.207          47.000
C22  25149907.156 6 130962203.278 6      2767.871          40.000
C29  23120933.539 8 120396751.154 8     -2707.477          51.000
E03  23877807.914 8 125478720.367 8      1464.508          51.000    23877811.242 8  96146074.278 8      1122.206          51.000
E05  24228275.008 7 127320462.334 7     -1332.875          43.000    24228277.891 7  97557248.812 7     -1021.213          45.000
> 2020 05 17 20 11 30.0000000  0 16        .000000000000
G01  20526044.812 8 107865088.634 8     -1125.605          51.000    20526047.648 8  84050723.712 8      -877.095          51.000
G03  20398181.008 7 107193193.031 7       584.914          45.000    20398183.500 7  83527166.784 7       455.777          45.000
G04  22612906.969 7 118831736.456 7      3357.977          45.000    22612907.812 6  92596119.440 6      2616.605          40.000
G11  21886610.250 8 115014922.791 8     -3270.699          51.000    21886607.938 7  89621968.549 7     -2548.600          42.000
G22  20858920.734 8 109614383.057 8      -949.055          51.000    20858917.164 8  85413798.983 8      -739.523          50.000
R01  22181187.195 6 118571159.003 6      3483.262          40.000    22181197.180 6  92222050.892 6      2709.204          39.000
R07  20201067.430 6 108137926.214 6     -2494.250          39.000    20201071.523 6  84107290.704 6     -1939.972          38.000
R08  19510839.961 8 104479748.244 8      1093.711          49.000    19510840.656 7  81261972.481 7       850.664          47.000
R22  20127044.195 8 107439514.666 8     -2600.676          51.000    20127045.500 8  83564066.822 8     -2022.751          48.000
C05                                                                  39708004.227 5 159887677.440 5       -27.831          34.000
C19  21583794.984 8 112392452.660 8       641.402          51.000
C20  23137706.602 7 120484109.618 7     -2068.688          47.000
C22  25133978.211 7 130879263.795 7      2762.363          42.000
C29  23136562.625 8 120478135.525 8     -2717.402          51.000
E03  23869479.328 8 125434954.197 8      1453.852          51.000    23869482.766 8  96112539.177 8      1114.002          51.000
E05  24235913.297 6 127360603.697 6     -1342.480          40.000    24235917.055 7  97588006.509 7     -1028.792          45.000
> 2020 05 17 20 12  0.0000000  0 16        .000000000000
G01  20532511.711 8 107899072.353 8     -1139.621          51.000    20532514.383 8  84077204.540 8      -888.016          51.000
G03  20394877.188 7 107175831.608 7       572.883          45.000    20394879.594 7  83513638.402 7       446.402          44.000
G04  22593761.117 7 118731133.474 7      3349.238          42.000    22593762.406 6  92517727.551 6      2609.799          40.000
G11  21905314.344 8 115113212.381 8     -3281.746          51.000    21905312.344 7  89698557.795 7     -2557.208          43.000
G22  20864365.109 8 109642993.117 8      -958.066          51.000    20864361.484 8  85436092.549 8      -746.542          51.000
R01  22161667.273 6 118466812.001 6      3473.316          41.000    22161677.320 6  92140892.119 6      2701.468          40.000
R07  20215083.648 6 108212954.583 6     -2507.301          37.000    20215088.383 6  84165646.195 6     -1950.120          38.000
R08  19504768.383 8 104447234.688 8      1074.121          48.000    19504768.945 7  81236684.186 7       835.428          47.000
R22  20141715.914 8 107517832.562 8     -2620.250          51.000    20141717.258 8  83624980.705 8     -2037.972          49.000
C05  39708211.586 5 206771076.460 5       -35.273          34.000    39708209.516 5 159888504.001 5       -27.348          34.000
C19  21580132.961 8 112373384.799 8       630.070          51.000
C20  23149644.008 7 120546270.504 7     -2075.043          46.000
C22  25118079.562 7 130796474.628 7      2757.102          45.000
C29  23152247.992 8 120559812.206 8     -2727.367          51.000
E03  23861210.641 8 125391502.479 8      1443.125          51.000    23861213.984 8  96079245.019 8      1105.753          51.000
E05  24243605.555 6 127401027.714 6     -1352.426          39.000    24243609.180 7  97618980.755 7     -1036.101          45.000
> 2020 05 17 20 12 30.0000000  0 16        .000000000000
G01  20539057.750 8 107933471.438 8     -1153.406          51.000    20539060.000 8  84104009.028 8      -898.758          51.000
G03  20391640.039 7 107158820.211 7       561.488          46.000    20391642.227 7  83500382.760 7       437.523          45.000
G04  22574666.281 7 118630792.878 7      3340.512          44.000    22574667.234 6  92439540.097 6      2602.999          40.000
G11  21924080.836 8 115211828.359 8     -3292.492          51.000    21924078.773 7  89775401.347 7     -2565.581          43.000
G22  20869861.164 8 109671875.082 8      -967.059          51.000    20869857.602 8  85458597.990 8      -753.552          50.000
R01  22142205.461 7 118362770.530 7      3462.961          43.000    22142213.680 6  92059971.013 6      2693.414          39.000
R07  20229171.461 6 108288364.796 6     -2520.090          41.000    20229174.664 6  84224298.560 6     -1960.070          36.000
R08  19498805.273 8 104415303.420 8      1054.867          48.000    19498805.648 7  81211848.776 7       820.452          46.000
R22  20156495.867 8 107596731.403 8     -2639.418          50.000    20156498.211 8  83686346.468 8     -2052.881          51.000
C05  39708415.547 5 206772139.379 5       -34.793          34.000    39708413.359 5 159889325.157 5       -26.925          34.000
C19  21576535.258 8 112354651.243 8       619.023          51.000
C20  23161617.844 7 120608622.168 7     -2081.520          44.000
C22  25102212.016 7 130713843.810 7      2751.660          47.000
C29  23167990.383 8 120641786.841 8     -2737.277          51.000
E03  23853003.227 8 125348372.907 8      1432.523          51.000    23853006.398 8  96046197.704 8      1097.657          51.000
E05  24251353.180 6 127441740.416 6     -1361.598          38.000    24251355.711 7  97650176.222 7     -1043.308          45.000
> 2020 05 17 20 13  0.0000000  0 16        .000000000000
G01  20545685.188 8 107968297.607 8     -1167.363          51.000    20545687.328 8  84131146.291 8      -909.637          51.000
G03  20388471.828 7 107142170.321 7       549.402          46.000    20388474.133 7  83487408.818 7       428.106          46.000
G04  22555625.359 7 118530728.743 7      3331.324          47.000    22555625.922 7  92361568.094 7      2595.837          42.000
G11  21942911.398 8 115310780.372 8     -3303.402          51.000    21942908.805 7  89852506.734 7     -2574.080          42.000
G22  20875411.055 8 109701040.062 8      -976.324          51.000    20875407.586 8  85481323.952 8      -760.772          50.000
R01  22122802.812 7 118259048.347 7      3452.699          42.000    22122808.914 6  91979298.269 6      2685.436          38.000
R07  20243332.547 6 108364165.741 6     -2532.574          40.000    20243333.359 6  84283254.772 6     -1969.783          37.000
R08  19492952.898 8 104383966.537 8      1035.371          48.000    19492953.914 7  81187475.649 7       805.289          47.000
R22  20171386.281 8 107676221.333 8     -2658.863          50.000    20171390.008 8  83748171.970 8     -2068.005          51.000
C05                                                                  39708618.047 5 159890148.906 5       -26.943          34.000
C19  21573004.086 8 112336263.217 8       607.738          51.000
C20  23173630.164 7 120671174.817 7     -2087.656          43.000
C22  25086377.422 7 130631383.604 7      2746.473          47.000
C29  23183792.039 8 120724069.329 8     -2747.289          50.000
E03  23844859.359 8 125305577.633 8      1421.434          51.000    23844862.461 8  96013406.558 8      1089.168          51.000
E05  24259157.836 6 127482752.388 6     -1371.492          39.000    24259160.109 7  97681600.978 7     -1050.866          46.000
> 2020 05 17 20 13 30.0000000  0 16        .000000000000
G01  20552393.664 8 108003549.586 8     -1182.133          51.000    20552395.750 8  84158615.337 8      -921.145          51.000
G03  20385372.047 7 107125880.417 7       536.973          45.000    20385374.531 7  83474715.412 7       418.423          45.000
G04  22536637.281 8 118430942.293 8      3321.488          48.000    22536637.617 7  92283812.477 7      2588.176          43.000
G11  21961804.969 8 115410064.932 8     -3315.012          51.000    21961801.672 7  89929871.292 7     -2583.126          42.000
G22  20881014.430 8 109730485.866 8      -986.191          51.000    20881010.852 8  85504268.728 8      -768.461          50.000
R01  22103458.203 6 118155646.092 6      3441.359          40.000    22103464.570 6  91898874.366 6      2676.616          39.000
R07  20257565.062 6 108440353.064 6     -2546.117          39.000    20257566.594 6  84342511.622 6     -1980.310          39.000
R08  19487211.594 8 104353222.185 8      1014.914          50.000    19487213.367 8  81163563.385 8       789.378          48.000
R22  20186386.930 8 107756298.852 8     -2679.094          50.000    20186391.484 8  83810454.517 8     -2083.737          51.000
C05  39708825.750 5 206774275.555 5       -35.328          34.000    39708823.586 5 159890977.921 5       -27.732          34.000
C19  21569538.734 8 112318219.107 8       595.699          51.000
C20  23185680.547 7 120733925.942 7     -2094.969          43.000
C22  25070574.812 7 130549093.541 7      2740.215          45.000
C29  23199652.531 8 120806656.763 8     -2758.082          51.000
E03  23836778.914 8 125263115.756 8      1409.820          51.000    23836782.273 8  95980870.865 8      1080.237          51.000
E05  24267018.766 6 127524061.129 6     -1381.832          39.000    24267021.898 7  97713253.122 7     -1058.818          47.000
> 2020 05 17 20 14  0.0000000  0 17        .000000000000
G01  20559181.570 8 108039219.281 8     -1195.477          51.000    20559183.359 8  84186409.869 8      -931.540          51.000
G03  20382338.930 7 107109942.190 7       525.758          45.000    20382341.414 7  83462296.030 7       409.681          45.000
G04  22517700.781 8 118331427.874 8      3313.047          49.000    22517701.078 7  92206268.825 7      2581.595          43.000
G11  21980759.219 8 115509672.053 8     -3325.066          50.000    21980756.273 7  90007487.247 7     -2590.958          42.000
G17  22560240.953 5 118554836.670 5      1788.879          32.000
G22  20886669.531 8 109760203.525 8      -994.711          51.000    20886665.734 8  85527425.350 8      -775.099          50.000
R01  22084172.375 7 118052556.988 7      3431.480          42.000    22084179.742 6  91818693.963 6      2668.929          40.000
R07  20271867.492 6 108516915.707 6     -2557.707          41.000    20271869.555 6  84402060.354 6     -1989.331          38.000
R08  19481579.562 8 104323062.343 8       995.918          49.000    19481581.555 8  81140105.722 8       774.603          48.000
R22  20201496.469 8 107836954.361 8     -2697.664          51.000    20201500.984 8  83873186.620 8     -2098.183          51.000
C05  39709030.414 5 206775340.702 5       -34.410          33.000    39709028.180 5 159891800.966 5       -26.965          34.000
C19  21566137.555 8 112300510.547 8       585.121          51.000
C20  23197767.367 7 120796866.062 7     -2100.648          43.000
C22  25054802.172 7 130466966.299 7      2735.277          43.000
C29  23215569.805 8 120889539.442 8     -2767.375          51.000
E03  23828760.367 8 125220979.544 8      1399.684          51.000    23828764.211 8  95948584.718 8      1072.437          51.000
E05  24274934.305 6 127565657.195 6     -1390.617          38.000    24274937.922 7  97745125.480 7     -1065.720          47.000
> 2020 05 17 20 14 30.0000000  0 16        .000000000000
G01  20566053.594 8 108075331.174 8     -1210.492          51.000    20566055.070 8  84214548.980 8      -943.244          51.000
G03  20379377.516 7 107094379.951 7       513.047          45.000    20379379.695 7  83450169.611 7       399.777          45.000
