     3.02           OBSERVATION DATA    M (MIXED)           RINEX VERSION / TYPE
SAVERINEX           SC600               20200508 075931 LCL PGM / RUN BY / DATE
       G = GPS       R = GLONASS       C = COMPASS          COMMENT
       S = SBAS      J = QZSS          E = GALILEO          COMMENT
BEAN                                                        MARKER NAME
1                                                           MARKER NUMBER
GEODETIC                                                    MARKER TYPE
Unige DICCA         GTER                                    OBSERVER / AGENCY
SC60291900056       SC600               2.12(191226)        REC # / TYPE / VERS
                    HEMA45          NONE                    ANT # / TYPE
  4509407.8091   693652.4678  4442337.6214                  APPROX POSITION XYZ
        0.0000        0.0000        0.0000                  ANTENNA: DELTA H/E/N
G    8 C1C L1C D1C S1C C2Y L2Y D2Y S2Y                      SYS / # / OBS TYPES
R    8 C1C L1C D1C S1C C2P L2P D2P S2P                      SYS / # / OBS TYPES
C    8 C1I L1I D1I S1I C7I L7I D7I S7I                      SYS / # / OBS TYPES
E    8 C1C L1C D1C S1C C7Q L7Q D7Q S7Q                      SYS / # / OBS TYPES
DBHZ                                                        COMMENT
     30.000                                                 INTERVAL
  2020    05    08    05    00    0.0000000     GPS         TIME OF FIRST OBS
  2020    05    08    05    59   30.0000000     GPS         TIME OF LAST OBS
     0                                                      RCV CLOCK OFFS APPL
G L1C  0.00000                                              SYS / PHASE SHIFT
G L2Y  0.00000                                              SYS / PHASE SHIFT
R L1C  0.00000                                              SYS / PHASE SHIFT
R L2P  0.25000                                              SYS / PHASE SHIFT
C L1I  0.00000                                              SYS / PHASE SHIFT
C L7I  0.00000                                              SYS / PHASE SHIFT
E L1C  0.50000                                              SYS / PHASE SHIFT
E L7Q -0.25000                                              SYS / PHASE SHIFT
 12 R01  1 R02 -4 R07  5 R08  6 R09 -2 R10 -5 R11  0 R12 -1 GLONASS SLOT / FRQ #
    R13 -2 R21  4 R22 -3 R23  3                             GLONASS SLOT / FRQ #
 C1C   71.950 C2C   71.950 C2P   71.950                     GLONASS COD/PHS/BIS
    18                                                      LEAP SECONDS
*** Above antenna height is from mark to ANTENNA BOTTOM.    COMMENT
    17     4        0.0000        ANT MEASURE TYPE/HEIGT    COMMENT
    0.0000    0.0000    0.0458    0.0405    0.0000          COMMENT
                    BASE STATION                            COMMENT
                                                            END OF HEADER
> 2020 05 08 05 00  0.0000000  0 15        .000000000000
G05  22871659.852 6 120191363.269 6     -3336.188          41.000    22871656.812 6  93655601.150 6     -2599.627          41.000
G13  20159225.008 8 105937443.320 8       230.434          51.000    20159223.023 8  82548633.039 8       179.559          51.000
G17  24513724.648 5 128820493.308 5      2808.000          35.000    24513720.406 5 100379592.756 5      2188.055          35.000
G28  20953163.859 8 110109634.378 8      -688.629          50.000    20953162.211 7  85799745.845 7      -536.594          46.000
G30  22387052.617 5 117644757.077 5     -2526.660          33.000    22387052.633 5  91671226.632 5     -1968.823          31.000
R01  21146223.891 7 113038672.465 7     -3592.980          46.000    21146226.938 6  87918957.345 6     -2794.540          36.000
R02  19283720.656 6 102901585.344 6      1128.461          40.000    19283722.844 6  80034607.106 6       877.692          36.000
R11  20419694.406 6 109116630.113 6     -2693.508          37.000    20419695.828 6  84868531.388 6     -2094.954          36.000
R12  19338131.047 8 103300830.871 8       758.402          51.000    19338134.289 8  80345083.540 8       589.868          51.000
C05  39781582.273 5 207153137.537 5        16.340          35.000    39781580.969 6 160183917.162 6        12.436          39.000
C23  22570106.617 8 117528475.132 8     -1628.277          51.000
E07  23884187.398 8 125512251.360 8     -1359.988          51.000    23884190.234 8  96171725.117 8     -1042.045          51.000
E08  25687179.516 7 134987016.888 7     -2845.402          44.000    25687182.227 7 103431690.127 7     -2180.219          44.000
E27  23837182.180 8 125265282.113 8      1586.922          51.000    23837185.516 8  95982502.371 8      1215.938          51.000
E30  22731831.219 8 119456578.902 8     -1258.340          51.000    22731833.141 8  91531667.810 8      -964.150          51.000
> 2020 05 08 05 00 30.0000000  0 14        .000000000000
G05  22890728.945 6 120291573.578 6     -3342.086          40.000    22890726.594 6  93733687.039 6     -2604.223          40.000
G13  20157951.461 8 105930750.409 8       218.426          51.000    20157949.469 8  82543417.780 8       170.202          51.000
G17  24497704.320 5 128736301.607 5      2806.582          32.000    24497713.023 5 100314033.377 5      2186.944          33.000
G28  20957147.391 8 110130569.177 8      -704.336          49.000    20957145.961 7  85816058.699 7      -548.833          47.000
R01  21166430.406 7 113146689.704 7     -3605.355          45.000    21166429.711 4  88002989.608 4     -2804.178          25.000
R02  19277444.695 6 102868093.563 6      1106.859          38.000    19277446.367 6  80008557.939 6       860.891          37.000
R11  20434851.469 5 109197622.180 5     -2703.273          35.000    20434854.297 6  84931525.163 6     -2102.546          38.000
R12  19333928.742 8 103278382.107 8       740.879          51.000    19333931.930 8  80327623.373 8       576.239          50.000
C05  39781490.570 5 207152660.299 5        17.918          35.000    39781489.258 6 160183547.731 6        14.163          38.000
C23  22579513.141 8 117577456.486 8     -1634.457          51.000
E07  23891983.148 8 125553215.721 8     -1368.312          51.000    23891985.516 8  96203113.369 8     -1048.432          51.000
E08  25703434.805 7 135072437.951 7     -2846.727          45.000    25703438.055 7 103497142.610 7     -2181.276          45.000
E27  23828155.328 8 125217845.855 8      1578.184          51.000    23828158.641 8  95946155.099 8      1209.299          51.000
E30  22739045.688 8 119494491.204 8     -1266.477          51.000    22739047.734 8  91560717.490 8      -970.390          51.000
> 2020 05 08 05 01  0.0000000  0 14        .000000000000
G05  22909835.023 6 120391975.939 6     -3351.445          39.000    22909833.461 6  93811922.585 6     -2611.519          39.000
G13  20156750.688 8 105924439.961 8       202.719          51.000    20156748.578 8  82538500.540 8       157.963          51.000
G17  24481695.922 5 128652197.397 5      2800.590          31.000    24481711.305 5 100248497.581 5      2182.278          30.000
G28  20961225.305 8 110151998.835 8      -723.734          51.000    20961223.883 7  85832757.124 7      -563.949          46.000
R01  21186710.984 7 113255102.387 7     -3621.461          43.000    21186714.070 5  88087294.368 5     -2816.695          34.000
R02  19271293.094 6 102835272.170 6      1081.316          40.000    19271296.133 6  79983030.139 6       841.021          38.000
R11  20450064.727 6 109278920.450 6     -2716.316          36.000    20450069.734 6  84994757.277 6     -2112.691          36.000
R12  19329829.523 8 103256485.708 8       719.352          51.000    19329833.070 8  80310592.834 8       559.496          50.000
C05  39781392.203 5 207152147.854 5        16.113          34.000    39781390.750 6 160183151.466 6        12.572          38.000
C23  22588960.477 8 117626650.847 8     -1644.629          51.000
E07  23899831.148 8 125594456.072 8     -1380.574          51.000    23899832.875 8  96234713.086 8     -1057.831          51.000
E08  25719703.477 7 135157926.773 7     -2852.027          46.000    25719706.961 7 103562647.005 7     -2185.353          47.000
E27  23819183.961 8 125170699.172 8      1565.414          51.000    23819186.883 8  95910029.709 8      1199.485          51.000
E30  22746311.734 8 119532674.256 8     -1278.535          51.000    22746313.523 8  91589974.624 8      -979.702          51.000
> 2020 05 08 05 01 30.0000000  0 14        .000000000000
G05  22928985.625 5 120492611.187 5     -3356.527          33.000    22928984.898 5  93890339.601 5     -2615.476          34.000
G13  20155631.156 8 105918556.546 8       190.406          51.000    20155628.812 8  82533916.060 8       148.369          50.000
G17  24465711.977 4 128568183.667 4      2799.402          29.000    24465726.953 4 100183062.200 4      2181.352          29.000
G28  20965405.562 8 110173965.606 8      -739.691          50.000    20965404.148 8  85849874.093 8      -576.380          48.000
R01  21207072.195 6 113363951.700 6     -3634.117          39.000    21207079.734 6  88171955.005 6     -2826.530          40.000
R02  19265276.398 7 102803166.926 7      1059.680          42.000    19265279.312 5  79958059.363 5       824.198          35.000
R11  20465343.891 5 109360566.574 5     -2726.160          35.000    20465345.148 5  85058259.686 5     -2120.350          35.000
R12  19325841.961 8 103235185.251 8       701.586          51.000    19325845.625 8  80294025.814 8       545.678          50.000
C05                                                                  39781294.008 6 160182761.636 6        14.027          39.000
C23  22598456.711 8 117676099.961 8     -1651.070          51.000
E07  23907739.867 8 125636015.695 8     -1389.219          51.000    23907741.125 8  96266557.431 8     -1064.463          51.000
E08  25735993.117 7 135243525.956 7     -2853.695          44.000    25735996.891 8 103628235.905 8     -2186.556          48.000
E27  23810276.172 8 125123885.849 8      1556.301          51.000    23810278.602 8  95874159.764 8      1192.472          51.000
E30  22753637.133 8 119571170.177 8     -1286.949          49.000    22753638.836 8  91619471.500 8      -986.107          51.000
> 2020 05 08 05 02  0.0000000  0 13        .000000000000
G13  20154583.461 8 105913051.060 8       174.812          51.000    20154581.023 8  82529626.061 8       136.218          50.000
G28  20969678.211 8 110196417.976 8      -758.859          51.000    20969676.852 7  85867369.468 7      -591.319          47.000
R01  21227504.617 7 113473183.838 7     -3649.734          42.000    21227514.172 7  88256913.453 7     -2838.679          43.000
R02  19259384.984 6 102771729.499 6      1034.457          40.000    19259385.547 5  79933608.063 5       804.578          34.000
R11  20480677.930 6 109442506.067 6     -2738.699          39.000    20480677.984 6  85121990.417 6     -2130.099          36.000
R12  19321956.305 8 103214428.833 8       680.336          51.000    19321959.938 8  80277881.933 8       529.150          49.000
R13  22623492.094 6 120808190.209 6      3549.727          37.000    22623487.336 5  93961902.181 5      2760.901          35.000
C05                                                                  39781189.375 6 160182339.672 6        12.575          39.000
C23  22607992.117 8 117725752.640 8     -1660.789          51.000
E07  23915699.758 8 125677844.066 8     -1401.078          51.000    23915700.922 8  96298607.702 8     -1073.562          51.000
E08  25752293.602 7 135329184.240 7     -2858.680          45.000    25752297.336 7 103693870.098 7     -2190.390          47.000
E27  23801422.203 8 125077355.902 8      1543.875          51.000    23801424.359 8  95838506.941 8      1183.020          51.000
E30  22761012.297 8 119609927.331 8     -1298.613          50.000    22761014.117 8  91649168.548 8      -994.978          51.000
> 2020 05 08 05 02 30.0000000  0 15        .000000000000
G05  22967406.688 4 120694505.377 4     -3373.746          28.000
G13  20153629.781 8 105908040.345 8       159.945          50.000    20153627.594 8  82525721.596 8       124.633          50.000
G17  24433812.531 5 128400546.581 5      2788.375          31.000
G28  20974065.195 8 110219470.683 8      -777.324          51.000    20974063.680 8  85885332.610 8      -605.707          48.000
R01  21248032.555 7 113582913.960 7     -3664.629          47.000    21248041.773 7  88342259.115 7     -2850.267          43.000
R02  19253640.227 6 102741079.819 6      1009.945          39.000    19253640.461 5  79909769.410 5       785.513          35.000
R11  20496088.688 6 109524854.133 6     -2750.441          41.000    20496089.617 6  85186038.917 6     -2139.232          36.000
R12  19318194.344 8 103194333.669 8       659.949          51.000    19318198.141 8  80262252.345 8       513.294          49.000
R13  22603580.367 6 120701864.945 6      3539.668          36.000    22603579.672 6  93879204.794 6      2753.075          39.000
C05  39781100.359 5 207150627.326 5        15.523          35.000    39781098.719 6 160181974.490 6        12.288          38.000
C23  22617588.414 8 117775722.545 8     -1669.727          51.000
E07  23923732.633 8 125720057.044 8     -1412.367          51.000    23923733.930 8  96330952.680 8     -1082.173          51.000
E08  25768626.883 7 135415016.774 7     -2862.664          44.000    25768630.195 7 103759637.854 7     -2193.640          45.000
E27  23792643.992 8 125031225.682 8      1532.195          51.000    23792646.250 8  95803160.411 8      1174.011          51.000
E30  22768459.125 8 119649060.508 8     -1309.539          51.000    22768460.906 8  91679153.696 8     -1003.413          51.000
> 2020 05 08 05 03  0.0000000  0 16        .000000000000
G05  22986684.375 5 120795847.908 5     -3379.891          30.000    22986687.516 5  94126643.441 5     -2633.684          30.000
G13  20152753.406 8 105903436.131 8       146.770          49.000    20152751.633 8  82522133.879 8       114.366          49.000
G15  20924047.352 5 109956593.166 5      1810.477          33.000
G28  20978549.047 8 110243033.207 8      -793.859          51.000    20978547.570 8  85903693.041 8      -618.592          48.000
G30  22474111.766 5 118102244.300 5     -2557.891          34.000
R01  21268636.664 8 113693048.447 8     -3677.809          49.000    21268644.367 7  88427919.282 7     -2860.518          42.000
R02  19248027.320 7 102711129.690 7       986.699          42.000    19248028.508 6  79886474.862 6       767.433          36.000
R11  20511558.375 6 109607516.857 6     -2760.754          38.000    20511559.375 5  85250332.108 5     -2147.256          35.000
R12  19314539.148 8 103174808.488 8       641.480          51.000    19314543.039 8  80247066.105 8       498.929          49.000
R13  22583716.039 6 120595801.528 6      3531.109          36.000    22583720.016 7  93796711.024 7      2746.418          42.000
C05  39781006.844 5 207150141.253 5        16.734          35.000    39781005.180 6 160181597.839 6        12.967          39.000
C23  22627228.227 8 117825919.982 8     -1676.934          51.000
E07  23931821.312 8 125762565.329 8     -1421.820          51.000    23931823.141 8  96363523.948 8     -1089.420          51.000
E08  25784976.016 7 135500933.597 7     -2865.215          43.000    25784978.875 7 103825470.154 7     -2195.344          45.000
E27  23783924.703 8 124985406.381 8      1522.223          51.000    23783927.328 8  95768052.113 8      1166.378          51.000
E30  22775960.203 8 119688479.140 8     -1318.551          50.000    22775961.875 8  91709357.569 8     -1010.363          51.000
> 2020 05 08 05 03 30.0000000  0 16        .000000000000
G05  23005996.375 5 120897334.359 5     -3385.090          33.000    23005997.734 5  94205723.648 5     -2637.735          33.000
G13  20151950.805 8 105899219.311 8       134.148          50.000    20151949.312 8  82518848.011 8       104.531          50.000
G17  24402005.125 6 128233410.783 6      2783.137          36.000    24402006.867 5  99922161.216 5      2168.684          35.000
G28  20983126.062 8 110267084.766 8      -809.766          51.000    20983124.523 8  85922434.511 8      -630.983          49.000
G30  22488722.719 6 118179017.843 6     -2561.047          36.000    22488753.625 5  92087565.906 5     -1995.630          35.000
R01  21289311.625 8 113803563.745 8     -3690.004          50.000    21289317.758 6  88513875.592 6     -2870.003          38.000
R02  19242541.984 7 102681861.364 7       964.535          42.000    19242543.695 6  79863710.582 6       750.194          36.000
R11  20527082.852 5 109690471.422 5     -2769.004          34.000    20527081.742 5  85314852.258 5     -2153.673          34.000
R12  19310986.844 8 103155832.015 8       623.504          51.000    19310990.531 8  80232306.636 8       484.947          48.000
R13  22563898.383 6 120489980.819 6      3524.094          36.000    22563904.492 7  93714406.031 7      2740.962          42.000
C05  39780906.734 5 207149619.970 5        18.016          35.000    39780904.984 6 160181194.364 6        14.136          38.000
C23  22636907.695 8 117876323.862 8     -1683.402          51.000
E07  23939962.000 8 125805348.744 8     -1430.578          51.000    23939964.844 8  96396306.025 8     -1096.118          51.000
E08  25801337.453 7 135586913.729 7     -2867.039          44.000    25801340.281 7 103891350.995 7     -2196.717          46.000
E27  23775260.617 8 124939878.344 8      1512.875          51.000    23775263.805 8  95733166.998 8      1159.234          51.000
E30  22783511.477 8 119728161.986 8     -1327.051          50.000    22783513.312 8  91739763.911 8     -1016.798          51.000
> 2020 05 08 05 04  0.0000000  0 16        .000000000000
G05  23025348.625 5 120999024.545 5     -3393.211          35.000    23025351.398 6  94284962.814 6     -2644.064          36.000
G13  20151227.680 8 105895419.507 8       119.453          50.000    20151226.086 8  82515887.117 8        93.080          49.000
G17  24386132.812 5 128149993.787 5      2778.199          35.000    24386134.781 5  99857161.013 5      2164.831          34.000
G28  20987801.172 8 110291652.695 8      -827.863          51.000    20987799.672 8  85941578.372 8      -645.088          48.000
G30  22503361.570 6 118255938.253 6     -2566.695          37.000    22503393.430 5  92147503.759 5     -2000.025          35.000
R01  21310062.547 8 113914486.720 8     -3704.477          48.000    21310066.344 6  88600148.932 6     -2881.263          36.000
R02  19237190.430 7 102653306.264 7       939.609          43.000    19237192.500 6  79841501.024 6       730.804          36.000
R11  20542664.859 6 109773743.818 6     -2781.480          36.000    20542664.539 5  85379619.740 5     -2163.374          35.000
R12  19307542.461 8 103137433.280 8       603.375          51.000    19307546.102 8  80217996.501 8       469.292          49.000
R13  22544133.000 6 120384433.888 6      3513.246          37.000    22544139.375 7  93632313.968 7      2732.525          42.000
C05  39780805.312 6 207149091.646 6        17.168          36.000    39780803.688 6 160180786.220 6        13.496          38.000
C23  22646632.172 8 117926961.471 8     -1692.156          51.000
E07  23948160.594 8 125848435.906 8     -1441.613          51.000    23948164.539 8  96429320.856 8     -1104.595          51.000
E08  25817716.258 7 135672985.126 7     -2871.074          45.000    25817719.719 7 103957301.812 7     -2199.794          47.000
E27  23766657.438 8 124894670.726 8      1501.230          51.000    23766661.125 8  95698527.403 8      1150.329          51.000
E30  22791118.422 8 119768136.555 8     -1337.574          51.000    22791120.414 8  91770393.775 8     -1024.948          51.000
> 2020 05 08 05 04 30.0000000  0 15        .000000000000
G05  23044740.539 6 121100922.428 6     -3400.781          39.000    23044745.070 6  94364363.756 6     -2649.956          38.000
G13  20150585.398 8 105892044.194 8       104.586          51.000    20150583.539 8  82513256.995 8        81.496          49.000
G28  20992575.625 8 110316742.239 8      -845.828          51.000    20992574.031 8  85961128.654 8      -659.090          49.000
G30  22518028.609 5 118333011.230 5     -2572.824          34.000    22518058.336 5  92207559.987 5     -2004.844          30.000
R01  21330890.094 7 114025820.949 7     -3718.992          47.000    21330892.297 6  88686742.102 6     -2892.553          37.000
R02  19231974.695 7 102625472.955 7       914.766          43.000    19231976.188 6  79819852.912 6       711.481          37.000
R11  20558308.000 5 109857338.048 5     -2792.637          34.000    20558310.125 6  85444637.402 6     -2172.051          36.000
R12  19304207.375 8 103119617.792 8       583.234          51.000    19304210.984 8  80204139.994 8       453.627          48.000
R13  22524420.766 6 120279168.929 6      3503.516          38.000    22524426.102 6  93550441.210 6      2724.957          41.000
C05  39780704.102 5 207148564.210 5        16.879          35.000    39780702.430 6 160180378.389 6        12.916          38.000
C23  22656402.469 8 117977837.938 8     -1700.707          51.000
E07  23956418.578 8 125891833.164 8     -1452.629          51.000    23956423.242 8  96462573.294 8     -1112.987          51.000
E08  25834113.898 7 135759153.495 7     -2874.691          46.000    25834117.945 7 104023326.949 7     -2202.748          47.000
E27  23758116.711 8 124849790.358 8      1489.688          51.000    23758120.383 8  95664138.553 8      1141.485          51.000
E30  22798781.844 8 119808408.091 8     -1348.133          51.000    22798783.719 8  91801251.152 8     -1032.997          50.000
> 2020 05 08 05 05  0.0000000  0 15        .000000000000
G05  23064172.125 7 121203028.737 7     -3406.840          42.000    23064176.625 7  94443927.092 7     -2654.683          42.000
G13  20150024.633 8 105889097.641 8        91.152          50.000    20150022.602 8  82510960.967 8        71.028          49.000
G28  20997449.680 8 110342355.613 8      -862.379          51.000    20997448.016 8  85981087.139 8      -671.981          49.000
G30  22532724.742 6 118410238.949 6     -2576.371          38.000    22532753.727 5  92267737.173 5     -2007.556          30.000
R01  21351794.398 7 114137566.590 7     -3731.453          43.000    21351797.070 6  88773655.306 6     -2902.244          40.000
R02  19226894.969 7 102598367.157 7       891.523          44.000    19226896.414 6  79798770.615 6       693.407          37.000
R11  20574012.250 5 109941254.396 5     -2802.164          34.000    20574015.812 5  85509905.747 5     -2179.458          34.000
R12  19300982.336 8 103102388.311 8       564.637          51.000    19300985.242 8  80190739.293 8       439.162          48.000
R13  22504762.188 6 120174191.114 6      3494.707          37.000    22504766.047 6  93468791.770 6      2718.105          41.000
C05  39780603.578 5 207148041.109 5        17.664          35.000    39780601.883 6 160179973.489 6        13.520          38.000
C23  22666218.836 8 118028955.314 8     -1707.797          50.000
E07  23964736.578 8 125935543.702 8     -1462.133          51.000    23964741.211 8  96496065.765 8     -1120.264          51.000
E08  25850530.945 7 135845421.379 7     -2877.266          47.000    25850535.094 7 104089428.303 7     -2204.598          47.000
E27  23749639.188 8 124805240.887 8      1479.617          51.000    23749642.641 8  95630003.262 8      1133.709          51.000
E30  22806501.984 8 119848978.571 8     -1357.152          50.000    22806503.781 8  91832337.627 8     -1039.950          50.000
> 2020 05 08 05 05 30.0000000  0 14        .000000000000
G05  23083641.641 7 121305333.573 7     -3414.391          43.000    23083644.875 7  94523645.174 7     -2660.561          42.000
G13  20149544.305 8 105886573.917 8        76.180          50.000    20149542.234 8  82508994.418 8        59.361          49.000
G28  21002421.773 8 110368484.816 8      -880.453          51.000    21002420.227 7  86001447.571 7      -686.067          47.000
R01  21372772.688 6 114249714.390 6     -3745.887          38.000    21372777.859 7  88860881.376 7     -2913.464          42.000
R02  19221950.852 7 102571984.559 7       866.344          44.000    19221952.297 6  79778250.809 6       673.820          39.000
R11  20589774.188 6 110025483.357 6     -2813.789          36.000    20589776.836 5  85575417.052 5     -2188.509          32.000
R12  19297865.445 8 103085737.163 8       544.453          51.000    19297867.625 7  80177788.395 7       423.464          47.000
R13  22485155.859 6 120069495.399 6      3484.258          36.000    22485158.742 6  93387361.745 6      2709.978          40.000
C05  39780502.508 5 207147514.240 5        16.523          35.000    39780500.781 6 160179566.456 6        12.683          38.000
C23  22676080.000 8 118080305.703 8     -1716.473          50.000
E07  23973113.180 8 125979560.677 8     -1473.215          51.000    23973117.383 8  96529793.028 8     -1128.854          51.000
E08  25866965.664 8 135931781.182 8     -2881.098          49.000    25866969.531 8 104155600.090 8     -2207.561          48.000
E27  23741223.734 8 124761015.984 8      1467.828          51.000    23741226.938 8  95596116.656 8      1124.705          51.000
E30  22814277.656 8 119889840.070 8     -1367.762          51.000    22814279.375 8  91863647.085 8     -1048.094          49.000
> 2020 05 08 05 06  0.0000000  0 15        .000000000000
G05  23103151.664 7 121407851.506 7     -3419.938          42.000    23103153.664 7  94603529.294 7     -2664.886          42.000
G13  20149147.906 8 105884491.394 8        63.008          50.000    20149146.008 8  82507371.660 8        49.097          49.000
G17  24322889.641 5 127817657.610 5      2760.332          34.000    24322887.016 5  99598168.291 5      2150.902          30.000
G28  21007495.195 8 110395146.208 8      -896.684          50.000    21007493.539 7  86022222.684 7      -698.714          47.000
R01  21393826.609 6 114362278.945 6     -3758.098          41.000    21393836.172 7  88948431.658 7     -2922.965          42.000
R02  19217146.094 7 102546344.542 7       843.215          45.000    19217147.781 6  79758308.556 6       655.834          39.000
R11  20605598.383 5 110110039.910 5     -2823.762          32.000    20605601.344 5  85641183.154 5     -2196.262          34.000
R12  19294859.602 8 103069681.492 8       526.266          51.000    19294862.055 7  80165300.643 7       409.318          47.000
R13  22465605.672 5 119965100.225 5      3475.348          35.000    22465608.031 6  93306165.505 6      2703.048          41.000
C05                                                                  39780402.531 6 160179170.781 6        13.605          38.000
C23  22685989.312 8 118131905.343 8     -1723.281          51.000
E07  23981551.492 8 126023901.484 8     -1482.633          51.000    23981554.898 8  96563768.412 8     -1136.004          51.000
E08  25883420.906 8 136018249.652 8     -2883.273          49.000    25883423.984 8 104221855.113 8     -2209.345          48.000
E27  23732873.516 8 124717133.569 8      1457.848          51.000    23732876.461 8  95562492.462 8      1117.013          51.000
E30  22822111.875 8 119931008.908 8     -1376.629          51.000    22822113.297 8  91895192.019 8     -1054.799          48.000
> 2020 05 08 05 06 30.0000000  0 15        .000000000000
G05  23122697.305 6 121510554.957 6     -3421.848          39.000    23122697.312 6  94683557.909 6     -2666.378          37.000
G13  20148830.875 8 105882825.861 8        53.340          51.000    20148829.180 8  82506073.824 8        41.564          49.000
G17  24307142.242 5 127734914.708 5      2760.125          33.000    24307144.156 5  99533693.259 5      2150.744          33.000
G28  21012664.758 8 110422312.884 8      -909.070          50.000    21012663.383 7  86043391.534 7      -708.366          47.000
G30  22576982.906 5 118642829.767 5     -2586.906          33.000    22576999.734 5  92449027.253 5     -2015.771          31.000
R01  21414957.102 7 114475231.909 7     -3766.660          46.000    21414966.570 7  89036283.923 7     -2929.628          42.000
R02  19212476.055 7 102521423.959 7       823.562          45.000    19212478.008 7  79738925.883 7       640.549          42.000
R12  19291960.547 8 103054194.623 8       511.641          51.000    19291962.883 7  80153255.280 7       397.943          47.000
R13  22446107.516 5 119860982.170 5      3470.328          34.000    22446110.062 6  93225184.816 6      2699.144          41.000
C05  39780304.008 5 207146481.529 5        22.289          35.000    39780302.320 6 160178767.088 6        17.293          39.000
C23  22695941.531 8 118183727.709 8     -1726.324          51.000
E07  23990046.336 8 126068540.549 8     -1488.105          51.000    23990049.156 8  96597972.316 8     -1140.246          51.000
E08  25899891.492 8 136104800.515 8     -2881.645          49.000    25899893.227 8 104288173.224 8     -2208.025          48.000
E27  23724583.578 8 124673568.517 8      1451.684          51.000    23724586.266 8  95529111.436 8      1112.302          51.000
E30  22829999.258 8 119972458.344 8     -1381.516          50.000    22830000.539 8  91926951.981 8     -1058.561          48.000
> 2020 05 08 05 07  0.0000000  0 16        .000000000000
G05  23142277.562 5 121613431.242 5     -3432.824          35.000    23142272.578 5  94763721.154 5     -2674.934          34.000
G13  20148591.555 8 105881568.245 8        34.793          51.000    20148589.812 8  82505093.846 8        27.111          49.000
G17  24291419.438 5 127652294.212 5      2751.500          34.000    24291424.406 5  99469313.715 5      2144.026          34.000
G28  21017928.531 8 110449974.043 8      -930.609          49.000    21017927.273 7  86064945.692 7      -725.150          46.000
G30  22591786.891 5 118720641.755 5     -2596.266          33.000    22591809.141 5  92509652.616 5     -2023.085          31.000
R01  21436158.875 8 114588560.395 8     -3784.148          48.000    21436167.281 6  89124428.222 6     -2943.230          41.000
R02  19207939.234 7 102497214.827 7       794.789          47.000    19207942.008 7  79720096.542 7       618.169          42.000
R11  20637409.734 4 110280013.603 4     -2842.945          29.000    20637407.664 4  85773371.053 4     -2211.180          29.000
R12  19289165.906 8 103039265.912 8       488.051          51.000    19289168.188 7  80141644.079 7       379.598          47.000
R13  22426659.945 6 119757132.625 6      3456.480          36.000    22426663.633 6  93144412.949 6      2688.374          41.000
C05  39780199.914 6 207145938.529 6        17.891          36.000    39780198.203 6 160178347.991 6        14.067          38.000
C23  22705934.156 8 118235762.003 8     -1738.352          51.000
E07  23998596.023 8 126113467.944 8     -1502.707          51.000    23998598.570 8  96632397.150 8     -1151.386          51.000
E08  25916375.398 8 136191423.232 8     -2888.852          48.000    25916375.664 7 104354546.391 7     -2213.601          46.000
E27  23716352.180 8 124630311.456 8      1436.461          51.000    23716354.477 8  95495966.408 8      1100.632          51.000
E30  22837938.023 8 120014177.439 8     -1395.363          51.000    22837939.289 7  91958918.568 7     -1069.294          47.000
> 2020 05 08 05 07 30.0000000  0 14        .000000000000
G05  23161899.258 6 121716530.768 6     -3440.891          38.000    23161889.297 5  94844058.307 5     -2681.220          35.000
G13  20148440.352 8 105880773.205 8        18.328          51.000    20148438.547 8  82504474.314 8        14.282          50.000
G17  24275731.367 5 127569853.100 5      2744.801          35.000    24275737.828 5  99405073.872 5      2138.806          35.000
G28  21023296.289 8 110478182.068 8      -949.887          48.000    21023294.836 7  86086925.959 7      -740.171          47.000
R01  21457440.664 8 114702315.859 8     -3799.414          48.000    21457448.055 7  89212904.636 7     -2955.103          42.000
R02  19203546.547 7 102473774.097 7       768.164          46.000    19203549.586 7  79701864.839 7       597.458          43.000
R12  19286485.727 8 103024949.068 8       466.590          51.000    19286488.055 7  80130508.769 7       362.903          47.000
R13  22407273.289 6 119653607.786 6      3445.012          36.000    22407278.297 7  93063893.592 7      2679.451          43.000
C05  39780102.234 5 207145430.882 5        15.926          35.000    39780100.484 6 160177954.685 6        12.366          39.000
C23  22715977.133 8 118288060.090 8     -1748.117          51.000
E07  24007210.625 8 126158737.116 8     -1515.098          51.000    24007212.695 8  96667083.906 8     -1160.961          51.000
E08  25932882.625 8 136278170.606 8     -2894.062          48.000    25932882.141 7 104421015.094 7     -2217.540          46.000
E27  23708189.602 8 124587416.357 8      1423.324          51.000    23708191.383 8  95463098.720 8      1090.644          51.000
E30  22845938.336 8 120056218.590 8     -1407.227          51.000    22845939.320 7  91991131.900 7     -1078.294          47.000
> 2020 05 08 05 08  0.0000000  0 14        .000000000000
G05  23181549.609 6 121819793.981 6     -3445.148          39.000    23181538.320 6  94924523.028 6     -2684.537          37.000
G13  20148366.461 8 105880384.448 8         5.938          51.000    20148364.781 8  82504171.379 8         4.627          50.000
G17  24260067.484 6 127487537.380 6      2741.086          37.000    24260073.734 6  99340931.706 6      2135.908          36.000
G28  21028756.977 7 110506878.588 7      -964.852          47.000    21028755.617 7  86109286.887 7      -751.832          47.000
R01  21478790.625 7 114816437.643 7     -3810.348          46.000    21478797.094 7  89301665.991 7     -2963.607          42.000
R02  19199287.062 8 102451045.363 8       745.402          48.000    19199290.219 7  79684186.930 7       579.757          43.000
R12  19283908.812 8 103011185.297 8       449.270          51.000    19283911.305 7  80119803.611 7       349.432          47.000
R13  22387937.094 6 119550351.350 6      3437.262          37.000    22387942.898 7  92983583.014 7      2673.426          43.000
C05  39780000.227 5 207144899.678 5        17.703          35.000    39779998.328 6 160177543.504 6        13.982          38.000
C23  22726059.922 8 118340564.366 8     -1753.711          51.000
E07  24015878.992 8 126204290.940 8     -1523.438          51.000    24015880.922 8  96701988.798 8     -1167.312          51.000
E08  25949402.258 8 136364984.803 8     -2895.117          49.000    25949402.211 7 104487535.048 7     -2218.352          46.000
E27  23700084.891 8 124544826.532 8      1414.344          51.000    23700086.250 8  95430464.954 8      1083.748          51.000
E30  22853988.711 8 120098523.517 8     -1414.758          50.000    22853989.773 7  92023547.367 7     -1084.068          47.000
> 2020 05 08 05 08 30.0000000  0 14        .000000000000
G05  23201232.859 6 121923234.643 6     -3451.859          39.000    23201224.141 6  95005126.057 6     -2689.761          39.000
G13  20148373.062 8 105880419.457 8        -9.090          51.000    20148371.695 8  82504198.643 8        -7.086          50.000
G17  24244431.680 5 127405367.090 5      2735.227          33.000    24244433.070 5  99276902.967 5      2131.361          32.000
G28  21034313.445 7 110536078.875 7      -982.457          46.000    21034312.211 7  86132040.336 7      -765.554          45.000
R01  21500210.852 7 114930939.432 7     -3824.066          43.000    21500217.336 6  89390722.943 6     -2974.274          41.000
R02  19195164.898 8 102429048.190 8       720.207          49.000    19195167.812 7  79667078.014 7       560.161          44.000
R12  19281438.367 8 102997990.486 8       429.543          51.000    19281441.766 8  80109540.991 8       334.089          48.000
R13  22368655.227 6 119447381.769 6      3426.598          38.000    22368660.641 7  92903495.574 7      2665.132          42.000
C05                                                                  39779894.875 6 160177127.285 6        13.242          39.000
C23  22736185.562 8 118393289.977 8     -1761.988          51.000
E07  24024604.141 8 126250145.751 8     -1534.406          50.000    24024606.758 8  96737124.310 8     -1175.696          51.000
E08  25965937.477 8 136451881.503 8     -2898.809          48.000    25965938.797 8 104554118.203 8     -2221.192          48.000
E27  23692041.109 8 124502558.803 8      1402.648          51.000    23692042.539 8  95398078.004 8      1074.727          51.000
E30  22862092.148 8 120141107.463 8     -1424.973          51.000    22862093.898 8  92056176.633 8     -1091.865          48.000
> 2020 05 08 05 09  0.0000000  0 14        .000000000000
G05  23220948.562 6 122026843.638 6     -3457.527          38.000    23220941.117 6  95085860.317 6     -2694.177          37.000
G13  20148459.320 8 105880872.899 8       -23.027          51.000    20148458.109 8  82504551.942 8       -17.943          50.000
G17  24228822.344 5 127323320.311 5      2730.059          31.000    24228820.148 5  99212968.552 5      2127.315          31.000
G28  21039964.305 7 110565775.288 7      -998.898          47.000    21039963.086 7  86155180.390 7      -778.359          45.000
R01  21521699.508 7 115045811.834 7     -3836.402          43.000    21521706.477 6  89480068.180 6     -2983.865          39.000
R02  19191179.195 8 102407777.742 8       696.000          50.000    19191182.195 7  79650534.324 7       541.333          45.000
R11  20701720.570 6 110623717.408 6     -2882.672          36.000
R12  19279073.148 8 102985357.508 8       410.734          50.000    19279076.938 7  80099715.313 7       319.460          47.000
R13  22349425.633 6 119344694.610 6      3417.141          37.000    22349430.484 6  92823627.792 6      2657.776          40.000
C05  39779790.930 6 207143809.875 6        17.707          36.000    39779789.094 6 160176701.194 6        13.777          39.000
C23  22746352.203 8 118446229.479 8     -1769.051          51.000
E07  24033385.562 8 126296295.093 8     -1544.098          51.000    24033388.859 8  96772485.485 8     -1183.077          51.000
E27  23684057.711 8 124460607.224 8      1392.230          51.000    23684059.227 8  95365933.285 8      1066.774          51.000
E30  22870247.461 8 120183962.929 8     -1433.891          51.000    22870249.469 8  92089013.920 8     -1098.686          48.000
> 2020 05 08 05 09 30.0000000  0 15        .000000000000
G05  23240694.820 5 122130612.807 5     -3461.375          34.000    23240687.789 5  95166719.394 5     -2697.178          35.000
G13  20148624.484 8 105881740.406 8       -35.715          51.000    20148623.078 8  82505227.917 8       -27.830          50.000
G15  20796141.289 5 109284467.286 5      1634.418          33.000
G17  24213239.602 6 127241431.186 6      2727.391          37.000    24213240.750 6  99149158.968 6      2125.242          38.000
G28  21045708.484 7 110595961.110 7     -1014.219          47.000    21045707.492 7  86178701.790 7      -790.300          44.000
R01  21543256.578 7 115161046.951 7     -3847.148          43.000    21543263.414 6  89569695.522 6     -2992.227          39.000
R02  19187328.883 8 102387230.441 8       672.883          50.000    19187331.719 7  79634553.074 7       523.353          45.000
R11  20717953.586 6 110710415.280 6     -2891.262          37.000    20717965.477 4  86108180.486 4     -2248.759          28.000
R12  19276812.203 8 102973280.203 8       393.469          51.000    19276816.250 8  80090321.853 8       306.031          48.000
R13  22330247.461 5 119242285.494 5      3409.062          35.000    22330251.758 6  92743976.272 6      2651.493          39.000
C05  39779681.711 5 207143241.183 5        19.609          35.000    39779679.938 6 160176261.457 6        14.900          38.000
C23  22756558.531 8 118499376.556 8     -1774.891          51.000
E07  24042222.719 8 126342733.631 8     -1552.562          51.000    24042225.867 8  96808068.245 8     -1189.608          51.000
E27  23676133.805 8 124418967.003 8      1382.988          51.000    23676134.922 8  95334027.153 8      1059.707          51.000
E30  22878452.969 8 120227083.492 8     -1441.500          49.000    22878454.664 8  92122054.342 8     -1104.577          48.000
> 2020 05 08 05 10  0.0000000  0 15        .000000000000
G05  23260478.625 5 122234576.986 5     -3469.555          33.000    23260472.266 5  95247730.453 5     -2703.552          33.000
G13  20148875.703 8 105883059.679 8       -52.062          51.000    20148873.859 8  82506255.914 8       -40.568          50.000
G17  24197691.508 6 127159721.509 6      2720.082          40.000    24197694.641 6  99085489.024 6      2119.535          38.000
G28  21051552.578 7 110626671.806 7     -1033.008          47.000    21051551.508 7  86202632.203 7      -804.941          44.000
G30  22681219.148 6 119190589.765 6     -2624.855          37.000
R01  21564888.148 7 115276678.937 7     -3861.574          42.000    21564894.531 6  89659631.508 6     -3003.447          36.000
R02  19183621.195 8 102367445.901 8       646.105          50.000    19183623.945 7  79619165.078 7       502.526          46.000
R11  20734190.062 5 110797210.012 5     -2903.051          31.000    20734188.266 5  86175581.125 5     -2257.934          31.000
R12  19274662.523 8 102961794.874 8       372.379          51.000    19274666.398 8  80081388.825 8       289.628          48.000
R13  22311128.930 5 119140193.140 5      3396.535          35.000    22311132.172 6  92664571.130 6      2641.753          38.000
C05  39779576.023 6 207142690.126 6        17.562          36.000    39779574.328 6 160175836.109 6        13.580          39.000
C23  22766811.359 8 118552766.327 8     -1784.293          51.000
E07  24051121.992 8 126389497.824 8     -1564.879          51.000    24051124.141 8  96843900.516 8     -1199.057          51.000
E27  23668276.133 8 124377675.023 8      1369.969          51.000    23668276.562 8  95302387.873 8      1049.668          51.000
E30  22886715.562 8 120270504.521 8     -1453.047          49.000    22886717.461 8  92155324.998 8     -1113.353          49.000
> 2020 05 08 05 10 30.0000000  0 14        .000000000000
G05  23280306.008 5 122338773.732 5     -3472.754          35.000    23280298.727 5  95328922.614 5     -2706.045          34.000
G13  20149220.820 8 105884872.546 8       -64.137          51.000    20149218.695 8  82507668.530 8       -49.977          50.000
G17  24182186.141 6 127078235.461 6      2716.672          38.000    24182185.836 6  99021993.283 6      2116.890          37.000
G28  21057504.141 8 110657947.099 8     -1047.492          48.000    21057503.016 7  86227002.548 7      -816.228          42.000
G30  22696231.375 5 119269433.520 5     -2627.566          34.000    22696233.914 5  92937281.719 5     -2047.454          34.000
R01  21586600.648 7 115392746.437 7     -3871.707          42.000    21586605.781 5  89749906.285 5     -3011.325          32.000
R02  19180064.547 8 102348467.512 8       623.766          50.000    19180067.406 7  79604404.101 7       485.151          46.000
R12  19272631.102 8 102950942.264 8       355.789          51.000    19272634.938 8  80072947.902 8       276.725          48.000
R13  22292078.078 6 119038460.731 6      3389.613          37.000    22292079.523 6  92585445.961 6      2636.369          37.000
C05  39779481.750 5 207142199.410 5        19.730          35.000    39779480.008 6 160175456.673 6        15.148          38.000
C23  22777118.328 8 118606438.092 8     -1789.301          51.000
E07  24060090.672 8 126436628.328 8     -1572.629          51.000    24060092.336 8  96880013.436 8     -1205.016          51.000
E27  23660492.836 8 124336772.434 8      1361.371          51.000    23660492.586 8  95271046.950 8      1043.102          51.000
E30  22895043.195 8 120314265.644 8     -1460.004          50.000    22895045.547 8  92188856.249 8     -1118.686          50.000
> 2020 05 08 05 11  0.0000000  0 14        .000000000000
G05  23300149.367 6 122443052.108 6     -3478.441          38.000    23300138.820 6  95410178.253 6     -2710.477          36.000
G13  20149631.898 8 105887032.214 8       -79.141          51.000    20149629.742 8  82509351.382 8       -61.665          50.000
G17  24166695.258 6 126996828.814 6      2710.688          36.000    24166692.906 6  98958559.511 6      2112.224          36.000
G28  21063534.766 7 110689638.252 7     -1064.574          47.000    21063533.609 7  86251696.932 7      -829.538          43.000
R01  21608366.703 7 115509097.020 7     -3884.379          44.000    21608369.641 5  89840401.103 5     -3021.187          32.000
R02  19176631.430 8 102330147.892 8       598.387          51.000    19176634.219 7  79590155.501 7       465.412          46.000
R11  20766913.969 6 110972090.263 6     -2919.711          37.000    20766907.898 5  86311610.290 5     -2270.886          34.000
R12  19270689.875 8 102940571.850 8       336.277          51.000    19270693.906 8  80064882.012 8       261.549          48.000
R13  22273067.023 6 118936941.010 6      3379.246          36.000    22273067.680 6  92506486.239 6      2628.303          38.000
C05  39779371.023 5 207141622.413 5        19.988          35.000    39779369.266 6 160175010.498 6        14.931          39.000
C23  22787451.430 8 118660244.951 8     -1797.023          51.000
E07  24069101.023 8 126483977.850 8     -1583.215          51.000    24069102.875 8  96916294.178 8     -1213.098          51.000
E27  23652756.156 8 124296112.467 8      1350.035          51.000    23652755.539 8  95239891.903 8      1034.449          51.000
E30  22903407.398 8 120358218.502 8     -1469.551          49.000    22903409.500 8  92222534.404 8     -1126.079          50.000
> 2020 05 08 05 11 30.0000000  0 13        .000000000000
G05  23320032.766 6 122547540.780 6     -3488.914          39.000    23320024.570 6  95491597.910 6     -2718.634          39.000
G13  20150133.844 8 105889669.711 8       -98.234          51.000    20150131.914 8  82511406.562 8       -76.546          51.000
G17  24151244.344 6 126915635.106 6      2700.312          38.000    24151240.617 6  98895291.657 6      2104.137          39.000
G28  21069669.023 8 110721873.722 8     -1085.914          48.000    21069667.469 6  86276815.476 6      -846.167          41.000
R01  21630210.469 7 115625859.739 7     -3901.277          46.000    21630211.688 6  89931216.450 6     -3034.330          36.000
R02  19173346.867 8 102312620.704 8       568.602          50.000    19173349.711 7  79576523.232 7       442.246          47.000
R12  19268863.352 8 102930814.780 8       312.594          51.000    19268867.250 8  80057293.174 8       243.128          48.000
R13  22254120.273 5 118835766.951 5      3364.141          35.000    22254122.695 6  92427795.343 6      2616.554          39.000
C05  39779268.469 5 207141089.015 5        14.824          35.000    39779266.672 6 160174597.276 6        11.439          38.000
C23  22797835.070 8 118714314.548 8     -1808.977          51.000
E07  24078177.930 8 126531676.150 8     -1598.020          51.000    24078180.062 8  96952842.194 8     -1224.463          51.000
E27  23645090.328 8 124255825.381 8      1334.387          51.000    23645090.070 8  95209022.581 8      1022.416          51.000
E30  22911832.422 8 120402491.852 8     -1483.402          50.000    22911833.797 8  92256458.142 8     -1136.666          50.000
> 2020 05 08 05 12  0.0000000  0 13        .000000000000
G05  23339950.109 6 122652207.272 6     -3490.918          40.000    23339944.203 6  95573156.165 6     -2720.196          40.000
G13  20150721.320 8 105892756.741 8      -109.629          50.000    20150719.547 8  82513812.045 8       -85.425          50.000
G17  24135828.977 6 126834627.651 6      2698.312          38.000    24135823.867 6  98832168.957 6      2102.581          38.000
G28  21075901.188 8 110754623.098 8     -1099.332          48.000    21075899.656 6  86302334.440 6      -856.622          41.000
R01  21652124.891 7 115743001.860 7     -3910.223          45.000    21652126.156 6  90022326.936 6     -3041.287          38.000
R02  19170205.414 8 102295857.973 8       546.812          51.000    19170208.406 7  79563485.538 7       425.299          47.000
R12  19267146.031 8 102921640.135 8       296.957          51.000    19267149.430 7  80050157.338 7       230.967          47.000
R13  22235232.688 5 118734910.309 5      3356.953          35.000    22235237.609 6  92349351.239 6      2610.961          40.000
C05  39779168.484 6 207140568.171 6        17.938          36.000    39779166.648 6 160174194.521 6        13.870          38.000
C23  22808263.281 8 118768616.480 8     -1813.207          51.000
E07  24087315.562 8 126579693.544 8     -1605.043          51.000    24087318.297 8  96989634.719 8     -1229.832          51.000
E27  23637489.625 8 124215881.980 8      1326.566          51.000    23637490.117 8  95178416.596 8      1016.439          51.000
E30  22920312.633 8 120447054.966 8     -1489.445          51.000    22920313.844 8  92290603.881 8     -1141.260          51.000
> 2020 05 08 05 12 30.0000000  0 13        .000000000000
G05  23359893.188 6 122757009.073 6     -3495.543          41.000    23359888.766 6  95654819.886 6     -2723.800          41.000
G13  20151386.812 8 105896254.332 8      -123.438          49.000    20151385.125 8  82516537.440 8       -96.185          49.000
G17  24120441.844 6 126753769.960 6      2693.012          37.000    24120437.008 6  98769162.992 6      2098.451          36.000
G28  21082223.250 8 110787845.014 8     -1115.277          49.000    21082221.516 6  86328221.648 6      -869.047          40.000
R01  21674101.273 7 115860480.048 7     -3921.441          42.000    21674103.789 6  90113698.825 6     -3050.010          39.000
R02  19167200.242 8 102279821.432 8       522.438          51.000    19167203.242 8  79551012.679 8       406.340          48.000
R12  19265529.945 8 102913006.900 8       278.750          51.000    19265533.164 7  80043442.616 7       216.806          47.000
R13  22216396.742 5 118634332.755 5      3348.309          33.000    22216403.742 6  92271124.210 6      2604.237          40.000
C05  39779063.641 6 207140021.879 6        18.824          36.000    39779061.734 6 160173772.089 6        14.236          38.000
C23  22818728.352 8 118823110.428 8     -1819.625          51.000
E07  24096506.250 8 126627990.355 8     -1614.562          51.000    24096509.609 8  97026641.335 8     -1237.111          51.000
E27  23629946.617 8 124176243.047 8      1316.215          51.000    23629947.727 8  95148043.900 8      1008.516          51.000
E30  22928840.281 8 120491867.112 8     -1497.863          50.000    22928841.797 8  92324940.443 8     -1147.731          51.000
> 2020 05 08 05 13  0.0000000  0 13        .000000000000
G05  23379865.805 7 122861967.052 7     -3501.027          43.000    23379862.141 7  95736605.277 7     -2728.076          42.000
G13  20152135.062 8 105900186.899 8      -138.352          49.000    20152133.422 8  82519601.776 8      -107.803          50.000
G17  24105088.391 6 126673088.805 6      2686.555          40.000    24105085.266 6  98706294.648 6      2093.422          40.000
G28  21088639.555 8 110821561.771 8     -1132.086          49.000    21088637.609 6  86354494.423 6      -882.148          38.000
R01  21696143.312 6 115978315.197 6     -3933.680          39.000    21696148.062 6  90205348.393 6     -3059.529          39.000
R02  19164335.984 8 102264536.750 8       496.984          51.000    19164339.008 8  79539124.575 8       386.543          48.000
R12  19264019.555 8 102904937.760 8       259.535          51.000    19264022.383 7  80037166.589 7       201.861          47.000
R13  22197617.719 5 118534059.238 5      3337.555          33.000    22197624.305 6  92193133.652 6      2595.876          36.000
C05  39778958.273 6 207139473.461 6        18.285          36.000    39778956.320 6 160173348.008 6        14.239          38.000
C23  22829234.383 8 118877818.517 8     -1827.137          50.000
E07  24105754.469 8 126676589.778 8     -1624.953          51.000    24105758.070 8  97063879.828 8     -1245.085          51.000
E27  23622465.805 8 124136932.300 8      1304.984          51.000    23622467.328 8  95117922.661 8       999.917          51.000
E30  22937419.344 8 120536950.415 8     -1507.156          51.000    22937421.055 8  92359484.800 8     -1154.858          51.000
> 2020 05 08 05 13 30.0000000  0 13        .000000000000
G05  23399864.773 7 122967062.786 7     -3507.840          44.000    23399860.273 7  95818498.016 7     -2733.385          43.000
G13  20152963.336 8 105904539.888 8      -154.488          50.000    20152961.820 8  82522993.716 8      -120.377          50.000
G17  24089766.820 6 126592572.176 6      2678.840          41.000    24089765.430 6  98643554.483 6      2087.411          41.000
G28  21095146.625 8 110855756.276 8     -1150.062          49.000    21095145.055 6  86381139.492 6      -896.153          38.000
R01  21718249.492 7 116096488.758 7     -3947.359          42.000    21718254.570 6  90297261.171 6     -3070.168          38.000
R02  19161610.164 8 102249989.841 8       470.207          51.000    19161612.859 8  79527810.314 8       365.717          48.000
R12  19262611.250 8 102897416.236 8       239.250          51.000    19262614.312 7  80031316.521 7       186.083          47.000
R13  22178894.633 6 118434076.002 6      3325.785          36.000    22178895.859 5  92115368.928 5      2586.725          32.000
C05  39778849.633 6 207138907.764 6        17.035          36.000    39778847.742 6 160172910.581 6        12.979          38.000
C23  22839778.352 8 118932724.253 8     -1835.785          50.000
E07  24115057.336 8 126725476.144 8     -1636.645          51.000    24115060.586 8  97101338.197 8     -1254.040          51.000
E27  23615044.164 8 124097934.554 8      1292.445          51.000    23615046.227 8  95088041.257 8       990.315          51.000
E30  22946046.797 8 120582288.257 8     -1517.770          51.000    22946048.555 8  92394224.158 8     -1162.948          51.000
> 2020 05 08 05 14  0.0000000  0 13        .000000000000
G05  23419895.242 7 123072323.266 7     -3510.730          44.000    23419888.500 6  95900519.115 6     -2735.634          41.000
G13  20153877.328 8 105909343.311 8      -166.926          50.000    20153876.133 8  82526736.651 8      -130.072          50.000
G17  24074482.664 6 126512252.269 6      2674.566          41.000    24074482.336 6  98580967.548 6      2084.078          41.000
G28  21101749.875 8 110890456.507 8     -1164.453          49.000    21101747.984 6  86408178.623 6      -907.366          36.000
R01  21740424.867 7 116215027.539 7     -3956.504          44.000    21740429.359 6  90389457.930 6     -3077.284          39.000
R02  19159028.383 8 102236212.232 8       447.078          51.000    19159030.938 8  79517094.394 8       347.727          49.000
R12  19261310.820 8 102890470.946 8       222.586          51.000    19261314.023 7  80025914.609 7       173.119          47.000
R13  22160232.734 6 118334413.925 6      3317.168          38.000    22160230.773 6  92037854.042 6      2580.023          36.000
C05  39778743.227 6 207138354.014 6        18.988          36.000    39778741.383 6 160172482.394 6        14.493          38.000
C23  22850365.711 8 118987855.577 8     -1840.758          50.000
E07  24124420.227 8 126774678.584 8     -1644.691          51.000    24124423.352 8  97139038.729 8     -1260.185          51.000
E27  23607687.609 8 124059279.411 8      1283.531          51.000    23607690.109 8  95058422.369 8       983.419          51.000
E30  22954728.133 8 120627908.711 8     -1524.691          51.000    22954730.148 8  92429180.072 8     -1168.234          51.000
> 2020 05 08 05 14 30.0000000  0 13        .000000000000
G05  23439950.625 7 123177714.493 7     -3515.453          43.000    23439941.797 6  95982642.062 6     -2739.317          41.000
G13  20154871.234 8 105914567.001 8      -181.363          49.000    20154870.391 8  82530807.055 8      -141.322          49.000
G17  24059230.367 6 126432101.392 6      2668.715          41.000    24059230.562 6  98518512.356 6      2079.518          40.000
G28  21108443.164 8 110925630.140 8     -1180.551          48.000    21108440.281 5  86435586.655 5      -919.907          34.000
R01  21762662.211 7 116333897.176 7     -3968.105          45.000    21762666.836 6  90481912.011 6     -3086.307          39.000
R02  19156585.195 8 102223174.241 8       422.117          51.000    19156587.883 8  79506953.730 8       328.313          49.000
R12  19260112.250 8 102884069.468 8       204.125          50.000    19260115.492 7  80020935.671 7       158.764          47.000
R13  22141625.062 5 118235042.843 5      3307.359          35.000    22141624.008 6  91960565.463 6      2572.391          38.000
C05  39778633.359 6 207137781.661 6        19.457          36.000    39778631.438 6 160172039.814 6        14.810          38.000
C23  22860990.359 8 119043180.731 8     -1847.676          50.000
E07  24133837.352 8 126824165.941 8     -1654.617          51.000    24133840.305 8  97176957.579 8     -1267.776          51.000
E27  23600390.469 8 124020936.222 8      1272.699          50.000    23600393.445 8  95029042.513 8       975.164          51.000
E30  22963457.117 8 120673779.623 8     -1533.449          51.000    22963459.273 8  92464327.900 8     -1174.975          51.000
> 2020 05 08 05 15  0.0000000  0 14        .000000000000
G05  23460034.414 7 123283254.649 7     -3520.785          44.000    23460024.883 6  96064881.061 6     -2743.469          41.000
G13  20155949.234 8 105920232.307 8      -196.680          50.000    20155948.484 8  82535221.566 8      -153.257          50.000
G15  20698523.664 5 108771456.401 5      1475.242          32.000    20698510.906 5  84756958.175 5      1149.539          32.000
G17  24044014.172 6 126352142.936 6      2661.203          37.000    24044015.398 6  98456207.133 6      2073.665          37.000
G28  21115230.117 8 110961296.307 8     -1197.516          49.000    21115228.023 5  86463378.485 5      -933.129          32.000
R01  21784964.789 7 116453115.353 7     -3980.312          45.000    21784969.266 6  90574637.180 6     -3095.802          40.000
R02  19154284.719 8 102210898.327 8       396.016          51.000    19154287.594 8  79497405.781 8       308.012          49.000
R12  19259019.211 8 102878231.831 8       184.730          50.000    19259022.594 7  80016395.301 7       143.679          47.000
R13  22123073.805 5 118135985.848 5      3296.086          32.000    22123075.875 6  91883521.091 6      2563.619          40.000
C05                                                                  39778521.945 6 160171598.791 6        14.390          38.000
C23  22871655.969 8 119098718.997 8     -1855.285          50.000
E07  24143312.578 8 126873958.559 8     -1665.297          51.000    24143315.328 8  97215110.317 8     -1276.007          51.000
E27  23593156.500 8 123982925.780 8      1261.008          49.000    23593160.172 8  94999917.637 8       966.242          51.000
E30  22972237.375 8 120719920.310 8     -1542.941          51.000    22972239.234 8  92499682.438 8     -1182.281          51.000
> 2020 05 08 05 15 30.0000000  0 14        .000000000000
G05  23480150.062 7 123388962.572 7     -3522.438          44.000    23480141.266 7  96147250.831 7     -2744.756          42.000
G13  20157115.867 8 105926362.259 8      -207.977          51.000    20157114.727 8  82539998.141 8      -162.060          51.000
