     3.02           OBSERVATION DATA    M (MIXED)           RINEX VERSION / TYPE
SAVERINEX           SC600               20200517 135931 LCL PGM / RUN BY / DATE
       G = GPS       R = GLONASS       C = COMPASS          COMMENT
       S = SBAS      J = QZSS          E = GALILEO          COMMENT
BEAN                                                        MARKER NAME
1                                                           MARKER NUMBER
GEODETIC                                                    MARKER TYPE
Unige DICCA         GTER                                    OBSERVER / AGENCY
SC60291900056       SC600               2.12(191202)        REC # / TYPE / VERS
                    HEMA45          NONE                    ANT # / TYPE
  4509407.8091   693652.4678  4442337.6214                  APPROX POSITION XYZ
        0.0000        0.0000        0.0000                  ANTENNA: DELTA H/E/N
G    8 C1C L1C D1C S1C C2Y L2Y D2Y S2Y                      SYS / # / OBS TYPES
R    8 C1C L1C D1C S1C C2P L2P D2P S2P                      SYS / # / OBS TYPES
C    8 C1I L1I D1I S1I C7I L7I D7I S7I                      SYS / # / OBS TYPES
E    8 C1C L1C D1C S1C C7Q L7Q D7Q S7Q                      SYS / # / OBS TYPES
DBHZ                                                        COMMENT
     30.000                                                 INTERVAL
  2020    05    17    11    00    0.0000000     GPS         TIME OF FIRST OBS
  2020    05    17    11    59   30.0000000     GPS         TIME OF LAST OBS
     0                                                      RCV CLOCK OFFS APPL
G L1C  0.00000                                              SYS / PHASE SHIFT
G L2Y  0.00000                                              SYS / PHASE SHIFT
R L1C  0.00000                                              SYS / PHASE SHIFT
R L2P  0.25000                                              SYS / PHASE SHIFT
C L1I  0.00000                                              SYS / PHASE SHIFT
C L7I  0.00000                                              SYS / PHASE SHIFT
E L1C  0.50000                                              SYS / PHASE SHIFT
E L7Q -0.25000                                              SYS / PHASE SHIFT
 12 R02 -4 R03  5 R04  6 R05  1 R10 -5 R13 -2 R14 -7 R15  0 GLONASS SLOT / FRQ #
    R16 -1 R17  4 R18 -3 R19  3                             GLONASS SLOT / FRQ #
 C1C   71.950 C2C   71.950 C2P   71.950                     GLONASS COD/PHS/BIS
    18                                                      LEAP SECONDS
*** Above antenna height is from mark to ANTENNA BOTTOM.    COMMENT
    17     4        0.0000        ANT MEASURE TYPE/HEIGT    COMMENT
    0.0000    0.0000    0.0458    0.0405    0.0000          COMMENT
                    BASE STATION                            COMMENT
                                                            END OF HEADER
> 2020 05 17 11 00  0.0000000  0 18        .000000000000
G12  22937518.430 5 120537458.591 5     -2830.289          30.000
G14  23689208.281 6 124487626.628 6     -2141.984          40.000    23689201.852 5  97003339.632 5     -1669.079          35.000
G18  23358198.922 6 122748159.695 6      3638.855          38.000    23358198.305 6  95647888.394 6      2835.472          37.000
G25  20864179.578 8 109641999.651 8     -1665.594          50.000    20864181.289 8  85435322.546 8     -1297.865          50.000
G29  20209613.461 8 106202230.871 8       -80.668          51.000    20209613.383 8  82755001.653 8       -62.858          51.000
R15  21342208.734 7 114046215.566 7     -3145.664          46.000    21342214.305 7  88702638.031 7     -2446.628          43.000
R16  19202241.352 7 102574942.974 7       388.453          45.000    19202244.711 7  79780513.949 7       302.127          44.000
R18  19149310.148 8 102220404.000 8      -297.000          51.000    19149312.609 8  79504754.292 8      -231.000          48.000
R19  20871858.875 6 111650397.041 6      3369.527          36.000    20871860.531 6  86839185.531 6      2620.743          40.000
C05                                                                  39661238.695 6 159699371.761 6        23.769          36.000
C23  23788395.039 8 123872390.378 8     -2674.004          51.000
C27  23917984.445 8 124547316.869 8      2865.641          48.000
C28  21650528.414 8 112740065.571 8       280.375          51.000
E11  24200903.680 7 127176620.105 7      2626.910          47.000    24200901.320 8  97447008.091 8      2012.746          48.000
E12  21981715.695 8 115514681.601 8       -64.102          48.000    21981714.398 8  88511289.289 8       -49.111          49.000
E24  21738582.977 8 114237022.408 8      -464.555          51.000    21738595.703 8  87532298.388 8      -355.940          51.000
E31  26505447.188 6 139287066.382 6     -2319.660          37.000
E33  26705066.984 5 140336080.290 5     -2486.336          34.000
> 2020 05 17 11 00 30.0000000  0 18        .000000000000
G12  22953703.156 5 120622501.705 5     -2836.473          33.000
G14  23701469.703 7 124552059.349 7     -2153.168          42.000    23701463.336 5  97053546.947 5     -1677.793          32.000
G18  23337444.250 6 122639087.852 6      3633.215          39.000    23337443.008 6  95562897.367 6      2831.080          37.000
G25  20873722.266 8 109692146.484 8     -1676.770          50.000    20873723.547 8  85474397.966 8     -1306.574          50.000
G29  20210119.844 8 106204891.430 8       -96.047          51.000    20210119.586 8  82757074.832 8       -74.842          51.000
R15  21359908.273 8 114140797.361 8     -3159.191          49.000    21359912.914 7  88776201.531 7     -2457.152          42.000
R16  19200119.367 7 102563607.613 7       368.000          45.000    19200122.664 7  79771697.573 7       286.222          43.000
R18  19151051.555 8 102229701.114 8      -322.098          51.000    19151054.344 8  79511985.388 8      -250.520          48.000
R19  20853012.680 6 111549574.585 6      3352.855          39.000    20853013.172 6  86760768.100 6      2607.776          40.000
C05                                                                  39661064.672 6 159698670.755 6        23.301          36.000
C23  23803828.648 8 123952757.266 8     -2683.109          51.000
C27  23901499.430 8 124461473.353 8      2857.637          48.000
C28  21648957.312 8 112731884.501 8       265.621          51.000
E11  24185933.242 7 127097950.833 7      2618.520          45.000    24185931.578 8  97386729.049 8      2006.326          49.000
E12  21982124.445 8 115516829.609 8       -78.480          48.000    21982123.148 8  88512935.162 8       -60.149          49.000
E24  21741262.523 8 114251103.031 8      -473.484          51.000    21741275.211 8  87543087.428 8      -362.815          51.000
E31  26518706.336 6 139356748.547 6     -2325.027          38.000    26518707.891 5 106779841.752 5     -1781.383          32.000
E33  26719285.844 5 140410794.096 5     -2493.754          33.000
> 2020 05 17 11 01  0.0000000  0 16        .000000000000
G14  23713810.719 6 124616910.490 6     -2167.328          41.000    23713803.750 5  97104080.247 5     -1688.827          33.000
G18  23316737.312 6 122530267.201 6      3624.559          38.000    23316735.516 6  95478102.105 6      2824.337          36.000
G25  20883344.273 8 109742710.074 8     -1690.801          50.000    20883344.875 8  85513798.118 8     -1317.507          50.000
G29  20210730.570 8 106208100.017 8      -114.613          51.000    20210729.977 8  82759575.024 8       -89.309          51.000
R15  21377701.023 8 114235872.730 8     -3175.961          51.000    21377704.648 7  88850148.929 7     -2470.195          45.000
R16  19198129.523 7 102552979.205 7       344.086          44.000    19198132.984 7  79763431.013 7       267.622          43.000
R18  19152950.625 8 102239839.205 8      -350.465          51.000    19152953.812 8  79519870.597 8      -272.581          49.000
R19  20834277.594 6 111449346.398 6      3332.441          39.000    20834276.742 6  86682812.866 6      2591.899          41.000
C05                                                                  39660909.516 6 159698045.355 6        20.615          36.000
C23  23819331.492 8 124033484.262 8     -2695.418          51.000
C27  23885077.352 8 124375958.622 8      2846.551          48.000
C28  21647487.672 8 112724231.450 8       247.855          51.000
E11  24171028.438 7 127019630.998 7      2606.398          44.000    24171028.555 8  97326717.743 8      1997.134          49.000
E12  21982632.320 7 115519499.560 7       -96.223          47.000    21982631.461 8  88514980.978 8       -73.747          49.000
E24  21744009.805 8 114265539.827 8      -485.676          51.000    21744022.477 8  87554149.379 8      -372.141          51.000
E31  26532012.344 6 139426676.791 6     -2333.469          40.000    26532016.656 6 106833423.106 6     -1788.075          36.000
> 2020 05 17 11 01 30.0000000  0 17        .000000000000
G12  22986171.227 5 120793123.331 5     -2847.363          34.000    22986169.312 5  94124513.080 5     -2218.725          32.000
G14  23726200.539 7 124682018.047 7     -2173.863          42.000    23726193.492 5  97154813.359 5     -1693.922          35.000
G18  23296048.367 6 122421541.523 6      3623.387          37.000    23296046.328 6  95393380.833 6      2823.421          36.000
G25  20893015.219 8 109793530.996 8     -1697.785          49.000    20893015.695 8  85553398.811 8     -1322.953          49.000
G29  20211415.023 8 106211696.198 8      -125.781          51.000    20211414.406 8  82762377.239 8       -98.011          51.000
R15  21395555.711 8 114331278.102 8     -3185.129          51.000    21395559.625 8  88924353.068 8     -2477.322          48.000
R16  19196242.266 7 102542897.314 7       327.402          45.000    19196245.641 7  79755589.543 7       254.649          43.000
R18  19154976.828 8 102250654.967 8      -371.410          51.000    19154979.875 8  79528282.848 8      -288.875          49.000
R19  20815623.070 6 111349553.382 6      3319.645          39.000    20815622.039 7  86605196.102 7      2581.949          42.000
C05                                                                  39660742.680 6 159697373.637 6        23.578          36.000
C23  23834873.156 8 124114412.573 8     -2700.414          51.000
C27  23868688.531 8 124290616.302 8      2842.309          50.000
C28  21646089.016 8 112716948.308 8       237.105          51.000
E11  24156160.344 7 126941502.874 7      2601.277          46.000    24156161.930 8  97266853.328 8      1993.231          49.000
E12  21983209.180 7 115522531.910 7      -106.750          47.000    21983208.531 8  88517304.461 8       -81.757          49.000
E24  21746794.703 8 114280174.242 8      -490.695          51.000    21746807.273 8  87565362.751 8      -376.029          51.000
E31  26545335.023 6 139496691.799 6     -2334.918          39.000    26545341.625 6 106887070.949 6     -1789.156          38.000
> 2020 05 17 11 02  0.0000000  0 17        .000000000000
G12  23002449.633 5 120878672.773 5     -2855.273          35.000    23002439.477 5  94191142.892 5     -2224.882          32.000
G14  23738652.047 7 124747450.420 7     -2186.945          42.000    23738645.703 6  97205799.578 6     -1704.113          37.000
G18  23275391.414 6 122312984.461 6      3615.020          37.000    23275388.461 6  95308790.934 6      2816.892          36.000
G25  20902748.242 8 109844679.708 8     -1710.859          48.000    20902749.391 8  85593254.892 8     -1333.140          49.000
G29  20212186.586 8 106215750.047 8      -143.281          51.000    20212185.812 8  82765536.085 8      -111.648          51.000
R15  21413485.031 8 114427084.013 8     -3200.645          50.000    21413489.617 8  88998868.734 8     -2489.393          49.000
R16  19194471.203 7 102533435.688 7       304.395          45.000    19194474.383 7  79748230.488 7       236.751          43.000
R18  19157143.023 8 102262218.981 8      -398.352          51.000    19157146.188 8  79537277.096 8      -309.829          49.000
R19  20797063.258 6 111250270.001 6      3300.578          37.000    20797062.438 7  86527975.689 7      2567.116          43.000
C05                                                                  39660577.992 6 159696710.964 6        21.790          37.000
C23  23850466.742 8 124195611.229 8     -2711.590          51.000
C27  23852346.836 8 124205517.674 8      2831.988          51.000
C28  21644774.586 8 112710104.707 8       220.387          50.000
E11  24141343.203 7 126863638.542 7      2590.566          47.000    24141345.516 8  97207191.063 8      1985.054          50.000
E12  21983868.344 7 115525996.942 7      -123.129          47.000    21983868.109 8  88519959.495 8       -94.369          50.000
E24  21749630.641 8 114295077.558 8      -501.695          51.000    21749643.125 8  87576782.156 8      -384.359          51.000
E31  26558687.781 6 139566864.079 6     -2342.590          37.000    26558695.578 6 106940839.314 6     -1794.669          37.000
> 2020 05 17 11 02 30.0000000  0 17        .000000000000
G12  23018761.164 6 120964388.465 6     -2859.684          36.000    23018784.570 5  94258059.455 5     -2228.334          35.000
G14  23751163.516 7 124813197.842 7     -2196.660          42.000    23751158.047 6  97257031.279 6     -1711.683          36.000
G18  23254764.406 5 122204592.128 5      3610.844          32.000    23254760.766 5  95224329.365 5      2813.648          32.000
G25  20912542.430 8 109896149.094 8     -1720.812          49.000    20912543.859 8  85633360.903 8     -1340.893          49.000
G29  20213043.750 8 106220253.859 8      -157.406          51.000    20213042.680 8  82769045.532 8      -122.654          51.000
R15  21431487.336 8 114523282.119 8     -3212.844          50.000    21431492.227 8  89073689.451 8     -2498.882          49.000
R16  19192815.406 7 102524589.302 7       284.914          45.000    19192818.273 7  79741349.959 7       221.600          42.000
R18  19159447.641 8 102274522.720 8      -422.277          49.000    19159451.156 8  79546846.676 8      -328.438          49.000
R19  20778597.258 6 111151492.307 6      3284.496          36.000    20778597.352 7  86451148.590 7      2554.608          44.000
C05                                                                  39660413.992 6 159696051.171 6        22.189          37.000
C23  23866110.758 8 124277072.457 8     -2719.473          51.000
C27  23836050.641 8 124120657.268 8      2824.977          51.000
C28  21643543.234 8 112703693.466 8       206.848          50.000
E11  24126575.547 8 126786032.642 8      2583.023          48.000    24126578.109 8  97147726.860 8      1979.158          50.000
E12  21984608.766 8 115529887.446 8      -136.426          48.000    21984609.062 8  88522940.537 8      -104.603          51.000
E24  21752516.445 8 114310243.552 8      -509.637          51.000    21752528.875 8  87588402.845 8      -390.486          51.000
E31  26572068.758 6 139637186.555 6     -2346.293          36.000    26572077.164 6 106994722.839 6     -1797.812          38.000
> 2020 05 17 11 03  0.0000000  0 17        .000000000000
G12  23035099.773 5 121050246.474 5     -2864.762          34.000    23035119.742 5  94324969.561 5     -2232.294          30.000
G14  23763730.023 7 124879234.447 7     -2206.805          42.000    23763725.055 6  97308488.330 6     -1719.591          38.000
G18  23234155.648 5 122096323.197 5      3605.180          34.000    23234159.242 5  95139990.382 5      2809.231          32.000
G25  20922393.141 8 109947915.691 8     -1730.953          49.000    20922394.867 8  85673698.513 8     -1348.795          49.000
G29  20213981.992 8 106225183.544 8      -171.961          51.000    20213980.719 8  82772886.855 8      -133.992          51.000
R15  21449558.750 8 114619847.344 8     -3225.598          51.000    21449563.102 8  89148795.713 8     -2508.798          48.000
R16  19191270.609 7 102516335.960 7       264.637          46.000    19191272.984 7  79734930.691 7       205.829          42.000
R18  19161886.219 8 102287541.040 8      -446.465          49.000    19161889.656 8  79556972.018 8      -347.253          49.000
R19  20760221.617 6 111053199.174 6      3267.641          37.000    20760222.922 7  86374698.348 7      2541.498          44.000
C05                                                                  39660246.148 6 159695375.520 6        22.219          36.000
C23  23881800.180 8 124358772.157 8     -2727.852          50.000
C27  23819795.539 8 124036013.395 8      2817.305          50.000
C28  21642390.508 8 112697691.198 8       192.605          51.000
E11  24111853.094 8 126708663.504 8      2574.348          48.000    24111855.516 8  97088444.059 8      1972.570          49.000
E12  21985425.828 8 115534179.802 8      -150.371          49.000    21985426.133 8  88526229.489 8      -115.291          50.000
E24  21755447.898 8 114325649.625 8      -518.184          51.000    21755460.461 8  87600207.478 8      -397.020          51.000
E31  26585473.984 5 139707608.865 5     -2351.141          33.000    26585482.922 6 107048703.517 6     -1801.251          38.000
> 2020 05 17 11 03 30.0000000  0 17        .000000000000
G12  23051476.445 5 121136325.871 5     -2869.047          34.000
G14  23776361.227 7 124945611.578 7     -2215.852          43.000    23776357.102 6  97360210.689 6     -1726.641          37.000
G18  23213595.406 6 121988276.579 6      3600.453          36.000    23213600.625 5  95055798.184 5      2805.548          34.000
G25  20932310.703 8 110000033.131 8     -1740.625          50.000    20932312.773 8  85714309.495 8     -1356.331          50.000
G29  20215011.172 8 106230591.902 8      -185.844          51.000    20215009.820 8  82777101.180 8      -144.813          51.000
R15  21467708.680 8 114716832.879 8     -3237.215          49.000    21467712.391 7  89224228.876 7     -2517.837          46.000
R16  19189847.180 7 102508732.298 7       244.891          46.000    19189849.805 7  79729016.706 7       190.470          42.000
R18  19164468.438 8 102301327.004 8      -469.789          48.000    19164472.406 8  79567694.430 8      -365.391          50.000
R19  20741947.633 6 110955448.114 6      3251.746          38.000    20741949.914 7  86298669.750 7      2529.136          45.000
C05                                                                  39660084.922 6 159694726.430 6        23.225          37.000
C23  23897545.234 8 124440762.632 8     -2735.488          50.000
C27  23803592.273 8 123951640.646 8      2810.234          50.000
C28  21641326.555 8 112692150.773 8       179.355          51.000
E11  24097186.172 8 126631586.390 8      2566.559          48.000    24097188.305 8  97029384.985 8      1966.674          49.000
E12  21986329.469 8 115538927.452 8      -163.410          50.000    21986329.258 8  88529867.281 8      -125.201          50.000
E24  21758435.477 8 114341350.224 8      -525.902          51.000    21758448.172 8  87612237.784 8      -402.907          51.000
E31  26598914.008 5 139778236.811 5     -2354.957          35.000    26598923.016 6 107102822.508 6     -1804.268          36.000
> 2020 05 17 11 04  0.0000000  0 17        .000000000000
G12  23067880.703 5 121222527.518 5     -2876.246          34.000    23067890.422 5  94459179.379 5     -2241.234          33.000
G14  23789047.781 7 125012278.492 7     -2227.777          44.000    23789044.273 6  97412158.894 6     -1735.933          36.000
G18  23193065.906 6 121880386.007 6      3593.121          38.000    23193070.141 5  94971727.599 5      2799.838          34.000
G25  20942285.867 8 110052453.008 8     -1753.102          49.000    20942288.492 8  85755156.137 8     -1366.056          49.000
G29  20216122.141 8 106236430.336 8      -202.480          51.000    20216120.688 8  82781650.618 8      -157.777          51.000
R15  21485927.266 7 114814188.308 7     -3252.172          47.000    21485931.055 7  89299949.739 7     -2529.467          44.000
R16  19188536.617 7 102501731.010 7       222.676          47.000    19188539.109 7  79723571.246 7       173.192          42.000
R18  19167185.461 8 102315830.227 8      -496.133          48.000    19167189.195 8  79578974.682 8      -385.881          50.000
R19  20723766.711 6 110858192.794 6      3232.809          39.000    20723769.625 7  86223026.754 7      2514.410          45.000
C05                                                                  39659921.141 6 159694067.114 6        21.805          37.000
C23  23913336.820 8 124522995.140 8     -2745.758          48.000
C27  23787431.445 8 123867492.663 8      2800.418          48.000
C28  21640342.047 8 112687024.134 8       163.219          51.000
E11  24082565.844 8 126554754.639 8      2556.289          48.000    24082567.625 8  96970513.919 8      1958.625          48.000
E12  21987310.594 8 115544081.869 8      -179.410          50.000    21987309.914 8  88533816.777 8      -137.446          50.000
E24  21761470.016 8 114357297.899 8      -536.523          51.000    21761483.117 8  87624457.409 8      -411.051          51.000
E31  26612380.133 6 139848999.089 6     -2361.977          39.000    26612386.141 5 107157042.814 5     -1809.638          33.000
> 2020 05 17 11 04 30.0000000  0 18        .000000000000
G02  24394715.008 4 128195107.107 4     -2633.156          29.000
G14  23801802.180 7 125079301.499 7     -2238.301          45.000    23801798.695 6  97464384.600 6     -1744.130          36.000
G18  23172579.273 6 121772723.650 6      3586.586          39.000    23172581.500 6  94887834.833 6      2794.742          36.000
G21  23219412.766 6 122018837.848 6      3336.180          36.000    23219414.594 5  95079630.087 5      2599.621          34.000
G25  20952331.711 8 110105244.291 8     -1764.121          50.000    20952334.523 8  85796292.182 8     -1374.640          50.000
G29  20217327.961 8 106242767.103 8      -217.785          51.000    20217326.531 8  82786588.346 8      -169.703          51.000
R15  21504227.656 8 114911982.361 8     -3265.438          48.000    21504232.008 7  89376011.746 7     -2539.788          45.000
R16  19187352.398 7 102495404.138 7       201.410          47.000    19187354.570 7  79718650.334 7       156.652          42.000
R18  19170049.492 8 102331119.446 8      -521.027          49.000    19170053.219 8  79590866.271 8      -405.243          50.000
R19  20705692.547 6 110761506.341 6      3215.207          39.000    20705695.125 7  86147826.206 7      2500.720          45.000
C05                                                                  39659768.211 6 159693450.741 6        21.228          37.000
C23  23929187.219 7 124605537.122 7     -2754.762          45.000
C27  23771326.906 8 123783639.267 8      2791.891          48.000
C28  21639450.266 8 112682379.386 8       148.441          51.000
E11  24068005.523 8 126478238.910 8      2547.172          49.000    24068006.812 7  96911884.990 7      1951.672          47.000
E12  21988382.055 8 115549711.780 8      -193.875          50.000    21988381.195 8  88538130.619 8      -148.613          51.000
E24  21764564.680 8 114373562.439 8      -545.758          51.000    21764578.492 8  87636919.826 8      -418.148          51.000
E31  26625884.570 6 139919962.703 6     -2367.301          40.000    26625888.023 5 107211417.466 5     -1813.927          35.000
> 2020 05 17 11 05  0.0000000  0 17        .000000000000
G14  23814603.352 7 125146571.198 7     -2247.512          46.000    23814600.312 6  97516802.495 6     -1751.311          37.000
G18  23152115.523 6 121665185.854 6      3581.711          40.000    23152116.914 5  94804039.176 5      2790.944          33.000
G21  23200382.719 6 121918831.334 6      3329.574          37.000    23200380.797 4  95001697.049 4      2594.476          26.000
G25  20962428.195 8 110158300.171 8     -1773.973          50.000    20962430.594 8  85837634.406 8     -1382.316          51.000
G29  20218608.172 8 106249494.898 8      -231.832          51.000    20218606.898 8  82791830.790 8      -180.648          51.000
R15  21522589.359 7 115010105.503 7     -3277.324          46.000    21522594.820 7  89452329.676 7     -2549.030          46.000
R16  19186274.148 7 102489644.948 7       181.500          47.000    19186276.852 7  79714170.931 7       141.167          43.000
R18  19173040.352 8 102347084.635 8      -544.512          48.000    19173044.195 8  79603283.622 8      -423.509          50.000
R19  20687704.719 6 110665282.877 6      3198.512          38.000    20687706.805 7  86072985.770 7      2487.731          43.000
C05                                                                  39659605.594 6 159692795.778 6        21.503          37.000
C23  23945076.258 7 124688281.961 7     -2762.582          45.000
C27  23755259.781 8 123699976.178 8      2784.422          48.000
C28  21638630.805 8 112678110.501 8       134.949          51.000
E11  24053485.328 8 126401934.079 8      2538.746          48.000    24053485.914 7  96853417.657 7      1945.285          46.000
E12  21989523.602 8 115555710.221 8      -207.238          51.000    21989522.594 8  88542726.838 8      -158.757          51.000
E24  21767699.672 8 114390037.886 8      -553.789          51.000    21767713.992 8  87649543.844 8      -424.347          51.000
E31  26639406.883 6 139991020.944 6     -2371.246          39.000    26639410.039 6 107265864.660 6     -1816.962          38.000
> 2020 05 17 11 05 30.0000000  0 18        .000000000000
G02  24424912.609 5 128353768.005 5     -2651.668          31.000
G14  23827459.891 7 125214132.644 7     -2257.090          44.000    23827457.805 6  97569447.758 6     -1758.774          38.000
G18  23131684.438 6 121557823.050 6      3575.430          40.000    23131686.969 5  94720379.778 5      2786.043          33.000
G21  23181391.102 6 121819026.892 6      3322.996          37.000    23181389.320 5  94923927.440 5      2589.354          35.000
G25  20972583.992 8 110211667.715 8     -1784.516          49.000    20972585.875 8  85879219.490 8     -1390.532          49.000
G29  20219971.719 8 106256659.967 8      -246.371          51.000    20219970.414 8  82797413.956 8      -191.977          51.000
R15  21541021.383 7 115108603.972 7     -3289.703          45.000    21541027.773 8  89528939.582 8     -2558.658          48.000
R16  19185311.812 8 102484503.180 8       160.664          48.000    19185314.562 7  79710171.763 7       124.961          44.000
R18  19176166.516 8 102363772.311 8      -568.754          49.000    19176170.281 8  79616262.910 8      -442.364          50.000
R19  20669812.523 6 110569573.434 6      3181.102          38.000    20669813.102 6  85998545.137 6      2474.193          41.000
C05                                                                  39659442.367 6 159692138.580 6        21.996          37.000
C23  23961015.430 8 124771275.587 8     -2770.934          48.000
C27  23739239.062 8 123616551.507 8      2776.535          49.000
C28  21637892.141 8 112674263.905 8       120.879          51.000
E11  24039014.461 8 126325888.961 8      2530.082          48.000    24039014.125 7  96795149.338 7      1938.625          45.000
E12  21990744.164 8 115562124.081 8      -221.113          51.000    21990743.047 8  88547641.349 8      -169.320          51.000
E24  21770884.164 8 114406772.180 8      -562.418          51.000    21770898.539 8  87662366.213 8      -430.977          51.000
E31  26652955.805 6 140062220.973 6     -2375.824          37.000    26652960.156 6 107320420.479 6     -1820.407          39.000
> 2020 05 17 11 06  0.0000000  0 19        .000000000000
G02  24440065.945 5 128433414.146 5     -2659.930          31.000    24440065.922 5 100077985.259 5     -2072.672          30.000
G12  23133805.031 4 121568958.467 4     -2896.824          29.000    23133805.258 4  94729055.633 4     -2257.275          26.000
G14  23840365.781 7 125281954.539 7     -2266.562          43.000    23840364.742 6  97622295.930 6     -1766.153          40.000
G18  23111281.633 7 121450609.552 7      3569.762          42.000    23111284.797 5  94636836.784 5      2781.629          35.000
G21  23162432.312 6 121719398.411 6      3316.816          38.000    23162430.719 5  94846294.843 5      2584.532          33.000
G25  20982793.508 8 110265318.135 8     -1794.492          48.000    20982795.320 8  85921024.990 8     -1398.306          48.000
G29  20221412.750 8 106264232.699 8      -260.672          51.000    20221411.273 8  82803314.778 8      -203.121          51.000
R15  21559516.828 6 115207447.501 6     -3302.004          41.000    21559524.539 7  89605817.826 7     -2568.228          46.000
R16  19184459.734 7 102479951.187 7       140.418          47.000    19184462.422 7  79706631.324 7       109.214          44.000
R18  19179422.180 8 102381151.614 8      -592.234          49.000    19179426.125 8  79629780.149 8      -460.627          49.000
R19  20652011.008 6 110474351.390 6      3164.812          38.000    20652010.406 6  85924483.586 6      2461.521          40.000
C05  39659275.453 5 206516253.935 5        28.270          34.000    39659273.125 6 159691457.412 6        22.074          37.000
C23  23976997.125 8 124854488.649 8     -2778.750          49.000
C27  23723259.375 8 123533338.202 8      2768.852          49.000
C28  21637229.164 8 112670810.890 8       107.105          51.000
E11  24024587.805 8 126250076.389 8      2522.016          48.000    24024586.266 7  96737059.203 7      1932.373          44.000
E12  21992038.219 8 115568924.359 8      -234.547          51.000    21992037.227 8  88552851.961 8      -179.760          51.000
E24  21774112.656 8 114423737.407 8      -570.707          51.000    21774126.922 8  87675365.529 8      -437.322          51.000
E31  26666526.039 5 140133534.144 5     -2380.617          35.000    26666531.875 6 107375062.988 6     -1824.070          39.000
> 2020 05 17 11 06 30.0000000  0 18        .000000000000
G02  24455284.398 5 128513389.125 5     -2668.941          31.000
G14  23853338.703 7 125350128.920 7     -2276.184          43.000    23853338.992 6  97675418.802 6     -1773.647          40.000
G18  23090926.156 7 121343643.084 7      3563.484          44.000    23090930.133 5  94553486.336 5      2776.744          30.000
G21  23143524.938 6 121620043.583 6      3309.469          37.000    23143525.922 5  94768875.427 5      2578.801          35.000
G25  20993074.883 7 110319345.914 7     -1804.980          47.000    20993076.680 7  85963124.549 7     -1406.478          47.000
G29  20222949.289 8 106272307.138 8      -275.355          51.000    20222947.812 8  82809606.559 8      -214.563          51.000
R15  21578095.750 7 115306730.721 7     -3314.594          43.000    21578102.898 7  89683038.132 7     -2578.017          44.000
R16  19183736.336 7 102476087.223 7       119.551          47.000    19183739.148 7  79703625.994 7        92.984          45.000
R18  19182825.383 8 102399317.374 8      -616.438          51.000    19182829.062 8  79643909.068 8      -479.451          49.000
R19  20634319.219 6 110379715.840 6      3146.984          37.000    20634319.211 6  85850878.181 6      2447.655          41.000
C05  39659118.508 5 206515437.129 5        27.703          35.000    39659116.180 6 159690825.022 6        21.975          37.000
C23  23993037.609 8 124938013.945 8     -2787.184          50.000
C27  23707339.094 8 123450431.488 8      2760.574          50.000
C28  21636659.477 8 112667844.866 8        92.859          51.000
E11  24010223.586 8 126174592.600 8      2512.773          48.000    24010221.430 7  96679220.993 7      1925.525          45.000
E12  21993423.773 8 115576205.357 8      -248.543          51.000    21993423.047 8  88558430.920 8      -190.415          51.000
E24  21777403.164 8 114441028.955 8      -579.613          51.000    21777417.562 8  87688614.893 8      -444.134          51.000
E31  26680136.023 5 140205054.956 5     -2385.379          35.000    26680142.727 6 107429864.620 6     -1827.548          39.000
> 2020 05 17 11 07  0.0000000  0 17        .000000000000
G14  23866361.242 7 125418563.844 7     -2285.730          43.000    23866362.648 6  97728744.699 6     -1781.089          40.000
G18  23070601.695 7 121236837.713 7      3557.320          46.000    23070592.953 4  94470220.701 4      2771.938          26.000
G21  23124653.008 6 121520876.078 6      3302.266          38.000    23124656.383 4  94691602.076 4      2573.191          27.000
G25  21003411.039 7 110373661.837 7     -1815.375          46.000    21003412.578 7  86005448.641 7     -1414.578          47.000
G29  20224564.180 8 106280793.389 8      -289.863          51.000    20224562.906 8  82816219.228 8      -225.867          51.000
R15  21596741.406 8 115406361.644 8     -3326.926          48.000    21596745.898 7  89760528.824 7     -2587.612          42.000
R16  19183125.383 7 102472822.173 7        98.738          46.000    19183127.727 7  79701086.511 7        76.799          44.000
R18  19186358.609 8 102418177.185 8      -640.391          51.000    19186361.930 8  79658577.818 8      -498.082          49.000
R19  20616720.875 6 110285578.800 6      3129.250          37.000    20616722.234 7  85777660.477 7      2433.861          43.000
C05  39658956.508 5 206514593.278 5        28.227          34.000    39658954.328 6 159690173.301 6        21.996          37.000
C23  24009120.000 8 125021762.209 8     -2795.434          49.000
C27  23691460.656 8 123367744.445 8      2752.477          48.000
C28  21636166.039 8 112665277.162 8        78.887          51.000
E11  23995905.180 8 126099350.076 8      2503.777          48.000    23995903.070 7  96621567.658 7      1918.497          45.000
E12  21994883.750 8 115583877.650 8      -262.375          51.000    21994883.164 8  88564309.695 8      -201.074          51.000
E24  21780738.844 8 114458558.461 8      -588.426          51.000    21780753.688 8  87702046.569 8      -450.836          51.000
E31  26693768.500 5 140276699.334 5     -2390.379          33.000    26693775.406 6 107484757.066 6     -1831.365          39.000
> 2020 05 17 11 07 30.0000000  0 17        .000000000000
G14  23879439.133 7 125487289.400 7     -2295.211          44.000    23879441.312 6  97782297.032 6     -1788.479          39.000
G18  23050314.867 7 121130229.132 7      3550.691          47.000    23050308.234 5  94387149.180 5      2766.776          32.000
G21  23105823.336 6 121421931.468 6      3294.871          37.000    23105828.727 4  94614502.360 4      2567.420          29.000
G25  21013807.609 7 110428298.431 7     -1826.094          45.000    21013809.516 7  86048022.620 7     -1422.930          45.000
G29  20226263.484 8 106289723.373 8      -304.609          51.000    20226262.078 8  82823177.647 8      -237.358          51.000
R15  21615458.742 8 115506372.014 8     -3339.574          51.000    21615459.156 6  89838314.602 6     -2597.450          41.000
R16  19182632.750 7 102470191.207 7        77.516          46.000    19182634.836 7  79699040.204 7        60.290          45.000
R18  19190027.922 8 102437762.658 8      -664.453          51.000    19190030.891 8  79673810.967 8      -516.797          48.000
R19  20599222.742 6 110191976.103 6      3111.516          37.000    20599225.727 7  85704858.384 7      2420.068          45.000
C05  39658796.094 5 206513758.143 5        27.535          35.000    39658793.891 6 159689527.502 6        21.745          36.000
C23  24025250.773 8 125105764.825 8     -2803.902          50.000
C27  23675630.070 7 123285310.849 7      2743.992          47.000
C28  21635755.633 8 112663139.802 8        64.484          51.000
E11  23981639.312 8 126024382.958 8      2494.855          48.000    23981637.242 7  96564125.343 7      1911.601          46.000
E12  21996424.281 8 115591973.545 8      -276.539          51.000    21996423.836 8  88570513.036 8      -211.882          51.000
E24  21784126.359 8 114476359.290 8      -597.477          51.000    21784141.422 8  87715686.157 8      -457.795          51.000
E31                                                                  26707436.258 6 107539765.324 6     -1835.474          37.000
> 2020 05 17 11 08  0.0000000  0 17        .000000000000
G14  23892571.594 7 125556301.028 7     -2305.191          44.000    23892574.094 6  97836072.279 6     -1796.253          38.000
G18  23030065.609 7 121023818.256 7      3543.656          46.000    23030063.828 5  94304231.698 5      2761.294          34.000
G21  23087036.414 6 121323210.521 6      3286.707          38.000    23087043.172 4  94537577.027 4      2561.083          27.000
G25  21024264.820 7 110483253.411 7     -1837.355          47.000    21024266.875 7  86090844.660 7     -1431.706          47.000
G29  20228046.844 8 106299094.191 8      -319.723          51.000    20228045.250 8  82830479.572 8      -249.135          51.000
R15  21634246.141 8 115606758.185 8     -3352.465          51.000    21634244.844 7  89916392.628 7     -2607.476          42.000
R16  19182258.812 7 102468193.452 7        55.902          46.000    19182261.078 7  79697486.405 7        43.480          45.000
R18  19193832.227 8 102458069.956 8      -688.984          51.000    19193834.797 7  79689605.542 7      -535.877          47.000
R19  20581825.297 6 110098908.598 6      3093.453          39.000    20581828.742 7  85632472.554 7      2406.016          46.000
C05  39658636.859 5 206512928.825 5        27.379          34.000    39658634.672 6 159688886.754 6        21.174          38.000
C23  24041430.742 8 125190018.687 8     -2812.711          50.000
C27  23659848.008 8 123203129.875 8      2735.129          48.000
C28  21635427.234 8 112661430.226 8        49.805          51.000
E11  23967426.000 8 125949690.656 8      2485.242          49.000    23967424.031 7  96506893.604 7      1904.196          46.000
E12  21998044.922 8 115600490.444 8      -290.898          51.000    21998044.820 8  88577038.983 8      -222.950          51.000
E24  21787565.297 8 114494429.979 8      -606.941          51.000    21787580.094 8  87729532.543 8      -465.071          51.000
E31  26721120.234 6 140420429.321 6     -2400.152          37.000    26721124.141 5 107594887.767 5     -1839.233          35.000
> 2020 05 17 11 08 30.0000000  0 17        .000000000000
G14  23905756.547 7 125625588.121 7     -2314.113          44.000    23905759.328 6  97890062.176 6     -1803.205          39.000
G18  23009852.961 7 120917600.136 7      3537.395          46.000    23009852.195 6  94221464.342 6      2756.411          37.000
G21  23068291.367 6 121224707.549 6      3279.852          37.000
G25  21034781.367 8 110538518.512 8     -1847.430          48.000    21034783.188 8  86133908.355 8     -1439.556          48.000
G29  20229912.078 8 106308896.729 8      -334.016          51.000    20229910.672 8  82838117.918 8      -260.272          51.000
R15  21653100.977 8 115707510.424 8     -3364.508          50.000    21653100.688 7  89994755.376 7     -2616.842          44.000
R16  19182002.070 7 102466822.469 7        35.203          44.000    19182004.492 7  79696420.099 7        27.377          45.000
R18  19197769.953 8 102479089.073 8      -712.523          51.000    19197772.633 7  79705953.757 7      -554.185          47.000
R19  20564527.188 6 110006370.244 6      3075.918          40.000    20564530.078 7  85560498.299 7      2392.381          45.000
C05  39658477.148 5 206512097.677 5        27.219          34.000    39658475.039 6 159688243.525 6        21.512          36.000
C23  24057657.805 8 125274514.784 8     -2820.625          51.000
C27  23644113.195 8 123121194.854 8      2727.086          48.000
C28  21635179.352 8 112660140.007 8        35.984          51.000
E11  23953263.828 8 125875266.624 8      2476.105          49.000    23953262.148 7  96449867.413 7      1897.303          47.000
E12  21999744.047 8 115609419.914 8      -304.574          51.000    21999744.305 8  88583881.048 8      -233.339          51.000
E24  21791054.109 8 114512763.194 8      -615.562          51.000    21791068.414 8  87743580.068 8      -471.695          51.000
E31  26734839.609 6 140492509.720 6     -2405.008          39.000    26734838.516 5 107650118.208 5     -1843.127          34.000
> 2020 05 17 11 09  0.0000000  0 17        .000000000000
G14  23918990.641 7 125695133.440 7     -2321.430          44.000    23918993.625 6  97944253.281 6     -1808.909          38.000
G18  22989674.414 7 120811563.130 7      3532.234          44.000    22989674.430 6  94138838.109 6      2752.390          39.000
G21  23049586.477 5 121126410.772 5      3273.836          34.000
G25  21045354.234 8 110594078.899 8     -1855.961          49.000    21045355.984 8  86177202.123 8     -1446.206          49.000
G29  20231856.539 8 106319115.720 8      -346.730          51.000    20231855.062 8  82846080.747 8      -270.180          51.000
R15  21672020.750 8 115808612.340 8     -3374.992          49.000    21672022.320 7  90073390.172 7     -2624.994          45.000
R16  19181860.016 7 102466064.551 7        16.000          44.000    19181862.375 7  79695830.615 7        12.444          44.000
R18  19201837.891 8 102500803.494 8      -734.344          51.000    19201840.406 7  79722842.763 7      -571.156          46.000
R19  20547325.828 6 109914348.949 6      3059.668          39.000    20547327.219 7  85488926.240 7      2379.745          43.000
C05  39658314.305 5 206511248.802 5        29.621          34.000    39658312.328 6 159687588.257 6        23.083          36.000
C23  24073928.734 8 125359237.576 8     -2826.883          51.000
C27  23628422.727 8 123039492.558 8      2720.422          48.000
C28  21635009.367 8 112659254.213 8        23.723          51.000
E11  23939150.180 8 125801097.684 8      2468.809          49.000    23939148.930 7  96393036.679 7      1891.735          47.000
E12  22001518.906 8 115618746.842 8      -316.488          51.000    22001519.203 8  88591027.662 8      -242.522          51.000
E24  21794590.156 8 114531344.951 8      -622.559          51.000    21794604.172 8  87757818.039 8      -477.019          51.000
E31  26748582.055 6 140564716.155 6     -2407.855          41.000
> 2020 05 17 11 09 30.0000000  0 17        .000000000000
G14  23932278.695 7 125764961.638 7     -2332.363          45.000    23932281.453 6  97998664.820 6     -1817.426          37.000
G18  22969535.570 7 120705737.903 7      3523.887          44.000    22969537.352 6  94056376.877 6      2745.886          41.000
G21  23030926.414 5 121028350.501 5      3264.512          35.000
G25  21055988.562 8 110649962.011 8     -1868.219          50.000    21055990.102 8  86220747.335 8     -1455.755          50.000
G29  20233885.367 8 106329777.905 8      -362.824          51.000    20233883.914 8  82854388.941 8      -282.720          51.000
R15  21691009.867 7 115910090.340 7     -3388.945          46.000    21691014.336 7  90152317.525 7     -2635.846          46.000
R16  19181838.562 7 102465949.919 7        -7.195          45.000    19181840.547 7  79695741.479 7        -5.596          44.000
R18  19206040.961 8 102523239.271 8      -760.031          51.000    19206043.367 7  79740292.809 7      -591.135          46.000
R19  20530225.711 6 109822875.300 6      3040.152          37.000    20530226.430 7  85417780.123 7      2364.563          42.000
C05  39658153.680 5 206510412.825 5        27.559          34.000    39658151.805 6 159686941.854 6        21.316          36.000
C23  24090248.375 8 125444213.386 8     -2836.852          51.000
C27  23612782.586 8 122958051.635 8      2710.184          48.000
C28  21634922.195 8 112658799.711 8         7.918          51.000
E11  23925090.492 8 125727212.876 8      2458.160          49.000    23925089.406 7  96336423.662 7      1883.531          47.000
E12  22003374.578 8 115628498.410 8      -332.223          51.000    22003374.766 8  88598499.646 8      -254.566          51.000
E24  21798178.938 8 114550203.495 8      -633.328          51.000    21798192.805 8  87772268.100 8      -485.277          51.000
E31  26762352.445 6 140637076.141 6     -2414.410          39.000
> 2020 05 17 11 10  0.0000000  0 18        .000000000000
G12  23267101.258 5 122269423.268 5     -2937.473          32.000    23267093.930 4  95274903.761 4     -2288.949          29.000
G14  23945615.297 7 125835045.578 7     -2338.992          44.000    23945617.656 6  98053275.652 6     -1822.591          38.000
G18  22949432.797 7 120600102.709 7      3519.566          43.000    22949435.930 6  93974063.731 6      2742.519          41.000
G21  23012306.688 4 120930487.148 4      3259.121          29.000
G25  21066679.602 8 110706142.802 8     -1876.254          49.000    21066680.742 8  86264524.541 8     -1462.019          48.000
G29  20235993.625 8 106340857.385 8      -374.797          51.000    20235992.281 8  82863022.320 8      -292.050          51.000
R15  21710064.727 7 116011917.877 7     -3398.508          47.000    21710071.367 7  90231516.701 7     -2643.284          46.000
R16  19181933.094 7 102466454.389 7       -25.723          45.000    19181935.094 7  79696133.849 7       -20.007          44.000
R18  19210374.023 8 102546369.307 8      -781.195          51.000    19210376.797 7  79758282.870 7      -607.596          46.000
R19  20513221.625 5 109731926.814 5      3024.652          35.000    20513223.523 6  85347042.406 6      2352.504          41.000
C05  39657990.531 5 206509563.487 5        30.086          33.000    39657988.883 6 159686286.496 6        23.008          37.000
C23  24106611.164 8 125529416.607 8     -2842.367          50.000
C27  23597188.523 8 122876848.886 8      2704.188          49.000
C28  21634913.086 8 112658751.504 8        -3.738          51.000
E11  23911080.414 8 125653588.954 8      2451.191          49.000    23911079.062 7  96280010.559 7      1878.314          46.000
E12  22005306.289 8 115638649.386 8      -343.582          51.000    22005306.344 8  88606277.665 8      -263.264          51.000
E24  21801815.844 8 114569314.761 8      -639.770          51.000    21801829.656 8  87786911.782 8      -490.234          51.000
E31  26776146.383 5 140709598.820 5     -2416.980          32.000
> 2020 05 17 11 10 30.0000000  0 16        .000000000000
G14  23959013.242 7 125905453.177 7     -2350.469          42.000    23959015.156 6  98108138.646 6     -1831.537          37.000
G18  22929380.602 7 120494731.168 7      3509.914          43.000    22929384.688 7  93891956.031 7      2734.995          42.000
G25  21077440.531 7 110762691.733 7     -1889.051          47.000    21077441.633 7  86308588.582 7     -1471.991          47.000
G29  20238194.805 8 106352424.013 8      -391.691          51.000    20238193.359 8  82872035.265 8      -305.214          51.000
R15  21729199.133 8 116114165.143 8     -3413.160          49.000    21729205.312 7  90311042.276 7     -2654.683          44.000
R16  19182157.008 7 102467651.442 7       -49.461          46.000    19182159.375 7  79697064.866 7       -38.473          44.000
R17  21979413.836 4 117616289.370 4     -3819.938          29.000
R18  19214850.086 8 102570263.526 8      -807.160          51.000    19214852.602 7  79776867.277 7      -627.791          46.000
R19  20496330.961 6 109641577.541 6      3004.008          37.000    20496333.492 7  85276770.755 7      2336.454          42.000
C05                                                                  39657837.000 6 159685674.420 6        21.044          37.000
C23  24123030.125 8 125614916.180 8     -2852.926          49.000
C27  23581654.156 8 122795955.498 8      2693.234          49.000
C28  21634995.445 8 112659179.071 8       -20.176          51.000
E11  23897133.680 8 125580297.993 8      2439.309          49.000    23897131.898 7  96223852.591 7      1869.081          46.000
E12  22007327.414 8 115649269.859 8      -359.770          50.000    22007327.320 8  88614415.433 8      -275.638          51.000
E24  21805514.305 8 114588749.976 8      -651.133          51.000    21805528.047 8  87801803.684 8      -498.965          51.000
> 2020 05 17 11 11  0.0000000  0 16        .000000000000
G14  23972454.719 7 125976089.203 7     -2358.684          42.000    23972455.562 6  98163179.622 6     -1837.932          36.000
G18  22909361.969 7 120389533.913 7      3503.164          43.000    22909366.312 6  93809984.191 6      2729.741          41.000
G25  21088253.703 7 110819516.133 7     -1899.148          46.000    21088255.469 7  86352867.287 7     -1479.859          46.000
G29  20240470.844 8 106364384.738 8      -405.695          51.000    20240469.430 8  82881355.318 8      -316.126          51.000
R15  21748394.141 7 116216736.458 7     -3424.875          47.000    21748399.266 7  90390819.922 7     -2663.792          44.000
R16  19182493.148 7 102469448.347 7       -70.293          45.000    19182495.500 7  79698462.465 7       -54.672          43.000
R18  19219451.453 8 102594826.312 8      -830.340          50.000    19219454.000 7  79795971.674 7      -645.820          47.000
R19  20479536.836 6 109551736.026 6      2985.785          39.000    20479539.062 7  85206894.052 7      2322.280          44.000
C05                                                                  39657678.430 6 159685036.044 6        21.301          36.000
C23  24139487.984 8 125700619.486 8     -2860.531          49.000
C27  23566162.000 8 122715281.192 8      2684.973          49.000
C28  21635151.352 8 112659990.306 8       -33.949          51.000
E11  23883232.969 8 125507248.961 8      2430.402          49.000    23883230.812 7  96167879.985 7      1862.199          47.000
E12  22009420.133 8 115660266.957 8      -373.305          51.000    22009419.828 8  88622841.782 8      -286.054          51.000
E24  21809256.930 8 114608417.413 8      -659.867          51.000    21809270.352 8  87816873.523 8      -505.753          51.000
E31  26803828.461 6 140855078.567 6     -2428.762          36.000    26803830.391 6 107927914.025 6     -1860.954          39.000
> 2020 05 17 11 11 30.0000000  0 17        .000000000000
G14  23985945.727 6 126046986.241 6     -2367.750          40.000    23985946.000 6  98218424.013 6     -1844.997          38.000
G18  22889383.984 7 120284549.227 7      3495.660          43.000    22889387.492 6  93728177.945 6      2723.891          40.000
G21  22956731.875 5 120638413.981 5      3232.574          31.000
G25  21099125.805 7 110876651.006 7     -1909.949          45.000    21099127.930 7  86397387.977 7     -1488.272          45.000
G29  20242828.398 8 106376773.800 8      -420.344          51.000    20242827.195 8  82891009.119 8      -327.541          51.000
R15  21767655.250 7 116319666.081 7     -3437.184          47.000    21767660.961 7  90470876.264 7     -2673.365          45.000
R16  19182948.570 7 102471882.777 7       -91.859          45.000    19182951.398 7  79700355.884 7       -71.446          43.000
R18  19224184.430 8 102620091.314 8      -854.105          50.000    19224187.195 7  79815622.245 7      -664.304          47.000
R19  20462845.109 6 109462440.626 6      2967.293          40.000    20462847.547 7  85137442.118 7      2307.895          44.000
C05                                                                  39657520.008 6 159684398.462 6        21.047          37.000
C23  24155991.383 8 125786560.359 8     -2868.727          49.000
C27  23550718.297 8 122634862.202 8      2676.188          49.000
C28  21635387.500 8 112661219.670 8       -48.184          51.000
E11  23869384.797 7 125434478.580 7      2420.961          47.000    23869383.133 7  96112120.872 7      1855.085          47.000
E12  22011591.227 8 115671675.390 8      -387.301          50.000    22011590.594 8  88631583.310 8      -296.754          51.000
E24  21813050.648 8 114628352.939 8      -669.172          51.000    21813063.531 8  87832148.768 8      -512.706          51.000
E31  26817706.633 6 140928014.749 6     -2433.480          41.000    26817710.883 6 107983800.171 6     -1864.690          40.000
> 2020 05 17 11 12  0.0000000  0 16        .000000000000
G14  23999485.680 6 126118140.379 6     -2376.352          40.000    23999485.648 6  98273868.696 6     -1851.712          39.000
G18  22869446.586 7 120179778.738 7      3488.379          42.000    22869449.250 6  93646538.633 6      2718.220          37.000
G25  21110056.922 7 110934094.766 7     -1920.422          45.000    21110059.164 7  86442149.372 7     -1496.433          45.000
G29  20245266.922 8 106389588.545 8      -434.570          51.000    20245265.883 8  82900994.628 8      -338.626          51.000
R15  21786983.469 8 116422951.077 8     -3448.996          48.000    21786989.578 7  90551209.044 7     -2682.553          46.000
R16  19183523.422 7 102474954.491 7      -113.273          46.000    19183526.945 7  79702744.968 7       -88.102          43.000
R18  19229048.281 8 102646055.116 8      -877.398          50.000    19229050.828 7  79835816.309 7      -682.418          47.000
R19  20446255.047 6 109373692.669 6      2948.820          38.000    20446257.492 7  85068415.948 7      2293.527          44.000
C05                                                                  39657361.578 6 159683760.875 6        21.017          37.000
C23  24172540.359 8 125872736.362 8     -2876.762          49.000
C27  23535323.555 8 122554698.354 8      2667.625          48.000
C28  21635703.438 8 112662865.210 8       -62.078          51.000
E11  23855589.211 7 125361986.915 7      2411.320          46.000    23855588.711 8  96056575.317 8      1847.650          48.000
E12  22013840.008 8 115683493.249 8      -401.012          50.000    22013839.398 8  88640638.562 8      -307.290          51.000
E24  21816895.352 8 114648555.805 8      -678.152          51.000    21816907.883 8  87847628.875 8      -519.611          51.000
E31  26831613.000 7 141001091.085 7     -2438.320          42.000    26831617.406 6 108039793.690 6     -1868.641          40.000
> 2020 05 17 11 12 30.0000000  0 16        .000000000000
G14  24013074.469 6 126189549.729 6     -2384.316          41.000    24013074.359 6  98329512.321 6     -1857.909          38.000
G18  22849550.305 7 120075226.515 7      3481.586          42.000    22849553.062 5  93565069.423 5      2712.924          33.000
G25  21121047.047 7 110991848.206 7     -1930.262          46.000    21121049.430 7  86487152.071 7     -1504.100          46.000
G29  20247786.602 8 106402829.759 8      -448.441          51.000    20247785.359 8  82911312.465 8      -349.435          51.000
R15  21806378.758 8 116526590.874 8     -3460.480          49.000    21806384.422 7  90631817.795 7     -2691.485          46.000
R16  19184218.078 7 102478666.117 7      -134.371          46.000    19184221.727 7  79705631.746 7      -104.514          43.000
R18  19234042.805 8 102672716.810 8      -900.289          50.000    19234045.438 7  79856553.189 7      -700.225          47.000
R19  20429766.516 5 109285495.379 5      2930.855          34.000    20429769.867 7  84999818.013 7      2279.551          43.000
C05                                                                  39657203.453 6 159683124.220 6        21.271          37.000
C23  24189134.828 8 125959147.401 8     -2884.195          48.000
C27  23519978.547 8 122474791.962 8      2659.305          48.000
C28  21636099.336 8 112664927.444 8       -75.645          51.000
E11  23841847.422 7 125289776.406 7      2402.293          46.000    23841848.031 8  96001245.182 8      1840.655          48.000
E12  22016166.773 8 115695721.062 8      -414.426          50.000    22016166.336 8  88650007.928 8      -317.496          51.000
E24  21820791.227 8 114669027.668 8      -686.824          51.000    21820803.695 8  87863315.100 8      -526.238          51.000
E31  26845545.570 6 141074308.563 6     -2443.008          41.000    26845549.812 6 108095895.350 6     -1871.813          37.000
> 2020 05 17 11 13  0.0000000  0 17        .000000000000
G02  24657726.789 5 129577219.021 5     -2783.664          31.000
G14  24026711.391 7 126261210.123 7     -2392.289          42.000    24026711.125 6  98385351.563 6     -1864.121          40.000
G18  22829695.719 7 119970893.885 7      3474.535          42.000    22829699.297 5  93483771.325 5      2707.433          34.000
G25  21132095.922 7 111049909.440 7     -1940.066          47.000    21132098.273 7  86532394.575 7     -1511.740          47.000
G29  20250386.875 8 106416494.342 8      -462.125          51.000    20250385.602 8  82921960.192 8      -360.097          51.000
R15  21825839.859 8 116630581.987 8     -3471.840          48.000    21825845.383 7  90712699.723 7     -2700.323          47.000
R16  19185032.711 7 102483016.910 7      -155.180          46.000    19185036.008 7  79709015.694 7      -120.695          43.000
R18  19239167.469 8 102700072.704 8      -923.062          50.000    19239169.836 7  79877829.997 7      -717.938          47.000
R19  20413380.289 5 109197849.809 5      2912.836          35.000    20413385.094 7  84931649.180 7      2265.536          42.000
C05                                                                  39657045.391 6 159682486.382 6        21.679          36.000
C23  24205773.641 7 126045790.702 7     -2891.504          46.000
C27  23504682.820 7 122395142.566 7      2651.023          47.000
C28  21636574.797 8 112667404.118 8       -89.109          51.000
E11  23828159.688 7 125217846.678 7      2393.496          47.000    23828160.828 8  95946130.190 8      1833.989          49.000
E12  22018571.188 8 115708356.587 8      -427.590          50.000    22018570.828 8  88659689.700 8      -327.667          51.000
E24  21824737.812 8 114689767.474 8      -695.434          51.000    21824750.453 8  87879206.619 8      -532.886          51.000
E31  26859504.406 6 141147665.274 6     -2447.328          41.000    26859508.773 5 108152103.725 5     -1875.055          33.000
> 2020 05 17 11 13 30.0000000  0 19        .000000000000
G02  24673640.430 5 129660853.121 5     -2791.934          32.000
G14  24040395.102 6 126333116.292 6     -2401.336          41.000    24040394.914 6  98441382.293 6     -1871.177          37.000
G18  22809883.734 7 119866781.528 7      3466.285          43.000    22809886.695 5  93402644.893 5      2701.004          35.000
G21  22883255.867 5 120252300.593 5      3200.672          32.000
G25  21143203.094 8 111108275.970 8     -1951.098          50.000    21143205.023 8  86577874.960 8     -1520.336          49.000
G29  20253067.039 8 106430578.910 8      -476.938          51.000    20253065.930 8  82932935.182 8      -371.640          51.000
R15  21845366.148 8 116734920.689 8     -3484.234          50.000    21845371.203 7  90793852.004 7     -2709.960          45.000
R16  19185966.797 7 102488006.071 7      -177.289          46.000    19185970.227 7  79712896.128 7      -137.895          44.000
R17  22108662.570 4 118307921.724 4     -3864.871          29.000
R18  19244421.320 8 102728118.279 8      -946.793          50.000    19244423.812 8  79899643.249 8      -736.395          48.000
R19  20397099.867 6 109110755.521 6      2893.414          39.000    20397102.695 6  84863909.249 6      2250.436          41.000
C05                                                                  39656886.812 6 159681847.814 6        21.225          36.000
C23  24222456.375 7 126132662.952 7     -2900.023          45.000
C27  23489435.234 7 122315749.231 7      2641.715          46.000
C28  21637129.344 8 112670292.455 8      -103.562          51.000
E11  23814525.609 8 125146196.943 8      2383.273          48.000    23814526.516 8  95891229.742 8      1826.252          48.000
E12  22021052.680 8 115721396.994 8      -441.863          50.000    22021052.227 8  88669681.701 8      -338.487          51.000
