     3.02           OBSERVATION DATA    M (MIXED)           RINEX VERSION / TYPE
SAVERINEX           SC600               20200509 055931 LCL PGM / RUN BY / DATE
       G = GPS       R = GLONASS       C = COMPASS          COMMENT
       S = SBAS      J = QZSS          E = GALILEO          COMMENT
BEAN                                                        MARKER NAME
1                                                           MARKER NUMBER
GEODETIC                                                    MARKER TYPE
Unige DICCA         GTER                                    OBSERVER / AGENCY
SC60291900056       SC600               2.12(191226)        REC # / TYPE / VERS
                    HEMA45          NONE                    ANT # / TYPE
  4509407.8091   693652.4678  4442337.6214                  APPROX POSITION XYZ
        0.0000        0.0000        0.0000                  ANTENNA: DELTA H/E/N
G    8 C1C L1C D1C S1C C2Y L2Y D2Y S2Y                      SYS / # / OBS TYPES
R    8 C1C L1C D1C S1C C2P L2P D2P S2P                      SYS / # / OBS TYPES
C    8 C1I L1I D1I S1I C7I L7I D7I S7I                      SYS / # / OBS TYPES
E    8 C1C L1C D1C S1C C7Q L7Q D7Q S7Q                      SYS / # / OBS TYPES
DBHZ                                                        COMMENT
     30.000                                                 INTERVAL
  2020    05    09    03    00    0.0000000     GPS         TIME OF FIRST OBS
  2020    05    09    03    59   30.0000000     GPS         TIME OF LAST OBS
     0                                                      RCV CLOCK OFFS APPL
G L1C  0.00000                                              SYS / PHASE SHIFT
G L2Y  0.00000                                              SYS / PHASE SHIFT
R L1C  0.00000                                              SYS / PHASE SHIFT
R L2P  0.25000                                              SYS / PHASE SHIFT
C L1I  0.00000                                              SYS / PHASE SHIFT
C L7I  0.00000                                              SYS / PHASE SHIFT
E L1C  0.50000                                              SYS / PHASE SHIFT
E L7Q -0.25000                                              SYS / PHASE SHIFT
 12 R01  1 R02 -4 R07  5 R08  6 R09 -2 R10 -5 R11  0 R12 -1 GLONASS SLOT / FRQ #
    R13 -2 R21  4 R22 -3 R23  3                             GLONASS SLOT / FRQ #
 C1C   71.950 C2C   71.950 C2P   71.950                     GLONASS COD/PHS/BIS
    18                                                      LEAP SECONDS
*** Above antenna height is from mark to ANTENNA BOTTOM.    COMMENT
    17     4        0.0000        ANT MEASURE TYPE/HEIGT    COMMENT
    0.0000    0.0000    0.0458    0.0405    0.0000          COMMENT
                    BASE STATION                            COMMENT
                                                            END OF HEADER
> 2020 05 09 03 00  0.0000000  0 17        .000000000000
G02  24454379.133 4 128508629.238 4     -2731.453          29.000
G05  20574788.266 7 108121240.188 7       337.762          47.000    20574787.727 7  84250315.450 7       263.191          47.000
G07  21681191.125 8 113935427.991 8     -1955.695          51.000    21681188.961 8  88780832.734 8     -1523.918          51.000
G28  22719873.070 7 119393746.170 7      2984.703          47.000    22719871.719 7  93034095.518 7      2325.740          47.000
G30  20359608.195 8 106990505.035 8      -137.625          51.000    20359609.188 8  83369235.372 8      -107.240          51.000
R01  20902330.484 8 111734945.632 8     -2671.523          48.000    20902334.281 6  86904935.683 6     -2077.852          39.000
R02  19502481.977 4 104068992.266 4      1637.578          29.000    19502499.109 4  80942584.458 4      1273.669          29.000
R11  20175996.805 8 107814439.263 8     -2238.047          49.000    20175999.117 8  83855693.150 8     -1740.703          50.000
R12  19499055.102 8 104160471.403 8      1808.316          51.000    19499057.234 7  81013720.170 7      1406.465          47.000
C05  39794349.055 6 207219617.670 6        -2.031          37.000    39794346.844 6 160235345.832 6        -1.583          41.000
C14  23836803.883 7 124124472.734 7     -2689.688          44.000    23836798.812 8  95980913.567 8     -2079.816          48.000
C24  22728339.781 7 118352506.802 7     -1557.840          42.000
C25  22351632.734 8 116390881.087 8      1731.688          51.000
E05  23687270.422 8 124477433.922 8      -746.297          51.000    23687272.617 8  95378846.431 8      -571.853          51.000
E24  22435229.641 8 117897938.353 8        -7.512          48.000    22435241.016 8  90337429.336 8        -5.789          48.000
E25  25238031.398 8 132626813.257 8      2628.156          51.000    25238033.500 8 101623125.839 8      2013.806          51.000
E31  27090766.625 6 142362925.678 6     -2417.332          37.000    27090761.742 5 109083274.607 5     -1851.960          32.000
> 2020 05 09 03 00 30.0000000  0 15        .000000000000
G05  20572908.836 8 108111363.708 8       319.949          48.000    20572908.492 8  84242619.471 8       249.311          48.000
G07  21692376.914 8 113994209.781 8     -1963.828          50.000    21692374.977 8  88826636.728 8     -1530.256          50.000
G28  22702851.852 7 119304302.620 7      2977.566          46.000    22702851.734 7  92964399.234 7      2320.182          46.000
G30  20360430.719 8 106994827.628 8      -151.348          51.000    20360431.766 8  83372603.636 8      -117.933          51.000
R01  20917356.500 7 111815266.754 7     -2683.945          47.000    20917360.352 6  86967407.647 6     -2087.513          40.000
R11  20188612.391 7 107881852.817 7     -2256.906          47.000    20188614.469 8  83908125.901 8     -1755.372          50.000
R12  19488959.984 8 104106547.131 8      1785.789          51.000    19488962.539 7  80971779.065 7      1388.947          47.000
C05  39794355.406 6 207219650.223 6         -.910          36.000    39794353.078 6 160235371.004 6         -.628          41.000
C14  23852313.594 6 124205244.377 6     -2695.875          41.000    23852310.180 8  96043371.401 8     -2084.685          50.000
C24  22737344.234 6 118399400.224 6     -1568.887          36.000
C25  22341687.969 8 116339093.754 8      1719.914          51.000
E05  23691546.242 8 124499903.327 8      -752.398          51.000    23691548.523 8  95396063.248 8      -576.537          51.000
E24  22435308.172 8 117898351.256 8       -20.824          48.000    22435319.844 8  90337745.740 8       -15.941          49.000
E25  25223045.633 8 132548063.500 8      2620.988          51.000    25223048.211 8 101562785.112 8      2008.326          51.000
E31  27104582.977 6 142435526.905 6     -2423.715          38.000    27104577.070 5 109138900.116 5     -1857.488          31.000
> 2020 05 09 03 01  0.0000000  0 15        .000000000000
G05  20571139.562 8 108102064.566 8       300.363          49.000    20571139.000 8  84235373.369 8       234.049          49.000
G07  21703616.758 8 114053275.156 8     -1973.570          50.000    21703615.258 8  88872661.695 8     -1537.847          50.000
G28  22685880.305 7 119215119.732 7      2968.457          45.000    22685881.078 7  92894906.040 7      2313.083          45.000
G30  20361340.102 8 106999606.893 8      -166.910          51.000    20361340.984 8  83376327.742 8      -130.060          51.000
R01  20932460.078 7 111896005.779 7     -2698.227          44.000    20932464.367 6  87030204.657 6     -2098.621          39.000
R11  20201342.055 7 107949879.139 7     -2277.648          46.000    20201344.641 8  83961035.298 8     -1771.504          49.000
R12  19478999.961 8 104053343.081 8      1761.512          51.000    19479002.688 7  80930398.174 7      1370.068          47.000
C05  39794361.734 6 207219683.851 6        -1.129          36.000    39794359.398 6 160235396.235 6         -.677          41.000
C14  23867870.250 7 124286247.842 7     -2704.016          45.000    23867867.273 8  96106008.458 8     -2090.947          51.000
C24  22746422.984 6 118446671.203 6     -1582.016          39.000
C25  22331819.938 8 116287704.372 8      1706.363          51.000
E05  23695864.945 8 124522598.019 8      -760.277          51.000    23695867.125 8  95413452.697 8      -582.589          51.000
E24  22435470.859 8 117899206.592 8       -35.941          48.000    22435482.867 8  90338401.121 8       -27.504          50.000
E25  25208108.430 8 132469568.622 8      2612.219          51.000    25208111.242 8 101502639.706 8      2001.594          51.000
E31  27118444.727 6 142508368.604 6     -2432.250          38.000    27118438.617 5 109194713.823 5     -1863.585          32.000
> 2020 05 09 03 01 30.0000000  0 16        .000000000000
G05  20569480.578 8 108093344.532 8       282.215          49.000    20569479.023 8  84228578.542 8       219.908          49.000
G07  21714910.453 8 114112623.183 8     -1981.723          51.000    21714909.086 8  88918906.904 8     -1544.199          51.000
G28  22668958.945 7 119126201.547 7      2960.430          42.000    22668960.547 7  92825619.117 7      2306.828          42.000
G30  20362336.492 8 107004842.940 8      -180.949          51.000    20362337.547 8  83380407.797 8      -140.996          51.000
R01  20947641.438 7 111977162.577 7     -2710.949          44.000    20947646.336 6  87093326.639 6     -2108.516          38.000
R11  20214186.406 7 108018516.049 7     -2296.805          45.000    20214189.188 8  84014419.612 8     -1786.401          48.000
R12  19469175.422 8 104000861.834 8      1738.527          51.000    19469177.820 8  80889579.458 8      1352.188          48.000
C05  39794368.203 6 207219717.510 6         -.062          36.000    39794365.781 6 160235422.269 6         -.039          41.000
C14  23883472.352 7 124367483.233 7     -2710.449          47.000    23883469.211 8  96168824.772 8     -2095.958          51.000
C24  22755573.734 6 118494318.961 6     -1593.195          38.000
C25  22322028.742 8 116236714.652 8      1694.145          51.000
E05  23700226.727 8 124545519.314 8      -766.633          51.000    23700228.852 8  95431015.767 8      -587.432          51.000
E09                                                                  25204803.852 5 101489298.656 5     -1796.543          35.000
E24  22435717.914 8 117900504.994 8       -49.398          48.000    22435730.305 8  90339396.013 8       -37.941          51.000
E25  25193220.273 8 132391331.159 8      2604.758          51.000    25193223.078 8 101442691.547 8      1995.871          51.000
E31  27132351.539 6 142581449.910 6     -2438.703          37.000    27132346.344 5 109250711.126 5     -1868.518          33.000
> 2020 05 09 03 02  0.0000000  0 17        .000000000000
G05  20567926.508 8 108085177.227 8       263.273          50.000    20567924.523 8  84222214.398 8       205.148          50.000
G07  21726252.328 8 114172224.982 8     -1990.719          50.000    21726250.961 8  88965349.856 8     -1551.209          50.000
G09  23863159.383 5 125401739.114 5     -2927.285          32.000    23863153.148 5  97715622.251 5     -2281.001          31.000
G28  22652083.070 6 119037523.860 6      2952.082          39.000    22652085.133 6  92756519.657 6      2300.324          39.000
G30  20363414.523 8 107010507.645 8      -195.754          51.000    20363415.578 8  83384821.877 8      -152.536          51.000
R01  20962895.609 7 112058708.246 7     -2724.480          44.000    20962901.000 6  87156751.047 6     -2119.043          39.000
R11  20227139.125 7 108087732.421 7     -2316.621          46.000    20227142.070 7  84068254.598 7     -1801.819          47.000
R12  19459481.117 8 103949076.919 8      1714.801          51.000    19459483.555 8  80849302.298 8      1333.734          48.000
C05  39794369.609 6 207219725.219 6          .199          37.000    39794367.359 6 160235428.244 6          .157          41.000
C14  23899113.258 8 124448922.425 8     -2717.727          48.000    23899109.969 8  96231798.670 8     -2101.579          50.000
C24  22764789.711 5 118542314.764 5     -1605.406          34.000
C25  22312308.930 8 116186098.269 8      1681.203          51.000
E05  23704626.492 8 124568640.271 8      -773.777          51.000    23704628.469 8  95448731.820 8      -592.858          51.000
E09                                                                  25218201.500 5 101543240.016 5     -1798.806          34.000
E24  22436044.250 8 117902218.900 8       -63.781          48.000    22436056.859 8  90340709.261 8       -48.856          51.000
E25  25178376.211 8 132313325.410 8      2596.598          51.000    25178378.781 8 101382920.926 8      1989.604          51.000
E31  27146297.953 6 142654741.905 6     -2446.242          37.000    27146294.703 5 109306869.930 5     -1874.196          34.000
> 2020 05 09 03 02 30.0000000  0 16        .000000000000
G05  20566488.242 8 108077618.854 8       242.992          50.000    20566486.234 8  84216324.752 8       189.345          50.000
G07  21737652.672 8 114232134.473 8     -2000.848          49.000    21737651.453 8  89012032.588 8     -1559.102          49.000
G28  22635264.508 6 118949144.343 6      2942.383          41.000    22635264.727 5  92687652.530 5      2292.769          35.000
G30  20364584.508 8 107016655.554 8      -211.688          51.000    20364585.047 8  83389612.476 8      -164.951          51.000
R01  20978233.461 7 112140698.544 7     -2739.031          47.000    20978239.305 6  87220521.223 6     -2130.358          40.000
R11  20240210.766 7 108157581.221 7     -2337.613          44.000    20240213.055 7  84122581.453 7     -1818.141          46.000
R12  19449927.820 8 103898046.119 8      1689.793          51.000    19449930.508 8  80809611.682 8      1314.280          49.000
C05  39794376.609 6 207219761.835 6         -.527          36.000    39794374.383 6 160235456.561 6         -.432          41.000
C14  23914802.789 8 124530619.391 8     -2726.207          48.000    23914799.820 8  96294971.890 8     -2108.037          49.000
C24  22774083.477 6 118590711.872 6     -1618.609          37.000
C25  22302670.875 8 116135910.806 8      1667.020          50.000
E05  23709074.852 8 124592016.601 8      -782.207          51.000    23709076.516 8  95466643.563 8      -599.359          51.000
E09                                                                  25231623.258 4 101597295.687 4     -1801.760          29.000
E24  22436459.906 8 117904403.355 8       -79.320          49.000    22436472.867 8  90342383.071 8       -60.811          51.000
E25  25163586.984 8 132235608.272 8      2587.000          51.000    25163589.266 8 101323371.435 8      1982.289          51.000
E31  27160294.836 6 142728298.236 6     -2455.133          37.000    27160293.602 5 109363231.250 5     -1881.005          35.000
> 2020 05 09 03 03  0.0000000  0 15        .000000000000
G05  20565155.984 8 108070617.700 8       223.949          50.000    20565153.742 8  84210869.319 8       174.506          50.000
G07  21749101.297 8 114292297.701 8     -2009.797          49.000    21749100.195 8  89058913.033 8     -1566.075          48.000
G28  22618493.836 6 118861013.937 6      2933.012          41.000    22618491.453 5  92618979.544 5      2285.464          35.000
G30  20365836.211 8 107023233.399 8      -226.543          51.000    20365836.672 8  83394738.079 8      -176.527          51.000
R01  20993644.867 7 112223078.754 7     -2752.586          47.000    20993650.172 6  87284594.717 6     -2140.897          41.000
R11  20253389.867 7 108228005.796 7     -2357.281          46.000    20253392.008 7  84177356.150 7     -1833.441          46.000
R12  19440506.039 8 103847717.421 8      1665.789          51.000    19440508.930 8  80770467.136 8      1295.614          49.000
C05  39794379.219 6 207219774.462 6         -.211          36.000    39794376.883 6 160235467.102 6         -.142          40.000
C14  23930530.320 7 124612521.269 7     -2733.637          47.000    23930528.930 8  96358303.560 8     -2113.716          49.000
C24  22783443.906 5 118639456.837 5     -1630.547          32.000
C25  22293105.227 8 116086100.961 8      1653.992          51.000
E05  23713561.734 8 124615596.207 8      -789.469          51.000    23713563.469 8  95484711.059 8      -604.906          51.000
E24  22436955.367 8 117907005.619 8       -93.848          50.000    22436968.234 8  90344376.999 8       -71.873          51.000
E25  25148842.977 8 132158128.876 8      2578.609          50.000    25148845.117 8 101264004.097 8      1975.800          51.000
E31  27174331.750 6 142802064.705 6     -2462.547          37.000    27174332.547 6 109419753.639 6     -1886.896          36.000
> 2020 05 09 03 03 30.0000000  0 16        .000000000000
G05  20563937.070 8 108064212.889 8       203.887          50.000    20563935.125 8  84205878.560 8       158.873          50.000
G07  21760605.211 8 114352751.095 8     -2019.633          48.000    21760604.000 8  89106019.602 8     -1573.737          48.000
G28  22601778.289 6 118773173.648 6      2923.594          40.000    22601775.367 6  92550532.628 6      2278.131          37.000
G30  20367176.828 8 107030278.623 8      -242.355          51.000    20367177.805 8  83400227.882 8      -188.845          51.000
R01  21009136.039 7 112305887.149 7     -2767.062          46.000    21009141.328 7  87349001.231 7     -2152.160          42.000
R02  19440084.281 5 103736003.346 5      1532.496          32.000
R11  20266683.625 7 108299041.496 7     -2377.613          45.000    20266685.469 7  84232606.166 7     -1849.252          45.000
R12  19431222.945 8 103798131.062 8      1640.812          51.000    19431226.055 8  80731899.986 8      1276.188          48.000
C05  39794384.680 6 207219803.071 6         -.988          37.000    39794382.375 6 160235489.203 6         -.595          41.000
C14  23946304.227 8 124694665.045 8     -2741.793          48.000    23946303.812 8  96421822.319 8     -2120.122          49.000
C24  22792886.930 5 118688531.281 5     -1643.812          33.000
C25  22283619.703 8 116036707.397 8      1639.812          51.000
E05  23718094.547 8 124639417.755 8      -797.730          51.000    23718096.664 8  95502963.933 8      -611.245          51.000
E24  22437537.461 8 117910063.644 8      -109.168          50.000    22437550.047 8  90346720.154 8       -83.639          51.000
E25  25134151.719 8 132080926.996 8      2569.062          50.000    25134154.008 8 101204849.404 8      1968.520          51.000
E31  27188415.578 6 142876077.944 6     -2470.535          38.000    27188418.070 6 109476465.048 6     -1893.154          37.000
> 2020 05 09 03 04  0.0000000  0 16        .000000000000
G05  20562823.578 8 108058362.978 8       185.242          50.000    20562822.055 8  84201320.169 8       144.345          50.000
G07  21772156.289 8 114413451.687 8     -2028.039          48.000    21772154.789 8  89153318.772 8     -1580.290          48.000
G28  22585111.047 7 118685584.746 7      2914.898          43.000    22585108.516 6  92482281.542 6      2271.349          38.000
G30  20368598.430 8 107037748.872 8      -256.590          51.000    20368599.344 8  83406048.857 8      -199.940          51.000
R01  21024699.391 7 112389080.191 7     -2779.996          46.000    21024704.797 7  87413706.952 7     -2162.219          42.000
R02  19431503.086 5 103690225.454 5      1517.824          30.000    19431524.469 4  80648025.361 4      1180.530          26.000
R11  20280083.055 7 108370642.861 7     -2396.672          46.000    20280084.484 7  84288296.115 7     -1864.081          43.000
R12  19422071.281 8 103749246.354 8      1617.340          51.000    19422074.812 8  80693878.554 8      1257.934          48.000
C05  39794385.242 6 207219806.527 6         -.012          36.000    39794382.867 6 160235491.127 6         -.314          41.000
C14  23962117.492 8 124777008.612 8     -2748.625          48.000    23962115.938 8  96485495.608 8     -2125.444          51.000
C24  22802379.820 6 118738001.527 6     -1655.082          37.000
C25  22274206.398 8 115987689.661 8      1627.234          51.000
E05  23722665.781 8 124663440.057 8      -804.699          51.000    23722667.953 8  95521370.642 8      -616.582          51.000
E24  22438198.148 8 117913535.573 8      -123.215          50.000    22438210.602 8  90349380.468 8       -94.420          51.000
E25  25119505.703 8 132003962.713 8      2560.965          50.000    25119508.328 8 101145876.782 8      1962.274          51.000
E31  27202538.234 6 142950294.784 6     -2477.715          38.000    27202541.914 6 109533332.496 6     -1898.703          37.000
> 2020 05 09 03 04 30.0000000  0 17        .000000000000
G05  20561827.953 8 108053131.805 8       164.016          50.000    20561826.398 8  84197243.933 8       127.804          50.000
G07  21783765.961 7 114474460.449 7     -2038.641          47.000    21783764.055 7  89200858.082 7     -1588.551          47.000
G13  22030809.891 5 115772686.194 5      2408.551          32.000
G28  22568505.023 7 118598312.948 7      2903.656          46.000    22568502.352 6  92414277.510 6      2262.586          40.000
G30  20370112.766 8 107045705.960 8      -273.355          51.000    20370113.328 8  83412249.179 8      -213.004          51.000
R01  21040345.742 7 112472720.797 7     -2795.523          43.000    21040351.797 6  87478760.793 6     -2174.296          41.000
R02  19423020.844 5 103644962.480 5      1501.281          32.000    19423022.102 4  80612752.347 4      1167.663          25.000
R11  20293599.672 7 108442870.318 7     -2418.109          45.000    20293601.414 7  84344473.042 7     -1880.752          42.000
R12  19413063.078 8 103701128.020 8      1591.102          51.000    19413067.219 7  80656453.200 7      1237.523          47.000
C05  39794392.727 6 207219845.078 6        -1.734          36.000    39794390.273 6 160235520.924 6        -1.408          41.000
C14  23977981.242 8 124859613.226 8     -2757.906          48.000    23977978.539 8  96549370.736 8     -2132.648          51.000
C24  22811953.781 6 118787873.310 6     -1669.023          38.000
C25  22264877.383 8 115939110.609 8      1611.977          51.000
E05  23727287.266 8 124687726.206 8      -814.109          51.000    23727289.219 8  95539979.521 8      -623.819          51.000
E24  22438949.648 8 117917483.767 8      -139.680          51.000    22438961.953 8  90352405.702 8      -107.036          51.000
E25  25104917.414 8 131927300.231 8      2550.250          51.000    25104920.250 8 101087135.408 8      1954.079          51.000
E31  27216711.438 6 143024776.141 6     -2487.254          37.000    27216715.586 6 109590402.568 6     -1905.848          37.000
> 2020 05 09 03 05  0.0000000  0 16        .000000000000
G05  20560935.586 8 108048442.169 8       150.707          51.000    20560933.844 8  84193589.675 8       117.434          50.000
G07  21795419.148 7 114535698.324 7     -2041.500          47.000    21795416.844 7  89248575.913 7     -1590.779          47.000
G28  22551945.273 8 118511283.590 8      2900.461          48.000    22551942.219 6  92346462.411 6      2260.099          41.000
G30  20371704.805 8 107054071.533 8      -282.145          51.000    20371705.641 8  83418767.823 8      -219.853          51.000
R01  21056060.922 7 112556729.303 7     -2802.930          45.000    21056067.258 6  87544100.746 6     -2180.056          40.000
R02  19414616.578 5 103600106.109 5      1491.477          34.000    19414615.617 4  80577860.038 4      1160.037          25.000
R11  20307217.727 7 108515641.514 7     -2431.336          46.000    20307219.953 6  84401072.904 6     -1891.039          39.000
R12  19404183.719 8 103653698.656 8      1573.117          49.000    19404188.344 7  80619563.727 7      1223.539          46.000
C05  39794392.352 6 207219842.968 6         4.125          36.000    39794389.836 6 160235519.294 6         3.292          41.000
C14  23993880.070 8 124942401.099 8     -2759.109          48.000    23993876.859 8  96613387.578 8     -2133.509          51.000
C24  22821593.172 6 118838068.406 6     -1675.051          41.000
C25  22255617.781 8 115890894.069 8      1604.586          51.000
E05  23731944.180 8 124712199.039 8      -815.301          51.000    23731946.148 8  95558731.444 8      -624.738          51.000
E24  22439776.836 8 117921830.375 8      -147.957          51.000    22439789.070 8  90355736.221 8      -113.379          51.000
E25  25090372.398 8 131850863.613 8      2547.605          51.000    25090374.742 8 101028567.106 8      1952.049          51.000
E31  27230919.875 6 143099442.829 6     -2488.469          37.000    27230924.430 6 109647614.669 6     -1906.671          36.000
> 2020 05 09 03 05 30.0000000  0 17        .000000000000
G05  20560152.320 8 108044326.100 8       126.383          50.000    20560150.469 8  84190382.349 8        98.480          50.000
G07  21807121.641 7 114597195.305 7     -2055.516          47.000    21807119.086 7  89296495.622 7     -1601.704          47.000
G28  22535437.758 8 118424530.896 8      2885.676          49.000    22535434.016 7  92278862.907 7      2248.579          42.000
G30  20373380.375 8 107062876.278 8      -302.145          51.000    20373381.250 8  83425628.674 8      -235.434          51.000
R01  21071851.406 8 112641136.513 8     -2821.629          48.000    21071856.914 6  87609750.802 6     -2194.600          40.000
R02  19406295.484 5 103555706.170 5      1471.309          34.000    19406299.250 4  80543333.772 4      1144.354          29.000
R11  20320942.898 7 108588985.149 7     -2455.641          46.000    20320942.836 6  84458117.888 6     -1909.946          37.000
R12  19395439.820 8 103606991.449 8      1543.500          50.000    19395444.367 7  80583235.928 7      1200.500          47.000
C05  39794390.273 6 207219832.479 6         -.969          36.000    39794387.586 6 160235510.403 6         -.513          41.000
C14  24009819.609 7 125025402.568 7     -2771.555          45.000    24009816.797 8  96677569.611 8     -2143.160          51.000
C24  22831300.930 6 118888616.426 6     -1692.090          40.000
C25  22246434.273 8 115843072.016 8      1586.078          51.000
E05  23736642.727 8 124736890.509 8      -827.984          51.000    23736644.719 8  95577650.887 8      -634.463          51.000
E09  25312564.617 5 133018425.890 5     -2374.293          31.000
E24  22440685.812 8 117926606.591 8      -167.668          51.000    22440697.930 8  90359395.926 8      -128.497          50.000
E25  25075876.719 8 131774685.952 8      2533.680          51.000    25075878.273 8 100970197.205 8      1941.400          51.000
E31  27245169.367 6 143174324.767 6     -2500.918          36.000    27245174.156 5 109704991.692 5     -1916.087          34.000
> 2020 05 09 03 06  0.0000000  0 16        .000000000000
G05  20559484.484 8 108040816.573 8       107.629          51.000    20559482.539 8  84187647.650 8        83.867          51.000
G07  21818879.172 7 114658981.031 7     -2063.688          46.000    21818876.711 7  89344640.325 7     -1608.068          46.000
G28  22518988.914 7 118338089.475 7      2876.715          47.000    22518985.336 7  92211505.948 7      2241.596          43.000
G30  20375145.250 8 107072150.633 8      -316.312          51.000    20375146.031 8  83432855.450 8      -246.477          51.000
R01  21087722.414 8 112725973.368 8     -2834.336          48.000    21087726.961 6  87675734.962 6     -2204.487          39.000
R02  19398065.898 5 103511797.591 5      1456.371          33.000    19398069.680 5  80509194.626 5      1132.727          30.000
R11  20334780.547 7 108662929.482 7     -2473.887          43.000    20334780.500 6  84515630.178 6     -1924.131          37.000
R12  19386837.688 8 103561039.604 8      1519.930          50.000    19386842.000 7  80547495.573 7      1182.168          47.000
C05  39794392.273 6 207219842.708 6         -.191          36.000    39794389.625 6 160235518.323 6         -.145          41.000
C14  24025804.938 7 125108647.711 7     -2778.371          42.000    24025803.891 8  96741940.056 8     -2148.292          51.000
C24  22841081.297 6 118939546.664 6     -1703.352          39.000
C25  22237332.656 8 115795676.136 8      1573.402          51.000
E05  23741388.859 8 124761832.300 8      -834.898          51.000    23741391.016 8  95596762.115 8      -639.754          51.000
E24  22441682.375 8 117931843.342 8      -181.594          50.000    22441694.398 8  90363408.507 8      -139.164          49.000
E25  25061436.297 8 131698800.110 8      2525.281          51.000    25061437.070 8 100912050.914 8      1934.932          51.000
E31  27259465.312 5 143249457.495 5     -2507.605          35.000    27259470.344 5 109762590.320 5     -1921.439          33.000
> 2020 05 09 03 06 30.0000000  0 16        .000000000000
G05  20558930.031 8 108037903.395 8        89.543          50.000    20558928.227 8  84185377.647 8        69.774          50.000
G07  21830689.383 7 114721043.995 7     -2070.980          44.000    21830687.375 7  89393001.085 7     -1613.751          44.000
G28  22502596.867 7 118251951.790 7      2868.531          46.000    22502594.453 7  92144385.664 7      2235.222          45.000
G30  20376997.328 8 107081883.469 8      -329.715          51.000    20376998.188 8  83440439.488 8      -256.921          51.000
R01  21103671.836 8 112811228.501 8     -2846.398          49.000    21103675.234 6  87742044.506 6     -2213.865          40.000
R02  19389927.438 5 103468372.495 5      1442.195          32.000    19389934.836 5  80475419.547 5      1121.704          32.000
R11  20348727.891 7 108737461.017 7     -2491.754          46.000    20348729.703 6  84573599.184 6     -1938.034          36.000
R12  19378375.109 8 103515833.668 8      1496.785          50.000    19378379.352 8  80512335.407 8      1164.166          48.000
C05  39794396.359 6 207219864.580 6         1.340          36.000    39794393.898 6 160235535.221 6         1.136          41.000
C14  24041834.438 7 125192125.414 7     -2784.082          42.000    24041835.797 8  96806490.437 8     -2152.892          51.000
C24  22850932.711 6 118990847.429 6     -1713.754          36.000
C25  22228310.953 8 115748696.909 8      1561.344          51.000
E05  23746180.945 8 124787014.481 8      -841.066          51.000    23746183.133 8  95616057.550 8      -644.439          51.000
E24  22442764.484 8 117937530.034 8      -194.695          50.000    22442776.297 7  90367765.829 7      -149.146          46.000
E25  25047049.203 8 131623197.364 8      2517.836          50.000    25047050.133 8 100854121.532 8      1929.272          51.000
E31  27273805.336 5 143324814.203 5     -2513.719          34.000
> 2020 05 09 03 07  0.0000000  0 15        .000000000000
G05  20558482.180 8 108035550.497 8        69.141          50.000    20558480.664 8  84183544.212 8        53.876          51.000
G07  21842544.984 7 114783346.043 7     -2080.453          43.000    21842543.555 7  89441548.179 7     -1621.129          43.000
G28  22486256.219 7 118166084.382 7      2857.711          47.000    22486255.000 7  92077475.991 7      2226.788          46.000
G30  20378929.672 8 107092037.663 8      -345.461          51.000    20378930.664 8  83448351.847 8      -269.190          51.000
R01  21119691.938 8 112896863.938 8     -2860.781          48.000    21119695.398 6  87808649.852 6     -2225.052          41.000
R02  19381873.125 5 103425396.293 5      1424.848          35.000    19381882.297 5  80441993.626 5      1108.218          32.000
R11  20362777.836 7 108812539.266 7     -2511.504          44.000    20362779.070 5  84631993.334 5     -1953.395          33.000
R12  19370046.180 8 103471338.036 8      1471.391          51.000    19370049.680 8  80477727.692 8      1144.415          48.000
C05  39794395.906 6 207219862.322 6          .273          36.000    39794393.391 6 160235533.473 6          .326          41.000
C14  24057901.594 7 125275798.969 7     -2792.262          42.000    24057905.320 8  96871192.156 8     -2159.148          51.000
C24  22860849.680 6 119042481.005 6     -1726.578          37.000
C25  22219362.523 8 115702099.075 8      1546.953          51.000
E05  23751012.000 8 124812401.219 8      -849.496          51.000    23751014.234 8  95635509.712 8      -650.904          51.000
E24  22443925.047 8 117943630.009 8      -210.062          48.000    22443936.617 7  90372439.818 7      -160.939          44.000
E25  25032708.992 8 131547843.001 8      2507.738          49.000    25032710.844 8 100796382.479 8      1921.529          51.000
> 2020 05 09 03 07 30.0000000  0 15        .000000000000
G05  20558180.562 8 108033965.752 8        47.734          51.000    20558179.383 8  84182309.350 8        37.196          51.000
G07  21854485.078 7 114846092.588 7     -2091.105          44.000    21854483.945 7  89490441.595 7     -1629.430          44.000
G28  22470007.250 8 118080697.266 8      2845.945          48.000    22470006.875 7  92010940.564 7      2217.620          45.000
G30  20380981.312 8 107102819.376 8      -362.117          51.000    20380982.438 8  83456753.196 8      -282.169          51.000
R01  21135821.867 7 112983089.016 7     -2876.027          46.000    21135826.102 7  87875713.763 7     -2236.910          42.000
R02  19373943.789 6 103383082.029 6      1407.648          36.000    19373952.148 5  80409082.509 5      1094.841          31.000
R11  20376968.406 7 108888371.304 7     -2532.387          45.000    20376970.219 5  84690973.849 5     -1969.631          33.000
R12  19361889.250 8 103427764.068 8      1444.922          51.000    19361892.148 7  80443836.828 7      1123.828          47.000
C05  39794430.180 6 207220040.055 6         -.965          36.000    39794427.742 6 160235671.701 6        -1.024          41.000
C14  24074046.539 7 125359872.590 7     -2801.438          45.000    24074051.195 8  96936203.190 8     -2166.180          51.000
C24  22870869.281 6 119094651.151 6     -1740.293          39.000
C25  22210526.844 8 115656088.449 8      1531.562          51.000
E05  23755921.297 8 124838199.951 8      -859.074          51.000    23755923.602 8  95655277.564 8      -658.264          51.000
E24  22445203.617 7 117950349.940 7      -226.582          47.000    22445214.891 6  90377588.820 6      -173.735          39.000
E25  25018455.930 8 131472945.634 8      2496.789          50.000    25018458.766 8 100738993.571 8      1913.166          51.000
> 2020 05 09 03 08  0.0000000  0 16        .000000000000
G05  20557950.656 8 108032758.338 8        29.992          51.000    20557949.820 8  84181368.510 8        23.371          51.000
G07  21866435.148 7 114908890.693 7     -2098.188          44.000    21866433.695 7  89539375.185 7     -1634.951          43.000
G28  22453775.391 7 117995401.821 7      2837.754          47.000    22453776.406 7  91944476.593 7      2211.237          45.000
G30  20383077.773 8 107113836.217 8      -375.172          51.000    20383078.648 8  83465337.737 8      -292.342          51.000
R01  21151987.469 7 113069504.410 7     -2887.754          47.000    21151992.070 6  87942925.781 6     -2246.028          40.000
R02  19366064.211 5 103341035.075 5      1393.086          31.000    19366071.125 5  80376379.304 5      1083.508          32.000
R11  20391225.375 7 108964555.534 7     -2549.281          45.000    20391228.672 5  84750228.270 5     -1982.771          30.000
R12  19353830.422 8 103384715.106 8      1422.137          51.000    19353833.195 8  80410354.286 8      1106.106          49.000
C05  39794424.695 6 207220012.026 6          .633          36.000    39794422.312 6 160235650.009 6          .378          41.000
C14  24090194.719 7 125443957.229 7     -2806.973          46.000    24090198.406 8  97001222.788 8     -2170.550          50.000
C23  25839676.867 6 134554002.047 6      3270.305          36.000
C24  22880916.438 6 119146968.128 6     -1750.594          39.000
C25  22201729.070 8 115610277.701 8      1519.680          51.000
E05  23760834.570 8 124864019.526 8      -865.035          51.000    23760836.797 8  95675061.396 8      -662.831          51.000
E24  22446525.445 7 117957297.941 7      -239.277          45.000    22446538.805 6  90382912.481 6      -183.486          37.000
E25  25004216.102 8 131398115.242 8      2489.086          51.000    25004219.820 8 100681656.020 8      1907.240          51.000
> 2020 05 09 03 08 30.0000000  0 16        .000000000000
G05  20557836.477 8 108032158.984 8         9.785          51.000    20557835.734 8  84180901.479 8         7.625          51.000
G07  21878438.656 7 114971969.591 7     -2107.246          44.000    21878436.992 7  89588527.567 7     -1642.010          44.000
G28  22437605.812 8 117910431.538 8      2826.762          48.000    22437607.859 7  91878265.981 7      2202.671          44.000
G30  20385262.656 8 107125317.828 8      -390.520          51.000    20385263.578 8  83474284.445 8      -304.298          51.000
R01  21168231.844 7 113156343.712 7     -2901.812          43.000    21168237.094 6  88010467.507 6     -2256.965          40.000
R02  19358278.273 6 103299481.668 6      1376.086          36.000    19358285.125 5  80344067.685 5      1070.292          32.000
R11  20405591.406 7 109041323.014 7     -2568.789          45.000    20405592.172 4  84809903.185 4     -1997.953          27.000
R12  19345913.875 8 103342426.490 8      1396.840          51.000    19345917.070 8  80377463.155 8      1086.431          49.000
C05  39794423.500 6 207220005.766 6         -.406          36.000    39794421.117 6 160235645.154 6         -.033          41.000
C14  24106388.805 7 125528280.578 7     -2814.836          46.000    24106388.664 7  97066426.911 7     -2176.570          42.000
C23  25820847.758 6 134455964.973 6      3265.512          36.000
C24  22891035.570 6 119199658.827 6     -1762.719          39.000
C25  22193013.203 8 115564895.943 8      1505.391          51.000
E05  23765795.594 8 124890090.912 8      -873.379          51.000    23765798.039 8  95695038.164 8      -669.194          51.000
E24  22447934.469 7 117964704.174 7      -254.781          44.000    22447952.375 6  90388587.268 6      -195.312          37.000
E25  24990033.711 8 131323583.931 8      2479.277          51.000    24990037.359 8 100624547.646 8      1899.661          51.000
> 2020 05 09 03 09  0.0000000  0 16        .000000000000
G05  20557831.602 8 108032132.981 8        -9.977          51.000    20557830.914 8  84180881.219 8        -7.774          51.000
G07  21890488.555 7 115035292.070 7     -2115.707          44.000    21890486.852 7  89637869.729 7     -1648.603          43.000
G28  22421492.320 8 117825753.495 8      2816.383          49.000    22421494.602 6  91812283.103 6      2194.587          41.000
G30  20387529.039 8 107137227.817 8      -405.480          51.000    20387530.281 8  83483564.974 8      -315.959          51.000
R01  21184548.781 7 113243569.966 7     -2915.434          45.000    21184554.234 6  88078310.106 6     -2267.559          39.000
R02  19350581.859 5 103258408.478 5      1359.770          35.000    19350587.594 5  80312121.909 5      1057.599          31.000
R11  20420059.758 7 109118634.284 7     -2587.355          45.000    20420062.398 4  84870034.170 4     -2012.385          29.000
R12  19338133.078 8 103300863.099 8      1371.930          51.000    19338136.219 8  80345136.041 8      1067.056          49.000
C05  39794419.758 6 207219986.177 6         -.258          36.000    39794417.336 6 160235630.007 6         -.341          41.000
C14  24122621.938 7 125612806.417 7     -2822.191          47.000    24122614.633 6  97131787.528 6     -2182.554          39.000
C23  25802039.516 5 134358034.341 5      3261.078          34.000
C24  22901219.164 6 119252686.351 6     -1774.602          40.000
C25  22184373.352 8 115519908.644 8      1491.691          51.000
E05  23770797.984 8 124916378.978 8      -881.266          51.000    23770800.711 8  95715180.978 8      -675.288          51.000
E24  22449423.664 7 117972532.709 7      -269.418          42.000    22449442.312 6  90394585.571 6      -206.240          38.000
E25  24975901.828 8 131249317.733 8      2469.660          51.000    24975905.195 8 100567642.411 8      1892.328          51.000
> 2020 05 09 03 09 30.0000000  0 16        .000000000000
G05  20557943.297 8 108032718.823 8       -28.949          51.000    20557942.523 8  84181337.707 8       -22.558          51.000
G07  21902591.727 6 115098894.268 6     -2123.840          41.000    21902590.320 6  89687429.882 6     -1654.940          41.000
G28  22405442.195 8 117741408.572 8      2806.633          48.000    22405443.586 6  91746559.886 6      2186.990          37.000
G30  20389883.984 8 107149602.979 8      -419.484          51.000    20389885.062 8  83493207.949 8      -326.871          51.000
R01  21200946.070 7 113331220.088 7     -2927.789          47.000    21200949.906 6  88146482.411 6     -2277.169          37.000
R02  19342981.109 5 103217846.556 5      1344.359          35.000    19342985.852 5  80280573.745 5      1045.607          34.000
R11  20434635.719 7 109196524.009 7     -2605.379          42.000
R12  19330495.516 8 103260064.154 8      1347.961          51.000    19330498.633 8  80313403.530 8      1048.414          49.000
C05  39794420.664 6 207219990.650 6          .465          36.000    39794418.211 6 160235633.485 6          .121          40.000
C14  24138900.930 8 125697571.186 8     -2828.664          48.000    24138893.648 7  97197332.908 7     -2187.309          45.000
C23  25783258.961 5 134260249.064 5      3257.723          33.000
C24  22911473.570 6 119306086.451 6     -1785.387          40.000
C25  22175816.969 8 115475353.712 8      1478.734          51.000
E05  23775848.836 8 124942921.785 8      -888.211          51.000    23775851.625 8  95735518.990 8      -680.547          51.000
E24  22451000.211 7 117980820.768 7      -283.148          43.000    22451018.477 7  90400936.114 7      -216.805          42.000
E25  24961827.773 8 131175355.864 8      2461.176          51.000    24961830.859 8 100510970.359 8      1885.833          51.000
> 2020 05 09 03 10  0.0000000  0 16        .000000000000
G05  20558166.570 8 108033891.311 8       -49.199          51.000    20558165.484 8  84182251.338 8       -38.337          51.000
G07  21914742.891 7 115162749.707 7     -2133.090          43.000    21914741.922 7  89737187.392 7     -1662.148          42.000
G28  22389451.109 7 117657374.217 7      2795.609          46.000    22389450.594 6  91681078.678 6      2178.400          39.000
G30  20392322.398 8 107162417.275 8      -434.824          51.000    20392323.398 8  83503193.115 8      -338.824          51.000
R01  21217417.234 7 113419267.610 7     -2942.004          44.000    21217420.234 6  88214963.781 6     -2288.228          36.000
R02  19335471.227 6 103177772.487 6      1327.172          36.000    19335477.367 5  80249405.031 5      1032.242          35.000
R11  20449314.352 7 109274963.356 7     -2624.117          42.000    20449346.609 4  84991665.336 4     -2040.977          28.000
R12  19322996.844 8 103220005.237 8      1322.551          51.000    19322999.258 8  80282246.587 8      1028.651          48.000
C05  39794421.531 6 207219994.507 6         -.086          36.000    39794418.984 6 160235636.448 6         -.432          41.000
C14  24155220.953 8 125782549.033 8     -2836.594          48.000    24155215.109 8  97263043.174 8     -2193.371          48.000
C23  25764502.219 5 134162585.749 5      3253.086          32.000
C24  22921794.969 6 119359832.577 6     -1797.625          41.000
C25  22167339.398 8 115431206.895 8      1464.312          51.000
E05  23780943.414 8 124969694.659 8      -896.609          51.000    23780946.211 8  95756033.278 8      -687.030          51.000
E24  22452659.898 7 117989542.936 7      -298.422          45.000    22452676.633 7  90407619.229 7      -228.517          44.000
E25  24947807.094 8 131101674.786 8      2450.898          51.000    24947809.750 8 100454513.435 8      1877.943          51.000
> 2020 05 09 03 10 30.0000000  0 16        .000000000000
G05  20558498.961 8 108035637.785 8       -67.922          51.000    20558497.586 8  84183612.231 8       -52.926          51.000
G07  21926939.375 7 115226843.284 7     -2140.285          43.000    21926938.414 7  89787130.420 7     -1667.755          44.000
G28  22373516.430 7 117573640.192 7      2786.035          42.000    22373515.805 6  91615831.428 6      2170.936          41.000
G30  20394841.688 8 107175656.385 8      -448.430          51.000    20394842.836 8  83513509.313 8      -349.426          51.000
R01  21233960.023 7 113507697.847 7     -2954.062          44.000    21233962.758 6  88283742.833 6     -2297.604          38.000
R02  19328050.414 5 103138175.767 5      1311.645          35.000    19328056.086 5  80218607.568 5      1020.165          33.000
R11  20464092.359 6 109353934.866 6     -2641.195          40.000    20464124.273 4  85053087.897 4     -2054.254          29.000
R12  19315634.344 8 103180673.306 8      1298.934          51.000    19315635.930 7  80251655.113 7      1010.285          47.000
C05                                                                  39794417.070 6 160235628.710 6          .296          41.000
C14  24171578.648 7 125867725.704 7     -2842.551          47.000    24171574.422 8  97328907.216 8     -2198.104          49.000
C23  25745768.219 5 134065032.531 5      3250.367          34.000
C24  22932180.148 7 119413909.832 7     -1808.172          42.000
C25  22158937.758 8 115387455.479 8      1451.734          51.000
E05  23786079.469 8 124996684.575 8      -903.387          51.000    23786082.148 8  95776713.859 8      -692.166          51.000
E24  22454399.930 7 117998685.168 7      -311.676          44.000    22454415.461 7  90414624.309 7      -239.008          46.000
E25  24933837.250 8 131028262.582 8      2442.539          51.000    24933839.992 8 100398262.527 8      1871.571          51.000
> 2020 05 09 03 11  0.0000000  0 16        .000000000000
G05  20558941.258 8 108037962.086 8       -86.906          51.000    20558939.750 8  84185423.362 8       -67.719          51.000
G07  21939181.695 7 115291176.767 7     -2148.160          44.000    21939179.930 7  89837260.374 7     -1673.891          44.000
G28  22357638.734 6 117490212.714 6      2775.852          37.000    22357640.141 6  91550822.974 6      2162.998          37.000
G30  20397442.367 8 107189322.664 8      -462.391          51.000    20397443.383 8  83524158.367 8      -360.301          51.000
R01  21250574.648 7 113596512.722 7     -2966.590          45.000    21250578.102 6  88352821.074 6     -2307.348          40.000
R02  19320720.266 6 103099061.925 6      1295.633          38.000    19320725.312 6  80188185.677 6      1007.717          36.000
R11  20478970.305 6 109433438.831 6     -2658.398          41.000
R12  19308408.648 8 103142072.907 8      1274.676          51.000    19308409.586 7  80221632.637 7       991.414          47.000
C05  39794415.602 6 207219965.023 6         1.008          36.000    39794413.203 6 160235612.837 6         1.115          41.000
C14  24187974.617 7 125953103.485 7     -2848.969          47.000    24187971.812 8  97394926.770 8     -2203.091          49.000
C23  25727057.805 6 133967594.275 6      3246.246          36.000
C24  22942628.461 6 119468319.746 6     -1818.887          41.000
C25  22150612.727 8 115344103.336 8      1438.656          51.000
E05  23791257.875 8 125023895.171 8      -910.512          51.000    23791260.062 8  95797563.547 8      -697.620          51.000
E24  22456220.664 7 118008250.382 7      -325.590          46.000    22456236.000 7  90421953.501 7      -249.562          47.000
E25  24919918.633 8 130955124.045 8      2433.707          49.000    24919922.023 8 100342221.289 8      1864.726          51.000
> 2020 05 09 03 11 30.0000000  0 16        .000000000000
G05  20559493.609 8 108040864.269 8      -105.582          51.000    20559491.820 8  84187684.812 8       -82.272          51.000
G07  21951469.477 7 115355748.472 7     -2155.566          44.000    21951466.891 7  89887575.978 7     -1679.662          43.000
G28  22341822.156 6 117407093.926 6      2766.047          41.000    22341823.805 7  91486055.029 7      2155.361          42.000
G30  20400123.977 8 107203414.937 8      -475.949          51.000    20400124.977 8  83535139.369 8      -370.870          51.000
R01  21267261.258 7 113685711.001 7     -2978.895          45.000    21267265.094 6  88422197.499 6     -2316.918          39.000
R02  19313481.891 6 103060433.354 6      1280.391          38.000    19313487.172 6  80158141.200 6       995.859          37.000
R11  20493947.891 6 109513471.303 6     -2675.543          40.000
R12  19301319.734 8 103104204.412 8      1250.898          51.000    19301319.812 7  80192179.347 7       972.921          46.000
C05  39794409.586 6 207219933.891 6         2.102          36.000    39794407.172 6 160235588.770 6         1.827          41.000
C14  24204408.984 7 126038681.243 7     -2855.047          47.000    24204406.812 8  97461100.956 8     -2207.673          48.000
C23  25708370.789 6 133870272.137 6      3243.215          38.000
C24  22953140.961 7 119523060.548 7     -1829.398          43.000
C25  22142364.039 8 115301150.868 8      1425.902          50.000
E05  23796478.383 8 125051326.659 8      -917.180          51.000    23796480.102 8  95818582.489 8      -702.744          51.000
E24  22458121.648 7 118018237.880 7      -339.047          47.000    22458136.047 7  90429606.270 7      -259.906          47.000
E25  24906051.992 8 130882260.487 8      2425.035          49.000    24906056.398 8 100286390.731 8      1858.210          51.000
> 2020 05 09 03 12  0.0000000  0 16        .000000000000
G05  20560155.438 8 108044342.315 8      -126.375          51.000    20560153.703 8  84190394.983 8       -98.474          51.000
G07  21963801.812 7 115420554.678 7     -2164.777          43.000    21963798.641 7  89938074.292 7     -1686.839          44.000
G28  22326065.305 7 117324284.854 7      2754.141          46.000    22326066.578 7  91421528.495 7      2146.087          46.000
G30  20402886.016 8 107217930.094 8      -491.746          51.000    20402887.086 8  83546449.898 8      -383.179          51.000
R01  21284019.328 7 113775289.609 7     -2993.234          47.000    21284023.086 6  88491869.780 6     -2328.071          41.000
R02  19306333.109 6 103022290.379 6      1262.875          39.000    19306339.266 5  80128474.375 5       982.233          35.000
R11  20509023.086 6 109594026.428 6     -2694.797          39.000
R12  19294367.156 8 103067066.436 8      1224.891          51.000    19294368.164 8  80163294.283 8       952.693          49.000
C05  39794401.148 6 207219889.121 6         1.000          36.000    39794398.836 6 160235554.939 6          .577          41.000
C14  24220880.750 7 126124455.872 7     -2863.215          46.000    24220878.586 7  97527427.305 7     -2214.071          47.000
C23  25689706.047 6 133773065.602 6      3237.258          39.000
C24  22963716.398 7 119578128.409 7     -1841.773          43.000
C25  22134191.219 8 115258596.380 8      1411.059          49.000
E05  23801740.406 8 125078977.206 8      -926.188          51.000    23801741.852 8  95839769.268 8      -709.676          51.000
E24  22460102.375 8 118028645.039 8      -354.855          48.000    22460115.203 8  90437580.569 8      -271.911          48.000
E25  24892238.461 8 130809671.127 8      2414.246          49.000    24892242.680 8 100230770.307 8      1849.826          51.000
> 2020 05 09 03 12 30.0000000  0 16        .000000000000
G05  20560931.383 8 108048420.669 8      -145.492          51.000    20560929.898 8  84193572.911 8      -113.371          51.000
G07  21976182.867 6 115485617.708 6     -2172.562          41.000    21976179.516 6  89988772.723 6     -1692.906          41.000
G28  22310372.281 8 117241811.911 8      2743.875          50.000    22310373.055 8  91357263.861 8      2138.084          48.000
G30  20405732.914 8 107232890.921 8      -505.621          51.000    20405733.852 8  83558107.685 8      -393.990          51.000
R01  21300852.898 7 113865271.211 7     -3005.516          46.000    21300856.508 7  88561855.480 7     -2337.623          42.000
R02  19299281.484 7 102984659.342 7      1246.344          42.000    19299285.219 6  80099205.851 6       969.382          36.000
R11  20524200.836 5 109675125.116 5     -2711.492          35.000    20524214.008 4  85302912.189 4     -2108.935          25.000
R12  19287555.727 8 103030684.006 8      1200.582          51.000    19287557.586 7  80134996.866 7       933.786          47.000
C05  39794394.859 6 207219856.339 6         1.434          36.000    39794392.547 6 160235529.581 6         1.133          41.000
C14  24237394.812 7 126210449.898 7     -2869.660          47.000    24237390.875 7  97593923.268 7     -2218.976          44.000
C23  25671067.828 6 133675999.522 6      3233.441          41.000
C24  22974357.898 6 119633545.148 6     -1852.488          41.000
C25  22126099.656 8 115216463.949 8      1397.703          49.000
E05  23807048.492 8 125106870.973 8      -933.410          51.000    23807049.930 8  95861142.400 8      -715.219          51.000
E24  22462167.547 8 118039495.112 8      -368.633          49.000    22462179.633 8  90445894.230 8      -282.288          48.000
E25  24878482.570 8 130737381.297 8      2405.156          51.000    24878486.141 8 100175379.398 8      1842.861          51.000
> 2020 05 09 03 13  0.0000000  0 17        .000000000000
G05  20561818.125 8 108053080.943 8      -164.953          51.000    20561816.922 8  84197204.280 8      -128.535          51.000
G07  21988608.961 6 115550917.231 6     -2180.578          41.000    21988606.164 6  90039655.476 6     -1699.155          41.000
G28  22294740.328 8 117159659.503 8      2733.098          51.000    22294740.273 8  91293248.985 8      2129.686          48.000
G30  20408660.867 8 107248277.911 8      -520.000          51.000    20408661.719 8  83570097.551 8      -405.192          51.000
R01  21317757.461 7 113955635.895 7     -3018.457          43.000    21317761.406 6  88632139.050 6     -2347.692          41.000
R02  19292322.883 6 102947524.800 6      1229.508          40.000    19292326.047 6  80070323.456 6       956.284          37.000
R11  20539472.633 6 109756744.704 6     -2729.262          37.000    20539482.289 4  85366382.209 4     -2122.768          25.000
R12  19280882.133 8 102995038.914 8      1175.930          51.000    19280884.797 8  80107272.871 8       914.612          49.000
C05  39794387.109 6 207219816.306 6         1.770          36.000    39794384.844 6 160235498.634 6          .967          41.000
C14  24253947.250 7 126296644.017 7     -2876.375          47.000    24253942.500 7  97660574.013 7     -2224.244          45.000
C23  25652452.547 6 133579057.192 6      3229.355          41.000
C24  22985063.523 7 119689290.799 7     -1863.625          45.000
C25  22118086.375 8 115174735.747 8      1384.242          51.000
E05  23812399.398 8 125134989.798 8      -940.992          51.000    23812400.633 8  95882687.980 8      -721.035          51.000
E09  25518108.172 5 134098557.817 5     -2425.141          35.000
E24  22464313.203 8 118050769.023 8      -382.773          49.000    22464325.078 8  90454532.695 8      -293.306          48.000
E25  24864780.641 8 130665373.893 8      2395.562          51.000    24864783.453 8 100120204.904 8      1835.573          51.000
> 2020 05 09 03 13 30.0000000  0 18        .000000000000
G05  20562814.758 8 108058317.535 8      -184.129          51.000    20562813.539 8  84201284.747 8      -143.477          51.000
G07  22001078.531 6 115616446.266 6     -2188.031          41.000    22001076.227 6  90090717.032 6     -1704.962          41.000
G13  21788836.375 5 114501122.523 5      2298.504          34.000
G28  22279168.516 8 117077824.509 8      2722.441          51.000    22279167.789 8  91229481.445 8      2121.383          48.000
G30  20411668.656 8 107264084.219 8      -533.859          51.000    20411669.586 8  83582414.165 8      -415.994          51.000
R01  21334731.141 6 114046376.456 6     -3031.012          39.000    21334735.531 6  88702715.046 6     -2357.454          38.000
R02  19285456.273 7 102910882.522 7      1213.051          42.000    19285459.969 6  80041823.901 6       943.484          39.000
R11  20554843.094 6 109838876.121 6     -2746.312          39.000    20554848.734 4  85430262.050 4     -2136.021          29.000
R12  19274345.984 8 102960125.902 8      1151.457          51.000    19274350.094 8  80080118.336 8       895.581          50.000
C05  39794377.008 6 207219763.315 6         1.828          36.000    39794374.680 6 160235457.619 6         1.688          41.000
C14  24270536.820 8 126383031.414 8     -2882.801          48.000    24270532.602 8  97727374.226 8     -2229.035          48.000
C23  25633859.492 7 133482234.170 7      3225.336          42.000
C24  22995831.273 7 119745357.902 7     -1874.375          46.000
C25  22110149.945 8 115133406.537 8      1370.980          51.000
E05  23817792.070 8 125163328.133 8      -948.219          51.000    23817793.086 8  95904401.761 8      -726.491          51.000
E09  25531963.117 5 134171369.018 5     -2428.258          33.000
E24  22466537.961 8 118062460.427 8      -396.594          48.000    22466549.883 8  90463491.032 8      -303.854          49.000
E25  24851131.484 8 130593644.545 8      2386.320          51.000    24851133.898 8 100065243.477 8      1828.515          51.000
> 2020 05 09 03 14  0.0000000  0 16        .000000000000
G05  20563934.172 8 108064199.462 8      -206.418          51.000    20563932.797 8  84205868.077 8      -160.845          51.000
G07  22013604.570 6 115682271.936 6     -2198.414          38.000    22013601.898 6  90142009.726 6     -1713.050          38.000
G28  22263670.273 8 116996378.631 8      2708.777          51.000    22263669.102 7  91166017.132 7      2110.739          47.000
G30  20414769.148 8 107280377.711 8      -550.828          51.000    20414770.227 8  83595110.400 8      -429.217          51.000
R01  21351787.352 7 114137561.523 7     -3046.500          42.000    21351792.680 6  88773636.910 6     -2369.497          39.000
R02  19278695.492 7 102874805.273 7      1193.531          42.000    19278699.789 6  80013763.802 6       928.305          39.000
R11  20570321.125 6 109921585.349 6     -2766.242          37.000    20570330.938 4  85494591.628 4     -2151.513          28.000
R12  19267960.312 8 102926015.647 8      1124.070          51.000    19267964.781 8  80053588.148 8       874.277          49.000
C05  39794377.398 6 207219765.616 6         -.594          36.000    39794375.148 6 160235459.393 6         -.359          41.000
C14  24287176.977 8 126469679.300 8     -2892.160          49.000    24287172.945 8  97794375.909 8     -2236.356          50.000
C23  25615301.945 6 133385600.251 6      3218.254          41.000
C24  23006672.789 7 119801812.910 7     -1887.727          44.000
C25  22102302.820 8 115092544.902 8      1354.691          51.000
E05  23823239.570 8 125191955.224 8      -958.633          51.000    23823240.609 8  95926336.789 8      -734.477          51.000
E24  22468855.219 8 118074637.574 8      -413.574          48.000    22468867.227 8  90472821.583 8      -316.841          49.000
E25  24837548.547 8 130522263.546 8      2374.121          51.000    24837550.922 8 100010548.972 8      1819.099          51.000
> 2020 05 09 03 14 30.0000000  0 16        .000000000000
G05  20565160.547 8 108070644.096 8      -224.426          51.000    20565159.375 8  84210889.861 8      -174.877          51.000
