     3.02           OBSERVATION DATA    M (MIXED)           RINEX VERSION / TYPE
SAVERINEX           SC600               20200504 105931 LCL PGM / RUN BY / DATE
       G = GPS       R = GLONASS       C = COMPASS          COMMENT
       S = SBAS      J = QZSS          E = GALILEO          COMMENT
BEAN                                                        MARKER NAME
1                                                           MARKER NUMBER
GEODETIC                                                    MARKER TYPE
Unige DICCA         GTER                                    OBSERVER / AGENCY
SC60291900056       SC600               2.12(191226)        REC # / TYPE / VERS
                    HEMA45          NONE                    ANT # / TYPE
  4509407.8091   693652.4678  4442337.6214                  APPROX POSITION XYZ
        0.0000        0.0000        0.0000                  ANTENNA: DELTA H/E/N
G    8 C1C L1C D1C S1C C2Y L2Y D2Y S2Y                      SYS / # / OBS TYPES
R    8 C1C L1C D1C S1C C2P L2P D2P S2P                      SYS / # / OBS TYPES
C    8 C1I L1I D1I S1I C7I L7I D7I S7I                      SYS / # / OBS TYPES
E    8 C1C L1C D1C S1C C7Q L7Q D7Q S7Q                      SYS / # / OBS TYPES
DBHZ                                                        COMMENT
     30.000                                                 INTERVAL
  2020    05    04    08    00    0.0000000     GPS         TIME OF FIRST OBS
  2020    05    04    08    59   30.0000000     GPS         TIME OF LAST OBS
     0                                                      RCV CLOCK OFFS APPL
G L1C  0.00000                                              SYS / PHASE SHIFT
G L2Y  0.00000                                              SYS / PHASE SHIFT
R L1C  0.00000                                              SYS / PHASE SHIFT
R L2P  0.25000                                              SYS / PHASE SHIFT
C L1I  0.00000                                              SYS / PHASE SHIFT
C L7I  0.00000                                              SYS / PHASE SHIFT
E L1C  0.50000                                              SYS / PHASE SHIFT
E L7Q -0.25000                                              SYS / PHASE SHIFT
 12 R04  6 R05  1 R06 -4 R07  5 R09 -2 R10 -7 R15  0 R16 -1 GLONASS SLOT / FRQ #
    R17  4 R18 -3 R19  3 R20  2                             GLONASS SLOT / FRQ #
 C1C   71.950 C2C   71.950 C2P   71.950                     GLONASS COD/PHS/BIS
    18                                                      LEAP SECONDS
*** Above antenna height is from mark to ANTENNA BOTTOM.    COMMENT
    17     4        0.0000        ANT MEASURE TYPE/HEIGT    COMMENT
    0.0000    0.0000    0.0458    0.0405    0.0000          COMMENT
                    BASE STATION                            COMMENT
                                                            END OF HEADER
> 2020 05 04 08 00  0.0000000  0 16        .000000000000
G12  20966903.164 8 110181838.281 8      2095.324          49.000    20966901.031 8  85855953.052 8      1632.723          49.000
G13  23974057.930 6 125984467.580 6     -3770.051          37.000
G15  22440411.961 8 117925137.544 8     -3237.559          51.000    22440411.383 8  91889713.348 8     -2522.773          51.000
G17  23005684.211 5 120895685.542 5     -1921.195          30.000
G24  20177483.055 8 106033437.813 8       376.055          51.000    20177484.914 8  82623444.104 8       293.030          50.000
G25  23374549.891 7 122834086.166 7      3261.727          46.000    23374551.992 7  95714917.990 7      2541.605          44.000
R07  20855632.508 8 111641826.837 8     -2804.184          49.000    20855636.227 7  86832539.968 7     -2181.032          46.000
R16  22000726.703 4 117523932.034 4     -2812.086          29.000
C12  24112535.602 7 125560287.583 7      2862.734          46.000    24112535.430 8  97091185.159 8      2213.606          50.000
C14  25545435.305 5 133021793.344 5     -3200.855          30.000    25545430.695 5 102860881.479 5     -2475.307          33.000
C24  22025174.828 8 114690865.164 8      -566.469          51.000
C25  23496044.648 5 122350067.811 5      1996.914          31.000
E01  23626834.562 8 124159850.616 8      -392.297          51.000    23626836.750 8  95135517.399 8      -300.639          51.000
E04  24521914.367 8 128863507.341 8     -1595.891          51.000    24521915.922 8  98739576.189 8     -1222.831          51.000
E21  26154907.484 5 137444974.193 5     -2178.656          31.000
E31  25310579.672 5 133007961.226 5      1763.746          34.000
> 2020 05 04 08 00 30.0000000  0 14        .000000000000
G12  20954929.062 8 110118914.419 8      2105.270          51.000    20954928.555 8  85806921.484 8      1640.473          51.000
G13  23995541.633 6 126097363.187 6     -3751.086          36.000
G15  22458869.977 8 118022134.502 8     -3223.316          51.000    22458869.969 8  91965295.371 8     -2511.675          51.000
G19  21569847.242 5 113350285.873 5      -262.145          31.000
G24  20175322.195 8 106022083.264 8       386.562          51.000    20175324.328 8  82614596.394 8       301.218          51.000
G25  23355898.195 7 122736075.013 7      3278.289          47.000    23355901.367 7  95638507.036 7      2554.514          44.000
R07  20871353.609 8 111725985.579 8     -2800.789          50.000    20871357.930 7  86897996.743 7     -2178.391          46.000
C12  24096016.023 7 125474263.997 7      2877.695          45.000    24096015.367 7  97024666.279 7      2225.304          47.000
C14  25563827.250 5 133117557.180 5     -3178.762          31.000    25563821.641 5 102934943.013 5     -2458.099          32.000
C24  22028409.711 8 114707710.635 8      -551.047          51.000
C25  23484505.219 4 122289970.271 4      2014.496          29.000
C26  24346660.984 4 126779415.613 4     -2374.582          28.000
E01  23629041.719 8 124171448.792 8      -375.270          51.000    23629043.656 8  95144404.301 8      -287.535          51.000
E04  24531009.266 8 128911302.017 8     -1584.781          51.000    24531010.969 8  98776198.060 8     -1214.301          51.000
> 2020 05 04 08 01  0.0000000  0 14        .000000000000
G12  20943055.867 8 110056519.721 8      2078.246          51.000    20943056.492 8  85758302.246 8      1619.413          51.000
G13  24017073.875 5 126210515.332 5     -3769.215          30.000
G15  22477404.117 8 118119531.868 8     -3245.949          51.000    22477404.570 8  92041189.424 8     -2529.311          51.000
G24  20173258.930 8 106011241.310 8       360.066          51.000    20173261.203 8  82606148.116 8       280.571          51.000
G25  23337309.117 7 122638387.411 7      3257.934          47.000    23337312.938 7  95562390.408 7      2538.650          44.000
R07  20887213.820 8 111810886.339 8     -2834.953          50.000    20887217.531 7  86964030.622 7     -2204.964          45.000
R18  21779879.336 5 116262437.277 5      -712.168          33.000
C12  24079566.039 6 125388612.598 6      2855.926          41.000    24079565.406 7  96958435.226 7      2208.335          45.000
C14  25582248.930 4 133213483.701 4     -3193.195          29.000    25582241.422 5 103009119.403 5     -2468.749          32.000
C24  22031713.656 8 114724915.255 8      -572.348          51.000
C25  23473018.266 5 122230150.471 5      1997.105          30.000
E01  23631309.312 8 124183365.057 8      -395.344          51.000    23631311.023 8  95153534.942 8      -302.914          51.000
E04  24540198.383 8 128959592.916 8     -1610.762          51.000    24540200.398 8  98813200.172 8     -1234.208          51.000
E21  26179731.023 5 137575415.360 5     -2172.062          31.000
> 2020 05 04 08 01 30.0000000  0 11        .000000000000
G12  20931240.016 8 109994427.137 8      2040.410          50.000    20931239.977 8  85709918.465 8      1589.933          50.000
G15  22495970.344 8 118217099.335 8     -3279.430          50.000    22495971.367 8  92117216.020 8     -2555.400          50.000
G24  20171250.391 8 106000686.148 8       322.793          51.000    20171252.602 8  82597923.304 8       251.527          51.000
G25  23318739.883 7 122540806.693 7      3226.500          46.000    23318744.188 7  95486353.515 7      2514.159          44.000
R07  20903168.445 8 111896293.289 8     -2880.121          49.000    20903171.273 7  87030458.228 7     -2240.094          46.000
C12  24063141.133 6 125303092.113 6      2823.414          39.000    24063141.844 7  96892298.337 7      2183.192          42.000
C14                                                                  25600648.367 5 103083234.250 5     -2487.857          30.000
C24  22035043.164 8 114742253.257 8      -604.277          51.000
C26  24374258.227 5 126923138.492 5     -2419.148          31.000
E01  23633593.797 8 124195370.991 8      -426.055          51.000    23633595.609 8  95162734.294 8      -326.535          51.000
E04  24549438.258 8 129008151.161 8     -1647.371          51.000    24549440.602 8  98850407.136 8     -1262.325          51.000
> 2020 05 04 08 02  0.0000000  0 12        .000000000000
G12  20919556.438 8 109933031.080 8      2052.699          49.000    20919554.953 8  85662077.433 8      1599.509          49.000
G15  22514643.383 8 118315228.393 8     -3262.516          49.000    22514644.664 8  92193680.213 8     -2542.220          49.000
G19  21575222.797 5 113378569.538 5      -341.215          30.000    21575223.430 4  88346940.166 4      -265.891          26.000
G24  20169371.344 8 105990811.310 8       335.508          51.000    20169373.523 8  82590228.625 8       261.435          51.000
G25  23300265.945 7 122443725.789 7      3245.461          45.000    23300269.617 7  95410706.099 7      2528.931          45.000
R07  20919291.727 8 111982603.582 8     -2873.895          49.000    20919294.250 7  87097588.421 7     -2235.251          46.000
C12  24046826.445 7 125218131.332 7      2840.598          42.000    24046826.031 7  96826601.295 7      2196.482          43.000
C24  22038473.305 8 114760114.780 8      -586.469          51.000
C25  23450134.445 5 122110987.976 5      1988.953          30.000
E01  23635970.102 8 124207859.863 8      -406.590          51.000    23635972.266 8  95172303.693 8      -311.555          51.000
E04  24558803.852 8 129057369.479 8     -1633.879          51.000    24558806.469 8  98888119.866 8     -1251.933          51.000
E21  26204621.969 5 137706229.056 5     -2173.699          35.000
> 2020 05 04 08 02 30.0000000  0 12        .000000000000
G12  20907867.938 8 109871608.568 8      2051.648          50.000    20907867.234 8  85614215.732 8      1598.687          50.000
G15  22533285.281 8 118413192.846 8     -3258.828          50.000    22533286.688 8  92270016.139 8     -2539.347          50.000
G19  21577223.320 5 113389069.109 5      -350.586          33.000    21577221.953 5  88355103.877 5      -273.181          33.000
G24  20167484.266 8 105980894.191 8       335.164          51.000    20167486.430 8  82582500.992 8       261.167          51.000
G25  23281749.320 7 122346422.092 7      3251.133          44.000    23281752.219 7  95334885.047 7      2533.347          43.000
R07  20935446.297 8 112069076.566 8     -2881.199          49.000    20935448.344 7  87164845.129 7     -2240.933          47.000
C12  24030480.000 7 125132997.534 7      2844.559          45.000    24030478.250 7  96760770.458 7      2199.584          46.000
C24  22041866.227 8 114777782.586 8      -581.887          51.000
C25  23438683.633 4 122051349.200 4      1996.414          29.000
C26  24401937.117 5 127067259.380 5     -2388.352          30.000
E01  23638300.602 8 124220107.308 8      -400.273          51.000    23638303.008 8  95181688.099 8      -306.712          51.000
E04  24568157.344 8 129106523.015 8     -1633.453          51.000    24568159.969 8  98925782.941 8     -1251.589          51.000
> 2020 05 04 08 03  0.0000000  0 10        .000000000000
G12  20896316.844 8 109810906.060 8      2015.922          51.000    20896317.320 8  85566915.062 8      1570.848          51.000
G15  22552037.523 8 118511735.646 8     -3289.797          49.000    22552038.836 8  92346802.692 8     -2563.478          49.000
G19  21579410.078 6 113400560.638 6      -394.910          36.000    21579409.008 6  88364058.207 6      -307.725          36.000
G24  20165731.156 8 105971680.931 8       299.957          51.000    20165733.273 8  82575321.818 8       233.733          51.000
G25  23263332.422 7 122249642.542 7      3221.852          44.000    23263335.211 7  95259472.378 7      2510.534          43.000
R07  20951772.188 7 112156467.550 7     -2923.695          47.000    20951774.117 7  87232815.887 7     -2273.985          47.000
C12  24014241.719 7 125048432.231 7      2813.855          46.000    24014239.664 7  96695379.199 7      2175.924          47.000
C24  22045363.727 8 114795995.638 8      -611.695          51.000
E01  23640727.062 8 124232858.590 8      -428.910          51.000    23640729.555 8  95191458.552 8      -328.607          51.000
E04  24577640.523 8 129156356.434 8     -1667.852          51.000    24577642.953 8  98963966.964 8     -1277.991          51.000
> 2020 05 04 08 03 30.0000000  0 11        .000000000000
G12  20884804.859 8 109750408.657 8      2007.590          51.000    20884805.562 8  85519774.241 8      1564.356          51.000
G15  22570801.570 8 118610339.500 8     -3293.246          50.000    22570802.414 8  92423636.824 8     -2566.166          50.000
G19  21581685.250 6 113412515.500 6      -411.496          36.000    21581683.828 5  88373373.659 5      -320.649          32.000
G24  20164014.086 8 105962657.006 8       292.109          51.000    20164016.211 8  82568290.179 8       227.618          51.000
G25  23244917.828 7 122152872.929 7      3219.824          46.000    23244920.766 7  95184067.515 7      2508.954          44.000
R07  20968169.625 8 112244247.636 8     -2938.195          48.000    20968172.430 7  87301089.289 7     -2285.263          46.000
C12  23998013.781 7 124963927.441 7      2810.352          44.000    23998012.812 8  96630034.757 8      2173.109          50.000
C24  22048867.930 8 114814243.352 8      -614.324          51.000
E01  23643151.281 8 124245597.925 8      -429.992          51.000    23643153.719 8  95201219.855 8      -329.466          51.000
E04  24587155.031 8 129206353.391 8     -1674.781          51.000    24587156.680 8  99002276.299 8     -1283.304          51.000
E21  26241975.891 6 137902509.234 6     -2182.793          37.000    26241975.961 6 105665562.552 6     -1672.832          39.000
> 2020 05 04 08 04  0.0000000  0 13        .000000000000
G12  20873389.859 8 109690421.573 8      1996.918          51.000    20873389.758 8  85473031.106 8      1556.043          51.000
G13  24146717.641 5 126891862.803 5     -3793.055          32.000
G15  22589634.750 8 118709306.043 8     -3298.984          50.000    22589634.977 8  92500753.561 8     -2570.637          50.000
G19  21584105.977 5 113425237.550 5      -431.031          35.000    21584103.523 5  88383286.986 5      -335.865          34.000
G24  20162391.148 8 105954127.724 8       281.883          51.000    20162393.422 8  82561643.979 8       219.649          51.000
G25  23226563.375 7 122056418.721 7      3215.652          47.000    23226566.328 7  95108908.434 7      2505.706          43.000
R07  20984698.148 8 112332723.014 8     -2954.766          50.000    20984700.797 7  87369903.453 7     -2298.154          46.000
R10  21296301.617 4 113521254.076 4      2339.418          29.000
C12  23981854.742 7 124879787.216 7      2804.230          43.000    23981856.070 8  96564972.212 8      2168.496          51.000
C24  22052436.727 8 114832827.217 8      -619.297          51.000
E01  23645631.086 8 124258629.051 8      -433.406          51.000    23645633.383 8  95211204.737 8      -332.082          51.000
E04  24596758.281 8 129256817.058 8     -1684.035          51.000    24596758.992 8  99040943.247 8     -1290.344          51.000
E21  26254443.281 6 137968031.649 6     -2181.973          36.000    26254452.312 5 105715792.173 5     -1671.557          35.000
> 2020 05 04 08 04 30.0000000  0 11        .000000000000
G12  20862052.922 8 109630844.392 8      1980.938          51.000    20862051.844 8  85426607.348 8      1543.588          51.000
G13  24168408.109 5 127005841.510 5     -3800.359          31.000
G15  22608517.023 8 118808531.433 8     -3309.828          50.000    22608516.742 8  92578071.995 8     -2579.090          50.000
G19  21586654.062 6 113438625.508 6      -455.309          37.000    21586652.539 6  88393719.112 6      -354.789          37.000
G24  20160843.047 8 105945991.983 8       266.602          51.000    20160845.453 8  82555304.424 8       207.741          51.000
G25  23208249.836 7 121960179.880 7      3206.305          47.000    23208252.555 7  95033917.157 7      2498.419          43.000
R07  21001336.719 8 112421787.018 8     -2976.543          48.000    21001339.094 7  87439175.436 7     -2315.089          46.000
C12  23965746.289 7 124795913.919 7      2793.219          42.000    23965750.531 8  96500116.048 8      2159.942          51.000
C24  22056050.961 8 114851646.958 8      -629.305          51.000
E01  23648147.125 8 124271850.273 8      -441.871          51.000    23648149.156 8  95221335.282 8      -338.592          51.000
E04  24606430.375 8 129307645.177 8     -1698.395          51.000    24606430.750 8  99079889.443 8     -1301.367          51.000
> 2020 05 04 08 05  0.0000000  0 12        .000000000000
G12  20850782.234 8 109571616.108 8      1969.359          50.000    20850781.188 8  85380455.443 8      1534.566          50.000
G13  24190106.484 5 127119871.344 5     -3800.758          34.000
G15  22627436.211 8 118907951.744 8     -3316.359          50.000    22627435.258 8  92655542.319 8     -2584.176          50.000
G19  21589316.312 5 113452617.042 5      -475.668          32.000    21589314.328 5  88404621.589 5      -370.650          33.000
G24  20159358.320 8 105938189.566 8       255.453          51.000    20159360.664 8  82549224.611 8       199.054          51.000
G25  23189965.852 7 121864096.034 7      3201.039          47.000    23189967.953 7  94959046.659 7      2494.316          43.000
R07  21018071.828 7 112511372.412 7     -2993.992          47.000    21018074.719 7  87508852.991 7     -2328.661          46.000
R18  21816976.125 4 116460408.479 4      -929.516          29.000
C12  23949679.070 7 124712248.984 7      2786.230          46.000    23949684.430 8  96435421.019 8      2154.397          51.000
C24  22059698.867 8 114870641.564 8      -635.191          51.000
E01  23650687.594 8 124285199.547 8      -446.312          51.000    23650689.320 8  95231563.938 8      -341.938          51.000
E04  24616159.570 8 129358775.035 8     -1708.656          49.000    24616160.469 8  99119066.860 8     -1309.176          51.000
> 2020 05 04 08 05 30.0000000  0 13        .000000000000
G12  20839585.039 8 109512777.077 8      1953.246          49.000    20839584.656 8  85334606.854 8      1522.010          48.000
G13  24211822.555 5 127233996.588 5     -3807.465          33.000
G15  22646399.344 8 119007604.247 8     -3327.023          50.000    22646397.742 8  92733193.574 8     -2592.486          50.000
G19  21592101.430 6 113467251.428 6      -499.879          38.000    21592098.734 5  88416025.036 5      -389.519          30.000
G24  20157944.625 8 105930760.637 8       239.859          51.000    20157946.820 8  82543435.821 8       186.903          51.000
G25  23171719.031 7 121768208.007 7      3191.492          47.000    23171720.680 7  94884328.778 7      2486.880          42.000
R07  21034911.922 8 112601516.431 8     -3015.555          49.000    21034914.203 7  87578964.960 7     -2345.431          45.000
R18  21822281.711 5 116488760.947 5      -959.840          32.000
C12  23933661.312 8 124628834.394 8      2774.594          49.000    23933665.781 8  96370919.551 8      2145.658          51.000
C24  22063387.844 8 114889850.430 8      -645.324          51.000
E01  23653259.812 8 124298716.065 8      -454.773          51.000    23653261.469 8  95241920.741 8      -348.469          51.000
E04  24625953.695 8 129410245.272 8     -1722.836          50.000    24625955.445 8  99158505.102 8     -1320.044          51.000
E31  25201217.156 5 132433282.320 5      1713.844          33.000
> 2020 05 04 08 06  0.0000000  0 13        .000000000000
G12  20828473.328 8 109454386.703 8      1940.398          50.000    20828472.852 8  85289107.874 8      1512.002          50.000
G15  22665417.250 8 119107545.119 8     -3334.742          50.000    22665415.367 8  92811069.528 8     -2598.500          50.000
G17  23143042.727 5 121617481.150 5     -2092.230          33.000
G19  21595019.711 6 113482587.310 6      -521.582          38.000    21595017.609 5  88427975.056 5      -406.415          34.000
G24  20156613.414 8 105923765.125 8       227.477          51.000    20156615.500 8  82537984.757 8       177.254          51.000
G25  23153520.820 7 121672575.884 7      3184.898          46.000    23153522.289 7  94809810.279 7      2481.739          42.000
R07  21051866.562 7 112692274.442 7     -3033.992          47.000    21051868.156 7  87649554.462 7     -2359.772          46.000
R10  21244042.102 4 113242646.471 4      2308.488          29.000
C12  23917703.641 8 124545730.917 8      2766.426          50.000    23917706.211 8  96306658.681 8      2139.100          51.000
C24  22067129.227 8 114909331.885 8      -652.461          51.000
E01  23655874.875 8 124312458.229 8      -460.383          51.000    23655876.695 8  95252450.448 8      -352.764          51.000
E04  24635824.492 8 129462113.681 8     -1734.188          51.000    24635826.617 8  99198248.446 8     -1328.736          51.000
E31  25191451.641 5 132381950.456 5      1709.703          35.000
> 2020 05 04 08 06 30.0000000  0 13        .000000000000
G12  20817403.914 8 109396215.536 8      1929.578          51.000    20817403.273 8  85243779.703 8      1503.567          51.000
G15  22684445.766 8 119207541.742 8     -3339.879          50.000    22684444.148 8  92888988.923 8     -2602.503          50.000
G17  23154998.383 5 121680338.680 5     -2104.633          32.000    23154992.078 5  94815820.712 5     -1639.974          32.000
G19  21598027.820 5 113498393.720 5      -540.441          31.000    21598024.195 5  88440298.511 5      -421.138          31.000
G24  20155320.930 8 105916972.909 8       217.211          51.000    20155322.727 8  82532692.117 8       169.255          51.000
G25  23135327.430 7 121576970.562 7      3180.527          45.000    23135328.781 6  94735312.623 6      2478.333          41.000
R07  21068888.414 7 112783408.077 7     -3050.000          44.000    21068893.117 7  87720436.181 7     -2372.222          46.000
C12  23901761.945 8 124462713.061 8      2760.113          50.000    23901762.352 8  96242464.000 8      2134.310          51.000
C24  22070879.023 8 114928857.807 8      -657.348          51.000
C26  24513343.688 5 127647407.865 5     -2426.375          30.000
E01  23658488.930 8 124326195.271 8      -463.570          51.000    23658490.938 8  95262976.227 8      -355.233          51.000
E04  24645727.586 8 129514148.886 8     -1742.957          51.000    24645729.617 8  99238119.561 8     -1335.510          51.000
E31  25181677.891 5 132330581.140 5      1706.949          35.000
> 2020 05 04 08 07  0.0000000  0 15        .000000000000
G12  20806440.062 8 109338598.719 8      1914.812          51.000    20806439.711 8  85198883.474 8      1492.062          51.000
G15  22703548.062 8 119307926.524 8     -3349.238          50.000    22703547.266 8  92967210.797 8     -2609.796          50.000
G17  23167063.305 5 121743739.707 5     -2119.855          33.000    23167063.961 4  94865258.678 4     -1651.835          29.000
G19  21601192.148 6 113515084.380 6      -563.367          39.000
G24  20154131.055 8 105910719.923 8       202.828          51.000    20154132.617 8  82527819.656 8       158.048          51.000
G25  23117203.062 7 121481727.657 7      3172.098          45.000    23117204.188 6  94661097.389 6      2471.764          41.000
R07  21086044.359 7 112875246.134 7     -3069.922          46.000    21086051.094 7  87791875.509 7     -2387.717          46.000
R18  21839106.164 6 116578607.758 6     -1038.738          36.000    21839111.727 4  90672272.178 4      -807.901          28.000
C12  23885899.586 7 124380114.762 7      2749.793          47.000    23885899.000 8  96178593.741 8      2126.251          50.000
C24  22074700.656 8 114948759.671 8      -666.281          51.000
C25  23337107.781 4 121522434.973 4      1939.176          29.000
C26  24527350.594 5 127720330.564 5     -2431.891          32.000
E01  23661165.578 8 124340261.236 8      -470.887          51.000    23661167.562 8  95273754.048 8      -360.830          51.000
E04  24655725.711 8 129566684.294 8     -1756.043          51.000    24655727.438 8  99278373.943 8     -1345.536          51.000
E31  25171958.719 6 132279508.841 6      1700.758          38.000    25171952.914 5 101357030.346 5      1303.394          32.000
> 2020 05 04 08 07 30.0000000  0 15        .000000000000
G12  20795598.320 8 109281624.078 8      1894.684          51.000    20795597.836 8  85154487.636 8      1476.377          51.000
G13  24298911.930 5 127691638.062 5     -3824.918          32.000
G15  22722740.086 8 119408783.592 8     -3363.574          49.000    22722740.383 8  93045800.698 8     -2620.967          49.000
G17  23179255.484 5 121807809.182 5     -2140.238          33.000    23179258.109 5  94915182.828 5     -1667.715          33.000
G19  21604520.570 6 113532586.476 6      -592.098          38.000
G24  20153060.445 8 105905093.522 8       183.324          51.000    20153061.836 8  82523435.438 8       142.847          51.000
G25  23099164.648 7 121386935.318 7      3158.355          46.000    23099165.164 7  94587233.269 7      2461.059          42.000
R07  21103353.203 8 112967901.210 8     -3095.055          48.000    21103355.859 7  87863931.663 7     -2407.265          45.000
R09  19610734.008 5 104720228.120 5       232.527          32.000    19610736.977 4  81449061.150 4       180.855          27.000
R18  21845066.188 5 116610422.346 5     -1071.062          33.000    21845072.789 4  90697016.888 4      -833.046          29.000
C12  23870133.047 7 124298024.856 7      2734.098          43.000    23870133.977 8  96115116.608 8      2114.093          48.000
C24  22078610.953 8 114969123.724 8      -680.379          51.000
E01  23663921.258 8 124354742.646 8      -483.504          51.000    23663923.039 8  95284850.194 8      -370.474          51.000
E04  24665834.922 8 129619805.754 8     -1774.406          51.000    24665836.031 8  99319077.379 8     -1359.631          51.000
E31  25162311.180 5 132228820.562 5      1689.617          35.000    25162310.219 6 101318191.325 6      1294.561          36.000
> 2020 05 04 08 08  0.0000000  0 14        .000000000000
G12  20784765.625 8 109224697.354 8      1899.676          51.000    20784764.211 8  85110129.160 8      1480.267          51.000
G13  24320701.219 6 127806145.267 6     -3809.430          37.000
G15  22741908.430 8 119509516.089 8     -3352.742          49.000    22741909.719 8  93124293.551 8     -2612.526          49.000
G17  23191460.141 5 121871944.868 5     -2136.098          34.000
G24  20151996.047 8 105899499.688 8       188.750          51.000    20151997.312 8  82519076.602 8       147.078          51.000
G25  23081098.984 7 121292000.154 7      3169.695          45.000    23081099.211 7  94513257.856 7      2469.892          43.000
R07  21120693.891 7 113060731.573 7     -3094.465          47.000    21120699.031 7  87936132.999 7     -2406.809          46.000
R09  19609402.094 5 104713118.552 5       240.945          34.000    19609409.227 4  81443531.501 4       187.399          27.000
C12  23854350.664 7 124215856.671 7      2743.125          43.000    23854353.367 7  96051578.996 7      2121.119          43.000
C24  22082496.836 8 114989360.851 8      -669.594          50.000
C25  23314852.539 5 121406536.442 5      1941.688          32.000
E01  23666642.797 8 124369044.515 8      -470.781          51.000    23666644.406 8  95295808.765 8      -360.776          51.000
E04  24675941.500 8 129672917.558 8     -1767.324          51.000    24675941.969 8  99359773.404 8     -1354.180          51.000
E31                                                                  25152628.328 5 101279191.023 5      1304.785          33.000
> 2020 05 04 08 08 30.0000000  0 15        .000000000000
G12  20774044.375 8 109168357.508 8      1866.512          50.000    20774042.297 8  85066228.035 8      1454.425          50.000
G13  24342543.562 5 127920940.118 5     -3831.305          35.000
G15  22761155.312 8 119610659.680 8     -3379.953          50.000    22761157.031 8  93203106.716 8     -2633.733          49.000
G19  21611455.508 5 113568996.251 5      -636.340          33.000
G24  20151040.445 8 105894477.468 8       156.184          51.000    20151041.445 8  82515163.186 8       121.702          51.000
G25  23063108.602 7 121197461.556 7      3143.070          42.000    23063109.484 7  94439591.434 7      2449.146          42.000
R07  21138173.336 8 113154293.655 8     -3132.539          49.000    21138178.336 7  88008903.486 7     -2436.419          46.000
R09  19608165.695 5 104706513.962 5       210.160          31.000
R18  21857335.023 4 116675932.703 4     -1125.973          28.000
C12  23838658.633 7 124134146.053 7      2714.371          45.000    23838659.711 7  95988395.232 7      2099.012          43.000
C24  22086460.750 8 115010004.387 8      -696.531          50.000
C25  23303766.438 4 121348805.016 4      1916.699          29.000
E01  23669432.484 8 124383704.542 8      -496.246          51.000    23669434.133 8  95307041.765 8      -380.241          51.000
E04  24686147.555 8 129726556.770 8     -1798.426          51.000    24686147.453 8  99400873.550 8     -1377.964          51.000
E31                                                                  25143004.977 5 101240441.676 5      1286.234          33.000
> 2020 05 04 08 09  0.0000000  0 12        .000000000000
G12  20763409.523 8 109112472.929 8      1868.871          50.000    20763407.883 8  85022681.635 8      1456.263          49.000
G15  22780454.867 8 119712079.222 8     -3371.633          50.000    22780456.750 8  93282134.903 8     -2627.246          50.000
G24  20150168.383 8 105889894.653 8       158.980          51.000    20150169.203 8  82511592.157 8       123.881          51.000
G25  23045168.797 7 121103187.933 7      3151.473          44.000    23045170.695 7  94366131.474 7      2455.693          43.000
R07  21155763.367 8 113248448.288 8     -3134.426          51.000    21155767.141 7  88082134.824 7     -2437.887          45.000
C12  23823031.125 8 124052764.101 8      2720.758          48.000    23823029.977 7  95925465.706 7      2103.811          47.000
C24  22090477.617 8 115030922.845 8      -688.422          50.000
C26  24583589.453 5 128013213.758 5     -2434.750          30.000
E01  23672264.977 8 124398589.571 8      -486.309          51.000    23672266.812 8  95318447.169 8      -372.584          51.000
E04  24696428.188 8 129780589.476 8     -1793.996          51.000    24696428.172 8  99442275.224 8     -1374.638          51.000
E21  26379531.352 5 138625373.461 5     -2187.180          32.000
E31  25133422.859 5 132077021.932 5      1689.586          34.000
> 2020 05 04 08 09 30.0000000  0 14        .000000000000
G12  20752799.062 8 109056716.209 8      1853.594          49.000    20752798.281 8  84979234.833 8      1444.359          50.000
G15  22799744.141 8 119813445.053 8     -3380.668          50.000    22799745.984 8  93361121.251 8     -2634.290          50.000
G17  23228638.773 5 122067313.208 5     -2182.203          33.000
G24  20149317.844 8 105885425.371 8       144.293          51.000    20149318.656 8  82508109.598 8       112.436          51.000
G25  23027217.867 7 121008853.088 7      3142.703          46.000    23027219.852 7  94292623.823 7      2448.860          43.000
R07  21173399.602 8 113342857.404 8     -3154.012          49.000    21173400.516 6  88155564.055 6     -2453.123          41.000
R09  19605835.508 5 104694072.140 5       203.922          31.000    19605840.172 5  81428754.255 5       158.603          30.000
C12  23807405.430 8 123971389.036 8      2709.547          48.000    23807403.469 8  95862541.397 8      2095.290          50.000
C24  22094485.336 8 115051792.012 8      -697.594          50.000
C25  23281642.922 5 121233647.140 5      1922.145          34.000
E01  23675077.922 8 124413371.868 8      -493.770          51.000    23675079.898 8  95329773.864 8      -378.319          51.000
E04  24706722.117 8 129834687.300 8     -1807.090          51.000    24706722.211 8  99483726.797 8     -1384.650          51.000
E21  26392039.195 5 138691102.544 5     -2189.555          33.000
E31  25123808.188 6 132026513.418 6      1683.238          37.000
> 2020 05 04 08 10  0.0000000  0 14        .000000000000
G12  20742310.570 8 109001599.470 8      1829.195          49.000    20742310.406 8  84936286.735 8      1425.350          49.000
G15  22819119.953 8 119915266.102 8     -3398.883          49.000    22819121.727 8  93440462.322 8     -2648.480          49.000
G19  21622829.086 5 113628733.023 5      -697.812          32.000
G24  20148586.266 8 105881581.405 8       120.344          51.000    20148587.203 8  82505114.306 8        93.774          51.000
G25  23009352.859 7 120914969.619 7      3124.508          47.000    23009354.820 7  94219467.919 7      2434.684          43.000
R07  21191179.367 8 113438038.205 8     -3182.844          48.000    21191178.625 6  88229593.514 6     -2475.545          41.000
R09  19604778.539 5 104688431.850 5       181.629          32.000    19604788.734 5  81424367.400 5       141.264          34.000
C12  23791878.227 7 123890530.147 7      2689.309          46.000    23791876.758 8  95800016.192 8      2079.511          51.000
C24  22098581.062 8 115073118.640 8      -715.930          51.000
C25  23270637.523 5 121176344.823 5      1906.500          33.000
E01  23677968.516 8 124428562.351 8      -510.527          51.000    23677970.492 8  95341413.321 8      -391.135          51.000
E04  24717126.492 8 129889360.486 8     -1829.438          51.000    24717126.602 8  99525619.223 8     -1401.738          51.000
E21  26404595.148 5 138757090.664 5     -2201.945          34.000
E31  25114266.656 6 131976384.010 6      1667.398          36.000
> 2020 05 04 08 10 30.0000000  0 14        .000000000000
G12  20731948.500 8 108947146.367 8      1815.043          50.000    20731948.414 8  84893855.755 8      1414.319          50.000
G15  22838586.328 8 120017562.732 8     -3406.652          49.000    22838587.648 8  93520173.961 8     -2654.534          49.000
G19  21626883.344 5 113650064.921 5      -720.484          35.000    21626888.414 5  88558476.571 5      -561.398          32.000
G24  20147978.141 8 105878385.892 8       106.777          51.000    20147979.211 8  82502624.294 8        83.203          51.000
G25  22991578.250 7 120821561.530 7      3116.684          47.000    22991580.391 7  94146682.441 7      2428.585          43.000
R07  21209107.188 8 113534010.221 8     -3201.012          50.000    21209107.039 7  88304238.409 7     -2489.673          42.000
R10  21128807.867 4 112628434.162 4      2241.020          29.000
C12  23776453.438 7 123810212.561 7      2679.398          43.000    23776454.031 8  95737909.540 8      2071.663          51.000
C24  22102768.953 8 115094925.448 8      -723.945          50.000
C25  23259706.562 5 121119439.012 5      1901.531          31.000
E01  23680941.008 8 124444185.444 8      -516.840          51.000    23680942.742 8  95353342.724 8      -396.023          51.000
E04  24727644.961 8 129944630.712 8     -1841.293          51.000    24727644.961 8  99567969.110 8     -1410.864          51.000
E21  26417205.055 5 138823349.076 5     -2203.352          32.000
E31  25104803.508 5 131926631.487 5      1661.852          34.000    25104811.297 5 101086666.883 5      1273.558          35.000
> 2020 05 04 08 11  0.0000000  0 14        .000000000000
G12  20721593.664 8 108892731.237 8      1803.172          50.000    20721593.344 8  84851454.323 8      1405.069          50.000
G15  22858023.836 8 120119706.532 8     -3412.168          48.000    22858024.242 8  93599766.517 8     -2658.835          48.000
G19  21631025.258 4 113671804.972 4      -741.348          29.000
G24  20147374.656 8 105875214.245 8        95.410          51.000    20147375.789 8  82500152.886 8        74.346          51.000
G25  22973774.883 7 120728004.081 7      3110.965          46.000    22973777.398 7  94073780.542 7      2424.128          43.000
R07  21227063.578 8 113630131.302 8     -3216.609          49.000    21227063.781 7  88378999.246 7     -2501.810          43.000
R09  19602876.859 5 104678270.794 5       161.305          32.000    19602880.461 6  81416446.565 6       125.453          36.000
C12  23761012.930 6 123729818.602 6      2671.191          41.000    23761015.906 8  95675743.802 8      2065.523          51.000
C24  22106930.070 8 115116592.259 8      -729.793          51.000
C25  23248730.961 4 121062243.075 4      1898.418          27.000
E01  23683876.359 8 124459610.800 8      -520.859          51.000    23683877.992 8  95365162.149 8      -399.106          51.000
E04  24738157.789 8 129999870.916 8     -1850.801          51.000    24738157.734 8  99610295.997 8     -1418.146          51.000
E21  26429752.305 5 138889286.823 5     -2202.273          34.000    26429744.109 5 106421623.528 5     -1687.980          34.000
E31  25095298.820 5 131876680.117 5      1658.770          34.000    25095303.484 5 101048392.556 5      1271.104          35.000
> 2020 05 04 08 11 30.0000000  0 13        .000000000000
G12  20711338.312 8 108838836.999 8      1799.770          51.000    20711337.305 8  84809458.811 8      1402.418          51.000
G15  22877523.719 8 120222176.867 8     -3409.098          50.000    22877522.930 8  93679613.504 8     -2656.440          50.000
G19  21635313.453 5 113694329.850 5      -751.602          31.000    21635312.555 4  88592993.140 4      -585.673          29.000
G24  20146867.477 8 105872548.507 8        92.465          51.000    20146868.703 8  82498075.690 8        72.051          51.000
G25  22956034.867 7 120634780.383 7      3113.688          45.000    22956037.789 7  94001138.708 7      2426.250          44.000
R07  21245138.812 8 113726888.684 8     -3223.598          49.000    21245139.203 7  88454254.991 7     -2507.243          42.000
C12  23745650.930 7 123649828.387 7      2671.352          42.000    23745655.000 8  95613890.319 8      2065.797          51.000
C24  22111156.125 8 115138596.795 8      -727.164          51.000
C26  24654259.953 4 128381202.664 4     -2451.188          27.000
E01  23686866.070 8 124475322.008 8      -516.352          51.000    23686867.688 8  95377200.607 8      -395.685          51.000
E04  24748756.156 8 130055561.868 8     -1851.734          51.000    24748756.344 8  99652968.259 8     -1418.870          51.000
E21  26442324.805 6 138955353.555 6     -2193.395          36.000
E31  25085842.352 5 131826990.919 5      1663.723          31.000    25085842.523 5 101010315.977 5      1275.459          34.000
> 2020 05 04 08 12  0.0000000  0 11        .000000000000
G12  20701168.914 8 108785394.243 8      1777.352          51.000    20701167.562 8  84767815.141 8      1384.952          51.000
G15  22897072.078 8 120324901.397 8     -3424.859          50.000    22897069.430 8  93759658.524 8     -2668.725          50.000
G19  21639734.016 5 113717565.364 5      -782.160          32.000    21639730.883 5  88611079.527 5      -609.466          32.000
G24  20146443.406 8 105870319.621 8        70.445          51.000    20146444.805 8  82496338.899 8        54.892          51.000
G25  22938345.281 7 120541821.384 7      3097.750          46.000    22938347.953 7  93928703.148 7      2413.831          43.000
R07  21263318.953 8 113824206.515 8     -3249.656          49.000    21263318.656 7  88529946.632 7     -2527.510          43.000
C12  23730354.352 7 123570175.000 7      2652.867          43.000    23730358.453 8  95552297.330 8      2051.459          51.000
C24  22115433.633 8 115160869.581 8      -743.434          51.000
E01  23689896.891 8 124491248.463 8      -531.004          51.000    23689898.359 8  95389403.993 8      -406.864          51.000
E04  24759426.219 8 130111632.249 8     -1871.824          51.000    24759426.906 8  99695931.267 8     -1434.252          51.000
E21  26454923.820 6 139021547.888 6     -2203.270          36.000
> 2020 05 04 08 12 30.0000000  0 12        .000000000000
G12  20691074.117 8 108732344.978 8      1762.801          50.000    20691073.078 8  84726478.065 8      1373.611          50.000
G15  22916657.039 8 120427819.225 8     -3432.836          49.000    22916652.695 8  93839854.139 8     -2674.940          49.000
G19  21644270.523 5 113741413.731 5      -804.590          32.000    21644270.242 5  88629662.646 5      -626.947          31.000
G24  20146091.508 8 105868470.171 8        56.406          51.000    20146093.031 8  82494897.770 8        43.953          51.000
G25  22920695.492 7 120449069.957 7      3089.363          46.000    22920697.719 7  93856429.339 7      2407.296          42.000
R07  21281592.555 8 113922021.438 8     -3267.688          50.000    21281592.203 7  88606024.853 7     -2541.538          45.000
R09  19600439.422 5 104665255.144 5       129.359          33.000    19600439.289 5  81406304.432 5       100.610          31.000
R10  21078620.055 5 112360884.312 5      2215.062          32.000
C12  23715111.688 7 123490803.050 7      2642.129          45.000    23715115.000 8  95490921.988 8      2042.974          50.000
C24  22119751.617 8 115183352.948 8      -751.980          51.000
E01  23692957.594 8 124507331.492 8      -537.703          51.000    23692958.836 8  95401727.354 8      -411.997          51.000
E04  24770156.305 8 130168022.565 8     -1884.020          51.000    24770158.344 8  99739139.432 8     -1443.629          51.000
> 2020 05 04 08 13  0.0000000  0 12        .000000000000
G12  20681042.172 8 108679626.909 8      1756.133          51.000    20681041.367 8  84685399.030 8      1368.415          50.000
G15  22936266.008 8 120530865.164 8     -3432.676          48.000    22936262.508 8  93920149.591 8     -2674.812          49.000
G19  21648917.211 5 113765828.113 5      -819.270          34.000    21648918.984 4  88648686.840 4      -638.389          29.000
G24  20145799.742 8 105866937.148 8        50.160          51.000    20145801.398 8  82493703.206 8        39.086          51.000
G25  22903073.461 7 120356464.346 7      3088.895          45.000    22903075.344 7  93784269.155 7      2406.931          43.000
R07  21299945.805 7 114020265.216 7     -3277.430          47.000    21299946.062 7  88682436.627 7     -2549.112          46.000
R09  19599731.047 6 104661478.875 6       126.520          36.000    19599730.602 5  81403367.425 5        98.404          31.000
C12  23699912.258 7 123411652.822 7      2638.914          47.000    23699914.523 8  95429718.074 8      2040.527          51.000
C24  22124098.031 8 115205984.613 8      -752.543          51.000
C26  24696875.180 5 128603042.592 5     -2462.469          32.000
E01  23696035.891 8 124523507.741 8      -536.402          51.000    23696037.109 8  95414122.152 8      -411.063          51.000
E04  24780934.055 8 130224668.696 8     -1888.188          50.000    24780937.711 8  99782543.619 8     -1446.781          50.000
> 2020 05 04 08 13 30.0000000  0 12        .000000000000
G12  20671087.703 8 108627316.448 8      1741.113          51.000    20671086.750 8  84644637.635 8      1356.712          51.000
G13  24561804.148 6 129073132.358 6     -3847.082          37.000
G15  22955913.102 7 120634112.547 7     -3440.656          47.000    22955911.914 7  94000602.051 7     -2681.031          47.000
G24  20145582.883 8 105865797.501 8        35.598          51.000    20145584.469 8  82492815.155 8        27.738          51.000
G25  22885493.469 7 120264081.562 7      3079.941          43.000    22885495.438 7  93712282.566 7      2399.951          43.000
R07  21318390.680 7 114119010.843 7     -3295.594          44.000    21318393.359 7  88759238.788 7     -2563.240          46.000
R09  19599083.672 5 104658019.230 5       114.230          35.000    19599080.711 5  81400676.567 5        88.849          32.000
C12  23684770.422 7 123332802.034 7      2627.461          47.000    23684772.000 8  95368745.715 8      2031.744          51.000
C24  22128487.234 8 115228839.845 8      -761.473          51.000
C26  24711106.164 5 128677128.860 5     -2466.910          32.000
E01  23699146.109 8 124539852.674 8      -543.461          51.000    23699147.523 8  95426646.194 8      -416.403          51.000
E04  24791775.211 8 130281645.322 8     -1900.555          50.000    24791778.680 8  99826201.032 8     -1456.293          49.000
> 2020 05 04 08 14  0.0000000  0 13        .000000000000
G12  20661222.938 8 108575477.504 8      1718.949          51.000    20661221.586 8  84604243.694 8      1339.441          51.000
G13  24583810.312 6 129188770.381 6     -3858.230          37.000
G15  22975610.258 8 120737622.553 8     -3455.754          48.000    22975611.031 8  94081259.163 8     -2692.798          48.000
G24  20145453.234 8 105865115.935 8        13.969          51.000    20145454.633 8  82492284.057 8        10.885          51.000
G25  22867967.633 7 120171986.398 7      3063.844          42.000    22867970.672 7  93640520.108 7      2387.411          42.000
R07  21336939.500 7 114218319.089 7     -3320.730          45.000    21336945.484 7  88836478.516 7     -2582.790          46.000
R09  19598507.047 5 104654941.242 5        94.902          33.000    19598505.500 5  81398282.510 5        73.810          34.000
R10  21041388.414 5 112162427.538 5      2191.004          31.000
R18  21935583.422 5 117093613.660 5     -1412.512          31.000
C12  23669698.953 7 123254316.280 7      2609.031          47.000    23669699.273 8  95308055.599 8      2017.369          50.000
C24  22132931.219 8 115251981.816 8      -777.273          51.000
E01  23702300.500 8 124556429.542 8      -557.594          51.000    23702302.086 8  95439347.944 8      -427.229          51.000
E04  24802692.344 8 130339014.930 8     -1920.074          51.000    24802693.805 8  99870159.530 8     -1471.229          49.000
> 2020 05 04 08 14 30.0000000  0 13        .000000000000
G12  20651437.086 8 108524052.459 8      1709.383          51.000    20651435.453 8  84564172.246 8      1331.987          51.000
G13  24605830.047 6 129304475.447 6     -3855.738          37.000
G15  22995346.148 8 120841334.394 8     -3458.199          49.000    22995347.930 8  94162073.552 8     -2694.701          49.000
G24  20145399.656 8 105864834.280 8         4.785          51.000    20145401.000 8  82492064.589 8         3.729          51.000
G25  22850486.039 7 120080121.466 7      3060.605          44.000    22850489.570 7  93568937.014 7      2384.887          43.000
R07  21355584.359 7 114318126.210 7     -3333.055          47.000    21355590.828 7  88914106.260 7     -2592.376          47.000
R09  19597990.734 5 104652184.939 5        88.656          35.000    19597992.922 6  81396138.833 6        68.955          36.000
R18  21943579.016 5 117136303.944 5     -1434.500          31.000
C12  23654686.805 7 123176140.133 7      2602.816          46.000    23654686.234 8  95247604.880 8      2012.593          49.000
C24  22137419.141 8 115275352.638 8      -780.887          51.000
C26  24739633.961 4 128825777.938 4     -2477.637          29.000
E01  23705487.914 8 124573179.493 8      -559.180          51.000    23705489.719 8  95452182.312 8      -428.402          51.000
E04  24813673.680 8 130396717.818 8     -1926.945          51.000    24813673.273 8  99914373.373 8     -1476.386          50.000
> 2020 05 04 08 15  0.0000000  0 13        .000000000000
G12  20641737.828 8 108473082.800 8      1692.512          51.000    20641736.523 8  84524455.647 8      1318.840          51.000
G13  24627869.320 6 129420286.555 6     -3861.285          36.000
G15  23015127.883 8 120945286.526 8     -3467.934          49.000    23015130.219 8  94243075.172 8     -2702.286          49.000
G19  21668783.328 5 113870203.440 5      -912.703          32.000
G24  20145430.055 8 105864994.671 8       -11.672          51.000    20145431.453 8  82492189.558 8        -9.095          51.000
G25  22833056.758 7 119988529.048 7      3049.680          46.000    22833060.352 7  93497566.327 7      2376.374          42.000
R07  21374331.008 8 114418469.869 8     -3352.637          50.000    21374336.328 7  88992151.304 7     -2607.609          47.000
R09  19597543.375 5 104649792.584 5        75.277          34.000    19597546.727 5  81394278.071 5        58.546          35.000
C12  23639741.695 7 123098316.922 7      2589.164          44.000    23639740.656 8  95187427.008 8      2002.145          49.000
C24  22141959.039 8 115298993.195 8      -791.578          51.000
E01  23708715.938 8 124590143.258 8      -568.020          51.000    23708718.109 8  95465180.506 8      -435.215          51.000
E04  24824726.336 8 130454793.876 8     -1941.145          51.000    24824725.367 8  99958873.165 8     -1487.299          51.000
E31  25020420.469 5 131483198.282 5      1618.738          35.000
> 2020 05 04 08 15 30.0000000  0 15        .000000000000
G12  20632108.852 8 108422483.015 8      1676.270          51.000    20632108.023 8  84485027.277 8      1306.187          51.000
G13  24649911.531 5 129536115.478 5     -3866.000          30.000
G15  23034938.562 7 121049390.683 7     -3476.844          47.000    23034941.062 7  94324195.268 7     -2709.229          47.000
G19  21674036.367 5 113897862.957 5      -937.164          35.000
G24  20145528.242 8 105865510.894 8       -27.332          51.000    20145529.508 8  82492591.793 8       -21.298          51.000
G25  22815663.078 7 119897124.000 7      3039.461          44.000    22815666.477 7  93426341.639 7      2368.411          43.000
R07  21393160.648 8 114519258.257 8     -3371.195          50.000    21393163.914 7  89070542.214 7     -2622.044          45.000
R09  19597146.227 5 104647676.428 5        61.840          33.000    19597152.555 5  81392632.107 5        48.104          33.000
R16  22498771.875 5 120184371.391 5     -2915.086          31.000
R18  21960008.797 5 117224015.241 5     -1492.227          33.000
C12  23624848.031 7 123020763.480 7      2576.543          45.000    23624847.727 8  95127457.780 8      1992.286          51.000
C24  22146534.266 8 115322818.091 8      -801.383          51.000
E01  23711968.125 8 124607234.147 8      -575.926          51.000    23711970.594 8  95478276.103 8      -441.282          51.000
E04  24835832.930 8 130513155.587 8     -1954.297          51.000    24835832.648 8 100003591.844 8     -1497.454          51.000
E31  25011191.102 6 131434678.955 6      1611.520          38.000
> 2020 05 04 08 16  0.0000000  0 15        .000000000000
G12  20622528.406 8 108372137.735 8      1667.719          51.000    20622527.555 8  84445797.187 8      1299.521          51.000
G15  23054754.953 7 121153528.004 7     -3477.914          44.000    23054757.727 7  94405341.230 7     -2710.063          44.000
G19  21679396.430 5 113925994.250 5      -953.395          33.000
G24  20145672.383 8 105866268.632 8       -35.496          51.000    20145673.352 8  82493182.249 8       -27.659          51.000
G25  22798283.055 7 119805791.646 7      3037.031          43.000    22798286.539 7  93355173.608 7      2366.518          42.000
R07  21412049.891 8 114620368.980 8     -3381.977          50.000    21412050.992 7  89149183.840 7     -2630.429          45.000
R09  19596779.672 5 104645718.747 5        56.230          34.000    19596785.922 5  81391109.468 5        43.735          30.000
R10  20992325.305 5 111900893.967 5      2165.516          33.000
R18  21968427.992 6 117268868.764 6     -1511.113          36.000    21968424.953 4  91209175.048 4     -1175.313          26.000
C12  23609985.422 7 122943367.694 7      2571.039          47.000    23609985.016 8  95067610.477 8      1988.133          50.000
C24  22151122.906 8 115346712.734 8      -803.812          51.000
C26  24782535.414 5 129049148.079 5     -2485.840          33.000
E01  23715222.492 8 124624336.024 8      -576.426          51.000    23715225.070 8  95491380.129 8      -441.650          51.000
E04  24846971.008 8 130571685.931 8     -1959.910          51.000    24846971.953 8 100048439.756 8     -1501.782          51.000
E31  25001959.336 6 131386146.866 6      1611.746          38.000
> 2020 05 04 08 16 30.0000000  0 14        .000000000000
G12  20613074.500 8 108322457.618 8      1643.297          51.000    20613073.633 8  84407085.375 8      1280.491          51.000
G15  23074654.609 7 121258106.602 7     -3494.941          43.000    23074658.203 7  94486831.077 7     -2723.328          43.000
G19  21684925.977 6 113955050.799 6      -985.105          38.000    21684925.906 4  88796134.412 4      -767.624          29.000
G24  20145940.508 8 105867678.098 8       -59.422          51.000    20145941.227 8  82494280.532 8       -46.303          51.000
G25  22780995.055 7 119714943.383 7      3018.531          44.000    22780999.102 7  93284382.816 7      2352.105          42.000
R07  21431076.039 8 114722215.829 8     -3408.727          49.000    21431076.562 7  89228398.016 7     -2651.235          45.000
R09  19596521.141 6 104644336.595 6        35.020          40.000    19596526.055 5  81390034.464 5        27.237          32.000
R10  20980187.930 5 111836174.296 5      2147.805          30.000
R18  21977018.945 5 117314828.001 5     -1548.066          34.000
C12  23595231.703 8 122866538.460 8      2549.961          49.000    23595230.852 8  95008201.281 8      1971.674          51.000
C24  22155802.992 8 115371083.685 8      -821.938          51.000
E01  23718557.086 8 124641858.760 8      -592.875          51.000    23718559.609 8  95504806.631 8      -454.236          51.000
E04  24858218.680 8 130630793.951 8     -1981.633          51.000    24858220.508 8 100093730.322 8     -1518.352          51.000
E31  24992803.469 5 131338012.342 5      1595.777          34.000
> 2020 05 04 08 17  0.0000000  0 13        .000000000000
G12  20603712.094 8 108273257.725 8      1646.141          51.000    20603711.289 8  84368747.799 8      1282.707          51.000
G15  23094602.781 7 121362938.576 7     -3484.387          44.000    23094606.633 7  94568518.355 7     -2715.107          43.000
G19  21690589.461 6 113984810.893 6      -989.395          38.000    21690587.805 5  88819324.208 5      -770.951          34.000
G24  20146297.516 8 105869555.162 8       -56.195          51.000    20146298.227 8  82495743.173 8       -43.792          51.000
G25  22763764.219 7 119624394.944 7      3027.539          44.000    22763768.578 6  93213825.629 6      2359.121          41.000
R07  21450203.430 8 114824605.595 8     -3407.559          49.000    21450204.031 7  89308034.476 7     -2650.326          46.000
R09  19596335.609 6 104643341.702 6        41.277          39.000    19596338.125 5  81389260.638 5        32.105          32.000
C12  23580551.750 8 122790094.645 8      2555.672          49.000    23580551.008 8  94949090.139 8      1976.196          51.000
C24  22160539.438 8 115395747.383 8      -812.934          51.000
E01  23721936.430 8 124659616.590 8      -581.746          51.000    23721938.875 8  95518413.270 8      -445.715          51.000
E04  24869540.492 8 130690292.987 8     -1975.691          51.000    24869542.680 8 100139320.492 8     -1513.844          51.000
E21  26581084.477 5 139684529.096 5     -2206.996          35.000
E31                                                                  24983676.547 5 100598907.216 5      1231.924          35.000
> 2020 05 04 08 17 30.0000000  0 14        .000000000000
G12  20594393.320 8 108224286.301 8      1620.004          51.000    20594392.469 8  84330588.261 8      1262.341          51.000
G15  23114551.680 7 121467769.185 7     -3502.934          45.000    23114554.375 7  94650204.546 7     -2729.559          45.000
G17  23438778.992 5 123171593.975 5     -2409.520          32.000
G19  21696338.422 6 114015020.912 6     -1023.035          41.000    21696336.789 5  88842864.448 5      -797.167          32.000
G24  20146695.422 8 105871647.333 8       -81.988          51.000    20146696.312 8  82497373.422 8       -63.887          51.000
G25  22746542.758 7 119533894.976 7      3007.523          43.000    22746546.617 6  93143306.221 6      2343.525          40.000
R07  21469383.297 8 114927277.300 8     -3435.645          48.000    21469383.852 7  89387890.224 7     -2672.168          45.000
R09  19596174.102 6 104642477.460 6        17.781          38.000    19596172.578 5  81388588.409 5        13.830          30.000
C12  23565897.258 8 122713788.566 8      2532.781          48.000    23565897.227 8  94890085.480 8      1958.462          51.000
C24  22165284.188 8 115420453.809 8      -832.715          51.000
C26  24825621.930 4 129273566.790 4     -2500.004          27.000
E01  23725312.422 8 124677356.694 8      -599.562          51.000    23725314.703 8  95532006.331 8      -459.381          51.000
E04  24880888.523 8 130749929.364 8     -1998.695          51.000    24880890.414 8 100185015.898 8     -1531.435          51.000
E31  24974574.805 5 131242271.297 5      1591.008          32.000    24974552.445 6 100562156.646 6      1219.204          36.000
> 2020 05 04 08 18  0.0000000  0 16        .000000000000
G12  20585157.922 8 108175752.980 8      1616.445          51.000    20585156.734 8  84292770.087 8      1259.568          51.000
G15  23134540.352 7 121572805.227 7     -3498.645          46.000    23134541.047 7  94732050.775 7     -2726.220          46.000
G19  21702212.805 6 114045889.308 6     -1033.469          39.000    21702208.180 5  88866917.716 5      -805.306          34.000
G24  20147174.477 8 105874165.457 8       -85.109          51.000    20147175.398 8  82499335.589 8       -66.319          51.000
G25  22729370.391 6 119443653.770 6      3009.484          41.000    22729372.250 6  93072988.434 6      2345.056          40.000
R07  21488654.359 8 115030439.214 8     -3440.875          49.000    21488655.562 7  89468127.252 7     -2676.236          46.000
R09  19596075.898 5 104641956.263 5        17.977          34.000    19596073.922 5  81388182.983 5        13.979          32.000
R10  20943978.602 5 111643198.066 5      2140.570          31.000
R18  22003631.750 5 117456879.761 5     -1609.391          31.000
C12  23551308.875 7 122637829.878 7      2532.043          47.000    23551310.055 8  94831349.459 8      1957.870          51.000
C24  22170076.969 8 115445410.252 8      -830.156          51.000
C26  24840036.297 4 129348589.274 4     -2493.305          29.000
E01  23728724.680 8 124695287.845 8      -595.012          51.000    23728726.680 8  95545745.786 8      -455.900          51.000
E04  24892302.539 8 130809910.927 8     -1999.359          51.000    24892303.742 8 100230975.789 8     -1531.977          51.000
E21  26606371.625 6 139817420.747 6     -2210.977          36.000
E31  24965460.516 5 131194391.648 5      1596.164          33.000    24965458.336 5 100525535.498 5      1223.140          35.000
> 2020 05 04 08 18 30.0000000  0 13        .000000000000
