     3.02           OBSERVATION DATA    M (MIXED)           RINEX VERSION / TYPE
SAVERINEX           SC600               20200516 085931 LCL PGM / RUN BY / DATE
       G = GPS       R = GLONASS       C = COMPASS          COMMENT
       S = SBAS      J = QZSS          E = GALILEO          COMMENT
BEAN                                                        MARKER NAME
1                                                           MARKER NUMBER
GEODETIC                                                    MARKER TYPE
Unige DICCA         GTER                                    OBSERVER / AGENCY
SC60291900056       SC600               2.12(191202)        REC # / TYPE / VERS
                    HEMA45          NONE                    ANT # / TYPE
  4509407.8091   693652.4678  4442337.6214                  APPROX POSITION XYZ
        0.0000        0.0000        0.0000                  ANTENNA: DELTA H/E/N
G    8 C1C L1C D1C S1C C2Y L2Y D2Y S2Y                      SYS / # / OBS TYPES
R    8 C1C L1C D1C S1C C2P L2P D2P S2P                      SYS / # / OBS TYPES
C    8 C1I L1I D1I S1I C7I L7I D7I S7I                      SYS / # / OBS TYPES
E    8 C1C L1C D1C S1C C7Q L7Q D7Q S7Q                      SYS / # / OBS TYPES
DBHZ                                                        COMMENT
     30.000                                                 INTERVAL
  2020    05    16    06    00    0.0000000     GPS         TIME OF FIRST OBS
  2020    05    16    06    59   30.0000000     GPS         TIME OF LAST OBS
     0                                                      RCV CLOCK OFFS APPL
G L1C  0.00000                                              SYS / PHASE SHIFT
G L2Y  0.00000                                              SYS / PHASE SHIFT
R L1C  0.00000                                              SYS / PHASE SHIFT
R L2P  0.25000                                              SYS / PHASE SHIFT
C L1I  0.00000                                              SYS / PHASE SHIFT
C L7I  0.00000                                              SYS / PHASE SHIFT
E L1C  0.50000                                              SYS / PHASE SHIFT
E L7Q -0.25000                                              SYS / PHASE SHIFT
 13 R01  1 R02 -4 R03  5 R08  6 R10 -5 R11  0 R12 -1 R13 -2 GLONASS SLOT / FRQ #
    R14 -7 R20  2 R21  4 R22 -3 R23  3                      GLONASS SLOT / FRQ #
 C1C   71.950 C2C   71.950 C2P   71.950                     GLONASS COD/PHS/BIS
    18                                                      LEAP SECONDS
*** Above antenna height is from mark to ANTENNA BOTTOM.    COMMENT
    17     4        0.0000        ANT MEASURE TYPE/HEIGT    COMMENT
    0.0000    0.0000    0.0458    0.0405    0.0000          COMMENT
                    BASE STATION                            COMMENT
                                                            END OF HEADER
> 2020 05 16 06 00  0.0000000  0 13        .000000000000
G12  23353305.250 6 122722427.811 6      3602.930          37.000    23353316.391 6  95627888.870 6      2807.481          37.000
G13  21366372.922 8 112281031.682 8     -2485.188          51.000    21366372.812 7  87491703.423 7     -1936.510          46.000
G15  20551050.711 8 107996496.610 8     -1229.223          51.000    20551050.039 8  84153119.620 8      -957.836          51.000
G19  22562297.812 6 118565695.125 6      2518.645          39.000    22562296.203 5  92388834.350 5      1962.577          35.000
R02  20518508.523 8 109490639.134 8     -3332.641          51.000    20518510.930 7  85159414.116 7     -2592.057          46.000
R12  20158150.672 6 107681239.767 6     -1996.371          41.000    20158155.734 6  83752063.658 6     -1552.733          39.000
C05  39774903.344 5 207118359.172 5        26.684          33.000    39774898.938 5 160157035.370 5        21.032          34.000
C23  21908744.039 8 114084621.424 8      -134.844          51.000
E02  25927797.570 8 136251491.610 8      2273.219          50.000    25927800.422 8 104400504.273 8      1741.790          51.000
E03  23752367.094 8 124819529.434 8      -239.285          51.000    23752369.984 8  95640945.320 8      -183.300          51.000
E05  25468762.750 8 133839229.007 8     -2671.383          51.000    25468762.523 8 102552131.909 8     -2046.910          51.000
E24  23477033.102 5 123372643.578 5     -2106.574          35.000    23477052.250 5  94532358.975 5     -1614.149          32.000
E25  23439967.883 8 123177866.614 8       215.684          51.000    23439969.555 8  94383054.278 8       165.273          51.000
> 2020 05 16 06 00 30.0000000  0 16        .000000000000
G12  23332748.773 6 122614396.368 6      3595.672          37.000    23332760.672 6  95543708.541 6      2801.822          37.000
G13  21380588.195 8 112355733.548 8     -2498.438          51.000    21380587.914 7  87549912.616 7     -1946.834          46.000
G15  20558109.531 8 108033589.019 8     -1247.215          51.000    20558108.547 8  84182022.784 8      -971.856          51.000
G19  22547950.188 7 118490295.971 7      2504.270          43.000    22547947.836 5  92330081.856 5      1951.385          33.000
R02  20537286.133 8 109590839.597 8     -3350.988          50.000    20537288.266 7  85237347.758 7     -2606.324          46.000
R03  19962679.523 5 106861765.653 5       721.895          32.000    19962679.227 4  83114731.000 4       561.474          29.000
R12  20169379.141 6 107741216.890 6     -2005.734          41.000    20169383.172 6  83798712.469 6     -1560.019          39.000
R21  22832861.781 5 122183240.772 5      -111.012          31.000    22832864.070 5  95031420.254 5       -86.339          33.000
C05  39774737.125 5 207117493.116 5        27.012          34.000    39774732.898 5 160156366.455 5        20.881          34.000
C23  21909535.539 8 114088742.990 8      -143.492          50.000
C25  24052308.750 5 125246569.145 5     -2293.047          35.000
E02  25914827.109 8 136183331.588 8      2267.172          50.000    25914829.719 8 104348277.762 8      1737.139          51.000
E03  23753762.258 8 124826861.537 8      -253.238          51.000    23753765.445 8  95646563.407 8      -194.028          51.000
E05  25484024.602 8 133919429.413 8     -2678.938          51.000    25484026.188 8 102613584.141 8     -2052.707          51.000
E24  23489060.961 6 123435851.778 6     -2110.992          36.000    23489081.492 5  94580796.237 5     -1617.112          30.000
E25  23438753.430 8 123171483.899 8       206.160          51.000    23438754.984 8  94378163.636 8       157.949          51.000
> 2020 05 16 06 01  0.0000000  0 14        .000000000000
G12  23312249.680 6 122506671.979 6      3588.969          36.000    23312265.688 5  95459767.463 5      2796.599          35.000
G13  21394896.539 8 112430924.145 8     -2510.891          51.000    21394896.016 7  87608502.632 7     -1956.538          45.000
G15  20565288.531 8 108071313.466 8     -1264.426          51.000    20565287.438 8  84211418.449 8      -985.267          51.000
G19  22533703.469 7 118415425.066 7      2490.305          46.000    22533699.742 6  92271740.917 6      1940.500          38.000
R02  20556182.945 8 109691680.033 8     -3368.266          49.000    20556186.305 7  85315779.192 7     -2619.762          47.000
R12  20180676.227 6 107801564.333 6     -2014.230          40.000    20180679.141 6  83845649.366 6     -1566.624          39.000
R21  22833565.320 6 122187004.755 6      -136.910          36.000    22833570.086 5  95034357.403 5      -106.483          33.000
C05  39774589.508 5 207116725.213 5        27.520          34.000
C23  21910394.055 8 114093213.669 8      -151.227          51.000
E02  25901907.836 8 136115439.919 8      2262.293          51.000    25901909.883 8 104296256.879 8      1733.409          51.000
E03  23755253.305 8 124834697.498 8      -265.934          51.000    23755256.555 8  95652567.569 8      -203.755          51.000
E05  25499345.781 8 133999941.583 8     -2685.238          51.000    25499348.828 8 102675275.262 8     -2057.490          51.000
E24  23501129.852 6 123499271.778 6     -2113.816          36.000    23501150.078 4  94629391.818 4     -1619.704          29.000
E25  23437608.945 8 123165468.505 8       198.172          51.000    23437610.602 8  94373554.432 8       151.843          51.000
> 2020 05 16 06 01 30.0000000  0 15        .000000000000
G12  23291774.930 4 122399103.002 4      3580.855          26.000
G13  21409264.141 8 112506425.993 8     -2523.094          51.000    21409263.531 7  87667335.214 7     -1966.044          45.000
G15  20572553.961 8 108109493.439 8     -1281.457          51.000    20572553.008 8  84241169.061 8      -998.538          51.000
G19  22519524.336 7 118340909.641 7      2476.809          45.000    22519520.445 6  92213677.022 6      1929.984          39.000
G24  21106946.781 5 110917768.766 5      1886.484          31.000
R02  20575165.281 8 109792978.251 8     -3385.418          50.000    20575170.320 7  85394566.709 7     -2633.103          47.000
R03  19954900.492 5 106820144.923 5       668.855          35.000    19954892.773 5  83082316.591 5       520.224          30.000
R12  20192008.445 6 107862101.899 6     -2022.668          40.000    20192012.000 6  83892734.080 6     -1573.186          40.000
R21  22834404.281 6 122191485.728 6      -162.238          38.000    22834405.148 4  95037837.296 4      -126.185          27.000
C23  21911285.844 8 114097858.720 8      -158.879          51.000
E02  25889006.266 8 136047641.035 8      2257.176          51.000    25889007.719 8 104244307.095 8      1729.548          51.000
E03  23756806.836 8 124842861.617 8      -278.781          51.000    23756810.070 8  95658823.183 8      -213.627          51.000
E05  25514692.555 8 134080588.254 8     -2691.684          51.000    25514696.461 8 102737069.453 8     -2062.486          51.000
E24  23513206.258 6 123562727.597 6     -2116.832          36.000
E25  23436500.703 8 123159643.932 8       189.699          51.000    23436502.672 8  94369091.447 8       145.339          51.000
> 2020 05 16 06 02  0.0000000  0 14        .000000000000
G13  21423714.828 8 112582365.115 8     -2533.258          51.000    21423714.422 7  87726508.518 7     -1973.967          46.000
G15  20579929.969 8 108148254.680 8     -1296.492          51.000    20579929.242 8  84271372.608 8     -1010.254          51.000
G19  22505437.422 7 118266879.822 7      2464.574          44.000    22505433.266 6  92155991.474 6      1920.450          38.000
R02  20594257.891 8 109894859.289 8     -3400.516          51.000    20594263.086 8  85473807.527 8     -2644.842          48.000
R12  20203400.047 7 107922956.620 7     -2028.465          42.000    20203405.047 6  83940065.585 6     -1577.692          40.000
R21  22835395.883 5 122196830.499 5      -185.902          35.000    22835396.266 4  95041968.667 4      -144.591          29.000
C05  39774273.359 5 207115078.642 5        30.836          34.000    39774268.883 5 160154498.607 5        24.116          34.000
C23  21912235.320 8 114102803.529 8      -164.551          51.000
C25  24092028.469 5 125453556.161 5     -2298.938          33.000
E02  25876146.445 8 135980062.149 8      2254.180          50.000    25876147.672 8 104192525.878 8      1727.193          51.000
E03  23758447.023 8 124851481.070 8      -289.738          51.000    23758450.297 8  95665427.686 8      -222.034          51.000
E05  25530088.609 8 134161495.086 8     -2696.031          51.000    25530093.125 8 102799062.997 8     -2065.793          51.000
E24  23525312.750 5 123626343.096 5     -2117.754          35.000
E25  23435452.867 8 123154136.514 8       183.438          51.000    23435454.938 8  94364871.465 8       140.550          51.000
> 2020 05 16 06 02 30.0000000  0 15        .000000000000
G13  21438182.781 8 112658394.945 8     -2542.156          50.000    21438182.445 7  87785752.511 7     -1980.901          47.000
G15  20587350.641 8 108187251.164 8     -1310.230          51.000    20587350.117 8  84301759.477 8     -1020.959          51.000
G19  22491377.391 7 118192993.233 7      2454.320          42.000    22491373.508 6  92098417.470 6      1912.454          38.000
G28  23144931.242 6 121627429.671 6     -2917.648          36.000
R02  20613393.781 8 109996968.730 8     -3413.910          51.000    20613398.336 8  85553225.983 8     -2655.260          48.000
R12  20214785.852 6 107983775.912 6     -2033.059          41.000    20214790.156 6  83987369.393 6     -1581.268          38.000
R21  22836481.602 5 122202627.709 5      -207.973          34.000    22836483.008 5  95046492.555 5      -161.757          31.000
C05  39774063.297 5 207113984.662 5        35.172          34.000    39774058.680 5 160153651.650 5        27.436          33.000
C23  21913176.883 8 114107705.618 8      -168.918          51.000
C25  24105246.773 4 125522412.934 4     -2298.039          29.000
E02  25863262.844 8 135912358.355 8      2252.527          50.000    25863264.047 8 104140648.939 8      1726.112          51.000
E03  23760108.266 8 124860210.801 8      -299.035          51.000    23760111.383 8  95672116.692 8      -229.119          51.000
E05  25545467.805 8 134242315.522 8     -2698.773          48.000    25545473.242 8 102860990.355 8     -2067.667          51.000
E24  23537383.352 5 123689784.091 5     -2117.465          34.000
E25  23434399.492 8 123148600.375 8       178.828          51.000    23434401.531 8  94360629.473 8       137.132          51.000
> 2020 05 16 06 03  0.0000000  0 14        .000000000000
G13  21452838.109 8 112735408.826 8     -2569.734          49.000    21452837.578 7  87845763.314 7     -2002.390          47.000
G15  20594985.938 8 108227377.042 8     -1342.543          51.000    20594985.578 8  84333026.372 8     -1046.137          51.000
G19  22477514.898 6 118120147.890 6      2424.402          41.000    22477512.094 6  92041654.926 6      1889.148          36.000
G28  23161704.242 5 121715583.761 5     -2936.961          35.000
R02  20632742.062 8 110100212.245 8     -3446.324          51.000    20632746.281 8  85633526.501 8     -2680.474          48.000
R03  19944365.477 5 106763749.417 5       578.797          31.000
R12  20226335.188 6 108045467.442 6     -2057.016          41.000    20226337.961 6  84035351.591 6     -1599.904          38.000
C05  39773967.086 5 207113483.893 5        20.570          34.000    39773962.289 5 160153263.595 5        16.411          33.000
C23  21914280.492 8 114113451.234 8      -192.008          51.000
E02  25850525.852 8 135845424.763 8      2232.016          50.000    25850527.164 8 104089362.179 8      1710.165          50.000
E03  23761960.898 8 124869945.885 8      -327.547          51.000    23761963.633 8  95679576.028 8      -250.966          51.000
E05  25560999.930 7 134323943.143 7     -2720.766          46.000    25561006.758 8 102923536.190 8     -2084.680          50.000
E24  23549588.258 6 123753922.250 6     -2135.766          37.000
E25  23433510.602 8 123143929.785 8       154.887          51.000    23433512.891 8  94357050.716 8       118.682          51.000
> 2020 05 16 06 03 30.0000000  0 14        .000000000000
G13  21467478.852 7 112812349.209 7     -2583.250          46.000    21467478.508 7  87905716.901 7     -2012.919          46.000
G15  20602634.930 8 108267575.208 8     -1360.973          51.000    20602634.828 8  84364349.596 8     -1060.498          51.000
G19  22463650.109 6 118047290.382 6      2408.902          41.000    22463647.508 5  91984882.828 5      1877.067          35.000
G28  23178418.625 6 121803429.195 6     -2942.781          37.000    23178422.508 4  94911760.328 4     -2293.076          27.000
R02  20652100.414 8 110203512.639 8     -3464.348          51.000    20652104.641 8  85713871.248 8     -2694.493          48.000
R03  19941128.461 5 106746434.739 5       551.168          32.000
R12  20237845.719 6 108106955.915 6     -2066.441          40.000    20237849.406 6  84083175.976 6     -1607.229          40.000
C05  39773783.469 5 207112527.854 5        19.777          34.000    39773778.812 5 160152524.353 5        15.556          34.000
C23  21915344.820 8 114118993.407 8      -200.980          51.000
E02  25837734.570 8 135778205.418 8      2225.574          51.000    25837735.812 8 104037856.473 8      1705.280          50.000
E03  23763803.828 8 124879630.271 8      -341.758          51.000    23763806.344 8  95686996.518 8      -261.866          51.000
E05  25576483.875 7 134405320.369 7     -2728.328          44.000    25576492.023 8 102985890.176 8     -2090.468          48.000
E24  23561726.789 5 123817709.392 5     -2140.297          35.000
E25  23432585.336 8 123139067.879 8       145.547          51.000    23432587.789 8  94353325.363 8       111.460          51.000
> 2020 05 16 06 04  0.0000000  0 15        .000000000000
G12  23190049.352 5 121864529.844 5      3553.195          34.000    23190044.883 5  94959360.496 5      2768.718          35.000
G13  21482228.523 7 112889864.441 7     -2580.621          46.000    21482228.750 7  87966118.427 7     -2010.874          46.000
G15  20610421.305 8 108308494.293 8     -1363.023          51.000    20610421.445 8  84396234.590 8     -1062.096          51.000
G19  22449907.281 6 117975073.657 6      2409.422          41.000    22449905.531 6  91928610.099 6      1877.472          36.000
G28  23195199.266 6 121891613.637 6     -2932.199          36.000
R02  20671591.797 8 110307526.293 8     -3465.824          50.000    20671595.828 7  85794770.728 7     -2695.641          47.000
R03  19938082.969 5 106730136.375 5       539.457          31.000
R12  20249441.547 6 108168900.166 6     -2059.293          41.000    20249446.195 6  84131354.822 6     -1601.675          40.000
C05  39773636.203 5 207111760.261 5        35.164          34.000    39773631.492 5 160151931.592 5        26.859          34.000
C23  21916493.453 8 114124975.481 8      -194.059          51.000
E02  25825012.859 8 135711350.313 8      2235.320          51.000    25825013.414 8 103986629.865 8      1712.664          49.000
E03  23765760.891 8 124889913.819 8      -339.980          51.000    23765763.328 8  95694876.104 8      -260.528          51.000
E05  25592043.531 7 134487095.562 7     -2719.746          43.000    25592052.445 7 103048549.096 7     -2083.916          46.000
E24  23573922.914 5 123881800.287 5     -2128.621          35.000
E25  23431747.297 8 123134663.762 8       152.016          51.000    23431749.539 8  94349950.768 8       116.441          51.000
> 2020 05 16 06 04 30.0000000  0 17        .000000000000
G12  23169817.859 5 121758235.058 5      3538.898          35.000    23169817.016 6  94876533.380 6      2757.580          36.000
G13  21497034.398 8 112967669.758 8     -2600.227          49.000    21497034.516 7  88026745.938 7     -2026.154          45.000
G15  20618290.734 8 108349849.860 8     -1387.617          51.000    20618291.000 8  84428459.683 8     -1081.260          51.000
G17  22418922.328 6 117812260.288 6       461.789          37.000
G19  22436233.391 7 117903217.103 7      2387.293          42.000    22436232.188 6  91872618.019 6      1860.225          39.000
G28  23211990.422 5 121979851.664 5     -2944.398          34.000
R02  20691162.773 8 110411961.579 8     -3490.059          51.000    20691165.898 7  85875998.108 7     -2714.493          46.000
R03  19935174.188 5 106714566.050 5       505.184          35.000
R12  20261068.812 7 108231010.035 7     -2074.941          42.000    20261073.227 6  84179662.494 6     -1613.843          41.000
R21  22842540.008 6 122235033.901 6      -320.012          36.000    22842547.398 5  95071727.296 5      -248.898          31.000
C05  39773471.328 5 207110902.232 5        28.520          34.000
C23  21917672.602 8 114131116.160 8      -209.051          51.000
E02  25812306.359 8 135644576.220 8      2222.715          51.000    25812306.312 8 103935465.347 8      1703.005          49.000
E03  23767778.148 8 124900513.158 8      -360.375          51.000    23767780.531 8  95702997.664 8      -276.129          51.000
E05  25607626.648 7 134568983.961 7     -2733.270          47.000    25607634.211 7 103111294.703 7     -2094.213          45.000
E24  23586121.680 6 123945904.163 6     -2138.930          38.000
E25  23430942.117 8 123130433.268 8       136.363          51.000    23430944.312 8  94346709.223 8       104.468          51.000
> 2020 05 16 06 05  0.0000000  0 16        .000000000000
G12  23149637.383 5 121652187.188 5      3534.090          34.000    23149637.016 5  94793898.734 5      2753.842          34.000
G13  21511917.734 8 113045878.760 8     -2610.508          51.000    21511917.266 7  88087687.991 7     -2034.165          45.000
G15  20626265.188 8 108391755.999 8     -1402.832          51.000    20626265.500 8  84461113.801 8     -1093.116          51.000
G19  22422651.078 7 117831838.613 7      2374.316          45.000    22422649.664 6  91816998.432 6      1850.117          37.000
G28  23228812.570 5 122068256.173 5     -2946.285          33.000
R02  20710834.891 8 110516931.391 8     -3504.613          51.000    20710836.578 7  85957641.234 7     -2725.810          46.000
R03  19932423.133 5 106699841.927 5       479.637          34.000    19932421.117 4  82988741.497 4       373.051          25.000
R12  20272748.555 6 108293400.730 6     -2081.051          41.000    20272752.812 6  84228188.537 6     -1618.598          41.000
R21  22844411.883 5 122245058.686 5      -343.898          35.000    22844417.414 5  95079508.846 5      -267.477          35.000
C05  39773310.766 5 207110065.734 5        30.422          34.000    39773306.125 5 160150621.982 5        23.615          34.000
C23  21918904.117 8 114137528.945 8      -215.148          51.000
E02  25799637.070 8 135577998.374 8      2219.199          51.000    25799636.680 8 103884451.185 8      1700.377          49.000
E03  23769877.289 8 124911543.401 8      -371.637          51.000    23769879.578 8  95711449.398 8      -284.737          51.000
E05  25623254.250 8 134651099.230 8     -2737.789          50.000    25623259.703 7 103174214.128 7     -2097.804          47.000
E24  23598344.625 5 124010136.952 5     -2139.922          35.000
E25  23430191.641 8 123126490.722 8       129.898          51.000    23430194.180 8  94343688.308 8        99.509          51.000
> 2020 05 16 06 05 30.0000000  0 14        .000000000000
G12  23129498.359 5 121546364.609 5      3526.195          35.000    23129499.086 5  94711439.678 5      2747.688          35.000
G13  21526873.219 8 113124466.399 8     -2623.879          51.000    21526872.523 7  88148925.061 7     -2044.584          45.000
G15  20634340.062 8 108434188.196 8     -1421.105          51.000    20634340.258 8  84494177.835 8     -1107.355          51.000
G19  22409155.781 7 117760917.896 7      2358.379          42.000    22409153.562 6  91761735.524 6      1837.695          37.000
R02  20730601.727 8 110622407.081 8     -3522.125          51.000    20730602.672 7  86039677.829 7     -2739.431          46.000
R03  19929824.766 5 106685940.924 5       451.832          31.000
R12  20284475.812 6 108356046.421 6     -2090.598          39.000    20284479.328 6  84276912.964 6     -1626.017          39.000
R21  22846428.086 5 122255852.920 5      -370.812          32.000    22846433.883 5  95087869.848 5      -288.401          35.000
C05                                                                  39773145.523 5 160149975.208 5        23.150          33.000
C23  21920183.430 8 114144190.048 8      -224.156          51.000
E02  25787000.289 8 135511593.444 8      2212.676          50.000    25787000.398 8 103833569.505 8      1695.442          49.000
E03  23772053.742 8 124922981.109 8      -385.988          51.000    23772055.953 8  95720213.353 8      -295.724          51.000
E05  25638920.695 8 134733416.417 8     -2745.211          51.000    25638924.516 8 103237288.268 8     -2103.482          49.000
E25  23429491.562 8 123122811.940 8       120.207          51.000    23429494.383 8  94340869.494 8        92.140          51.000
> 2020 05 16 06 06  0.0000000  0 16        .000000000000
G12  23109404.438 6 121440772.212 6      3517.348          39.000    23109404.609 6  94629159.966 6      2740.790          39.000
G13  21541900.914 8 113203434.409 8     -2637.023          51.000    21541900.273 7  88210458.516 7     -2054.823          45.000
G15  20642515.625 8 108477148.557 8     -1439.191          51.000    20642515.430 8  84527653.421 8     -1121.448          51.000
G19  22395748.219 7 117690460.480 7      2342.633          42.000    22395746.102 5  91706833.761 5      1825.431          35.000
R02  20750462.594 8 110728388.703 8     -3539.324          51.000    20750463.695 7  86122107.954 7     -2752.811          46.000
R03  19927381.859 5 106672867.530 5       423.266          32.000
R12  20296250.594 6 108418948.658 6     -2099.004          38.000    20296253.797 6  84325836.948 6     -1632.559          38.000
R14  23599324.117 6 125797666.405 6      3210.863          36.000    23599326.516 4  97842643.115 4      2497.335          28.000
R21  22848595.602 5 122267406.076 5      -397.711          30.000    22848599.516 5  95096899.072 5      -309.334          34.000
C05  39772990.000 5 207108396.107 5        29.461          34.000
C23  21921511.055 8 114151102.167 8      -232.965          51.000
C25  24198722.477 5 126009096.817 5     -2326.812          33.000
E02  25774396.844 8 135445364.843 8      2206.234          50.000    25774398.336 8 103782822.911 8      1690.473          49.000
E03  23774308.328 8 124934829.489 8      -400.281          51.000    23774310.641 8  95729291.984 8      -306.709          51.000
E05  25654625.570 8 134815937.276 8     -2752.508          51.000    25654628.383 8 103300518.491 8     -2109.094          50.000
E25  23428842.188 8 123119399.367 8       111.012          51.000    23428845.062 8  94338254.651 8        85.019          51.000
> 2020 05 16 06 06 30.0000000  0 16        .000000000000
G12  23089354.016 6 121335405.392 6      3508.574          39.000    23089353.383 6  94547056.003 6      2733.957          38.000
G13  21556999.422 8 113282775.186 8     -2650.902          51.000    21556998.461 7  88272282.466 7     -2065.638          45.000
G15  20650790.242 8 108520629.806 8     -1458.043          51.000    20650789.602 8  84561534.912 8     -1136.137          51.000
G19  22382428.656 6 117620463.687 6      2325.777          41.000    22382425.297 5  91652290.816 5      1812.297          35.000
R02  20770415.422 8 110834866.419 8     -3557.508          50.000    20770417.766 7  86204923.955 7     -2766.951          46.000
R12  20308072.758 6 108482099.365 6     -2109.270          38.000    20308075.172 6  84374954.157 6     -1640.543          37.000
R14  23581273.555 5 125701450.547 5      3204.480          34.000
R21  22850907.031 4 122279823.859 4      -424.953          29.000    22850913.500 4  95106541.516 4      -330.516          29.000
C05  39772829.117 5 207107557.949 5        28.164          34.000
C23  21922885.648 8 114158258.721 8      -242.602          51.000
C25  24212146.875 4 126079000.427 4     -2331.754          29.000
E02  25761826.078 8 135379306.517 8      2199.117          50.000    25761828.984 8 103732206.789 8      1685.059          50.000
E03  23776640.055 8 124947082.403 8      -415.188          51.000    23776642.578 8  95738680.584 8      -318.113          51.000
E05  25670367.227 8 134898654.195 8     -2760.465          51.000    25670369.422 8 103363898.948 8     -2115.179          51.000
E24                                                                  23635147.648 5  95168956.590 5     -1649.776          33.000
E25  23428242.000 8 123116246.125 8       100.719          51.000    23428244.867 8  94335838.529 8        77.168          51.000
> 2020 05 16 06 07  0.0000000  0 15        .000000000000
G12  23069353.102 6 121230297.873 6      3500.484          37.000    23069353.344 6  94465154.062 6      2727.656          36.000
G13  21572174.375 8 113362519.164 8     -2663.969          51.000    21572173.273 7  88334420.592 7     -2075.820          44.000
G15  20659169.820 8 108564662.595 8     -1476.090          51.000    20659168.914 8  84595846.184 8     -1150.197          51.000
G19  22369202.344 6 117550961.881 6      2309.402          38.000    22369198.320 6  91598133.592 6      1799.528          37.000
R02  20790466.688 8 110941868.052 8     -3574.551          49.000    20790470.328 7  86288147.449 7     -2780.206          45.000
R03  19922967.492 5 106649213.712 5       366.402          32.000
R12  20319947.195 6 108545529.071 6     -2118.133          40.000    20319950.039 6  84424288.387 6     -1647.437          37.000
R14  23563257.406 5 125605412.364 5      3198.941          33.000    23563282.086 4  97693205.980 4      2488.066          27.000
C05  39772673.492 5 207106747.371 5        27.645          34.000
C23  21924313.055 8 114165690.727 8      -251.477          51.000
E02  25749294.039 8 135313450.487 8      2192.613          51.000    25749297.836 8 103681745.691 8      1680.027          51.000
E03  23779054.867 8 124959771.715 8      -429.340          51.000    23779057.508 8  95748403.563 8      -329.026          51.000
E05  25686151.234 8 134981597.599 8     -2767.719          51.000    25686153.281 8 103427452.944 8     -2120.705          51.000
E24                                                                  23647452.930 5  95218511.101 5     -1652.721          34.000
E25  23427697.227 8 123113383.301 8        91.438          51.000    23427699.906 8  94333644.938 8        70.042          51.000
> 2020 05 16 06 07 30.0000000  0 16        .000000000000
G12  23049388.242 5 121125380.451 5      3493.930          35.000    23049388.211 6  94383400.314 6      2722.546          37.000
G13  21587411.992 8 113442593.562 8     -2674.680          51.000    21587411.062 7  88396816.181 7     -2084.166          44.000
G15  20667640.570 8 108609174.916 8     -1491.770          51.000    20667639.422 8  84630531.129 8     -1162.418          51.000
G19  22356056.750 6 117481886.949 6      2295.309          39.000    22356053.883 6  91544308.934 6      1788.549          38.000
R02  20810603.266 8 111049317.606 8     -3589.082          51.000    20810606.234 7  86371719.312 7     -2791.508          44.000
R03  19920987.805 6 106638601.439 6       340.641          37.000
R12  20331859.547 7 108609163.917 7     -2124.852          42.000    20331863.797 6  84473782.093 6     -1652.665          37.000
R14  23545260.914 5 125509480.367 5      3195.742          35.000    23545279.305 4  97618592.339 4      2485.580          28.000
R21  22855982.078 5 122306929.704 5      -477.117          32.000    22855985.828 4  95127641.313 4      -371.091          25.000
C05  39772509.672 5 207105893.926 5        28.367          34.000
C23  21925779.609 8 114173327.384 8      -257.957          51.000
E02  25736787.078 8 135247725.917 8      2188.605          50.000    25736791.320 8 103631385.322 8      1676.936          51.000
E03  23781539.164 8 124972826.442 8      -441.320          51.000    23781541.758 8  95758406.524 8      -338.155          51.000
E05  25701963.875 8 135064695.039 8     -2772.535          51.000    25701966.141 8 103491124.981 8     -2124.362          51.000
E24                                                                  23659769.547 5  95268086.963 5     -1653.829          33.000
E25  23427194.234 8 123110739.181 8        84.527          51.000    23427196.625 8  94331618.915 8        64.777          51.000
> 2020 05 16 06 08  0.0000000  0 18        .000000000000
G12  23029468.250 5 121020700.455 5      3485.727          34.000    23029463.969 5  94301831.524 5      2716.144          34.000
G13  21602720.977 8 113523043.131 8     -2687.820          51.000    21602720.023 7  88459504.133 7     -2094.405          45.000
G15  20676210.641 8 108654211.484 8     -1509.820          50.000    20676209.352 8  84665624.579 8     -1176.483          50.000
G17  22403061.500 5 117728885.948 5       332.180          35.000    22403062.156 5  91736793.950 5       258.844          35.000
G19  22343001.727 6 117413287.550 6      2278.656          38.000    22343000.797 6  91490854.861 6      1775.573          37.000
R02  20830832.391 8 111157258.111 8     -3606.086          51.000    20830834.461 7  86455672.983 7     -2804.734          45.000
R03  19919164.234 6 106628820.405 6       312.230          37.000
R12  20343818.789 6 108673048.626 6     -2133.855          38.000    20343823.672 6  84523470.148 6     -1659.662          36.000
R14  23527292.844 5 125413701.724 5      3190.215          31.000    23527303.766 4  97544097.900 4      2481.281          26.000
R21  22858733.906 5 122321632.638 5      -503.949          30.000
C05  39772346.320 5 207105043.965 5        28.480          34.000
C23  21927294.125 8 114181213.712 8      -266.863          51.000
C25  24252514.398 5 126289218.921 5     -2338.934          32.000
E02  25724313.766 8 135182178.931 8      2182.020          49.000    25724318.023 8 103581161.014 8      1672.000          50.000
E03  23784101.664 8 124986292.478 8      -455.570          51.000    23784104.195 8  95768724.642 8      -349.055          51.000
E05  25717813.766 8 135147990.999 8     -2779.758          49.000    25717816.414 8 103554949.154 8     -2129.860          50.000
E24                                                                  23672105.523 5  95317764.614 5     -1656.995          32.000
E25  23426741.234 8 123108359.002 8        75.066          51.000    23426743.617 8  94329795.141 8        57.518          51.000
> 2020 05 16 06 08 30.0000000  0 18        .000000000000
G12  23009597.734 6 120916277.994 6      3477.027          38.000    23009589.047 6  94220463.447 6      2709.375          38.000
G13  21618104.227 8 113603884.195 8     -2700.934          50.000    21618103.422 7  88522497.162 7     -2104.627          46.000
G15  20684883.375 8 108699789.248 8     -1528.145          50.000    20684882.312 8  84701139.714 8     -1190.762          50.000
G17  22401218.398 6 117719209.634 6       312.996          36.000    22401218.188 6  91729253.867 6       243.887          37.000
G19  22330041.898 6 117345184.769 6      2262.160          39.000    22330042.055 6  91437787.725 6      1762.722          37.000
G28  23347304.594 5 122690914.513 5     -2981.504          32.000
R02  20851156.086 8 111265703.748 8     -3623.012          51.000    20851158.109 7  86540019.539 7     -2817.898          46.000
R03  19917495.000 5 106619890.192 5       283.965          32.000
R12  20355827.336 6 108737199.926 6     -2142.465          39.000    20355832.625 6  84573365.627 6     -1666.359          37.000
R14  23509369.391 5 125318127.345 5      3184.086          31.000    23509370.766 5  97469701.390 5      2476.517          30.000
R21  22861629.898 4 122337138.958 4      -531.102          28.000
C05  39772186.836 5 207104213.539 5        27.793          33.000
C23  21928860.016 8 114189367.247 8      -276.047          51.000
E02  25711877.867 8 135116827.859 8      2175.250          50.000    25711881.984 8 103531086.826 8      1666.765          50.000
E03  23786745.766 8 125000187.974 8      -470.027          51.000    23786748.367 8  95779371.830 8      -360.187          51.000
E05  25733704.602 8 135231502.217 8     -2787.055          49.000    25733707.422 8 103618938.257 8     -2135.494          50.000
E24                                                                  23684465.641 5  95367528.082 5     -1660.602          32.000
E25  23426341.703 8 123106260.164 8        65.547          51.000    23426344.133 8  94328186.937 8        50.284          51.000
> 2020 05 16 06 09  0.0000000  0 18        .000000000000
G12  22989771.312 6 120812083.642 6      3470.078          37.000    22989760.297 6  94139272.977 6      2703.954          36.000
G13  21633555.180 7 113685084.177 7     -2711.891          46.000    21633555.359 7  88585769.857 7     -2113.162          46.000
G15  20693653.125 8 108745876.004 8     -1543.934          51.000    20693652.359 8  84737051.457 8     -1203.065          51.000
G17  22399479.922 5 117710060.346 5       295.422          30.000    22399477.609 4  91722140.124 4       230.199          29.000
G19  22317171.719 6 117277550.243 6      2247.523          41.000    22317172.703 6  91385085.470 6      1751.317          41.000
G28  23364332.750 5 122780395.558 5     -2983.660          32.000
R02  20871567.438 8 111374618.850 8     -3637.469          51.000    20871569.836 7  86624731.265 7     -2829.142          46.000
R03  19915980.500 5 106611779.526 5       257.016          35.000
R12  20367880.445 6 108801584.521 6     -2149.309          37.000    20367885.312 6  84623442.504 6     -1671.691          37.000
R21  22864684.562 5 122353503.391 5      -555.922          35.000    22864688.859 4  95163885.828 4      -432.384          25.000
C05  39772025.344 5 207103372.536 5        29.094          34.000
C23  21930471.109 8 114197756.498 8      -282.738          51.000
C25  24279536.211 4 126429926.253 4     -2346.477          28.000
E02  25699473.695 8 135051641.536 8      2170.969          50.000    25699477.500 8 103481138.871 8      1663.505          50.000
E03  23789465.570 8 125014481.617 8      -482.234          51.000    23789468.203 8  95790324.086 8      -369.507          51.000
E05  25749630.656 8 135315195.957 8     -2792.023          50.000    25749632.859 8 103683067.209 8     -2139.313          49.000
E24                                                                  23696843.570 5  95417364.478 5     -1661.659          33.000
E25  23425989.750 8 123104410.671 8        58.211          51.000    23425992.070 8  94326769.791 8        44.666          51.000
> 2020 05 16 06 09 30.0000000  0 16        .000000000000
G12  22969984.984 6 120708099.253 6      3460.039          38.000    22969974.391 6  94058246.244 6      2696.137          38.000
G13  21649070.648 7 113766621.964 7     -2725.812          47.000    21649072.031 7  88649305.769 7     -2124.013          46.000
G15  20702516.000 8 108792450.734 8     -1562.914          51.000    20702515.445 8  84773343.453 8     -1217.855          51.000
G17  22397842.016 5 117701460.265 5       275.758          35.000    22397845.359 6  91715437.923 6       214.873          36.000
G19  22304387.797 6 117210366.854 6      2229.590          41.000    22304387.711 6  91332734.716 6      1737.340          38.000
R02  20892061.711 8 111483979.202 8     -3655.008          51.000    20892064.094 7  86709789.302 7     -2842.784          46.000
R12  20379973.922 6 108866180.514 6     -2158.992          38.000    20379977.172 6  84673683.814 6     -1679.216          37.000
R21  22867877.297 5 122370612.720 5      -584.273          34.000    22867873.039 4  95177133.007 4      -454.435          29.000
C05  39771858.172 5 207102501.580 5        27.250          34.000
C23  21932123.648 8 114206361.618 8      -292.680          51.000
C25  24293038.609 6 126500265.740 6     -2350.336          36.000
E02  25687097.227 8 134986600.536 8      2163.301          51.000    25687100.820 8 103431302.301 8      1657.642          49.000
E03  23792257.383 8 125029153.786 8      -497.629          51.000    23792260.031 8  95801566.394 8      -381.327          51.000
E05  25765587.914 8 135399051.235 8     -2800.188          50.000    25765589.195 8 103747319.912 8     -2145.583          49.000
E24                                                                  23709234.195 5  95467252.057 5     -1665.529          34.000
E25  23425681.336 8 123102790.175 8        47.988          51.000    23425683.586 8  94325528.120 8        36.716          51.000
> 2020 05 16 06 10  0.0000000  0 16        .000000000000
G12  22950250.055 6 120604386.148 6      3453.559          36.000    22950241.031 6  93977430.891 6      2691.088          36.000
G13  21664661.812 7 113848555.575 7     -2737.000          47.000    21664663.969 7  88713150.155 7     -2132.727          46.000
G15  20711482.766 8 108839572.096 8     -1579.016          51.000    20711482.391 8  84810061.359 8     -1230.405          51.000
G19  22291701.531 7 117143697.364 7      2214.441          42.000    22291700.359 5  91280784.498 5      1725.542          35.000
G24  20931477.289 5 109995672.481 5      1730.121          34.000    20931468.477 5  85710876.440 5      1348.143          32.000
R02  20912649.312 8 111593841.679 8     -3669.613          50.000    20912651.852 7  86795237.873 7     -2854.144          45.000
R03  19913410.766 5 106598030.738 5       201.570          35.000    19913407.000 4  82909565.279 4       156.783          29.000
R12  20392117.367 6 108931046.921 6     -2165.859          37.000    20392119.969 6  84724135.431 6     -1684.560          36.000
C05  39771696.633 5 207101660.712 5        27.891          34.000
C23  21933828.922 8 114215241.323 8      -299.859          51.000
C25  24306572.125 5 126570793.004 5     -2352.699          35.000
E02  25674759.719 8 134921764.804 8      2158.449          51.000    25674762.953 8 103381623.003 8      1653.865          48.000
E03  23795132.336 8 125044264.189 8      -510.312          51.000    23795135.398 8  95813144.483 8      -391.061          51.000
E05  25781587.234 8 135483126.332 8     -2805.508          49.000    25781587.406 8 103811741.041 8     -2149.801          49.000
E24                                                                  23721647.219 5  95517235.824 5     -1667.331          32.000
E25  23425427.727 8 123101457.755 8        40.277          51.000    23425429.930 8  94324507.174 8        30.814          51.000
> 2020 05 16 06 10 30.0000000  0 16        .000000000000
G12  22930563.180 5 120500923.368 5      3454.199          35.000    22930554.438 6  93896810.593 6      2691.584          36.000
G13  21680323.961 8 113930860.805 8     -2739.859          48.000    21680325.930 7  88777284.107 7     -2134.955          45.000
G15  20720548.992 8 108887215.959 8     -1586.977          51.000    20720548.414 8  84847186.391 8     -1236.605          51.000
G19  22279109.195 7 117077521.633 7      2207.477          43.000    22279107.141 5  91229219.132 5      1720.115          35.000
G28  23415551.945 5 123049554.839 5     -2986.863          32.000
R02  20933324.898 8 111704179.181 8     -3675.859          48.000    20933328.281 7  86881055.908 7     -2859.002          45.000
R03  19912357.805 5 106592420.427 5       182.535          30.000    19912359.219 4  82905213.294 4       141.969          25.000
R12  20404306.203 6 108996158.742 6     -2164.531          37.000    20404309.227 6  84774777.958 6     -1683.521          36.000
R21  22874710.281 5 122407140.553 5      -625.961          32.000    22874709.148 4  95205544.533 4      -486.859          29.000
C05  39771536.031 5 207100824.232 5        37.707          34.000
C23  21935582.461 8 114224372.573 8      -298.832          51.000
C25  24320128.859 5 126641293.428 5     -2345.895          30.000
E02  25662456.664 8 134857111.664 8      2161.977          50.000    25662459.398 8 103332083.613 8      1656.561          48.000
E03  23798086.266 8 125059789.943 8      -514.512          51.000    23798089.977 8  95825040.822 8      -394.245          51.000
E05  25797623.539 8 135567396.969 8     -2802.250          48.000    25797622.891 8 103876311.983 8     -2147.280          49.000
E25  23425224.398 8 123100389.823 8        41.039          51.000    23425226.633 8  94323688.891 8        31.457          51.000
> 2020 05 16 06 11  0.0000000  0 13        .000000000000
G13  21696058.719 8 114013546.846 8     -2771.645          49.000    21696059.898 7  88841714.766 7     -2159.723          45.000
G15  20729716.719 8 108935392.243 8     -1623.719          51.000    20729715.727 8  84884726.307 8     -1265.238          51.000
G19  22266613.688 7 117011853.689 7      2171.270          44.000    22266610.750 6  91178049.393 6      1691.901          36.000
G24  20911839.766 5 109892465.937 5      1699.965          31.000    20911837.414 5  85630476.079 5      1324.651          30.000
R02  20954090.617 7 111814998.863 7     -3711.219          47.000    20954095.398 7  86967248.984 7     -2886.503          45.000
R12  20416542.602 5 109061526.010 5     -2192.176          34.000    20416546.969 5  84825619.104 5     -1705.023          35.000
C05  39771378.852 5 207100006.353 5        17.719          34.000
C23  21937386.258 8 114233765.973 8      -326.453          51.000
C25  24333707.211 5 126712024.052 5     -2368.051          32.000
E02  25650190.477 8 134792652.465 8      2136.344          50.000    25650192.070 7 103282692.830 7      1636.960          47.000
E03  23801121.625 8 125075742.180 8      -547.910          51.000    23801125.719 8  95837263.953 8      -419.854          51.000
E05  25813698.484 7 135651872.888 7     -2828.336          47.000    25813698.016 8 103941040.231 8     -2167.125          50.000
E25  23425073.453 8 123099596.843 8        12.887          51.000    23425075.703 8  94323081.301 8         9.847          51.000
> 2020 05 16 06 11 30.0000000  0 16        .000000000000
G12  22891316.984 5 120294728.870 5      3432.023          33.000    22891300.906 5  93736105.867 5      2674.307          32.000
G13  21711838.391 8 114096466.857 8     -2769.855          51.000    21711837.898 7  88906327.731 7     -2158.332          44.000
G15  20738957.953 8 108983954.157 8     -1627.102          51.000    20738956.344 8  84922566.709 8     -1267.874          51.000
G19  22254186.633 6 116946550.390 6      2168.527          37.000    22254183.656 5  91127163.751 5      1689.759          35.000
G24  20902082.977 5 109841188.487 5      1704.398          33.000    20902080.188 5  85590519.700 5      1328.106          31.000
G28  23449798.773 5 123229505.043 5     -3001.797          32.000
R02  20974919.188 7 111926148.691 7     -3712.527          47.000    20974924.609 7  87053698.816 7     -2887.521          44.000
R03  19910704.820 5 106583553.570 5       121.727          34.000
R12  20428799.164 6 109126998.288 6     -2185.812          38.000    20428804.172 5  84876542.004 5     -1700.079          33.000
R14  23402326.008 5 124747550.270 5      3157.957          34.000    23402316.672 5  97025854.628 5      2456.189          30.000
C23  21939212.562 8 114243276.519 8      -320.980          51.000
C25  24347278.859 4 126782671.266 4     -2358.305          28.000
E02  25637933.289 8 134728241.449 8      2144.195          49.000    25637933.711 7 103233338.960 7      1642.976          47.000
E03  23804210.797 8 125091974.951 8      -547.758          51.000    23804214.672 8  95849702.037 8      -419.728          51.000
E05  25829783.711 7 135736406.699 7     -2820.762          46.000    25829784.852 8 104005812.875 8     -2161.327          50.000
E25  23424947.000 8 123098932.233 8        17.984          51.000    23424949.258 8  94322572.048 8        13.786          51.000
> 2020 05 16 06 12  0.0000000  0 15        .000000000000
G12  22871753.273 6 120191925.645 6      3421.691          37.000    22871735.672 6  93655999.598 6      2666.253          37.000
G13  21727692.414 8 114179776.022 8     -2784.043          51.000    21727690.875 7  88971243.930 7     -2169.384          44.000
G15  20748302.195 8 109033057.193 8     -1646.336          51.000    20748300.328 8  84960828.791 8     -1282.859          51.000
G17  22391263.828 5 117666894.784 5       184.512          33.000    22391253.297 5  91688437.171 5       143.760          33.000
R02  20995839.445 7 112037783.909 7     -3729.758          47.000    20995844.852 7  87140526.139 7     -2900.923          45.000
R03  19910108.578 5 106580360.015 5        91.586          32.000
R12  20441105.625 6 109192733.803 6     -2196.023          37.000    20441109.633 5  84927669.596 5     -1708.018          30.000
R14  23384582.930 5 124652928.959 5      3150.062          34.000    23384562.875 4  96952259.855 4      2450.058          26.000
R21  22886029.141 5 122467754.318 5      -712.770          34.000    22886028.008 4  95252699.862 4      -554.376          27.000
C23  21941091.133 8 114253059.224 8      -331.199          51.000
C25  24360902.656 5 126853627.331 5     -2363.273          33.000
E02  25625715.211 8 134664035.682 8      2136.277          49.000    25625715.672 8 103184142.367 8      1636.828          48.000
E03  23807383.422 8 125108645.027 8      -563.461          51.000    23807386.805 8  95862475.210 8      -431.782          51.000
E05  25845909.406 7 135821153.899 7     -2829.125          46.000    25845912.375 8 104070749.035 8     -2167.726          51.000
E25  23424874.641 8 123098552.118 8         7.453          51.000    23424876.992 8  94322280.791 8         5.708          51.000
> 2020 05 16 06 12 30.0000000  0 16        .000000000000
G12  22852254.531 6 120089463.015 6      3410.922          36.000    22852234.883 6  93576158.658 6      2657.864          36.000
G13  21743631.898 8 114263534.090 8     -2798.125          51.000    21743629.695 7  89036509.921 7     -2180.360          46.000
G15  20757760.602 8 109082761.304 8     -1665.566          51.000    20757759.047 8  84999559.234 8     -1297.844          51.000
G17  22390267.688 5 117661647.346 5       164.859          32.000    22390272.055 5  91684421.975 5       128.462          33.000
G19  22229642.680 6 116817565.849 6      2130.887          37.000    22229637.398 4  91026652.802 4      1660.431          29.000
R02  21016862.078 8 112149963.031 8     -3747.012          48.000    21016866.609 7  87227776.526 7     -2914.345          45.000
R03  19909687.188 6 106578092.487 6        61.535          37.000    19909691.805 4  82894093.242 4        47.858          27.000
R12  20453472.820 6 109258792.894 6     -2206.113          36.000    20453476.359 4  84979048.830 4     -1715.869          29.000
R14  23366872.492 5 124558554.435 5      3142.824          33.000
C05  39770862.633 5 207097318.069 5        27.246          33.000
C23  21943033.531 8 114263174.517 8      -341.500          51.000
E02  25613547.789 8 134600096.760 8      2128.066          48.000    25613548.906 8 103135150.226 8      1630.617          48.000
E03  23810650.773 8 125125813.808 8      -579.328          51.000    23810653.875 8  95875630.494 8      -443.910          51.000
E05  25862088.109 8 135906174.482 8     -2837.203          48.000    25862091.711 8 104135894.662 8     -2174.063          51.000
E24  23783951.055 5 124985454.253 5     -2191.555          35.000
E25  23424868.000 8 123098517.249 8        -3.387          51.000    23424870.461 8  94322254.068 8        -2.562          51.000
> 2020 05 16 06 13  0.0000000  0 15        .000000000000
G13  21759642.805 8 114347668.757 8     -2807.652          51.000    21759639.977 7  89102069.392 7     -2187.781          46.000
G15  20767319.586 8 109132994.437 8     -1680.141          51.000    20767318.398 8  85038701.909 8     -1309.200          51.000
G17  22389393.445 6 117657045.182 6       147.375          36.000    22389393.375 6  91680835.660 6       114.838          36.000
G19  22217528.773 6 116753895.485 6      2116.773          41.000    22217523.070 5  90977036.686 5      1649.440          34.000
R02  21037972.992 8 112262609.809 8     -3759.438          50.000    21037976.461 7  87315390.641 7     -2924.010          46.000
R03  19909425.391 6 106576679.107 6        35.969          39.000    19909425.758 4  82892993.820 4        27.973          29.000
R12  20465886.383 6 109325102.117 6     -2211.375          38.000    20465889.133 4  85030622.713 4     -1719.958          28.000
R14  23349197.812 5 124464355.336 5      3140.051          35.000
C23  21945026.320 8 114273551.856 8      -347.184          51.000
C25  24388214.047 5 126995816.488 5     -2369.109          32.000
E02  25601417.734 8 134536354.093 8      2124.594          48.000    25601420.078 8 103086308.444 8      1627.926          50.000
E03  23813999.305 8 125143410.407 8      -590.625          51.000    23814002.227 8  95889113.586 8      -452.566          51.000
E05  25878306.078 8 135991396.277 8     -2840.887          51.000    25878309.227 8 104201194.444 8     -2176.858          51.000
E24  23796472.664 5 125051309.852 5     -2192.875          32.000
E25  23424913.594 8 123098756.138 8        -9.387          51.000    23424916.180 8  94322437.112 8        -7.240          51.000
> 2020 05 16 06 13 30.0000000  0 14        .000000000000
G13  21775711.906 8 114432111.791 8     -2820.934          51.000    21775709.312 7  89167869.129 7     -2198.130          46.000
G15  20776966.266 8 109183688.661 8     -1698.438          51.000    20776965.375 8  85078203.887 8     -1323.458          51.000
G17  22388612.062 5 117652944.853 5       127.012          34.000    22388607.352 5  91677640.498 5        98.964          34.000
G19  22205500.594 6 116690681.481 6      2098.723          41.000    22205494.203 6  90927779.038 6      1635.371          39.000
R02  21059158.422 8 112375652.667 8     -3775.703          51.000    21059160.531 7  87403312.800 7     -2936.661          46.000
R03  19909309.070 6 106576052.551 6         6.828          38.000    19909307.156 4  82892506.468 4         5.308          29.000
R12  20478332.977 6 109391592.099 6     -2220.523          38.000    20478334.523 4  85082347.175 4     -1727.077          27.000
R14  23331543.539 5 124370264.566 5      3133.973          33.000    23331563.555 4  96732507.732 4      2437.537          27.000
C23  21947056.695 8 114284124.706 8      -356.668          51.000
C25  24401864.344 5 127066949.790 5     -2372.711          34.000
E02  25589312.320 8 134472741.063 8      2117.277          48.000    25589316.023 8 103037566.025 8      1622.338          50.000
E03  23817416.656 8 125161368.010 8      -605.676          51.000    23817419.094 8  95902873.287 8      -464.029          51.000
E05  25894549.703 8 136076751.104 8     -2848.430          51.000    25894552.086 8 104266596.145 8     -2182.533          51.000
E25  23424998.344 8 123099201.322 8       -19.199          51.000    23425001.172 8  94322778.237 8       -14.723          51.000
> 2020 05 16 06 14  0.0000000  0 14        .000000000000
G12  22794042.906 6 119783483.548 6      3382.652          39.000    22794033.039 6  93337752.588 6      2635.836          40.000
G13  21791859.094 8 114516967.133 8     -2836.266          51.000    21791857.328 7  89233990.158 7     -2210.077          45.000
G15  20786720.523 8 109234948.343 8     -1718.992          51.000    20786720.008 8  85118146.490 8     -1339.474          51.000
G17  22387948.977 5 117649465.127 5       104.785          33.000    22387949.977 5  91674929.097 5        81.657          33.000
G19  22193576.805 5 116628032.282 5      2077.965          35.000    22193574.312 5  90878961.611 5      1619.193          35.000
R02  21080436.844 8 112489194.698 8     -3793.984          51.000    21080438.391 7  87491623.214 7     -2950.877          47.000
R03  19909359.359 6 106576320.252 6       -24.797          36.000    19909357.250 5  82892714.658 5       -19.289          30.000
R12  20490833.406 6 109458368.530 6     -2231.699          38.000    20490836.102 4  85134274.347 4     -1735.763          26.000
C23  21949144.609 8 114294997.318 8      -368.414          51.000
E02  25577251.648 7 134409363.523 7      2107.809          47.000    25577256.039 8 102989004.009 8      1615.020          50.000
E03  23820922.969 8 125179792.131 8      -622.777          51.000    23820924.953 8  95916990.457 8      -477.211          51.000
E05  25910838.180 8 136162343.148 8     -2858.047          51.000    25910839.938 8 104332179.607 8     -2189.839          51.000
E24  23821564.344 5 125183164.874 5     -2204.121          33.000
E25  23425142.289 8 123099957.783 8       -31.426          51.000    23425145.094 8  94323357.867 8       -24.065          51.000
> 2020 05 16 06 14 30.0000000  0 15        .000000000000
G12  22774728.773 6 119681984.909 6      3379.305          41.000    22774720.617 6  93258662.859 6      2633.231          41.000
G13  21808056.906 8 114602089.439 8     -2842.973          51.000    21808055.875 7  89300319.226 7     -2215.303          45.000
G15  20796554.633 8 109286628.455 8     -1730.793          51.000    20796554.562 8  85158416.718 8     -1348.670          51.000
G17  22387377.477 6 117646462.418 6        91.246          37.000    22387382.680 5  91672589.404 5        71.101          35.000
G19  22181734.711 6 116565806.735 6      2066.145          36.000    22181733.914 5  90830474.104 5      1609.980          34.000
R02  21101779.492 8 112603086.242 8     -3803.383          48.000    21101782.117 7  87580205.492 7     -2958.190          47.000
R03  19909549.062 6 106577336.639 6       -47.570          36.000    19909547.438 5  82893505.155 5       -36.996          32.000
R12  20503360.500 6 109525283.904 6     -2233.789          37.000    20503362.836 4  85186330.607 4     -1737.388          26.000
R14  23296329.617 5 124182516.468 5      3124.457          32.000    23296354.766 4  96586504.345 4      2430.133          26.000
C23  21951262.773 8 114306026.923 8      -371.383          51.000
E02  25565208.172 7 134346077.973 7      2106.828          46.000    25565213.602 8 102940512.493 8      1614.305          51.000
E03  23824490.859 8 125198539.021 8      -631.488          51.000    23824492.469 8  95931354.949 8      -483.901          51.000
E05  25927143.820 8 136248027.294 8     -2858.781          50.000    25927145.102 8 104397833.648 8     -2190.599          51.000
E24  23834127.289 5 125249177.154 5     -2201.449          34.000
E25  23425318.039 8 123100881.122 8       -34.695          51.000    23425320.609 8  94324065.355 8       -26.582          51.000
> 2020 05 16 06 15  0.0000000  0 13        .000000000000
G12  22755468.109 7 119580776.328 7      3369.309          43.000    22755464.266 7  93179799.138 7      2625.438          43.000
G13  21824327.430 8 114687593.572 8     -2855.770          51.000    21824326.844 7  89366945.781 7     -2225.278          44.000
G15  20806490.594 8 109338844.058 8     -1748.820          50.000    20806490.758 8  85199104.211 8     -1362.717          50.000
G19  22169997.383 6 116504123.960 6      2047.934          37.000    22169995.539 5  90782409.530 5      1595.795          34.000
R02  21123208.125 8 112717440.471 8     -3818.816          48.000    21123212.359 7  87669147.654 7     -2970.191          47.000
R03  19909901.625 5 106579220.089 5       -76.328          33.000    19909900.625 5  82894970.133 5       -59.366          32.000
R12  20515935.852 6 109592454.579 6     -2242.902          38.000
R14  23278760.891 5 124088901.303 5      3118.629          34.000    23278784.219 4  96513692.469 4      2425.594          27.000
C23  21953433.250 8 114317328.337 8      -380.512          51.000
E02  25553204.453 7 134283000.815 7      2099.871          45.000    25553210.344 8 102892180.652 8      1609.001          50.000
E03  23828142.164 8 125217724.812 8      -646.145          51.000    23828143.398 8  95946055.744 8      -495.071          51.000
E05  25943488.117 8 136333918.355 8     -2865.781          48.000    25943489.633 8 104463646.237 8     -2195.790          51.000
E25  23425547.508 8 123102086.909 8       -44.188          51.000    23425550.062 8  94324989.271 8       -33.855          51.000
> 2020 05 16 06 15 30.0000000  0 14        .000000000000
G12  22736255.078 6 119479819.871 6      3360.469          38.000    22736254.852 6  93101131.795 6      2618.547          38.000
G13  21840663.039 8 114773438.608 8     -2867.617          51.000    21840662.156 7  89433837.963 7     -2234.510          44.000
G15  20816521.109 8 109391554.699 8     -1765.723          51.000    20816521.141 8  85240177.447 8     -1375.888          51.000
