     3.02           OBSERVATION DATA    M (MIXED)           RINEX VERSION / TYPE
SAVERINEX           SC600               20200518 235932 LCL PGM / RUN BY / DATE
       G = GPS       R = GLONASS       C = COMPASS          COMMENT
       S = SBAS      J = QZSS          E = GALILEO          COMMENT
BEAN                                                        MARKER NAME
1                                                           MARKER NUMBER
GEODETIC                                                    MARKER TYPE
Unige DICCA         GTER                                    OBSERVER / AGENCY
SC60291900056       SC600               2.12(191202)        REC # / TYPE / VERS
                    HEMA45          NONE                    ANT # / TYPE
  4509407.8091   693652.4678  4442337.6214                  APPROX POSITION XYZ
        0.0000        0.0000        0.0000                  ANTENNA: DELTA H/E/N
G    8 C1C L1C D1C S1C C2Y L2Y D2Y S2Y                      SYS / # / OBS TYPES
R    8 C1C L1C D1C S1C C2P L2P D2P S2P                      SYS / # / OBS TYPES
C    4 C1I L1I D1I S1I                                      SYS / # / OBS TYPES
E    8 C1C L1C D1C S1C C7Q L7Q D7Q S7Q                      SYS / # / OBS TYPES
DBHZ                                                        COMMENT
     30.000                                                 INTERVAL
  2020    05    18    21    00    0.0000000     GPS         TIME OF FIRST OBS
  2020    05    18    21    59   30.0000000     GPS         TIME OF LAST OBS
     0                                                      RCV CLOCK OFFS APPL
G L1C  0.00000                                              SYS / PHASE SHIFT
G L2Y  0.00000                                              SYS / PHASE SHIFT
R L1C  0.00000                                              SYS / PHASE SHIFT
R L2P  0.25000                                              SYS / PHASE SHIFT
C L1I  0.00000                                              SYS / PHASE SHIFT
E L1C  0.50000                                              SYS / PHASE SHIFT
E L7Q -0.25000                                              SYS / PHASE SHIFT
 13 R01  1 R02 -4 R03  5 R07  5 R08  6 R09 -2 R10 -5 R11  0 GLONASS SLOT / FRQ #
    R12 -1 R17  4 R21  4 R22 -3 R23  3                      GLONASS SLOT / FRQ #
 C1C   71.950 C2C   71.950 C2P   71.950                     GLONASS COD/PHS/BIS
    18                                                      LEAP SECONDS
*** Above antenna height is from mark to ANTENNA BOTTOM.    COMMENT
    17     4        0.0000        ANT MEASURE TYPE/HEIGT    COMMENT
    0.0000    0.0000    0.0458    0.0405    0.0000          COMMENT
                    BASE STATION                            COMMENT
                                                            END OF HEADER
> 2020 05 18 21 00  0.0000000  0 15        .000000000000
G01  21636212.273 8 113699046.912 8     -2529.863          50.000    21636216.406 8  88596671.796 8     -1971.322          50.000
G03  20410637.609 8 107258634.339 8      -598.195          51.000    20410639.594 8  83578199.120 8      -466.126          51.000
G04  20959445.320 8 110142674.000 8      2032.430          51.000    20959446.367 7  85825474.046 7      1583.711          47.000
G09  23328706.398 5 122593147.224 5      3484.805          33.000    23328710.531 5  95527118.525 5      2715.429          32.000
G22  21700468.258 7 114036726.548 7     -1797.914          45.000    21700464.094 6  88859777.610 6     -1400.975          36.000
R01  19545531.711 5 104482069.263 5     -1377.793          34.000    19545537.094 4  81263850.330 4     -1071.617          27.000
R02  21081209.656 7 112493380.578 7      2618.656          45.000    21081211.039 6  87494856.852 6      2036.736          37.000
R23  21348980.227 8 114202699.973 8     -3948.480          51.000    21348985.117 6  88824285.447 6     -3071.043          38.000
R24  19409682.273 8 103792271.898 8     -1306.980          50.000    19409683.766 7  80727346.304 7     -1016.540          47.000
C19  23857118.438 6 124230314.968 6      2302.363          38.000
C20  21884490.523 8 113958368.494 8        19.238          51.000
C29  22308704.922 8 116167269.072 8     -1033.562          51.000
E04  24075712.656 8 126518733.957 8     -1334.629          51.000    24075713.281 8  96943020.402 8     -1022.629          51.000
E09  22012544.047 8 115676776.051 8      1355.824          51.000    22012546.477 8  88635450.464 8      1038.896          51.000
E11  23057756.938 8 121169333.611 8     -1672.832          51.000    23057754.703 8  92844019.643 8     -1281.718          49.000
> 2020 05 18 21 00 30.0000000  0 17        .000000000000
G01  21650692.227 8 113775138.560 8     -2542.203          50.000    21650696.109 8  88655963.945 8     -1980.941          50.000
G03  20414085.070 8 107276750.705 8      -608.973          51.000    20414087.125 8  83592315.768 8      -474.524          51.000
G04  20947890.820 8 110081953.702 8      2016.344          51.000    20947891.594 8  85778159.552 8      1571.177          48.000
G09  23308835.438 5 122488727.491 5      3476.383          34.000    23308839.055 5  95445752.362 5      2708.864          34.000
G11  24139462.617 5 126853727.714 5     -4020.746          34.000
G22  21710755.039 7 114090784.406 7     -1805.301          45.000    21710751.078 6  88901900.591 6     -1406.731          37.000
R01  19553307.008 6 104523626.142 6     -1391.816          36.000    19553312.039 4  81296172.410 4     -1082.524          27.000
R02  21066525.500 7 112415020.869 7      2606.020          45.000    21066526.438 6  87433910.478 6      2026.904          38.000
R23  21371165.461 8 114321369.890 8     -3962.164          51.000    21371168.836 6  88916584.192 6     -3081.686          38.000
R24  19417090.203 8 103831884.733 8     -1333.129          51.000    19417091.625 7  80758156.314 7     -1036.878          47.000
C19  23843875.086 6 124161346.608 6      2295.996          36.000
C20  21884409.641 8 113957949.490 8         9.352          51.000
C29  22314709.898 8 116198538.561 8     -1050.457          51.000
C30  24552758.359 5 127852642.050 5     -3334.426          30.000
E04  24083358.539 8 126558914.076 8     -1343.277          51.000    24083359.406 8  96973807.776 8     -1029.264          51.000
E09  22004835.562 8 115636265.119 8      1345.625          51.000    22004837.195 8  88604409.638 8      1031.066          51.000
E11  23067341.062 8 121219699.403 8     -1684.180          51.000    23067338.742 8  92882611.606 8     -1290.487          49.000
> 2020 05 18 21 01  0.0000000  0 17        .000000000000
G01  21665236.516 8 113851569.115 8     -2553.445          50.000    21665240.461 8  88715520.210 8     -1989.698          50.000
G03  20417588.414 8 107295160.200 8      -618.582          51.000    20417590.289 8  83606660.825 8      -482.012          51.000
G04  20936422.367 8 110021686.061 8      2001.430          50.000    20936423.133 8  85731197.788 8      1559.556          48.000
G09  23289001.242 6 122384497.939 6      3471.117          36.000    23288998.555 5  95364534.359 5      2704.764          35.000
G11  24162414.469 6 126974340.616 6     -4021.992          37.000    24162413.656 5  98941043.592 5     -3134.020          32.000
G22  21721077.617 7 114145030.015 7     -1811.328          46.000    21721073.883 6  88944169.881 6     -1411.425          36.000
R01  19561157.680 6 104565583.989 6     -1405.441          36.000
R02  21051906.766 7 112337009.796 7      2594.727          42.000    21051908.219 6  87373235.206 6      2018.124          40.000
R23  21393420.703 8 114440417.712 8     -3974.566          49.000    21393423.000 6  89009176.879 6     -3091.329          38.000
R24  19424638.539 8 103872247.584 8     -1357.969          51.000    19424639.891 7  80789549.661 7     -1056.198          46.000
C19  23830662.188 6 124092542.561 6      2290.465          37.000
C20  21884380.461 8 113957799.031 8          .496          51.000
C29  22320805.898 8 116230283.950 8     -1066.133          51.000
C30  24571978.172 5 127952745.092 5     -3338.078          32.000
E04  24091048.031 8 126599322.700 8     -1350.898          51.000    24091049.039 8  97004770.234 8     -1035.059          51.000
E09  21997178.906 8 115596028.026 8      1336.621          51.000    21997180.148 8  88573578.632 8      1024.146          51.000
E11  23076985.555 8 121270381.996 8     -1694.930          51.000    23076983.180 8  92921446.327 8     -1298.775          48.000
> 2020 05 18 21 01 30.0000000  0 17        .000000000000
G01  21679849.812 8 113928363.034 8     -2565.766          49.000    21679854.109 8  88775359.618 8     -1999.298          50.000
G03  20421152.352 8 107313887.948 8      -629.484          51.000    20421153.984 8  83621253.882 8      -490.504          51.000
G04  20925044.922 8 109961898.001 8      1984.914          49.000    20925045.734 7  85684609.727 7      1546.689          47.000
G09  23269208.828 6 122280486.290 6      3463.141          37.000    23269202.859 6  95283486.343 6      2698.551          36.000
G11  24185383.172 6 127095042.746 6     -4024.996          37.000
G22  21731440.641 7 114199488.383 7     -1818.883          46.000    21731437.188 6  88986604.955 6     -1417.314          37.000
R01  19569086.461 6 104607966.016 6     -1419.773          38.000
R02  21037357.359 7 112259374.488 7      2581.578          42.000    21037359.227 6  87312852.277 6      2007.900          39.000
R23  21415749.188 7 114559865.833 7     -3988.070          43.000    21415752.742 6  89102080.929 6     -3101.832          39.000
R24  19432331.633 8 103913385.423 8     -1384.141          51.000    19432332.711 7  80821545.759 7     -1076.554          46.000
C19  23817487.000 6 124023928.171 6      2284.152          38.000
C20  21884407.812 8 113957941.898 8        -9.609          51.000
C29  22326998.070 8 116262529.826 8     -1083.160          51.000
C30  24591227.578 6 128052985.211 6     -3343.488          36.000
E04  24098785.836 8 126639984.222 8     -1359.473          51.000    24098786.578 8  97035926.463 8     -1041.671          51.000
E09  21989578.797 8 115556090.449 8      1326.363          51.000    21989580.305 8  88542977.138 8      1016.298          51.000
E11  23086694.875 8 121321406.414 8     -1706.328          49.000    23086692.953 8  92960542.962 8     -1307.383          49.000
> 2020 05 18 21 02  0.0000000  0 18        .000000000000
G01  21694529.156 8 114005502.426 8     -2577.312          51.000    21694533.227 8  88835468.233 8     -2008.295          51.000
G03  20424773.469 8 107332916.652 8      -639.484          51.000    20424775.062 8  83636081.444 8      -498.300          51.000
G04  20913755.648 7 109902573.895 7      1969.504          47.000    20913756.289 7  85638383.215 7      1534.681          47.000
G09  23249455.469 6 122176677.775 6      3456.285          36.000    23249448.391 6  95202596.573 6      2693.212          36.000
G11  24208365.055 5 127215814.815 5     -4026.977          35.000
G22  21741840.773 7 114254142.158 7     -1825.020          44.000    21741837.172 6  89029192.313 6     -1422.093          38.000
G31  23309806.531 5 122493840.530 5      -319.805          35.000
R01  19577091.031 6 104650753.077 6     -1433.090          39.000
R02  21022875.672 7 112182098.567 7      2569.488          43.000    21022877.219 6  87252748.889 6      1998.494          39.000
R23  21438146.594 7 114679693.832 7     -4000.598          43.000    21438153.414 6  89195280.522 6     -3111.573          39.000
R24  19440166.258 8 103955280.044 8     -1409.312          51.000    19440167.047 7  80854130.431 7     -1096.135          45.000
C19  23804345.953 5 123955487.211 5      2278.082          35.000
C20  21884488.406 8 113958360.854 8       -18.789          51.000
C29  22333283.211 8 116295258.696 8     -1099.230          51.000
C30  24610502.727 5 128153356.606 5     -3348.094          34.000
E04  24106568.109 8 126680880.622 8     -1367.297          51.000    24106568.656 8  97067262.673 8     -1047.678          51.000
E09  21982032.508 8 115516435.605 8      1316.918          51.000    21982034.648 8  88512592.283 8      1009.013          51.000
E11  23096465.773 8 121372755.431 8     -1717.457          48.000    23096464.719 8  92999888.320 8     -1315.956          49.000
> 2020 05 18 21 02 30.0000000  0 18        .000000000000
G01  21709276.039 8 114082995.594 8     -2588.824          51.000    21709279.383 8  88895852.513 8     -2017.266          51.000
G03  20428453.500 8 107352255.347 8      -649.594          51.000    20428455.156 8  83651150.566 8      -506.177          51.000
G04  20902556.594 7 109843724.593 7      1953.781          46.000    20902557.305 7  85592526.660 7      1522.430          46.000
G09  23229742.969 5 122073083.693 5      3449.637          34.000    23229735.570 6  95121873.890 6      2688.029          36.000
G11  24231361.703 5 127336664.114 5     -4030.047          34.000
G19  22330160.773 5 117345790.255 5      1151.328          35.000
G22  21752280.008 7 114309000.592 7     -1831.797          44.000    21752276.766 6  89071939.102 6     -1427.377          40.000
R01  19585172.266 6 104693952.835 6     -1446.773          40.000
R02  21008464.008 7 112105192.316 7      2557.621          43.000    21008465.531 6  87192932.915 6      1989.261          40.000
R23  21460617.570 7 114799907.959 7     -4013.516          45.000    21460626.031 6  89288780.415 6     -3121.623          39.000
R24  19448143.898 8 103997940.066 8     -1434.527          51.000    19448144.984 7  80887310.434 7     -1115.743          45.000
C19  23791240.023 4 123887229.403 4      2272.434          28.000
C20  21884623.719 8 113959064.724 8       -28.043          51.000
C29  22339663.109 8 116328479.151 8     -1115.359          51.000
C30  24629804.156 5 128253866.592 5     -3352.207          35.000
E04  24114396.461 8 126722020.237 8     -1375.219          51.000    24114397.156 8  97098785.257 8     -1053.745          51.000
E09  21974541.922 8 115477073.095 8      1307.418          51.000    21974544.656 8  88482431.404 8      1001.791          51.000
E11  23106300.289 8 121424438.015 8     -1727.980          48.000    23106299.688 8  93039489.259 8     -1324.043          49.000
> 2020 05 18 21 03  0.0000000  0 16        .000000000000
G01  21724086.852 8 114160824.565 8     -2600.066          51.000    21724089.711 8  88956498.441 8     -2026.026          51.000
G03  20432189.148 8 107371886.761 8      -659.488          51.000    20432190.859 8  83666447.774 8      -513.887          51.000
G04  20891444.703 7 109785334.441 7      1938.422          44.000    20891445.586 7  85547027.884 7      1510.462          44.000
G11  24254368.859 5 127457571.218 5     -4031.895          34.000
G19  22323643.867 5 117311548.064 5      1130.816          35.000
G22  21762754.703 7 114364046.042 7     -1838.137          44.000    21762752.242 6  89114831.654 6     -1432.314          38.000
R01  19593327.383 6 104737546.018 6     -1459.984          38.000    19593334.547 5  81462561.604 5     -1135.543          31.000
R02  20994118.398 6 112028638.925 6      2545.734          40.000    20994121.047 6  87133391.404 6      1980.016          41.000
R23  21483157.750 7 114920487.350 7     -4025.480          46.000    21483167.219 6  89382564.349 6     -3130.929          40.000
R24  19456260.516 8 104041347.284 8     -1459.512          50.000    19456262.820 7  80921071.594 7     -1135.176          46.000
C20  21884810.094 8 113960036.186 8       -37.070          51.000
C29  22346134.156 8 116362173.604 8     -1131.277          51.000
C30  24649128.992 6 128354496.367 6     -3356.758          37.000
E04  24122267.898 8 126763385.100 8     -1382.773          51.000    24122268.805 8  97130480.417 8     -1059.513          51.000
E09  21967103.602 8 115437986.134 8      1298.137          51.000    21967106.953 8  88452481.663 8       994.706          51.000
E11  23116195.289 8 121476436.788 8     -1738.785          50.000    23116194.461 8  93079332.473 8     -1332.295          48.000
> 2020 05 18 21 03 30.0000000  0 17        .000000000000
G01  21738973.266 8 114239051.606 8     -2613.742          51.000    21738975.828 8  89017454.536 8     -2036.682          51.000
G03  20435992.516 8 107391873.878 8      -671.684          51.000    20435994.148 8  83682022.147 8      -523.390          51.000
G04  20880432.633 7 109727468.082 7      1920.598          44.000    20880433.430 7  85501937.259 7      1496.573          44.000
G11  24277399.125 5 127578597.341 5     -4035.551          34.000
G17  22043173.898 5 115837645.068 5      -155.262          32.000
G19  22317254.273 5 117277983.465 5      1108.613          32.000
G22  21773276.906 7 114419341.396 7     -1847.020          44.000    21773274.703 6  89157918.967 6     -1439.236          40.000
R01  19601567.188 5 104781595.030 5     -1475.328          35.000    19601571.195 5  81496821.980 5     -1147.477          30.000
R02  20979848.578 6 111952503.798 6      2531.344          36.000    20979854.375 6  87074175.100 6      1968.817          40.000
R23  21505778.547 7 115041493.284 7     -4040.074          47.000    21505788.469 7  89476680.053 7     -3142.283          42.000
R24  19464528.859 8 104085564.824 8     -1486.902          50.000    19464532.133 7  80955463.013 7     -1156.480          47.000
C20  21885060.094 8 113961337.587 8       -48.371          51.000
C29  22352707.852 8 116396404.096 8     -1149.398          51.000
C30  24668488.555 6 128455306.597 6     -3362.660          38.000
E04  24130194.117 8 126805037.447 8     -1392.621          51.000    24130195.227 8  97162395.857 8     -1067.049          51.000
E09  21959729.609 8 115399238.214 8      1286.449          51.000    21959733.516 8  88422791.734 8       985.787          51.000
E11  23126162.891 8 121528814.620 8     -1751.609          51.000    23126161.109 8  93119466.142 8     -1342.196          48.000
> 2020 05 18 21 04  0.0000000  0 18        .000000000000
G01  21753922.625 8 114317609.826 8     -2626.625          51.000    21753924.883 8  89078668.720 8     -2046.721          51.000
G03  20439851.039 8 107412150.532 8      -683.242          51.000    20439852.609 8  83697822.139 8      -532.397          51.000
G04  20869508.422 7 109670061.041 7      1903.395          45.000    20869508.836 7  85457204.507 7      1483.162          44.000
G09  23170845.203 5 121763613.561 5      3424.391          35.000    23170842.312 6  94880729.232 6      2668.353          36.000
G11  24300440.016 5 127699674.843 5     -4039.289          33.000
G17  22044114.133 4 115842571.515 4      -175.578          29.000    22044106.477 3  90266945.940 3      -136.826          23.000
G22  21783834.156 7 114474820.696 7     -1854.863          44.000    21783832.086 6  89201149.589 6     -1445.348          39.000
R01  19609879.094 5 104826030.665 5     -1490.008          35.000    19609881.148 5  81531382.987 5     -1158.895          30.000
R02  20965645.883 6 111876720.679 6      2517.727          40.000    20965651.734 6  87015232.695 6      1958.238          37.000
R23  21528466.781 8 115162855.395 8     -4053.922          48.000    21528476.531 7  89571072.786 7     -3153.050          43.000
R24  19472936.367 8 104130524.781 8     -1513.578          51.000    19472939.711 7  80990431.861 7     -1177.227          46.000
C19  23752167.078 5 123683704.144 5      2251.258          31.000
C20  21885360.734 8 113962903.201 8       -59.031          51.000
C29  22359371.789 8 116431104.624 8     -1166.969          51.000
C30  24687869.789 6 128556230.195 6     -3368.590          36.000
E04  24138162.211 8 126846910.394 8     -1401.871          51.000    24138163.422 8  97194480.334 8     -1074.101          51.000
E09  21952407.742 8 115360763.693 8      1275.555          51.000    21952411.820 8  88393311.296 8       977.364          51.000
E11  23136189.930 8 121581505.259 8     -1763.918          51.000    23136187.211 7  93159839.487 7     -1351.559          47.000
> 2020 05 18 21 04 30.0000000  0 18        .000000000000
G01  21768943.484 8 114396546.956 8     -2635.023          49.000    21768945.914 8  89140178.194 8     -2053.262          49.000
G03  20443774.016 8 107432765.261 8      -690.406          51.000    20443775.422 8  83713885.567 8      -537.976          51.000
G04  20858681.430 7 109613163.517 7      1890.484          47.000    20858681.547 7  85412868.748 7      1473.105          45.000
G09  23151306.570 6 121660937.150 6      3420.477          37.000    23151297.641 5  94800721.841 5      2665.312          32.000
G11  24323499.992 5 127820849.985 5     -4038.727          33.000    24323501.789 5  99600643.610 5     -3147.063          32.000
G17  22045162.234 5 115848100.589 5      -192.777          33.000    22045161.766 5  90271239.135 5      -150.216          32.000
G22  21794435.703 7 114530532.363 7     -1858.523          42.000    21794433.789 6  89244561.229 6     -1448.203          41.000
R01  19618272.062 6 104870900.863 6     -1500.219          37.000    19618277.117 5  81566282.076 5     -1166.837          32.000
R02  20951520.492 7 111801340.222 7      2508.449          42.000    20951523.617 6  86956603.547 6      1951.022          37.000
R23  21551230.445 8 115284620.103 8     -4063.012          49.000    21551239.594 7  89665778.690 7     -3160.120          43.000
R24  19481492.070 8 104176275.744 8     -1535.746          51.000    19481494.844 7  81026015.935 7     -1194.469          46.000
C19  23739192.047 5 123616222.381 5      2248.719          35.000
C20  21885721.070 8 113964780.994 8       -65.383          51.000
C29  22366135.258 8 116466322.832 8     -1180.145          51.000
C30  24707281.375 5 128657313.484 5     -3369.672          35.000
E04  24146181.266 8 126889051.757 8     -1406.785          51.000    24146182.555 8  97226770.481 8     -1077.896          51.000
E09  21945147.344 8 115322611.630 8      1268.727          51.000    21945151.164 8  88364077.922 8       972.147          51.000
E11  23146285.250 8 121634557.170 8     -1772.180          50.000    23146282.266 7  93200489.641 7     -1357.886          47.000
> 2020 05 18 21 05  0.0000000  0 18        .000000000000
G01  21784022.422 8 114475791.313 8     -2650.492          49.000    21784025.758 8  89201927.055 8     -2065.316          49.000
G03  20447747.773 8 107453647.012 8      -704.414          51.000    20447749.008 8  83730157.075 8      -548.894          51.000
G04  20847938.234 7 109556706.020 7      1870.516          47.000    20847938.688 7  85368875.902 7      1457.545          47.000
G09  23131802.844 6 121558444.147 6      3409.215          37.000    23131792.289 5  94720857.379 5      2656.540          33.000
G11  24346564.266 5 127942049.791 5     -4044.406          35.000    24346564.016 5  99695084.949 5     -3151.495          34.000
G22  21805068.203 7 114586405.096 7     -1869.102          44.000    21805065.672 6  89288098.411 6     -1456.440          39.000
R01  19626732.789 6 104916131.514 6     -1517.539          40.000    19626737.227 4  81601461.437 4     -1180.308          29.000
R02  20937457.125 6 111726291.077 6      2492.102          41.000    20937458.961 6  86898231.982 6      1938.301          38.000
R23  21574054.945 8 115406711.789 8     -4079.129          48.000    21574063.641 7  89760738.892 7     -3172.656          42.000
R24  19490182.062 8 104222744.797 8     -1564.898          51.000    19490184.531 7  81062158.520 7     -1217.143          46.000
C19  23726242.852 6 123548884.914 6      2238.371          36.000
C20  21886128.320 8 113966900.408 8       -78.570          51.000
C29  22372984.391 8 116501987.837 8     -1200.098          51.000
C30  24726710.250 5 128758484.455 5     -3377.711          34.000
E04  24154237.875 8 126931389.800 8     -1418.434          51.000    24154239.250 8  97259211.313 8     -1086.837          51.000
E05  27649397.188 6 145298562.700 6      2732.637          41.000
E09  21937934.781 8 115284711.513 8      1255.281          51.000    21937938.586 8  88335037.583 8       961.860          51.000
E11  23156435.641 8 121687899.167 8     -1786.531          50.000    23156433.117 7  93241362.060 7     -1368.945          47.000
> 2020 05 18 21 05 30.0000000  0 18        .000000000000
G01  21799180.773 8 114555450.535 8     -2660.879          51.000    21799184.258 8  89263999.183 8     -2073.412          50.000
G03  20451792.891 8 107474904.195 8      -713.523          51.000    20451794.023 8  83746721.115 8      -555.992          51.000
G04  20837299.758 8 109500798.537 8      1855.773          48.000    20837300.531 8  85325311.675 8      1446.060          48.000
G09  23112355.547 6 121456245.262 6      3403.199          37.000    23112355.422 6  94641222.196 6      2651.853          37.000
G11  24369652.672 5 128063380.526 5     -4045.531          35.000    24369653.328 5  99789628.416 5     -3152.362          33.000
G22  21815751.828 6 114642547.321 6     -1874.297          41.000    21815749.180 6  89331845.630 6     -1460.491          40.000
R01  19635282.211 6 104961831.150 6     -1529.887          38.000    19635286.875 5  81637005.533 5     -1189.915          30.000
R02  20923477.078 6 111651684.675 6      2480.754          41.000    20923477.234 6  86840204.833 6      1929.475          36.000
R23  21596960.578 8 115529237.885 8     -4090.012          49.000    21596968.391 6  89856036.963 6     -3181.120          39.000
R24  19499026.906 8 104270041.092 8     -1588.906          51.000    19499029.469 7  81098944.530 7     -1235.816          47.000
C19  23713348.680 5 123481799.933 5      2233.648          30.000
C20  21886602.477 8 113969368.745 8       -86.770          51.000
C29  22379939.922 8 116538206.593 8     -1215.215          51.000
C30  24746176.617 5 128859848.789 5     -3380.965          34.000
E04  24162352.477 8 126974032.175 8     -1425.102          51.000    24162353.852 8  97291885.345 8     -1092.030          51.000
E05  27633802.055 7 145216611.402 7      2730.090          44.000    27633808.797 7 111269896.631 7      2092.034          44.000
E09  21930791.008 8 115247172.165 8      1246.645          51.000    21930794.820 8  88306273.687 8       955.254          51.000
E11  23166661.984 8 121741639.574 8     -1796.777          51.000    23166660.211 7  93282539.743 7     -1376.683          47.000
> 2020 05 18 21 06  0.0000000  0 18        .000000000000
G01  21814389.383 8 114635371.539 8     -2667.793          50.000    21814392.281 8  89326275.302 8     -2078.800          50.000
G03  20455880.391 8 107496384.471 8      -719.020          51.000    20455881.625 8  83763458.987 8      -560.278          51.000
G04  20826737.133 8 109445290.346 8      1844.285          49.000    20826738.047 8  85282058.588 8      1437.108          48.000
G09  23092945.070 5 121354241.582 5      3399.582          35.000    23092947.344 5  94561752.254 5      2649.025          35.000
G11  24392736.141 5 128184688.229 5     -4042.105          34.000    24392736.273 5  99884153.871 5     -3149.705          32.000
G17  22048954.641 5 115868008.288 5      -247.219          33.000
G22  21826457.812 6 114698806.833 6     -1876.824          39.000    21826455.328 6  89375684.147 6     -1462.460          39.000
R01  19643889.805 6 105007843.144 6     -1538.449          37.000    19643895.930 4  81672792.636 4     -1196.572          28.000
R02  20909551.727 6 111577366.487 6      2473.191          39.000    20909550.070 6  86782401.930 6      1923.602          38.000
R23  21619918.016 8 115652040.359 8     -4097.402          49.000    21619924.586 6  89951549.978 6     -3186.872          37.000
R24  19507997.320 8 104318008.846 8     -1609.492          51.000    19507999.680 7  81136252.772 7     -1251.827          47.000
C20  21887114.266 8 113972034.835 8       -91.582          51.000
C29  22386972.523 8 116574827.642 8     -1226.812          51.000
C30  24765651.570 5 128961253.858 5     -3380.055          34.000
E04  24170495.758 8 127016825.797 8     -1428.355          51.000    24170497.023 8  97324675.265 8     -1094.424          50.000
E05  27618211.391 6 145134682.748 6      2731.012          41.000    27618217.859 7 111207120.296 7      2092.704          42.000
E09  21923687.680 8 115209841.717 8      1241.469          51.000    21923691.078 8  88277669.851 8       951.261          51.000
E11  23176935.172 8 121795625.831 8     -1802.809          50.000    23176933.719 7  93323905.817 7     -1381.463          47.000
> 2020 05 18 21 06 30.0000000  0 19        .000000000000
G01  21829664.453 8 114715642.542 8     -2681.844          49.000    21829667.344 8  89388824.107 8     -2089.751          49.000
G03  20460027.266 8 107518176.813 8      -731.953          51.000    20460028.680 8  83780440.036 8      -570.353          51.000
G04  20816267.688 8 109390272.073 8      1825.484          49.000    20816268.867 8  85239187.226 8      1422.458          48.000
G09  23073574.391 5 121252422.283 5      3389.219          34.000    23073571.867 5  94482412.708 5      2640.953          34.000
G11  24415832.273 5 128306060.129 5     -4046.863          31.000    24415833.438 4  99978753.427 4     -3153.391          28.000
G17  22050432.508 5 115875774.153 5      -268.520          33.000    22050449.656 5  90292899.053 5      -209.242          33.000
G22  21837202.633 6 114755272.394 6     -1885.805          38.000    21837200.164 6  89419683.315 6     -1469.458          38.000
R01  19652571.859 5 105054256.028 5     -1553.887          35.000    19652577.219 4  81708891.561 4     -1208.579          28.000
R02  20895697.328 7 111503428.596 7      2457.969          43.000    20895695.789 6  86724894.783 6      1911.753          39.000
R23  21642942.891 7 115775206.436 7     -4111.762          46.000    21642949.109 5  90047345.794 5     -3198.037          34.000
R24  19517110.531 8 104366737.690 8     -1637.242          51.000    19517112.547 7  81174152.998 7     -1273.411          47.000
C19  23687666.562 4 123347887.946 4      2222.305          29.000
C20  21887681.422 8 113974986.760 8      -103.445          51.000
C29  22394099.039 8 116611938.604 8     -1245.438          51.000
C30  24785151.586 5 129062786.220 5     -3386.590          34.000
E04  24178684.562 8 127059858.931 8     -1438.621          51.000    24178685.727 8  97357648.717 8     -1102.278          49.000
E05  27602641.906 6 145052866.760 6      2724.938          41.000    27602648.453 6 111144430.221 6      2088.074          39.000
E09  21916641.539 8 115172809.631 8      1229.191          51.000    21916644.258 8  88249294.618 8       941.863          51.000
E11  23187272.086 8 121849946.907 8     -1816.688          50.000    23187270.727 7  93365528.434 7     -1391.959          47.000
> 2020 05 18 21 07  0.0000000  0 17        .000000000000
G01  21845005.977 8 114796264.231 8     -2692.344          48.000    21845009.211 8  89451646.183 8     -2097.930          48.000
G03  20464233.820 8 107540282.771 8      -741.250          51.000    20464235.344 8  83797665.459 8      -577.597          51.000
G04  20805891.891 8 109335746.774 8      1810.277          49.000    20805893.594 8  85196700.004 8      1410.606          48.000
G09  23054243.281 6 121150842.466 6      3382.852          36.000    23054240.180 5  94403259.750 5      2635.994          35.000
G11  24438940.766 5 128427495.919 5     -4047.754          32.000
R01  19661328.969 5 105101069.871 5     -1566.586          34.000    19661334.211 4  81745302.410 4     -1218.456          25.000
R02  20881914.641 7 111429874.127 7      2446.395          42.000    20881912.500 6  86667685.695 6      1902.748          37.000
R23  21666034.727 7 115898734.753 7     -4122.652          45.000    21666041.062 5  90143423.335 5     -3206.507          33.000
R24  19526365.617 8 104416228.086 8     -1661.352          51.000    19526367.664 7  81212645.528 7     -1292.162          47.000
C19  23674881.383 5 123281289.752 5      2217.527          35.000
C20  21888303.664 8 113978225.901 8      -111.738          51.000
C29  22401319.781 8 116649540.475 8     -1260.570          51.000
C30  24804675.047 5 129164445.830 5     -3390.180          32.000
E04  24186919.172 8 127103132.460 8     -1445.484          51.000    24186920.266 8  97390806.358 8     -1107.582          48.000
E05  27587094.023 6 144971166.377 6      2722.414          40.000    27587100.852 6 111081828.706 6      2085.976          40.000
E09  21909652.352 8 115136077.947 8      1220.352          51.000    21909654.617 8  88221149.569 8       935.081          51.000
E11  23197673.016 8 121904604.069 8     -1826.340          50.000    23197671.672 7  93407408.601 7     -1399.469          47.000
> 2020 05 18 21 07 30.0000000  0 19        .000000000000
G01  21860415.875 7 114877246.306 7     -2705.129          47.000    21860419.398 7  89514749.084 7     -2107.890          47.000
G03  20468502.016 8 107562712.725 8      -752.863          51.000    20468503.562 8  83815143.345 8      -586.647          51.000
G04  20795612.164 8 109281726.344 8      1792.664          50.000    20795613.844 8  85154606.194 8      1396.881          48.000
G09  23034960.211 6 121049514.792 6      3373.633          38.000    23034956.438 6  94324303.243 6      2628.811          38.000
G11  24462063.031 5 128549004.055 5     -4050.883          33.000    24462056.945 5 100168033.322 5     -3156.532          32.000
G19  22270488.531 5 117032206.631 5       938.633          33.000
G22  21858811.781 5 114868826.918 5     -1899.461          34.000    21858810.680 5  89508170.119 5     -1480.099          35.000
R01  19670163.211 5 105148293.862 5     -1580.742          32.000
R02  20868205.102 7 111356713.794 7      2432.547          44.000    20868201.883 5  86610783.167 5      1891.981          35.000
R23  21689195.523 7 116022632.797 7     -4135.688          44.000    21689201.289 5  90239788.474 5     -3216.646          31.000
R24  19535764.633 8 104466489.557 8     -1687.969          51.000    19535767.148 8  81251737.771 8     -1312.862          48.000
C19  23662131.688 6 123214895.908 6      2209.996          36.000
C20  21888982.781 8 113981762.377 8      -122.484          51.000
C29  22408636.570 8 116687642.993 8     -1278.215          51.000
C30  24824224.734 5 129266241.141 5     -3394.863          32.000
E04  24195201.375 8 127146655.967 8     -1454.664          51.000    24195202.242 8  97424155.547 8     -1114.676          48.000
E05  27571569.906 6 144889593.082 6      2717.367          38.000    27571575.656 6 111019324.538 6      2082.258          38.000
E09  21902722.203 8 115099657.500 8      1209.168          51.000    21902724.250 8  88193243.003 8       926.508          51.000
E11  23208139.703 8 121959607.635 8     -1838.902          50.000    23208138.164 7  93449554.198 7     -1409.077          47.000
> 2020 05 18 21 08  0.0000000  0 19        .000000000000
G01  21875890.781 8 114958568.116 8     -2716.754          49.000    21875894.289 8  89578116.758 8     -2116.948          48.000
G03  20472828.141 8 107585446.886 8      -763.086          51.000    20472829.742 8  83832858.283 8      -594.612          51.000
G04  20785425.344 8 109228192.584 8      1776.000          51.000    20785426.406 8  85112891.610 8      1383.899          49.000
G09  23015720.875 6 120948421.848 6      3365.527          41.000    23015718.133 6  94245529.616 6      2622.492          41.000
G11  24485194.930 5 128670562.537 5     -4052.762          31.000
G17  22055531.930 5 115902595.194 5      -326.582          33.000
G22  21869675.844 5 114925916.374 5     -1907.195          33.000    21869675.250 5  89552655.448 5     -1486.126          32.000
R01  19679069.445 6 105195905.624 6     -1594.027          36.000    19679073.594 4  81819052.131 4     -1239.799          27.000
R02  20854565.992 6 111283929.359 6      2419.215          41.000    20854561.875 6  86554173.047 6      1881.609          36.000
R23  21712421.227 7 116146877.254 7     -4147.535          45.000    21712425.023 4  90336423.029 4     -3225.861          29.000
R24  19545303.781 8 104517501.159 8     -1713.281          50.000    19545306.633 8  81291413.455 8     -1332.552          48.000
C19  23649416.000 6 123148687.646 6      2203.352          37.000
C20  21889715.500 8 113985576.461 8      -132.109          51.000
C29  22416045.875 8 116726225.985 8     -1294.445          51.000
C30  24843795.359 5 129368150.897 5     -3398.918          32.000
E04  24203527.164 8 127190408.938 8     -1462.613          50.000    24203527.969 8  97457680.564 8     -1120.680          48.000
E05  27556066.672 6 144808128.260 6      2713.273          40.000    27556069.953 6 110956903.596 6      2078.966          37.000
E09  21895847.492 8 115063528.982 8      1199.059          51.000    21895849.422 8  88165560.112 8       918.771          51.000
E11  23218668.484 8 122014937.624 8     -1850.086          50.000    23218666.883 8  93491949.900 8     -1417.640          48.000
> 2020 05 18 21 08 30.0000000  0 19        .000000000000
G01  21891430.656 8 115040229.982 8     -2726.730          49.000    21891434.016 8  89641749.427 8     -2124.725          49.000
G03  20477212.438 8 107608486.388 8      -772.090          51.000    20477214.039 8  83850811.150 8      -601.628          51.000
G04  20775331.633 8 109175148.079 8      1760.926          50.000    20775332.484 8  85071558.250 8      1372.150          50.000
G09  22996526.594 7 120847567.061 7      3358.699          43.000    22996524.492 7  94166941.536 7      2617.168          43.000
G11  24508334.992 5 128792168.838 5     -4053.805          30.000
G17  22057446.164 5 115912667.488 5      -344.590          34.000    22057452.461 5  90321583.525 5      -268.502          34.000
G22  21880577.930 5 114983204.916 5     -1911.660          35.000    21880576.500 5  89597295.940 5     -1489.599          34.000
R01  19688049.508 6 105243904.704 6     -1605.168          36.000    19688054.188 4  81856389.242 4     -1248.464          27.000
R02  20840993.477 5 111211522.000 5      2407.941          32.000    20840993.711 6  86497856.171 6      1872.831          38.000
R23  21735711.945 7 116271466.422 7     -4157.668          46.000    21735713.141 4  90433325.646 4     -3233.745          28.000
R24  19554982.812 8 104569262.605 8     -1736.867          51.000    19554986.430 8  81331672.319 8     -1350.897          48.000
C19  23636736.172 5 123082666.797 5      2198.039          34.000
C20  21890501.469 8 113989669.077 8      -140.117          51.000
C29  22423547.891 8 116765289.975 8     -1309.191          51.000
C30  24863388.977 5 129470174.611 5     -3401.730          34.000
E04  24211896.844 8 127234391.814 8     -1468.883          50.000    24211897.898 7  97491381.745 7     -1125.496          47.000
E05  27540585.508 6 144726774.224 6      2710.895          41.000    27540586.328 6 110894567.464 6      2077.263          37.000
E09  21889028.227 8 115027693.882 8      1190.664          51.000    21889030.297 8  88138102.072 8       912.324          51.000
E11  23229259.828 8 122070594.928 8     -1859.570          51.000    23229258.289 8  93534596.396 8     -1424.860          48.000
> 2020 05 18 21 09  0.0000000  0 19        .000000000000
G01  21907033.594 8 115122222.825 8     -2740.434          49.000    21907037.133 8  89705639.970 8     -2135.406          49.000
G03  20481653.328 8 107631822.892 8      -784.691          51.000    20481654.836 8  83868995.449 8      -611.448          51.000
G04  20765329.352 8 109122586.013 8      1742.109          49.000    20765330.320 8  85030600.818 8      1357.488          48.000
G09  22977376.398 7 120746944.437 7      3348.422          44.000    22977374.797 7  94088534.333 7      2609.163          44.000
G17  22059467.812 5 115923287.163 5      -364.621          30.000    22059472.797 5  90329840.319 5      -284.120          32.000
G19  22254941.953 5 116950496.626 5       872.750          30.000
G22  21891516.539 6 115040684.437 6     -1920.863          37.000    21891514.289 6  89642085.267 6     -1496.767          36.000
R01  19697099.789 6 105292281.107 6     -1620.613          37.000    19697103.422 4  81894015.382 4     -1260.477          28.000
R02  20827489.688 6 111139484.559 6      2393.355          37.000    20827495.500 6  86441826.994 6      1861.505          38.000
R23  21759065.727 8 116396388.441 8     -4171.336          48.000    21759065.492 4  90530487.162 4     -3244.375          29.000
R24  19564800.820 8 104621764.620 8     -1764.121          49.000    19564804.555 8  81372507.242 8     -1372.094          49.000
C19  23624091.453 5 123016825.714 5      2190.312          33.000
C20  21891339.016 8 113994031.837 8      -151.727          51.000
C29  22431140.344 8 116804826.125 8     -1327.445          51.000
C30  24883002.125 5 129572302.327 5     -3407.840          32.000
E04  24220308.727 8 127278595.559 8     -1478.879          50.000    24220309.797 7  97525252.145 7     -1133.125          47.000
E05  27525124.766 7 144645523.773 7      2704.883          44.000    27525124.398 6 110832310.731 6      2072.450          39.000
E09  21882262.898 8 114992144.342 8      1178.559          51.000    21882265.375 8  88110862.846 8       903.042          51.000
E11  23239911.969 8 122126571.122 8     -1873.062          51.000    23239910.648 8  93577487.238 8     -1435.141          49.000
> 2020 05 18 21 09 30.0000000  0 17        .000000000000
G01  21922701.953 8 115204559.123 8     -2749.488          49.000    21922705.289 8  89769798.131 8     -2142.458          49.000
G03  20486153.234 8 107655469.793 8      -792.555          51.000    20486154.773 8  83887421.611 8      -617.575          51.000
G04  20755421.484 8 109070521.241 8      1728.031          48.000    20755422.359 8  84990030.884 8      1346.518          48.000
G09  22958273.094 7 120646569.585 7      3342.750          44.000    22958272.914 7  94010320.217 7      2604.743          44.000
G22  21902494.062 5 115098368.279 5     -1925.285          34.000    21902491.297 5  89687033.751 5     -1500.213          35.000
R01  19706223.383 6 105341046.808 6     -1631.273          37.000    19706227.141 4  81931944.177 4     -1268.771          29.000
R02  20814061.695 6 111067831.927 6      2382.938          38.000    20814068.070 6  86386097.213 6      1853.393          38.000
R23  21782484.070 8 116521654.037 8     -4180.270          48.000    21782483.805 5  90627915.920 5     -3251.324          32.000
R24  19574759.469 8 104675019.508 8     -1786.938          49.000    19574763.242 8  81413927.709 8     -1389.843          48.000
C19  23611486.500 5 122951178.448 5      2185.988          35.000
C20  21892231.094 8 113998677.839 8      -158.715          51.000
C29  22438825.789 8 116844847.016 8     -1341.273          51.000
C30  24902636.148 5 129674545.567 5     -3408.707          32.000
E04  24228764.883 8 127323032.778 8     -1484.285          49.000    24228765.594 7  97559301.448 7     -1137.369          47.000
E05  27509686.625 7 144564391.488 7      2703.168          46.000    27509686.477 6 110770144.539 6      2071.244          41.000
E09  21875554.758 8 114956894.257 8      1170.840          51.000    21875557.469 8  88083853.042 8       897.164          51.000
E11  23250627.320 8 122182879.315 8     -1881.500          51.000    23250626.406 8  93620632.477 8     -1441.627          49.000
> 2020 05 18 21 10  0.0000000  0 18        .000000000000
G01  21938429.219 8 115287205.828 8     -2759.602          48.000    21938431.375 8  89834198.184 8     -2150.339          48.000
G03  20490705.992 8 107679394.814 8      -801.562          51.000    20490707.531 8  83906064.493 8      -624.594          51.000
G04  20745602.289 7 109018922.941 7      1712.711          47.000    20745603.445 7  84949824.432 7      1334.583          47.000
G09  22939211.562 7 120546412.617 7      3335.426          45.000    22939213.203 7  93932275.884 7      2599.033          45.000
G17  22063839.062 5 115946237.902 5      -399.945          35.000    22063839.711 5  90347733.471 5      -311.640          35.000
G22  21913503.656 5 115156241.276 5     -1931.195          33.000    21913500.656 5  89732107.278 5     -1504.821          31.000
R01  19715412.031 6 105390166.833 6     -1642.762          36.000    19715416.086 4  81970148.702 4     -1277.701          28.000
R02  20800699.492 6 110996531.738 6      2371.543          40.000    20800707.289 6  86330641.596 6      1844.533          39.000
R23  21805960.000 8 116647227.353 8     -4190.301          48.000    21805960.188 5  90725584.022 5     -3259.120          32.000
R24  19584853.273 8 104728993.224 8     -1810.496          51.000    19584856.406 8  81455907.306 8     -1408.161          48.000
C19  23598914.031 5 122885693.703 5      2180.309          33.000
C20  21893171.562 8 114003574.946 8      -166.859          51.000
C29  22446597.992 8 116885320.046 8     -1356.020          51.000
C30  24922286.047 5 129776870.808 5     -3411.348          33.000
E04  24237258.922 8 127367670.509 8     -1490.777          49.000    24237259.531 8  97593504.387 8     -1142.305          48.000
E05  27494265.023 7 144483346.268 7      2700.547          47.000    27494265.719 7 110708045.063 7      2069.202          43.000
E09  21868897.695 8 114921911.693 8      1162.168          51.000    21868900.672 8  88057048.227 8       890.489          51.000
E11  23261399.805 8 122239487.145 8     -1891.539          51.000    23261399.125 8  93664007.299 8     -1449.322          49.000
> 2020 05 18 21 10 30.0000000  0 18        .000000000000
G01  21954220.422 7 115370190.172 7     -2771.586          46.000    21954221.719 7  89898861.295 7     -2159.677          46.000
G03  20495317.008 8 107703626.019 8      -812.895          51.000    20495318.406 8  83924945.957 8      -633.424          51.000
G04  20735877.273 7 108967820.646 7      1695.172          46.000    20735879.164 7  84910004.472 7      1320.913          46.000
G09  22920197.922 7 120446503.914 7      3326.043          45.000    22920201.273 7  93854424.982 7      2591.725          45.000
G17  22066187.539 6 115958561.820 6      -420.188          37.000    22066184.773 5  90357336.612 5      -327.413          35.000
G22  21924552.922 6 115214296.265 6     -1938.738          36.000    21924548.242 5  89777345.655 5     -1510.702          34.000
G31  23357348.891 5 122743694.650 5      -658.902          35.000    23357343.734 5  95644427.866 5      -513.443          33.000
R01  19724672.375 6 105439668.526 6     -1656.551          37.000    19724676.125 4  82008649.980 4     -1288.431          28.000
R02  20787410.789 6 110925613.650 6      2357.535          41.000    20787418.305 6  86275483.120 6      1833.638          39.000
R23  21829497.844 7 116773133.484 7     -4202.344          46.000    21829498.172 5  90823511.029 5     -3268.490          33.000
R24  19595086.766 8 104783713.117 8     -1836.371          51.000    19595089.438 8  81498467.252 8     -1428.289          48.000
C20  21894165.555 8 114008750.777 8      -177.117          51.000
C29  22454462.383 8 116926272.368 8     -1373.051          51.000
C30  24941957.766 5 129879304.141 5     -3415.680          34.000
E04  24245796.477 8 127412536.052 8     -1499.273          48.000    24245797.492 8  97627881.895 8     -1148.878          48.000
E05  27478865.336 7 144402417.342 7      2695.754          47.000    27478867.070 7 110646034.663 7      2065.605          45.000
E09  21862296.820 8 114887225.108 8      1151.305          51.000    21862300.578 8  88030470.233 8       882.142          51.000
E11  23272234.500 8 122296422.313 8     -1903.137          51.000    23272233.648 8  93707632.942 8     -1458.272          50.000
> 2020 05 18 21 11  0.0000000  0 18        .000000000000
G01  21970063.891 7 115453449.389 7     -2780.703          47.000    21970065.008 7  89963738.551 7     -2166.782          46.000
G03  20499974.508 8 107728101.503 8      -820.750          51.000    20499975.828 8  83944017.757 8      -639.545          51.000
G04  20726235.375 7 108917153.734 7      1680.895          46.000    20726237.664 7  84870523.785 7      1309.788          46.000
G09  22901220.484 7 120346783.830 7      3319.789          43.000    22901225.188 7  93776721.045 7      2586.849          43.000
G22  21935628.586 6 115272490.210 6     -1942.750          39.000    21935622.312 5  89822691.642 5     -1513.825          35.000
G31  23361154.570 5 122763695.148 5      -677.406          32.000    23361156.617 5  95660015.007 5      -527.849          33.000
R01  19733993.008 6 105489486.923 6     -1666.836          36.000    19733996.266 4  82047397.606 4     -1296.428          28.000
R02  20774182.617 6 110855015.845 6      2346.781          39.000    20774187.906 5  86220573.734 5      1825.274          35.000
R23  21853084.797 7 116899306.269 7     -4211.094          45.000    21853085.656 5  90921645.436 5     -3275.292          33.000
R24  19605447.523 8 104839114.973 8     -1858.879          51.000    19605450.195 7  81541557.596 7     -1445.792          47.000
C19  23573855.891 6 122755229.105 6      2169.223          37.000
C20  21895201.148 8 114014143.818 8      -184.160          51.000
C29  22462407.242 8 116967641.960 8     -1386.703          51.000
C30  24961638.688 6 129981782.468 6     -3417.102          37.000
E04  24254365.820 8 127457566.823 8     -1504.590          48.000    24254367.102 8  97662385.996 8     -1152.888          49.000
E05  27463476.016 7 144321543.952 7      2693.988          47.000    27463478.852 7 110584066.834 7      2064.276          45.000
E09  21855740.836 8 114852773.042 8      1143.648          51.000    21855745.148 8  88004071.928 8       876.320          51.000
E11  23283119.609 8 122353622.771 8     -1911.953          51.000    23283118.609 8  93751461.857 8     -1465.012          50.000
> 2020 05 18 21 11 30.0000000  0 18        .000000000000
G01  21985984.883 8 115537113.920 8     -2794.609          49.000    21985986.102 8  90028931.665 8     -2177.615          49.000
G03  20504703.453 8 107752952.576 8      -833.613          51.000    20504704.727 8  83963382.220 8      -649.569          51.000
G04  20716701.953 8 108867055.015 8      1661.535          48.000    20716704.016 8  84831485.818 8      1294.703          48.000
G09  22882304.414 6 120247386.009 6      3308.895          40.000    22882309.859 6  93699268.207 6      2578.359          39.000
G22  21946754.086 5 115330953.573 5     -1952.383          33.000    21946748.242 5  89868247.547 5     -1521.334          31.000
G31  23365088.570 6 122784367.116 6      -699.023          36.000    23365094.945 6  95676122.888 6      -544.697          37.000
R01  19743397.164 5 105539753.887 5     -1681.973          34.000    19743399.266 4  82086494.142 4     -1308.201          27.000
R02  20761036.867 5 110784872.818 5      2331.164          35.000    20761038.812 5  86166018.053 5      1813.128          30.000
R23  21876746.188 7 117025876.361 7     -4224.633          46.000    21876746.984 5  91020088.879 5     -3285.822          33.000
R24  19615960.578 8 104895331.071 8     -1886.445          51.000    19615963.109 7  81585281.234 7     -1467.235          47.000
C19  23561392.078 6 122690326.983 6      2160.074          40.000
C20  21896303.453 8 114019884.085 8      -196.133          51.000
C29  22470457.250 8 117009558.251 8     -1405.379          51.000
C30  24981352.750 6 130084434.297 6     -3423.766          37.000
E04  24262991.430 8 127502893.369 8     -1514.789          48.000    24262992.516 8  97697116.730 8     -1160.709          49.000
E05  27448122.250 7 144240858.558 7      2687.395          47.000    27448126.141 7 110522243.043 7      2059.214          46.000
E09  21849254.891 8 114818687.234 8      1131.078          51.000    21849259.234 8  87977954.235 8       866.724          51.000
E11  23294080.062 8 122411219.556 8     -1925.543          51.000    23294078.875 8  93795594.464 8     -1475.374          51.000
> 2020 05 18 21 12  0.0000000  0 17        .000000000000
G01  22001966.781 8 115621097.308 8     -2804.531          49.000    22001968.812 8  90094373.242 8     -2185.352          49.000
G03  20509487.602 8 107778093.705 8      -842.914          51.000    20509488.891 8  83982972.698 8      -656.816          51.000
G04  20707260.859 8 108817440.314 8      1645.773          50.000    20707262.578 8  84792824.984 8      1282.421          50.000
G09  22863434.094 6 120148227.261 6      3301.211          37.000    22863438.672 6  93622001.621 6      2572.369          38.000
G31  23369134.125 5 122805623.960 5      -718.398          35.000    23369136.570 5  95692686.641 5      -559.797          35.000
R01  19752867.328 5 105590380.771 5     -1693.641          34.000    19752869.992 4  82125870.654 4     -1317.273          29.000
R02  20747960.500 6 110715098.288 6      2319.699          39.000    20747964.219 5  86111749.059 5      1804.211          34.000
R23  21900464.961 7 117152753.833 7     -4234.312          47.000    21900466.414 5  91118771.366 5     -3293.354          34.000
R24  19626608.820 8 104952273.083 8     -1910.117          51.000    19626611.344 7  81629569.411 7     -1485.650          46.000
C19  23548962.703 6 122625601.955 6      2154.520          38.000
C20  21897456.305 8 114025886.644 8      -204.344          51.000
C29  22478595.445 8 117051935.741 8     -1420.227          51.000
C30  25001083.328 6 130187173.115 6     -3426.020          38.000
E04  24271656.742 8 127548429.429 8     -1521.258          48.000    24271657.469 8  97732008.001 8     -1165.603          49.000
E05  27432788.273 7 144160276.759 7      2684.410          47.000    27432792.695 7 110460498.648 7      2056.928          47.000
E09  21842822.312 8 114784882.525 8      1122.258          51.000    21842826.367 8  87952051.943 8       859.960          51.000
E11  23305099.336 8 122469126.852 8     -1935.145          51.000    23305098.188 8  93839965.001 8     -1482.737          51.000
> 2020 05 18 21 12 30.0000000  0 17        .000000000000
G01  22018010.977 8 115705408.012 8     -2815.773          50.000    22018013.289 8  90160069.902 8     -2194.109          50.000
G03  20514328.719 8 107803534.127 8      -852.934          51.000    20514330.219 8  84002796.387 8      -664.627          51.000
G04  20697913.977 8 108768320.209 8      1629.242          51.000    20697915.328 8  84754549.568 8      1269.539          50.000
G09  22844611.867 6 120049319.014 6      3292.801          39.000    22844613.055 6  93544930.299 6      2565.819          39.000
G31  23373293.000 6 122827474.336 6      -738.211          38.000    23373290.320 6  95709712.866 6      -575.229          37.000
R01  19762407.031 6 105641375.327 6     -1706.016          36.000    19762411.070 4  82165533.064 4     -1326.901          28.000
R02  20734956.234 6 110645702.637 6      2306.648          38.000    20734962.922 5  86057774.708 5      1794.057          35.000
R23  21924242.375 7 117279944.625 7     -4244.719          47.000    21924245.000 5  91217697.535 5     -3301.448          34.000
R24  19637394.375 8 105009948.931 8     -1934.746          51.000    19637396.406 7  81674428.351 7     -1504.806          45.000
C19  23536567.547 5 122561063.912 5      2148.242          33.000
C20  21898660.977 8 114032160.450 8      -213.605          51.000
C29  22486823.828 8 117094782.881 8     -1435.977          51.000
C30  25020832.023 6 130290006.430 6     -3429.297          38.000
E04  24280363.594 8 127594183.542 8     -1528.703          48.000    24280364.320 8  97767066.345 8     -1171.314          50.000
E05  27417475.984 7 144079808.944 7      2680.359          47.000    27417480.422 7 110398841.599 7      2053.848          47.000
E09  21836444.805 8 114751368.511 8      1112.348          51.000    21836448.461 8  87926372.405 8       852.330          51.000
E11  23316179.289 8 122527353.779 8     -1946.352          51.000    23316178.539 8  93884580.437 8     -1491.279          51.000
> 2020 05 18 21 13  0.0000000  0 16        .000000000000
G01  22034118.031 8 115790050.229 8     -2826.488          49.000    22034120.531 8  90226024.874 8     -2202.458          49.000
G03  20519227.719 8 107829278.987 8      -862.836          51.000    20519229.477 8  84022857.305 8      -672.340          51.000
G04  20688662.492 8 108719701.229 8      1612.676          51.000    20688663.344 8  84716664.662 8      1256.630          49.000
G09  22825839.203 6 119950668.637 6      3284.914          39.000    22825837.508 6  93468059.954 6      2559.676          39.000
G31  23377565.586 5 122849923.278 5      -757.695          35.000    23377560.984 5  95727205.582 5      -590.403          31.000
R01  19772015.430 5 105692740.832 5     -1717.723          33.000    19772020.344 4  82205495.610 4     -1336.007          26.000
R02  20722023.023 6 110576691.722 6      2294.273          39.000    20722033.227 5  86004099.463 5      1784.426          31.000
R23  21948078.273 7 117407450.646 7     -4254.934          45.000    21948082.695 5  91316868.885 5     -3309.393          33.000
R24  19648317.594 8 105068362.546 8     -1958.918          51.000    19648319.891 7  81719861.100 7     -1523.606          45.000
C20  21899918.531 8 114038710.431 8      -222.441          51.000
C29  22495143.266 8 117138104.024 8     -1451.535          51.000
C30  25040599.266 6 130392937.698 6     -3432.254          38.000
E04  24289112.734 8 127640160.068 8     -1535.727          48.000    24289113.891 8  97802295.116 8     -1176.803          50.000
E05  27402186.703 7 143999461.320 7      2676.809          47.000    27402190.547 7 110337276.668 7      2050.968          46.000
E09  21830123.898 8 114718150.736 8      1102.762          51.000    21830126.938 8  87900919.851 8       844.964          51.000
E11  23327321.164 8 122585905.061 8     -1956.488          51.000    23327320.789 8  93929444.402 8     -1499.172          51.000
> 2020 05 18 21 13 30.0000000  0 18        .000000000000
G01  22050300.156 8 115875090.459 8     -2832.922          48.000    22050303.016 8  90292290.017 8     -2207.469          48.000
G03  20524197.508 8 107855395.662 8      -868.402          51.000    20524199.273 8  84043207.965 8      -676.677          51.000
G04  20679519.523 8 108671652.115 8      1600.430          51.000    20679519.719 8  84679223.804 8      1247.091          48.000
G09  22807129.422 6 119852345.871 6      3280.227          41.000    22807128.250 6  93391444.925 6      2556.024          40.000
G11  24740154.266 5 130010390.327 5     -4060.867          33.000
G17  22082527.305 5 116044455.700 5      -528.590          35.000    22082527.070 6  90424246.077 6      -411.894          36.000
R01  19781706.141 6 105744544.445 6     -1725.480          36.000    19781710.891 3  82245784.800 3     -1342.040          23.000
R02  20709175.992 6 110508135.631 6      2285.918          40.000    20709189.828 5  85950777.951 5      1777.936          32.000
R23  21971985.234 7 117535337.814 7     -4260.703          44.000    21971991.406 4  91416336.682 4     -3313.883          29.000
R24  19659391.516 8 105127581.000 8     -1978.844          51.000    19659394.234 7  81765919.852 7     -1539.101          46.000
C19  23511914.469 4 122432699.925 4      2140.375          29.000
C20  21901242.359 8 114045603.237 8      -227.211          51.000
C29  22503566.234 8 117181965.192 8     -1462.852          51.000
C30  25060398.094 6 130496031.992 6     -3431.039          37.000
E04  24297916.727 8 127686425.732 8     -1538.727          48.000    24297918.164 8  97837745.435 8     -1179.048          50.000
E05  27386933.219 7 143919302.479 7      2677.094          46.000    27386936.148 7 110275856.383 7      2051.232          46.000
