     3.02           OBSERVATION DATA    M (MIXED)           RINEX VERSION / TYPE
SAVERINEX           SC600               20200504 035930 LCL PGM / RUN BY / DATE
       G = GPS       R = GLONASS       C = COMPASS          COMMENT
       S = SBAS      J = QZSS          E = GALILEO          COMMENT
BEAN                                                        MARKER NAME
1                                                           MARKER NUMBER
GEODETIC                                                    MARKER TYPE
Unige DICCA         GTER                                    OBSERVER / AGENCY
SC60291900056       SC600               2.12(191226)        REC # / TYPE / VERS
                    HEMA45          NONE                    ANT # / TYPE
  4509407.8091   693652.4678  4442337.6214                  APPROX POSITION XYZ
        0.0000        0.0000        0.0000                  ANTENNA: DELTA H/E/N
G    8 C1C L1C D1C S1C C2Y L2Y D2Y S2Y                      SYS / # / OBS TYPES
R    8 C1C L1C D1C S1C C2P L2P D2P S2P                      SYS / # / OBS TYPES
C    8 C1I L1I D1I S1I C7I L7I D7I S7I                      SYS / # / OBS TYPES
E    8 C1C L1C D1C S1C C7Q L7Q D7Q S7Q                      SYS / # / OBS TYPES
DBHZ                                                        COMMENT
     30.000                                                 INTERVAL
  2020    05    04    01    00    0.0000000     GPS         TIME OF FIRST OBS
  2020    05    04    01    59   30.0000000     GPS         TIME OF LAST OBS
     0                                                      RCV CLOCK OFFS APPL
G L1C  0.00000                                              SYS / PHASE SHIFT
G L2Y  0.00000                                              SYS / PHASE SHIFT
R L1C  0.00000                                              SYS / PHASE SHIFT
R L2P  0.25000                                              SYS / PHASE SHIFT
C L1I  0.00000                                              SYS / PHASE SHIFT
C L7I  0.00000                                              SYS / PHASE SHIFT
E L1C  0.50000                                              SYS / PHASE SHIFT
E L7Q -0.25000                                              SYS / PHASE SHIFT
 14 R01  1 R02 -4 R03  5 R04  6 R10 -5 R11  0 R12 -1 R13 -2 GLONASS SLOT / FRQ #
    R14 -7 R15  0 R17  4 R18 -3 R19  3 R23  3               GLONASS SLOT / FRQ #
 C1C   71.950 C2C   71.950 C2P   71.950                     GLONASS COD/PHS/BIS
    18                                                      LEAP SECONDS
*** Above antenna height is from mark to ANTENNA BOTTOM.    COMMENT
    17     4        0.0000        ANT MEASURE TYPE/HEIGT    COMMENT
    0.0000    0.0000    0.0458    0.0405    0.0000          COMMENT
                    BASE STATION                            COMMENT
                                                            END OF HEADER
> 2020 05 04 01 00  0.0000000  0 11        .000000000000
G06  21283216.914 8 111844067.613 8     -1216.098          51.000    21283219.164 8  87151201.788 8      -947.612          51.000
G07  21582393.602 8 113416231.018 8      2083.340          50.000    21582392.227 8  88376263.120 8      1623.382          50.000
G09  20470307.492 8 107572188.994 8      -926.863          51.000    20470308.188 8  83822487.118 8      -722.231          51.000
R03  20278031.586 6 108549923.319 6     -1460.715          41.000    20278036.070 5  84427708.208 5     -1136.109          31.000
R14  21866852.609 8 116562711.494 8      3963.234          50.000    21866855.734 7  90659872.950 7      3082.516          43.000
C05  39766168.156 6 207072871.690 6       -18.410          37.000    39766164.203 6 160121858.390 6       -14.024          38.000
C12  24966847.867 6 130008953.747 6     -2411.883          41.000    24966852.570 7 100531198.797 7     -1864.891          46.000
C22  22066994.734 8 114908620.483 8      -626.648          51.000
E07  24233948.875 7 127350281.212 7     -1264.965          43.000    24233950.844 7  97580178.659 7      -969.238          42.000
E26  25233219.703 5 132601464.924 5     -2961.008          31.000    25233220.617 6 101603732.033 6     -2268.740          36.000
E27  26870725.773 7 141206617.262 7      2975.656          46.000    26870730.023 8 108197294.956 8      2280.135          51.000
> 2020 05 04 01 00 30.0000000  0 12        .000000000000
G06  21290204.969 8 111880789.683 8     -1235.332          51.000    21290208.125 8  87179816.398 8      -962.596          51.000
G07  21570530.523 8 113353890.519 8      2069.227          51.000    21570529.578 8  88327686.128 8      1612.384          51.000
G09  20475620.992 8 107600111.989 8      -937.812          51.000    20475621.875 8  83844245.284 8      -730.763          51.000
R03  20286235.328 7 108593836.355 7     -1470.055          43.000    20286239.883 5  84461862.853 5     -1143.376          32.000
R12  22883288.000 5 122238362.361 5     -3120.457          34.000    22883288.875 4  95074316.237 4     -2427.025          29.000
R14  21844570.266 8 116443930.099 8      3952.254          49.000    21844570.969 6  90567487.402 6      3073.975          40.000
C05  39766264.039 6 207073370.578 6       -18.039          37.000    39766260.070 6 160122244.164 6       -13.934          38.000
C12  24980758.117 6 130081391.240 6     -2420.594          39.000    24980761.891 7 100587212.045 7     -1871.748          46.000
C22  22070619.711 8 114927498.637 8      -635.105          51.000
E07  24241172.477 7 127388242.228 7     -1269.152          43.000    24241174.562 7  97609265.668 7      -972.485          42.000
E26                                                                  25250126.609 5 101671813.057 5     -2272.592          35.000
E27  26853735.609 7 141117333.976 7      2973.301          47.000    26853739.367 8 108128883.060 8      2278.211          50.000
> 2020 05 04 01 01  0.0000000  0 14        .000000000000
G06  21297336.125 8 111918263.104 8     -1257.062          51.000    21297339.484 8  87209016.473 8      -979.526          51.000
G07  21558780.539 8 113292143.052 8      2052.824          51.000    21558779.664 8  88279571.234 8      1599.603          51.000
G09  20481030.430 8 107628538.996 8      -951.262          51.000    20481031.312 8  83866396.194 8      -741.243          51.000
G30  23416522.023 5 123054627.172 5      3508.359          35.000    23416526.406 5  95886749.720 5      2733.787          35.000
R03  20294525.141 7 108638212.993 7     -1482.461          42.000    20294530.219 5  84496378.028 5     -1153.028          33.000
R04  20146375.703 4 107882925.661 4      1496.070          29.000
R12  22900888.938 4 122332373.884 4     -3140.977          29.000    22900888.547 4  95147436.195 4     -2442.985          28.000
R14  21822383.234 8 116325660.660 8      3938.395          48.000    21822382.156 6  90475500.095 6      3063.199          39.000
C05  39766392.867 6 207074041.384 6       -21.207          37.000    39766388.852 6 160122762.868 6       -15.952          38.000
C12  24994752.242 6 130154266.232 6     -2431.930          40.000    24994755.055 7 100643563.594 7     -1880.528          46.000
C22  22074327.289 8 114946807.688 8      -646.359          51.000
E07  24248454.047 7 127426507.410 7     -1276.086          42.000    24248456.102 7  97638585.729 7      -977.607          43.000
E26                                                                  25267093.898 6 101740136.661 6     -2278.073          36.000
E27  26836793.938 7 141028305.054 7      2967.953          47.000    26836796.875 8 108060666.049 8      2274.143          49.000
> 2020 05 04 01 01 30.0000000  0 13        .000000000000
G06  21304563.570 8 111956242.431 8     -1275.785          51.000    21304566.430 8  87238610.758 8      -994.118          51.000
G07  21547097.266 8 113230745.914 8      2039.262          51.000    21547096.250 8  88231729.329 8      1589.035          51.000
G09  20486489.188 8 107657224.915 8      -961.977          51.000    20486489.898 8  83888748.865 8      -749.592          51.000
G30  23396507.688 5 122949444.194 5      3502.945          35.000    23396510.664 5  95804788.962 5      2729.568          34.000
R03  20302856.031 7 108682804.438 7     -1491.430          43.000    20302861.188 5  84531060.220 5     -1160.001          31.000
R14  21800246.789 8 116207660.078 8      3927.340          49.000    21800245.555 6  90383721.903 6      3054.598          41.000
C05  39766508.234 6 207074642.218 6       -20.164          37.000    39766504.320 6 160123227.510 6       -15.773          38.000
C12  25008783.766 6 130227334.332 6     -2440.309          39.000    25008786.055 7 100700064.482 7     -1886.980          47.000
C19  24960180.781 4 129974167.732 4     -2521.047          29.000
C22  22078071.484 8 114966305.977 8      -654.551          51.000
E07  24255747.266 7 127464832.384 7     -1280.012          42.000    24255749.508 7  97667951.620 7      -980.854          44.000
E26  25284076.578 6 132868715.023 6     -2977.527          39.000    25284075.023 5 101808514.298 5     -2281.434          35.000
E27  26819854.562 7 140939288.381 7      2965.512          47.000    26819856.898 8 107992458.453 8      2272.209          49.000
> 2020 05 04 01 02  0.0000000  0 12        .000000000000
G06  21311895.266 8 111994769.536 8     -1298.113          51.000    21311897.125 8  87268631.860 8     -1011.517          51.000
G07  21535489.195 8 113169743.525 8      2021.832          51.000    21535487.734 8  88184195.004 8      1575.454          51.000
G09  20492005.258 8 107686211.907 8      -976.082          51.000    20492005.867 8  83911336.147 8      -760.583          51.000
G30  23376520.055 5 122844409.019 5      3494.070          34.000    23376523.656 5  95722943.339 5      2722.649          35.000
R03  20311235.523 7 108727654.049 7     -1504.297          45.000    20311239.055 5  84565943.294 5     -1170.006          30.000
R14  21778169.227 7 116089976.508 7      3912.574          47.000    21778169.688 7  90292190.262 7      3043.113          45.000
C05  39766618.359 6 207075215.935 6       -23.312          37.000    39766614.516 6 160123671.142 6       -18.199          38.000
C12  25022860.805 7 130300635.666 7     -2452.047          42.000    25022862.609 8 100756745.717 8     -1896.039          48.000
C22  22081860.531 8 114986036.548 8      -666.367          51.000
E07  24263059.977 6 127503260.044 6     -1287.430          40.000    24263062.961 7  97697396.192 7      -986.436          45.000
E26  25301079.328 6 132958065.416 6     -2985.078          40.000    25301078.016 5 101876977.543 5     -2287.325          32.000
E27  26802926.086 7 140850329.234 7      2959.523          46.000    26802928.219 8 107924294.950 8      2267.693          48.000
> 2020 05 04 01 02 30.0000000  0 12        .000000000000
G06  21319347.344 8 112033929.545 8     -1313.047          51.000    21319348.406 8  87299146.139 8     -1023.153          51.000
G07  21523972.805 8 113109223.876 8      2012.148          51.000    21523971.078 8  88137036.827 8      1567.908          51.000
G09  20497594.898 8 107715585.566 8      -982.695          51.000    20497595.609 8  83934224.720 8      -765.737          51.000
G30  23356577.117 5 122739610.274 5      3492.160          33.000    23356581.758 5  95641282.007 5      2721.167          34.000
R03  20319678.156 6 108772850.463 6     -1509.445          41.000    20319682.820 4  84601095.975 4     -1174.019          29.000
R14  21756167.695 6 115972702.108 6      3905.234          41.000    21756170.719 7  90200976.868 7      3037.408          47.000
C05  39766739.750 6 207075848.264 6       -19.191          37.000    39766735.969 6 160124160.079 6       -14.695          38.000
C12  25036999.312 7 130374253.465 7     -2456.598          43.000    25037000.188 7 100813671.676 7     -1899.380          47.000
C22  22085710.797 8 115006085.383 8      -670.699          51.000
E07  24270408.656 6 127541876.723 6     -1287.602          40.000    24270411.742 7  97726985.571 7      -986.529          45.000
E26  25318119.055 6 133047612.057 6     -2985.199          40.000
E27  26786025.492 7 140761516.253 7      2960.727          47.000    26786027.703 8 107856243.465 8      2268.678          48.000
> 2020 05 04 01 03  0.0000000  0 13        .000000000000
G04  22434129.641 5 117892149.082 5     -2643.906          31.000
G06  21326898.078 8 112073608.640 8     -1332.500          51.000    21326899.227 8  87330064.894 8     -1038.312          51.000
G07  21512526.812 8 113049075.864 8      1997.773          51.000    21512525.227 8  88090168.245 8      1556.710          51.000
G09  20503236.516 8 107745232.429 8      -994.070          51.000    20503237.367 8  83957326.180 8      -774.600          51.000
G30  23336658.836 6 122634937.957 6      3485.570          37.000    23336663.344 6  95559719.143 6      2716.029          37.000
R03  20328163.773 7 108818278.900 7     -1519.363          42.000
R14  21734222.383 6 115855727.321 6      3893.125          36.000    21734227.328 8  90109996.472 8      3027.983          49.000
C05  39766850.984 6 207076427.742 6       -19.562          37.000    39766847.305 6 160124608.200 6       -15.311          39.000
C12  25051176.867 7 130448073.751 7     -2465.188          44.000    25051176.758 7 100870754.205 7     -1906.267          47.000
C22  22089600.727 8 115026341.339 8      -679.824          51.000
E07  24277771.836 6 127580569.618 6     -1292.145          39.000    24277774.430 7  97756633.366 7      -990.145          45.000
E26  25335173.945 6 133137240.526 6     -2990.078          39.000
E27  26769131.719 7 140672739.041 7      2957.352          47.000    26769134.227 8 107788219.393 8      2266.091          48.000
> 2020 05 04 01 03 30.0000000  0 13        .000000000000
G06  21334546.906 8 112113803.505 8     -1352.656          51.000    21334548.734 8  87361385.566 8     -1054.018          51.000
G07  21501151.391 8 112989299.348 8      1981.953          50.000    21501150.289 8  88043589.139 8      1544.379          50.000
G09  20508929.578 8 107775149.636 8     -1006.137          51.000    20508930.430 8  83980638.295 8      -784.006          51.000
G30  23316765.094 6 122530392.404 6      3478.684          38.000    23316768.039 6  95478255.045 6      2710.663          38.000
R03  20336692.938 6 108863937.361 6     -1530.176          41.000
R14  21712329.195 6 115739054.747 6      3879.547          37.000    21712340.219 8  90019250.970 8      3017.422          49.000
C05  39766951.773 6 207076952.519 6       -20.695          37.000    39766948.094 6 160125013.973 6       -15.979          39.000
C12  25065392.211 7 130522091.993 7     -2474.840          45.000    25065390.734 7 100927989.788 7     -1913.751          45.000
C21  22969523.109 5 119608296.376 5      1860.113          30.000
C22  22093530.203 8 115046802.751 8      -689.754          51.000
E07  24285149.336 6 127619336.703 6     -1297.684          38.000    24285151.133 7  97786337.950 7      -994.389          45.000
E26  25352243.594 6 133226946.932 6     -2995.773          38.000
E27  26752244.500 7 140583997.771 7      2953.164          47.000    26752247.867 8 107720222.879 8      2262.709          48.000
> 2020 05 04 01 04  0.0000000  0 13        .000000000000
G04  22464356.375 6 118050965.738 6     -2653.070          37.000
G06  21342326.117 8 112154683.504 8     -1370.746          51.000    21342328.438 8  87393240.135 8     -1068.114          51.000
G07  21489879.344 8 112930066.843 8      1968.648          49.000    21489879.125 8  87997433.927 8      1534.009          49.000
G09  20514706.367 8 107805506.977 8     -1015.898          51.000    20514707.102 8  84004293.357 8      -791.609          51.000
G30  23296928.648 6 122426146.720 6      3473.320          36.000    23296930.203 5  95397024.625 5      2706.483          35.000
R03  20345297.219 6 108909999.724 6     -1538.562          41.000    20345318.195 4  84707791.028 4     -1196.663          29.000
R14  21690531.914 7 115622861.681 7      3868.355          45.000    21690543.164 8  89928878.574 8      3008.721          50.000
C05  39767074.539 6 207077591.791 6       -20.066          37.000    39767070.898 6 160125508.309 6       -15.544          39.000
C12  25079677.219 7 130596474.910 7     -2482.203          44.000    25079673.656 7 100985507.318 7     -1919.439          44.000
C22  22097531.703 8 115067639.108 8      -697.434          51.000
E07  24292572.945 6 127658348.439 6     -1301.355          37.000    24292574.453 7  97816230.004 7      -996.948          45.000
E26  25369359.891 6 133316900.091 6     -2999.156          39.000    25369352.188 5 102151865.176 5     -2298.213          34.000
E27  26735396.789 7 140495465.339 7      2950.898          47.000    26735401.188 7 107652386.367 7      2261.072          47.000
> 2020 05 04 01 04 30.0000000  0 12        .000000000000
G06  21350202.344 8 112196073.836 8     -1388.707          51.000    21350204.680 8  87425492.362 8     -1082.109          51.000
G07  21478677.977 8 112871206.110 8      1955.152          48.000    21478678.500 8  87951568.416 8      1523.492          48.000
G09  20520533.727 8 107836130.158 8     -1025.750          51.000    20520534.453 8  84028155.555 8      -799.286          51.000
G30  23277116.625 5 122322029.798 5      3467.754          34.000    23277115.812 5  95315894.635 5      2702.152          34.000
R03  20353944.805 6 108956289.539 6     -1547.539          40.000    20353957.516 4  84743794.095 4     -1203.645          27.000
R14  21668793.977 8 115506976.708 8      3857.105          49.000    21668803.898 8  89838745.847 8      2999.971          50.000
C05  39767186.328 6 207078173.835 6       -18.758          37.000    39767182.734 6 160125958.386 6       -14.665          39.000
C12  25093998.039 7 130671048.257 7     -2489.551          44.000    25093993.617 7 101043172.096 7     -1924.985          45.000
C22  22101572.242 8 115088678.917 8      -705.254          51.000
E07  24300009.969 6 127697431.190 6     -1304.504          39.000    24300011.398 7  97846176.496 7      -999.459          46.000
E26  25386489.984 6 133406924.645 6     -3002.594          40.000    25386490.367 6 102220845.051 6     -2300.665          37.000
E27  26718556.141 7 140406970.490 7      2948.629          47.000    26718561.266 7 107584578.642 7      2259.381          46.000
> 2020 05 04 01 05  0.0000000  0 12        .000000000000
G06  21358186.594 8 112238032.454 8     -1408.672          51.000    21358188.758 8  87458187.379 8     -1097.666          51.000
G07  21467558.852 8 112812777.772 8      1939.914          48.000    21467559.594 8  87906039.835 8      1511.621          48.000
G09  20526422.773 8 107867077.523 8     -1037.512          51.000    20526423.641 8  84052270.375 8      -808.451          51.000
G30  23257340.812 6 122218103.399 6      3460.469          37.000    23257336.578 6  95234913.194 6      2696.472          37.000
R03  20362646.109 6 109002866.830 6     -1557.863          40.000    20362651.078 4  84780020.909 4     -1211.671          26.000
R14  21647126.172 8 115391464.577 8      3843.664          50.000    21647134.164 8  89748903.109 8      2989.520          48.000
C05  39767298.375 6 207078757.542 6       -20.305          37.000    39767294.859 6 160126409.755 6       -15.650          39.000
C12  25108366.172 7 130745868.133 7     -2498.605          44.000    25108361.844 7 101101027.588 7     -1932.071          46.000
C22  22105663.289 8 115109981.248 8      -714.922          51.000
E07  24307471.703 6 127736644.108 6     -1310.031          38.000    24307473.141 7  97876222.750 7     -1003.533          46.000
E26  25403644.961 6 133497077.999 6     -3007.785          40.000    25403649.055 6 102289923.606 6     -2304.625          40.000
E27  26701734.617 7 140318574.700 7      2944.305          47.000    26701739.125 7 107516846.840 7      2256.127          45.000
> 2020 05 04 01 05 30.0000000  0 13        .000000000000
G06  21366278.562 8 112280557.343 8     -1427.008          51.000    21366280.312 8  87491323.624 8     -1111.957          51.000
G07  21456522.461 8 112754782.705 8      1925.695          49.000    21456522.320 8  87860848.890 8      1500.542          49.000
G09  20532373.242 8 107898347.620 8     -1047.855          51.000    20532374.328 8  84076636.672 8      -816.511          51.000
G30  23237602.336 6 122114369.330 6      3454.574          39.000    23237595.461 6  95154081.442 6      2691.873          40.000
R03  20371400.453 6 109049731.592 6     -1567.141          40.000
R12  23063485.805 5 123201000.632 5     -3293.559          32.000
R14  21625528.688 8 115276329.087 8      3831.543          50.000    21625534.656 7  89659353.279 7      2980.089          47.000
C05  39767410.672 6 207079342.367 6       -19.430          37.000    39767407.180 6 160126861.995 6       -15.266          39.000
C12  25122781.281 7 130820931.602 7     -2506.363          43.000    25122777.367 7 101159071.406 7     -1938.013          47.000
C22  22109804.594 8 115131545.859 8      -723.293          51.000
E07  24314958.094 5 127775986.529 5     -1313.133          35.000    24314959.961 7  97906368.220 7     -1006.523          47.000
E26  25420824.305 6 133587357.684 6     -3011.258          40.000    25420830.406 6 102359098.961 6     -2307.489          41.000
E27  26684932.430 8 140230279.547 8      2941.371          48.000    26684934.812 7 107449192.182 7      2253.796          44.000
> 2020 05 04 01 06  0.0000000  0 13        .000000000000
G06  21374448.000 8 112323489.851 8     -1439.090          51.000    21374449.789 8  87524777.488 8     -1121.372          51.000
G07  21445539.328 8 112697065.570 8      1918.000          50.000    21445537.727 8  87815874.566 8      1494.548          51.000
G09  20538355.062 8 107929782.328 8     -1051.875          51.000    20538356.164 8  84101131.238 8      -819.643          51.000
G30  23217870.484 6 122010672.652 6      3454.352          40.000    23217863.016 6  95073278.847 6      2691.703          40.000
R03  20380179.695 6 109096723.366 6     -1569.980          41.000
R12  23082029.273 5 123300000.797 5     -3303.184          32.000    23082040.484 4  95900087.819 4     -2569.149          27.000
R14  21603972.375 8 115161415.244 8      3825.352          51.000    21603976.719 7  89569975.824 7      2975.273          46.000
C05  39767493.289 6 207079772.610 6       -12.832          37.000    39767489.812 6 160127194.698 6       -10.122          39.000
C12  25137212.781 7 130896080.331 7     -2507.762          44.000    25137209.266 7 101217181.149 7     -1939.157          47.000
C22  22113966.477 8 115153217.313 8      -725.484          51.000
E07  24322438.703 6 127815301.035 6     -1311.359          40.000    24322441.648 7  97936492.300 7     -1004.808          47.000
E26  25437997.227 6 133677604.630 6     -3009.262          37.000    25438005.336 7 102428249.168 7     -2305.585          42.000
E27  26668120.016 8 140141929.967 8      2944.621          48.000    26668120.742 7 107381495.810 7      2256.190          44.000
> 2020 05 04 01 06 30.0000000  0 16        .000000000000
G02  22494534.508 5 118209571.304 5       824.461          33.000
G04  22540377.711 5 118450482.183 5     -2680.840          30.000
G06  21382752.602 8 112367131.640 8     -1468.398          51.000    21382754.586 8  87558784.067 8     -1144.204          51.000
G07  21434667.391 8 112639930.872 8      1892.980          51.000    21434665.109 8  87771354.043 8      1475.050          51.000
G09  20544425.781 8 107961683.899 8     -1072.961          51.000    20544426.531 8  84125989.599 8      -836.073          51.000
G30  23198202.812 6 121907318.867 6      3437.887          40.000    23198196.836 6  94992743.455 6      2678.873          39.000
R03  20389040.078 6 109144150.690 6     -1590.211          39.000    20389034.141 4  84889855.359 4     -1236.831          27.000
R12  23100663.195 5 123399535.252 5     -3329.879          31.000    23100672.445 4  95977503.522 4     -2589.906          29.000
R14  21582516.281 8 115047035.163 8      3801.957          51.000    21582519.164 7  89481013.494 7      2957.075          46.000
C05  39767603.914 6 207080348.828 6       -23.680          37.000    39767600.430 6 160127640.237 6       -18.108          39.000
C12  25151717.930 7 130971612.166 7     -2525.785          43.000    25151714.859 7 101275587.145 7     -1953.248          47.000
C21  22905722.875 6 119276115.350 6      1824.965          36.000
C22  22118206.508 8 115175296.296 8      -744.559          51.000
E07  24329971.945 6 127854890.660 6     -1326.211          39.000    24329975.430 7  97966827.171 7     -1016.071          46.000
E26  25455221.594 5 133768120.053 5     -3023.969          32.000    25455230.734 7 102497605.074 7     -2316.777          42.000
E27  26651355.508 8 140053831.280 8      2930.609          48.000    26651355.703 7 107313991.648 7      2245.520          45.000
> 2020 05 04 01 07  0.0000000  0 14        .000000000000
G06  21391215.273 8 112411603.271 8     -1482.762          51.000    21391217.633 8  87593437.276 8     -1155.399          51.000
G07  21423929.539 8 112583501.367 8      1882.648          49.000    21423927.531 8  87727383.003 8      1466.999          49.000
G09  20550608.375 8 107994173.479 8     -1079.352          51.000    20550608.828 8  84151306.157 8      -841.053          51.000
G30  23178623.570 6 121804432.475 6      3435.223          40.000    23178619.836 6  94912572.276 6      2676.797          40.000
R03  20398003.445 6 109192138.471 6     -1595.301          38.000    20398002.914 4  84927186.135 4     -1240.789          29.000
R04  20049323.344 4 107363169.972 4      1392.066          28.000
R14  21561184.023 8 114933316.834 8      3793.309          51.000    21561186.320 7  89392565.907 7      2950.351          45.000
C05  39767765.867 6 207081191.940 6       -19.660          37.000    39767762.344 6 160128292.188 6       -14.970          39.000
C12  25166319.328 7 131047645.576 7     -2529.543          43.000    25166317.086 7 101334380.949 7     -1955.834          47.000
C21  22895257.695 5 119221600.647 5      1822.871          35.000
C22  22122548.016 8 115197904.061 8      -749.062          51.000
E07  24337581.336 6 127894877.221 6     -1325.773          40.000    24337584.719 7  97997466.226 7     -1016.047          46.000
E26                                                                  25472529.234 7 102567258.694 7     -2316.459          43.000
E27  26634662.523 8 139966107.711 8      2931.234          48.000    26634662.711 7 107246774.883 7      2245.978          46.000
> 2020 05 04 01 07 30.0000000  0 12        .000000000000
G06  21399713.695 8 112456262.061 8     -1500.504          51.000    21399716.109 8  87628236.335 8     -1169.224          51.000
G07  21413203.930 8 112527138.246 8      1868.984          49.000    21413202.484 8  87683463.707 8      1456.355          48.000
G09  20556780.672 8 108026608.956 8     -1088.992          51.000    20556781.227 8  84176580.563 8      -848.565          51.000
G30  23159011.891 6 121701374.592 6      3429.332          38.000    23159009.438 6  94832267.406 6      2672.207          38.000
R03  20406951.312 6 109240033.455 6     -1603.914          41.000    20406955.883 5  84964437.706 5     -1247.489          34.000
R14  21539854.367 8 114819614.651 8      3780.883          49.000    21539856.219 7  89304130.918 7      2940.687          42.000
C05  39767856.977 6 207081666.657 6       -18.504          37.000    39767853.508 6 160128659.284 6       -14.160          39.000
C12  25180894.289 7 131123542.651 7     -2536.148          43.000    25180893.094 8 101393069.384 8     -1961.301          48.000
C22  22126869.008 8 115220405.595 8      -756.902          51.000
E07  24345144.539 6 127934619.515 6     -1329.398          41.000    24345147.555 7  98027918.044 7     -1018.732          46.000
E26                                                                  25489778.734 7 102636717.290 7     -2318.806          43.000
E27  26617919.148 8 139878120.225 8      2928.445          48.000    26617920.445 8 107179355.894 8      2243.853          48.000
> 2020 05 04 01 08  0.0000000  0 12        .000000000000
G06  21408339.094 8 112501587.863 8     -1520.055          51.000    21408341.086 8  87663555.138 8     -1184.458          51.000
G07  21402582.945 8 112471323.960 8      1853.273          50.000    21402581.852 8  87639972.062 8      1444.109          50.000
G09  20563034.094 8 108059470.807 8     -1100.594          51.000    20563034.852 8  84202187.200 8      -857.606          51.000
G30  23139460.289 6 121598628.926 6      3421.168          36.000    23139458.219 6  94752205.838 6      2665.845          37.000
R03  20415973.039 6 109288325.598 6     -1614.457          37.000    20415974.438 5  85001998.339 5     -1255.686          31.000
R14  21518618.172 6 114706420.964 6      3766.570          39.000    21518619.148 6  89216091.537 6      2929.564          39.000
C05  39767968.953 6 207082250.130 6       -19.422          37.000    39767965.641 6 160129110.460 6       -15.109          39.000
C12  25195534.211 7 131199777.919 7     -2544.918          44.000    25195534.070 8 101452019.313 8     -1967.832          49.000
C22  22131261.234 8 115243278.182 8      -766.707          51.000
E07  24352752.953 7 127974598.585 7     -1334.578          42.000    24352754.930 7  98058551.346 7     -1022.617          46.000
E26                                                                  25507070.648 7 102706348.199 7     -2322.332          43.000
E27  26601217.203 7 139790352.329 7      2923.895          47.000    26601220.242 8 107112105.165 8      2240.393          49.000
> 2020 05 04 01 08 30.0000000  0 13        .000000000000
G06  21417065.047 8 112547442.148 8     -1532.887          51.000    21417066.664 8  87699285.747 8     -1194.457          51.000
G07  21392040.914 8 112415922.943 8      1844.246          51.000    21392039.594 8  87596802.453 8      1437.075          51.000
G09  20569342.352 8 108092621.172 8     -1105.301          51.000    20569343.281 8  84228018.653 8      -861.273          51.000
G30  23119942.945 5 121496060.766 5      3420.980          34.000    23119940.906 5  94672282.613 5      2665.702          35.000
R03  20425041.359 6 109336875.814 6     -1618.035          39.000    20425043.859 5  85039759.555 5     -1258.475          32.000
R12  23176125.922 5 123802641.633 5     -3384.531          31.000
R14  21497448.344 7 114593601.780 7      3758.633          42.000    21497452.477 7  89128343.200 7      2923.378          42.000
C05  39768075.844 6 207082806.697 6       -13.668          37.000    39768072.547 6 160129540.829 6       -10.351          39.000
C12  25210212.766 7 131276213.005 7     -2546.867          43.000    25210213.484 8 101511123.761 8     -1969.212          49.000
C22  22135698.906 8 115266386.457 8      -769.824          51.000
E07  24360380.258 6 128014677.432 6     -1333.141          41.000    24360381.117 7  98089261.098 7     -1021.506          46.000
E26                                                                  25524377.992 7 102776045.038 7     -2320.901          42.000
E27  26584531.109 7 139702669.332 7      2925.762          47.000    26584535.289 8 107044919.474 8      2241.895          48.000
> 2020 05 04 01 09  0.0000000  0 13        .000000000000
G06  21425894.281 8 112593839.259 8     -1567.410          51.000    21425895.938 8  87735439.330 8     -1221.359          51.000
G07  21381580.609 8 112360952.511 8      1813.340          51.000    21381578.789 8  87553968.364 8      1412.995          50.000
G09  20575708.234 8 108126075.031 8     -1132.008          51.000    20575709.453 8  84254086.581 8      -882.084          51.000
G30  23100462.227 5 121393749.508 5      3396.559          33.000    23100462.414 5  94592512.040 5      2646.669          33.000
R03  20434161.625 6 109385700.418 6     -1644.250          38.000    20434164.977 5  85077734.212 5     -1278.864          32.000
R12  23195205.938 5 123904625.579 5     -3417.008          30.000
R14  21476358.227 8 114481177.021 8      3728.992          48.000    21476363.336 7  89040901.757 7      2900.330          46.000
C05  39768180.594 6 207083352.165 6       -29.773          37.000    39768177.359 6 160129962.633 6       -23.086          39.000
C12  25224932.383 7 131352861.276 7     -2570.199          44.000    25224933.430 8 101570393.076 8     -1987.511          48.000
C22  22140185.047 8 115289746.455 8      -794.613          51.000
E07  24368029.367 6 128054871.849 6     -1353.598          41.000    24368029.562 7  98120059.368 7     -1037.029          46.000
E26                                                                  25541703.422 6 102845818.506 6     -2336.151          41.000
E27  26567864.656 7 139615089.219 7      2905.934          47.000    26567868.914 8 106977812.642 8      2226.595          48.000
> 2020 05 04 01 09 30.0000000  0 14        .000000000000
G06  21434827.930 8 112640785.783 8     -1573.484          51.000    21434830.047 8  87772021.035 8     -1226.092          51.000
G07  21371203.836 8 112306422.338 8      1810.863          50.000    21371201.648 8  87511477.345 8      1411.062          50.000
G09  20582133.203 8 108159839.657 8     -1129.938          51.000    20582134.711 8  84280396.672 8      -880.471          51.000
G30  23081018.336 6 121291583.652 6      3402.871          38.000    23081023.469 6  94512902.280 6      2651.588          36.000
R03  20443337.031 7 109434807.460 7     -1640.914          42.000    20443338.164 5  85115928.554 5     -1276.266          31.000
R12  23214367.953 5 124006992.413 5     -3419.141          34.000
R14  21455345.469 8 114369159.787 8      3727.637          50.000    21455350.633 8  88953777.269 8      2899.273          48.000
C05  39768284.836 6 207083894.801 6       -17.219          37.000    39768281.594 6 160130382.236 6       -13.508          39.000
C12  25239693.906 7 131429728.219 7     -2565.324          44.000    25239694.891 8 101629831.478 8     -1983.699          48.000
C21  22843096.805 5 118949995.461 5      1797.496          31.000
C22  22144721.023 8 115313366.615 8      -791.094          51.000
E07  24375701.859 7 128095189.743 7     -1345.273          43.000    24375702.188 7  98150952.316 7     -1031.018          46.000
E26  25559057.695 5 134313750.693 5     -3040.438          33.000    25559049.188 6 102915673.438 6     -2329.614          41.000
E27  26551220.453 8 139527622.355 8      2914.137          49.000    26551223.359 7 106910792.592 7      2232.886          46.000
> 2020 05 04 01 10  0.0000000  0 16        .000000000000
G02  22463850.430 5 118048331.939 5       708.992          34.000
G04  22647936.523 6 119015684.025 6     -2705.262          37.000
G06  21443853.633 8 112688217.289 8     -1591.809          50.000    21443856.398 8  87808980.665 8     -1240.367          50.000
G07  21360898.961 8 112252270.811 8      1796.105          49.000    21360896.898 8  87469281.366 8      1399.563          49.000
G09  20588605.281 8 108193851.379 8     -1140.473          51.000    20588606.742 8  84306899.315 8      -888.680          51.000
G30  23061601.781 6 121189563.869 6      3395.535          40.000    23061609.164 6  94433406.241 6      2645.869          40.000
R03  20452551.766 6 109484133.065 6     -1650.555          40.000    20452553.070 5  85154292.899 5     -1283.768          32.000
R12  23233607.602 5 124109756.648 5     -3434.598          33.000    23233612.555 4  96529832.202 4     -2671.351          27.000
R14  21434397.992 8 114257490.646 8      3713.676          51.000    21434402.922 8  88866923.515 8      2888.414          50.000
C05  39768376.508 6 207084372.456 6       -17.598          37.000    39768373.281 6 160130751.576 6       -13.451          39.000
C12  25254484.883 7 131506749.156 7     -2572.605          43.000    25254485.750 8 101689388.919 8     -1989.175          48.000
C21  22832748.586 5 118896114.338 5      1792.141          34.000
C22  22149294.914 8 115337185.020 8      -799.902          51.000
E07  24383385.672 7 128135568.294 7     -1349.562          43.000    24383386.750 7  98181891.702 7     -1034.134          46.000
E26  25576416.516 5 134404968.877 5     -3043.484          34.000    25576403.781 6 102985560.193 6     -2332.098          39.000
E27  26534586.602 8 139440208.079 8      2910.277          48.000    26534587.672 7 106843812.851 7      2229.896          47.000
> 2020 05 04 01 10 30.0000000  0 12        .000000000000
G06  21453036.867 8 112736477.636 8     -1621.203          49.000    21453040.242 8  87846586.146 8     -1263.275          49.000
G07  21350731.945 8 112198844.341 8      1770.156          50.000    21350730.430 8  87427650.349 8      1379.343          50.000
G09  20595190.188 8 108228454.743 8     -1161.914          51.000    20595191.156 8  84333862.968 8      -905.388          51.000
G30  23042279.383 6 121088037.856 6      3377.098          40.000    23042287.086 6  94354295.004 6      2631.505          40.000
R03  20461871.258 6 109534029.333 6     -1671.535          37.000    20461873.180 5  85193101.024 5     -1300.086          30.000
R14  21413582.109 8 114146524.634 8      3688.438          51.000    21413586.688 8  88780616.629 8      2868.785          50.000
C05  39768521.586 6 207085127.473 6       -28.602          37.000    39768518.344 6 160131335.418 6       -22.147          39.000
C12  25269370.758 7 131584263.823 7     -2590.738          43.000    25269371.586 8 101749328.155 8     -2003.402          48.000
C22  22153972.656 8 115361544.273 8      -819.660          51.000
E07  24391146.391 7 128176352.842 7     -1365.016          43.000    24391148.062 7  98213142.166 7     -1045.870          46.000
E26                                                                  25593832.023 6 103055742.068 6     -2343.415          38.000
E27  26518028.492 7 139353194.018 7      2894.992          47.000    26518029.352 8 106777139.793 8      2218.310          48.000
> 2020 05 04 01 11  0.0000000  0 13        .000000000000
G06  21462285.047 8 112785079.763 8     -1628.668          48.000    21462288.609 8  87884457.919 8     -1269.095          48.000
G07  21340611.164 8 112145659.448 8      1765.836          51.000    21340610.117 8  87386207.551 8      1375.976          51.000
G09  20601795.258 8 108263163.426 8     -1161.699          51.000    20601795.953 8  84360908.695 8      -905.220          51.000
G30  23022959.609 6 120986522.507 6      3380.676          40.000    23022967.828 6  94275192.123 6      2634.293          39.000
R03  20471206.414 6 109584001.738 6     -1670.199          40.000    20471206.555 5  85231968.409 5     -1299.044          30.000
R14  21392806.023 8 114035773.701 8      3685.016          51.000    21392810.117 8  88694477.000 8      2866.120          49.000
C05  39768627.586 6 207085678.970 6       -17.477          37.000    39768624.312 6 160131761.884 6       -13.704          39.000
C12  25284258.477 7 131661788.707 7     -2587.395          42.000    25284259.375 8 101809275.295 8     -2000.547          48.000
C19  25239956.148 4 131431078.207 4     -2590.066          28.000
C22  22158662.070 8 115385963.730 8      -817.953          51.000
E07  24398891.820 7 128217057.770 7     -1358.453          43.000    24398893.812 7  98244331.676 7     -1040.860          46.000
E26                                                                  25611240.750 6 103125845.691 6     -2337.878          36.000
E27  26501454.133 7 139266096.937 7      2901.711          45.000    26501456.438 8 106710403.115 8      2223.404          50.000
> 2020 05 04 01 11 30.0000000  0 14        .000000000000
G04  22694431.523 5 119260036.506 5     -2712.242          33.000
G06  21471644.758 8 112834265.576 8     -1640.809          50.000    21471647.555 8  87922784.503 8     -1278.552          50.000
G07  21330583.266 8 112092960.921 8      1756.879          51.000    21330582.273 8  87345143.752 8      1368.997          51.000
G09  20608466.516 8 108298220.104 8     -1165.809          51.000    20608467.328 8  84388225.591 8      -908.422          51.000
G30  23003689.422 6 120885263.770 6      3379.348          41.000    23003696.820 6  94196289.159 6      2633.255          40.000
R03  20480601.688 6 109634298.391 6     -1673.504          37.000    20480600.523 4  85271092.013 4     -1301.611          29.000
R14  21372116.961 8 113925489.413 8      3676.887          51.000    21372120.719 8  88608700.317 8      2859.801          49.000
C05  39768740.766 6 207086268.380 6       -11.801          37.000    39768737.477 6 160132217.651 6        -9.204          39.000
C12  25299193.812 7 131739562.627 7     -2588.207          42.000    25299195.211 8 101869415.033 8     -2001.375          49.000
C21  22802000.914 5 118735991.728 5      1780.309          31.000
C22  22163409.438 8 115410685.066 8      -820.707          51.000
E07  24406668.688 6 128257926.619 6     -1356.668          41.000    24406670.664 7  98275646.772 7     -1039.597          46.000
E26                                                                  25628675.938 6 103196056.155 6     -2335.531          36.000
E27  26484910.328 7 139179162.634 7      2903.555          44.000    26484914.875 8 106643791.140 8      2224.733          51.000
> 2020 05 04 01 12  0.0000000  0 16        .000000000000
G04  22709937.695 5 119341519.192 5     -2718.828          35.000
G06  21481073.914 8 112883814.389 8     -1661.305          51.000    21481075.570 8  87961393.958 8     -1294.523          51.000
G07  21320606.281 8 112040530.698 8      1739.539          51.000    21320605.492 8  87304289.075 8      1355.488          51.000
G09  20615162.047 8 108333404.957 8     -1178.695          51.000    20615162.992 8  84415642.368 8      -918.464          51.000
G30  22984427.461 7 120784045.008 7      3369.594          43.000    22984434.039 7  94117417.344 7      2625.657          42.000
R03  20490016.891 6 109684696.520 6     -1685.355          37.000    20490015.422 5  85310290.536 5     -1310.832          34.000
R04  19973866.789 5 106959112.712 5      1305.289          31.000    19973846.688 4  83190366.860 4      1015.219          25.000
R14  21351474.578 8 113815453.944 8      3659.961          51.000    21351477.914 8  88523117.180 8      2846.636          48.000
C05  39768819.539 6 207086678.838 6       -14.242          37.000    39768816.312 6 160132535.029 6       -10.937          39.000
C12  25314134.812 6 131817366.084 6     -2597.527          41.000    25314136.789 8 101929577.570 8     -2008.540          49.000
C19  25269846.844 5 131586633.275 5     -2594.105          35.000
C21  22791774.367 5 118682727.014 5      1772.012          32.000
C22  22168173.211 8 115435491.597 8      -831.914          51.000
E07  24414434.812 6 128298740.309 6     -1363.234          40.000    24414437.219 7  98306919.554 7     -1044.541          47.000
E26                                                                  25646095.977 6 103266204.259 6     -2339.740          36.000
E27  26468355.930 7 139092174.303 7      2896.973          44.000    26468362.656 8 106577137.730 8      2219.698          51.000
> 2020 05 04 01 12 30.0000000  0 17        .000000000000
G02  22444921.719 5 117948859.511 5       619.547          31.000
G04  22725499.156 5 119423299.270 5     -2727.945          34.000
G06  21490639.180 8 112934077.108 8     -1683.871          51.000    21490640.148 8  88000559.694 8     -1312.107          51.000
G07  21310747.711 8 111988723.151 8      1719.941          51.000    21310747.148 8  87263919.592 8      1340.214          51.000
G09  20621948.867 8 108369069.652 8     -1193.453          51.000    20621949.781 8  84443433.039 8      -929.963          51.000
G30  22965241.352 7 120683221.136 7      3357.773          45.000    22965247.570 7  94038853.262 7      2616.447          45.000
R03  20499517.406 5 109735555.069 5     -1699.527          35.000    20499519.938 5  85349847.097 5     -1321.861          35.000
R14  21330946.758 8 113706029.263 8      3640.695          50.000    21330949.516 7  88438009.092 7      2831.652          47.000
R19  21848756.492 6 116876118.120 6     -3169.754          36.000    21848762.391 6  90903661.334 6     -2465.364          40.000
C05  39768931.062 6 207087259.898 6       -18.602          37.000    39768927.977 6 160132984.352 6       -14.565          39.000
C12  25329148.344 7 131895545.913 7     -2608.914          42.000    25329150.359 8 101990031.168 8     -2017.348          49.000
C19  25284826.672 5 131664658.204 5     -2601.898          34.000
C21  22781607.578 4 118629805.743 4      1761.785          29.000
C22  22173020.609 8 115460733.059 8      -845.258          51.000
E07  24422258.164 7 128339851.288 7     -1371.977          42.000    24422260.891 7  98338420.121 7     -1051.279          47.000
E26                                                                  25663568.125 6 103336558.688 6     -2345.834          37.000
E27  26451859.266 7 139005486.722 7      2887.938          44.000    26451867.234 8 106510714.762 8      2212.865          51.000
> 2020 05 04 01 13  0.0000000  0 15        .000000000000
G06  21500306.961 8 112984878.762 8     -1717.711          51.000    21500307.852 8  88040145.379 8     -1338.479          51.000
G07  21300974.922 8 111937366.105 8      1689.082          51.000    21300974.156 8  87223901.098 8      1316.168          51.000
G09  20628793.914 8 108405040.046 8     -1219.441          51.000    20628794.750 8  84471461.912 8      -950.214          51.000
G30  22946098.320 7 120582621.218 7      3334.188          47.000    22946104.328 7  93960463.720 7      2598.071          47.000
R03  20509072.047 6 109786697.637 6     -1725.266          36.000    20509074.008 5  85389624.626 5     -1341.873          32.000
R14  21310501.336 8 113597044.162 8      3609.906          49.000    21310504.062 7  88353242.892 7      2807.705          47.000
R19  21866585.016 6 116971481.784 6     -3202.820          36.000    21866590.570 6  90977833.021 6     -2491.082          39.000
C05  39769042.414 6 207087839.862 6       -34.434          37.000    39769039.398 6 160133432.826 6       -26.774          39.000
C12  25344200.844 7 131973927.938 7     -2631.395          42.000    25344202.109 7 102050641.098 7     -2034.622          47.000
C19  25299834.500 5 131742791.956 5     -2622.039          31.000
C21  22771474.625 4 118577047.403 4      1739.918          28.000
C22  22177918.812 8 115486238.060 8      -869.836          51.000
E07  24430105.180 7 128381086.199 7     -1392.098          43.000    24430107.867 7  98370015.671 7     -1066.535          47.000
E26                                                                  25681059.602 6 103406985.208 6     -2360.455          38.000
E27  26435388.156 7 138918928.713 7      2867.805          46.000    26435396.242 8 106444391.115 8      2197.328          51.000
> 2020 05 04 01 13 30.0000000  0 16        .000000000000
G06  21510096.688 8 113036322.850 8     -1716.305          50.000    21510097.945 8  88080231.679 8     -1337.380          50.000
G07  21291308.016 8 111886565.703 8      1693.121          51.000    21291306.922 8  87184316.373 8      1319.315          51.000
G09  20635717.000 8 108441420.564 8     -1210.363          51.000    20635717.758 8  84499810.357 8      -943.140          51.000
G30  22927018.609 7 120482352.847 7      3345.695          47.000    22927023.672 7  93882332.554 7      2607.038          47.000
R03  20518698.133 5 109838231.787 5     -1715.105          35.000    20518701.016 6  85429706.696 6     -1333.977          36.000
R13  20450274.789 5 109203325.183 5      -178.797          32.000    20450280.883 5  84935943.057 5      -139.064          35.000
R14  21290158.742 8 113488609.704 8      3614.488          49.000    21290161.828 7  88268904.954 7      2811.269          47.000
R19  21884527.758 6 117067458.997 6     -3200.273          36.000    21884530.531 6  91052481.909 6     -2489.105          37.000
C05  39769173.617 6 207088523.201 6       -15.605          37.000    39769170.672 6 160133961.219 6       -12.152          39.000
C12  25359312.031 7 132052613.922 7     -2618.840          42.000    25359311.578 7 102111486.084 7     -2024.996          45.000
C19  25314871.742 5 131821185.608 5     -2606.598          30.000
C21  22761386.398 4 118524521.200 4      1753.809          27.000
C22  22182887.719 8 115512111.254 8      -859.547          51.000
E07  24437995.484 7 128422550.153 7     -1376.859          43.000    24437998.086 7  98401786.757 7     -1055.017          47.000
E26  25698592.594 5 135047029.010 5     -3064.312          35.000    25698589.234 6 103477563.031 6     -2347.872          38.000
E27  26418963.125 8 138832607.825 8      2882.434          48.000    26418970.188 8 106378249.118 8      2208.651          51.000
> 2020 05 04 01 14  0.0000000  0 15        .000000000000
G06  21519941.625 8 113088059.708 8     -1736.148          49.000    21519942.984 8  88120546.140 8     -1352.843          49.000
G07  21281681.023 8 111835975.872 8      1676.211          51.000    21281679.625 8  87144895.741 8      1306.141          51.000
G09  20642651.711 8 108477862.372 8     -1222.336          51.000    20642652.359 8  84528206.561 8      -952.470          51.000
G30  22907936.188 7 120382070.433 7      3336.332          46.000    22907936.672 7  93804190.539 7      2599.745          43.000
R03  20528333.195 5 109889802.606 5     -1726.625          33.000    20528336.523 6  85469817.365 6     -1342.928          36.000
R13  20451353.328 5 109209071.803 5      -207.637          31.000    20451355.766 5  84940412.664 5      -161.495          34.000
R14  21269854.008 8 113380377.423 8      3597.641          48.000    21269857.336 7  88184724.260 7      2798.165          46.000
R19  21902518.039 6 117163692.118 6     -3218.855          38.000    21902515.555 5  91127329.855 5     -2503.554          34.000
C05  39769258.547 6 207088965.264 6       -17.105          37.000    39769255.570 6 160134303.053 6       -13.321          40.000
C12  25374414.766 6 132131256.461 6     -2627.223          40.000    25374412.430 7 102172297.523 7     -2031.562          44.000
C19  25329900.711 6 131899399.656 6     -2611.199          36.000
C22  22187861.008 8 115538008.195 8      -870.254          51.000
E07  24445862.977 7 128463895.210 7     -1382.984          43.000    24445865.617 8  98433466.729 8     -1059.609          48.000
E26  25716090.000 5 135138967.826 5     -3070.062          34.000    25716090.055 6 103548024.192 6     -2351.984          39.000
E27  26402517.555 8 138746178.267 8      2876.191          49.000    26402523.180 8 106312023.859 8      2203.790          51.000
> 2020 05 04 01 14 30.0000000  0 17        .000000000000
G06  21529916.133 8 113140477.252 8     -1755.668          50.000    21529917.328 8  88161390.992 8     -1368.053          50.000
G07  21272168.555 8 111785987.685 8      1659.203          51.000    21272167.094 8  87105943.916 8      1292.886          51.000
G09  20649671.992 8 108514754.269 8     -1234.293          51.000    20649672.586 8  84556953.486 8      -961.787          51.000
G30  22888925.273 7 120282166.066 7      3326.598          43.000    22888920.148 7  93726343.110 7      2592.157          43.000
R03  20538050.422 5 109941793.650 5     -1737.594          31.000    20538051.828 5  85510289.197 5     -1351.462          34.000
R04  19938091.469 4 106767541.332 4      1253.266          29.000    19938090.883 4  83041443.559 4       974.762          28.000
R13  20452613.469 5 109215809.128 5      -237.871          32.000    20452617.156 5  84945652.875 5      -185.008          34.000
R14  21249662.398 8 113272746.985 8      3580.613          50.000    21249666.078 7  88101011.673 7      2784.918          46.000
R19  21920629.281 6 117260572.666 6     -3236.961          37.000    21920624.172 5  91202681.354 5     -2517.636          35.000
C05  39769371.227 6 207089552.316 6       -18.859          37.000    39769368.289 6 160134757.021 6       -14.807          39.000
C12  25389582.703 6 132210239.352 6     -2635.727          37.000    25389579.305 7 102233372.140 7     -2037.945          44.000
C19  25344962.758 6 131977867.515 6     -2617.336          37.000
C21  22741293.094 5 118419895.341 5      1737.559          30.000
C22  22192913.102 8 115564315.313 8      -880.789          51.000
E07  24453782.156 7 128505510.959 7     -1388.668          42.000    24453784.820 8  98465354.102 8     -1064.155          48.000
E26  25733632.375 5 135231161.071 5     -3074.219          34.000    25733636.219 6 103618665.782 6     -2355.531          38.000
E27  26386125.453 8 138660031.898 8      2869.789          48.000    26386130.016 8 106246015.598 8      2198.887          51.000
> 2020 05 04 01 15  0.0000000  0 17        .000000000000
G04  22803643.625 5 119833955.990 5     -2748.434          35.000
G06  21539992.672 8 113193429.381 8     -1774.164          51.000    21539993.969 8  88202652.385 8     -1382.466          51.000
G07  21262743.188 8 111736457.542 8      1643.148          51.000    21262741.930 8  87067349.005 8      1280.375          51.000
G09  20656750.266 8 108551951.085 8     -1245.180          51.000    20656750.992 8  84585938.014 8      -970.270          51.000
G30  22869957.875 6 120182497.775 6      3317.891          40.000    22869953.922 6  93648679.499 6      2585.366          40.000
R03  20547820.055 5 109994089.024 5     -1748.070          33.000    20547818.820 5  85550952.669 5     -1359.610          32.000
R13  20454033.984 5 109223389.716 5      -267.270          31.000    20454037.484 5  84951548.912 5      -207.876          32.000
R14  21229557.375 8 113165576.419 8      3564.508          50.000    21229561.281 7  88017656.805 7      2772.395          46.000
R19  21938832.930 6 117357949.605 6     -3254.180          38.000    21938828.961 6  91278418.937 6     -2531.029          38.000
C05  39769484.414 6 207090141.411 6       -19.902          37.000    39769481.438 6 160135212.534 6       -15.408          39.000
C12  25404788.109 6 132289416.914 6     -2642.906          37.000    25404784.453 7 102294597.263 7     -2043.445          44.000
C19  25360044.383 4 132056445.788 4     -2620.672          29.000
C21  22731282.180 5 118367750.430 5      1731.230          32.000
C22  22198016.727 8 115590889.944 8      -890.488          51.000
E07  24461725.180 7 128547253.030 7     -1393.809          42.000    24461728.578 8  98497338.241 8     -1067.920          48.000
E26  25751192.234 5 135323428.591 5     -3077.645          32.000    25751200.180 6 103689375.760 6     -2358.291          38.000
E27  26369759.469 7 138574026.630 7      2864.258          46.000    26369763.773 8 106180115.450 8      2194.709          51.000
> 2020 05 04 01 15 30.0000000  0 13        .000000000000
G06  21550168.219 8 113246903.124 8     -1788.711          49.000    21550170.344 8  88244320.208 8     -1393.801          49.000
G07  21253403.164 8 111687375.811 8      1631.000          51.000    21253402.070 8  87029103.498 8      1270.909          51.000
G09  20663884.289 8 108589440.811 8     -1252.086          51.000    20663885.211 8  84615150.781 8      -975.651          51.000
G30  22851033.680 7 120083056.677 7      3313.320          43.000    22851032.844 7  93571192.903 7      2581.808          43.000
R13  20455609.289 5 109231802.102 5      -291.973          32.000    20455614.117 5  84958092.027 5      -227.084          31.000
R14  21209537.711 8 113058858.739 8      3552.117          51.000    21209541.016 7  87934654.172 7      2762.758          46.000
R19  21957126.023 6 117455807.249 6     -3267.363          37.000    21957124.797 6  91354530.426 6     -2541.283          41.000
C05  39769595.789 6 207090721.654 6       -16.793          36.000    39769592.875 6 160135661.209 6       -12.952          39.000
C12  25420028.055 5 132368775.698 5     -2646.047          35.000    25420024.711 7 102355962.518 7     -2045.955          44.000
C22  22203169.422 8 115617721.393 8      -896.277          51.000
E07  24469690.484 7 128589110.142 7     -1394.648          43.000    24469693.680 8  98529410.556 8     -1068.579          48.000
E26  25768768.305 5 135415791.292 5     -3077.133          31.000    25768779.008 6 103760144.150 6     -2358.177          39.000
E27  26353417.328 7 138488153.508 7      2862.766          45.000    26353422.617 8 106114316.539 8      2193.527          51.000
> 2020 05 04 01 16  0.0000000  0 15        .000000000000
G06  21560436.680 7 113300866.351 7     -1807.789          47.000    21560439.375 8  88286369.444 8     -1408.667          48.000
G07  21244142.680 8 111638712.766 8      1614.227          50.000    21244141.930 8  86991184.229 8      1257.839          50.000
G09  20671068.141 8 108627192.242 8     -1263.574          51.000    20671069.109 8  84644567.485 8      -984.603          51.000
G30  22832148.594 7 119983814.750 7      3303.949          45.000    22832149.391 7  93493861.513 7      2574.506          45.000
R03  20567522.305 5 110099470.220 5     -1765.340          34.000
R04  19917276.297 5 106656067.030 5      1225.750          30.000
R14  21189598.180 8 112952567.422 8      3534.965          51.000    21189601.156 7  87851983.191 7      2749.417          46.000
R19  21975501.922 6 117554110.102 6     -3285.254          38.000    21975502.977 7  91430988.186 7     -2555.201          42.000
C05  39769699.844 6 207091263.113 6       -18.438          37.000    39769696.930 6 160136079.899 6       -14.021          40.000
C12  25435295.859 5 132448282.987 5     -2653.613          35.000    25435293.188 7 102417442.645 7     -2051.870          43.000
C19  25390295.656 5 132213901.830 5     -2626.789          31.000
C22  22208365.789 8 115644779.900 8      -906.617          51.000
E07  24477671.789 7 128631051.955 7     -1400.352          42.000    24477674.539 8  98561547.750 8     -1072.988          48.000
E26                                                                  25786366.000 6 103830946.279 6     -2361.404          39.000
E27  26337094.734 7 138402384.422 7      2856.254          45.000    26337100.797 8 106048597.304 8      2188.582          49.000
> 2020 05 04 01 16 30.0000000  0 16        .000000000000
G06  21570809.969 8 113355379.980 8     -1825.836          48.000    21570812.930 8  88328847.599 8     -1422.729          48.000
G07  21234974.086 8 111590533.282 8      1598.371          50.000    21234974.008 8  86953641.785 8      1245.487          50.000
G09  20678313.570 8 108665267.337 8     -1274.102          51.000    20678314.375 8  84674236.390 8      -992.806          51.000
G30  22813314.211 7 119884837.135 7      3295.191          46.000    22813315.484 7  93416736.107 7      2567.682          45.000
R03  20577424.562 5 110152554.193 5     -1775.594          30.000
R13  20459222.516 5 109251055.287 5      -350.137          30.000    20459224.062 4  84973090.678 4      -272.326          25.000
R14  21169751.367 8 112846770.614 8      3518.754          51.000    21169753.508 7  87769696.805 7      2736.812          46.000
R19  21993972.617 6 117652917.946 6     -3301.562          37.000    21993974.602 7  91507838.721 7     -2567.882          42.000
C05  39769808.375 6 207091828.137 6       -18.684          37.000    39769805.445 6 160136516.811 6       -14.414          39.000
C12  25450603.625 5 132527998.674 5     -2660.473          35.000    25450602.180 7 102479083.897 7     -2057.032          44.000
C19  25405446.203 4 132292779.778 4     -2631.211          28.000
C21  22701517.938 5 118212758.349 5      1714.180          31.000
C22  22213617.633 8 115672128.025 8      -916.000          51.000
