     3.02           OBSERVATION DATA    M (MIXED)           RINEX VERSION / TYPE
SAVERINEX           SC600               20200503 165930 LCL PGM / RUN BY / DATE
       G = GPS       R = GLONASS       C = COMPASS          COMMENT
       S = SBAS      J = QZSS          E = GALILEO          COMMENT
BEAN                                                        MARKER NAME
1                                                           MARKER NUMBER
GEODETIC                                                    MARKER TYPE
Unige DICCA         GTER                                    OBSERVER / AGENCY
SC60291900056       SC600               2.12(191226)        REC # / TYPE / VERS
                    HEMA45          NONE                    ANT # / TYPE
  4509407.8091   693652.4678  4442337.6214                  APPROX POSITION XYZ
        0.0000        0.0000        0.0000                  ANTENNA: DELTA H/E/N
G    8 C1C L1C D1C S1C C2Y L2Y D2Y S2Y                      SYS / # / OBS TYPES
R    8 C1C L1C D1C S1C C2P L2P D2P S2P                      SYS / # / OBS TYPES
C    8 C1I L1I D1I S1I C7I L7I D7I S7I                      SYS / # / OBS TYPES
E    8 C1C L1C D1C S1C C7Q L7Q D7Q S7Q                      SYS / # / OBS TYPES
DBHZ                                                        COMMENT
     30.000                                                 INTERVAL
  2020    05    03    14    00    0.0000000     GPS         TIME OF FIRST OBS
  2020    05    03    14    59   30.0000000     GPS         TIME OF LAST OBS
     0                                                      RCV CLOCK OFFS APPL
G L1C  0.00000                                              SYS / PHASE SHIFT
G L2Y  0.00000                                              SYS / PHASE SHIFT
R L1C  0.00000                                              SYS / PHASE SHIFT
R L2P  0.25000                                              SYS / PHASE SHIFT
C L1I  0.00000                                              SYS / PHASE SHIFT
C L7I  0.00000                                              SYS / PHASE SHIFT
E L1C  0.50000                                              SYS / PHASE SHIFT
E L7Q -0.25000                                              SYS / PHASE SHIFT
 13 R04  6 R05  1 R06 -4 R07  5 R09 -2 R10 -7 R11  0 R12 -1 GLONASS SLOT / FRQ #
    R16 -1 R19  3 R20  2 R21  4 R22 -3                      GLONASS SLOT / FRQ #
 C1C   71.950 C2C   71.950 C2P   71.950                     GLONASS COD/PHS/BIS
    18                                                      LEAP SECONDS
*** Above antenna height is from mark to ANTENNA BOTTOM.    COMMENT
    17     4        0.0000        ANT MEASURE TYPE/HEIGT    COMMENT
    0.0000    0.0000    0.0458    0.0405    0.0000          COMMENT
                    BASE STATION                            COMMENT
                                                            END OF HEADER
> 2020 05 03 14 00  0.0000000  0 17        .000000000000
G18  20347801.898 8 106928464.238 8      -141.793          51.000    20347802.734 8  83320893.091 8      -110.488          51.000
G20  23649742.422 7 124280216.469 7      3264.156          44.000    23649741.430 6  96841765.936 6      2543.501          37.000
G21  20685336.844 8 108702200.034 8      -317.574          51.000    20685336.164 8  84702973.541 8      -247.460          50.000
G25  24664327.953 6 129611871.068 6     -3555.254          41.000    24664326.984 6 100996289.277 6     -2770.331          41.000
G26  20465822.117 5 107548647.869 5      1034.645          32.000    20465824.766 5  83804120.577 5       806.213          31.000
G31  22657593.656 8 119066437.196 8     -2808.266          49.000    22657592.219 8  92779055.935 8     -2188.259          49.000
R10  22383186.578 6 119314888.949 6     -4257.863          41.000
R11  19360948.523 8 103459032.519 8      -885.879          51.000    19360948.938 7  80468127.864 7      -689.017          46.000
R21  19424529.992 6 103944598.517 6      -708.895          41.000    19424533.172 6  80845797.843 6      -551.365          36.000
R22  21286264.820 7 113627606.903 7      2742.137          46.000    21286267.867 7  88377019.959 7      2132.773          44.000
C05  39617117.391 5 206296725.624 5        12.875          35.000    39617118.305 6 159521717.313 6        10.074          36.000
C27  21552087.742 8 112227552.761 8       369.719          51.000
C28  23144682.930 5 120520448.552 5     -2181.273          32.000
C30  24541620.922 7 127794633.912 7      2518.922          42.000
E02  24155449.258 8 126937725.207 8     -1908.777          49.000    24155450.461 8  97263976.742 8     -1462.576          50.000
E15  26776931.844 7 140713793.329 7      2699.957          42.000    26776938.734 6 107819632.217 6      2068.732          38.000
E36  24088009.242 8 126583377.596 8     -1685.172          51.000    24088012.633 8  96992475.151 8     -1291.206          51.000
> 2020 05 03 14 00 30.0000000  0 18        .000000000000
G18  20348663.172 8 106932989.919 8      -160.379          51.000    20348663.875 8  83324419.604 8      -124.968          51.000
G20  23631117.000 7 124182335.643 7      3260.691          45.000    23631115.109 6  96765495.206 6      2540.798          39.000
G21  20687192.297 8 108711950.896 8      -332.844          51.000    20687191.797 8  84710571.619 8      -259.359          51.000
G25  24684633.500 7 129718583.539 7     -3559.047          42.000    24684634.586 7 101079441.739 7     -2773.286          42.000
G26  20459954.484 6 107517821.223 6      1019.855          39.000    20459958.242 6  83780099.821 6       794.693          39.000
G29  22298744.078 5 117180686.791 5     -2487.281          34.000
G31  22673653.320 8 119150832.414 8     -2818.453          49.000    22673651.844 8  92844818.427 8     -2196.197          49.000
R10  22407171.320 6 119442742.022 6     -4266.035          39.000
R11  19365994.680 8 103485997.147 8      -912.203          49.000    19365995.484 8  80489100.350 8      -709.488          48.000
R21  19428548.422 7 103966096.208 7      -724.793          42.000    19428550.500 5  80862518.160 5      -563.731          34.000
R22  21270887.250 7 113545525.070 7      2729.633          45.000    21270891.039 6  88313178.531 6      2123.048          41.000
C05  39617042.305 5 206296334.863 5        12.348          35.000    39617043.336 6 159521415.122 6         9.811          36.000
C27  21549985.109 8 112216604.486 8       359.711          51.000
C28  23157262.125 5 120585951.184 5     -2186.559          34.000
C30  24527123.031 7 127719133.318 7      2514.047          42.000
E02  24166373.414 8 126995134.278 8     -1918.984          50.000    24166375.438 8  97307965.477 8     -1470.319          51.000
E15  26761529.617 7 140632858.482 7      2695.352          43.000    26761537.812 6 107757617.299 6      2065.254          39.000
E36  24097649.039 8 126634034.798 8     -1692.359          51.000    24097652.586 8  97031290.410 8     -1296.728          51.000
> 2020 05 03 14 01  0.0000000  0 17        .000000000000
G18  20349631.250 8 106938076.840 8      -179.383          51.000    20349631.812 8  83328383.442 8      -139.779          51.000
G20  23612513.039 7 124084568.971 7      3256.734          42.000    23612510.727 6  96689313.436 6      2537.715          40.000
G21  20689135.953 8 108722165.423 8      -348.609          50.000    20689135.281 8  84718530.994 8      -271.644          50.000
G25  24704959.414 7 129825399.733 7     -3562.504          42.000    24704961.875 6 101162675.029 6     -2775.980          41.000
G26  20454174.328 6 107487449.445 6      1004.273          38.000    20454177.641 6  83756433.541 6       782.554          38.000
G31  22689770.977 8 119235533.404 8     -2828.867          50.000    22689770.047 8  92910819.198 8     -2204.312          50.000
R10  22431203.250 5 119570849.627 5     -4275.332          34.000
R11  19371188.234 8 103513751.215 8      -938.578          48.000    19371189.805 8  80510686.848 8      -730.005          48.000
R21  19432655.148 6 103988073.686 6      -741.176          39.000    19432657.758 6  80879611.806 6      -576.464          36.000
R22  21255581.977 7 113463826.616 7      2716.484          45.000    21255583.781 6  88249635.305 6      2112.821          38.000
C05  39616968.031 5 206295948.186 5        12.754          35.000    39616968.984 6 159521115.380 6         9.630          36.000
C27  21547940.586 8 112205957.781 8       349.453          51.000
C28  23169869.695 4 120651591.534 4     -2190.766          28.000
C30  24512653.086 6 127643786.514 6      2508.418          38.000
E02  24177357.172 8 127052854.110 8     -1929.508          51.000    24177359.883 8  97352192.346 8     -1478.487          51.000
E15  26746154.430 7 140552062.666 7      2690.613          43.000    26746163.117 6 107695708.927 6      2061.534          40.000
E36  24107330.078 8 126684908.465 8     -1699.762          51.000    24107333.328 8  97070271.528 8     -1302.406          51.000
> 2020 05 03 14 01 30.0000000  0 17        .000000000000
G18  20350707.250 8 106943730.886 8      -197.410          51.000    20350707.695 8  83332789.188 8      -153.826          51.000
G20  23593932.555 6 123986925.899 6      3253.371          39.000    23593929.859 6  96613228.005 6      2535.097          38.000
G21  20691168.984 8 108732849.446 8      -363.438          50.000    20691168.406 8  84726856.219 8      -283.198          50.000
G25  24725306.680 6 129932324.920 6     -3565.508          41.000    24725310.156 6 101245993.267 6     -2778.321          41.000
G26  20448482.828 6 107457540.670 6       989.648          37.000    20448485.992 6  83733128.022 6       771.158          36.000
G31  22705947.891 8 119320544.244 8     -2838.328          51.000    22705947.719 8  92977061.369 8     -2211.687          51.000
R10  22455284.203 5 119699215.212 5     -4282.395          32.000
R11  19376531.211 8 103542301.087 8      -964.488          51.000    19376532.914 8  80532892.348 8      -750.158          49.000
R21  19436852.711 6 104010536.146 6      -756.195          38.000    19436856.500 5  80897082.582 5      -588.152          33.000
R22  21240350.039 7 113382518.961 7      2704.188          43.000    21240348.867 6  88186396.091 6      2103.263          38.000
C05  39616895.438 5 206295569.858 5        13.281          35.000    39616896.383 6 159520823.224 6         9.799          36.000
C27  21545955.094 8 112195618.787 8       340.039          51.000
C28  23182503.383 5 120717385.955 5     -2195.180          32.000
C30  24498212.648 6 127568600.367 6      2504.156          37.000
E02  24188401.422 8 127110890.747 8     -1939.348          51.000    24188404.305 8  97396661.965 8     -1486.033          51.000
E15  26730807.383 7 140471413.298 7      2686.387          43.000    26730815.547 6 107633912.772 6      2058.263          40.000
E36  24117053.227 8 126736003.922 8     -1706.480          51.000    24117056.102 8  97109422.588 8     -1307.581          51.000
> 2020 05 03 14 02  0.0000000  0 16        .000000000000
G18  20351889.570 8 106949943.692 8      -216.520          51.000    20351889.891 8  83337630.338 8      -168.717          51.000
G20  23575374.109 6 123889401.786 6      3248.883          37.000    23575371.117 6  96537235.146 6      2531.591          36.000
G21  20693289.602 8 108743993.988 8      -379.324          49.000    20693289.352 8  84735540.282 8      -295.577          49.000
G25  24745673.188 6 130039350.119 6     -3569.242          41.000    24745677.328 6 101329389.434 6     -2781.231          41.000
G26  20442878.797 5 107428088.862 5       973.629          35.000    20442882.234 5  83710178.491 5       758.666          35.000
G31  22722182.047 8 119405854.564 8     -2848.723          51.000    22722182.633 8  93043536.883 8     -2219.784          51.000
R11  19382021.773 8 103571638.352 8      -991.145          51.000    19382023.578 8  80555710.217 8      -770.890          50.000
R21  19441138.141 6 104033473.911 6      -772.852          37.000    19441141.617 5  80914923.046 5      -601.104          35.000
R22  21225189.414 7 113301595.348 7      2690.887          42.000    21225190.008 7  88123455.588 7      2092.915          42.000
C05  39616823.320 5 206295193.845 5        12.043          35.000    39616824.383 6 159520532.791 6         9.651          36.000
C27  21544026.883 8 112185579.459 8       329.582          51.000
C28  23195163.367 5 120783321.174 5     -2200.488          31.000
C30  24483801.758 6 127493567.769 6      2498.727          36.000
E02  24199504.445 8 127169235.905 8     -1950.051          51.000    24199507.289 8  97441367.977 8     -1494.252          51.000
E15  26715486.898 6 140390903.435 6      2681.410          41.000    26715492.906 6 107572223.485 6      2054.449          39.000
E36  24126816.820 8 126787312.218 8     -1713.848          51.000    24126819.711 8  97148736.723 8     -1313.220          51.000
> 2020 05 03 14 02 30.0000000  0 17        .000000000000
G18  20353176.742 8 106956707.021 8      -233.797          50.000    20353176.906 8  83342900.468 8      -182.176          50.000
G20  23556836.719 6 123791992.147 6      3246.215          38.000    23556834.203 6  96461331.557 6      2529.518          38.000
G21  20695496.133 8 108755590.466 8      -393.324          49.000    20695495.898 8  84744576.509 8      -306.486          49.000
G25  24766057.234 7 130146466.460 7     -3571.113          42.000    24766061.477 7 101412856.621 7     -2782.689          42.000
G26  20437360.500 6 107399087.769 6       959.629          40.000    20437364.062 6  83687580.235 6       747.760          39.000
G29  22355772.273 4 117480395.104 4     -2505.293          29.000
G31  22738471.375 8 119491454.502 8     -2857.316          51.000    22738472.656 8  93110238.075 8     -2226.483          51.000
R11  19387657.664 8 103601755.088 8     -1016.098          51.000    19387659.742 8  80579134.321 8      -790.298          50.000
R21  19445511.578 6 104056877.404 6      -787.203          41.000    19445515.828 5  80933125.762 5      -612.269          35.000
R22  21210100.633 7 113221049.155 7      2679.465          44.000    21210103.406 7  88060808.571 7      2084.028          44.000
C05  39616750.250 5 206294814.203 5        13.652          35.000    39616751.352 6 159520240.455 6        10.587          36.000
C27  21542154.898 8 112175831.940 8       320.801          51.000
C28  23207849.578 5 120849388.130 5     -2203.547          32.000
C30  24469418.844 5 127418681.693 5      2494.641          35.000
E02  24210664.633 8 127227881.531 8     -1959.090          51.000    24210667.438 8  97486304.207 8     -1501.139          51.000
E15  26700191.375 6 140310526.366 6      2677.840          41.000    26700193.977 6 107510635.953 6      2051.803          39.000
E36  24136619.250 8 126838824.605 8     -1719.676          51.000    24136622.492 8  97188207.240 8     -1317.659          51.000
> 2020 05 03 14 03  0.0000000  0 16        .000000000000
G18  20354567.617 8 106964016.511 8      -252.938          50.000    20354567.656 8  83348596.185 8      -197.094          50.000
G20  23538320.414 6 123694696.320 6      3241.207          38.000    23538318.383 6  96385516.659 6      2525.616          37.000
G21  20697787.836 8 108767634.127 8      -409.082          49.000    20697787.547 8  84753961.182 8      -318.765          49.000
G25  24786457.672 7 130253669.066 7     -3574.980          43.000    24786461.906 7 101496391.001 7     -2785.702          43.000
G26  20431927.672 6 107370535.475 6       943.969          40.000    20431931.352 6  83665331.718 6       735.560          40.000
G31  22754814.539 8 119577337.479 8     -2867.637          51.000    22754816.320 8  93177159.818 8     -2234.525          51.000
R10  22527795.672 5 120085808.193 5     -4306.855          32.000
R11  19393438.477 8 103632646.786 8     -1042.688          51.000    19393440.586 8  80603161.207 8      -810.976          49.000
R21  19449971.664 6 104080740.982 6      -803.230          40.000    19449974.664 5  80951686.292 5      -624.735          34.000
R22  21195082.609 7 113140877.344 7      2666.102          43.000    21195086.102 7  87998452.763 7      2073.635          44.000
C05  39616675.617 5 206294423.963 5        12.656          35.000    39616676.484 6 159519939.450 6         9.868          36.000
C27  21540338.312 8 112166372.228 8       310.477          51.000
C30  24455063.992 5 127343938.919 5      2488.992          35.000
E02  24221881.352 8 127286823.335 8     -1969.840          51.000    24221883.812 8  97531467.386 8     -1509.319          51.000
E15  26684920.500 6 140230279.237 6      2672.539          40.000    26684920.297 6 107449147.954 6      2047.879          39.000
E36  24146459.609 8 126890536.187 8     -1727.145          51.000    24146463.062 8  97227830.392 8     -1323.402          51.000
> 2020 05 03 14 03 30.0000000  0 18        .000000000000
G18  20356062.508 8 106971871.526 8      -274.434          50.000    20356062.336 8  83354716.960 8      -213.844          50.000
G20  23519825.203 6 123597517.422 6      3234.039          37.000    23519825.328 6  96309792.840 6      2520.027          36.000
G21  20700164.516 8 108780124.204 8      -427.176          49.000    20700164.398 8  84763693.721 8      -332.864          49.000
G25  24806874.148 7 130360956.648 7     -3581.113          43.000    24806877.891 7 101579991.578 7     -2790.481          44.000
G26  20426580.484 6 107342433.621 6       925.844          40.000    20426583.805 6  83643434.162 6       721.440          40.000
G29  22384480.922 5 117631163.270 5     -2519.797          33.000    22384450.695 5  91660624.768 5     -1963.475          34.000
G31  22771211.047 8 119663500.858 8     -2880.230          51.000    22771212.953 8  93244300.069 8     -2244.335          51.000
R10  22552051.555 5 120215111.279 5     -4317.176          34.000
R11  19399363.977 8 103664313.040 8     -1072.086          51.000    19399366.328 8  80627790.493 8      -833.848          49.000
R21  19454516.594 6 104105062.947 6      -821.742          41.000    19454519.766 5  80970603.409 5      -639.133          34.000
R22  21180134.125 6 113061080.803 6      2650.160          41.000    21180137.055 7  87936388.841 7      2061.236          42.000
C05  39616599.438 5 206294028.298 5        10.164          35.000    39616600.023 5 159519631.976 5         7.609          35.000
C27  21538576.891 8 112157200.039 8       297.477          51.000
C28  23233297.977 4 120981878.891 4     -2216.000          27.000
C30  24440738.617 6 127269339.909 6      2480.777          36.000
E02  24233154.391 8 127346060.846 8     -1982.938          51.000    24233156.594 8  97576857.133 8     -1519.397          51.000
E15  26669674.820 6 140150162.819 6      2664.738          38.000    26669673.594 6 107387760.128 6      2041.929          39.000
E36  24156337.695 8 126942445.827 8     -1737.121          51.000    24156340.977 8  97267605.295 8     -1331.014          51.000
> 2020 05 03 14 04  0.0000000  0 17        .000000000000
G18  20357669.633 8 106980316.912 8      -289.555          50.000    20357669.328 8  83361297.798 8      -225.624          50.000
G20  23501361.484 6 123500504.174 6      3232.969          38.000    23501364.047 6  96234198.118 6      2519.196          37.000
G21  20702634.609 8 108793105.232 8      -439.023          49.000    20702634.531 8  84773808.826 8      -342.096          49.000
G25  24827314.992 7 130468373.545 7     -3580.910          42.000    24827318.031 7 101663692.918 7     -2790.323          42.000
G26  20421327.594 6 107314829.325 6       913.695          38.000    20421330.914 6  83621924.333 6       711.973          38.000
G31  22787669.195 8 119749987.526 8     -2886.465          51.000    22787670.500 8  93311692.238 8     -2249.196          51.000
R10  22576358.938 5 120344682.748 5     -4321.148          34.000
R11  19405443.133 8 103696799.450 8     -1094.734          51.000    19405445.281 8  80653057.675 8      -851.460          48.000
R21  19459155.992 6 104129887.984 6      -833.852          41.000    19459158.555 5  80989911.750 5      -648.551          34.000
R22  21165263.742 6 112981706.871 6      2640.652          40.000    21165267.320 7  87874653.553 7      2053.838          42.000
C05  39616530.352 5 206293668.661 5        13.543          35.000    39616530.742 6 159519352.093 6        10.068          36.000
C27  21536879.281 8 112148360.165 8       290.980          51.000
C28  23246067.328 5 121048356.120 5     -2217.738          33.000
C30  24426450.797 6 127194930.341 6      2479.047          38.000
E02  24244492.195 8 127405639.113 8     -1989.824          51.000    24244493.812 8  97622507.984 8     -1524.685          51.000
E15  26654463.680 6 140070223.602 6      2663.379          39.000    26654462.336 6 107326508.046 6      2040.968          40.000
E36  24166261.906 8 126994597.926 8     -1740.586          51.000    24166264.906 8  97307565.980 8     -1333.705          51.000
> 2020 05 03 14 04 30.0000000  0 19        .000000000000
G18  20359373.969 8 106989273.445 8      -308.648          50.000    20359373.391 8  83368276.927 8      -240.505          49.000
G20  23482916.930 7 123403580.954 7      3227.609          42.000    23482919.617 6  96158673.599 6      2515.023          38.000
G21  20705182.992 8 108806497.408 8      -454.863          48.000    20705182.609 8  84784244.294 8      -354.436          48.000
G25  24847764.789 6 130575839.969 6     -3584.523          39.000    24847767.688 6 101747432.843 6     -2793.141          40.000
G26  20416154.312 6 107287645.733 6       897.621          39.000    20416158.383 6  83600742.252 6       699.442          39.000
G29  22413275.188 6 117782517.167 6     -2526.562          38.000    22413251.594 6  91778533.974 6     -1968.750          38.000
G31  22804173.438 8 119836716.064 8     -2896.484          50.000    22804173.406 8  93379272.859 8     -2257.004          51.000
R10  22600700.852 5 120474440.305 5     -4330.234          33.000
R11  19411660.797 8 103730025.761 8     -1121.438          51.000    19411662.516 7  80678900.363 7      -872.229          46.000
R21  19463873.688 7 104155134.121 7      -850.258          42.000    19463875.820 5  81009547.651 5      -661.309          34.000
R22  21150459.484 7 112902676.635 7      2626.852          42.000    21150462.422 6  87813185.592 6      2043.107          41.000
C05  39616453.422 5 206293268.381 5        12.820          35.000    39616453.633 6 159519041.786 6         9.497          36.000
C27  21535230.672 8 112139774.454 8       280.414          51.000
C28  23258857.414 5 121114939.732 5     -2223.555          30.000
C30  24412186.039 6 127120632.961 6      2473.305          39.000
E02  24255879.539 8 127465479.094 8     -2000.594          51.000    24255880.578 8  97668359.359 8     -1532.961          51.000
E15  26639271.633 6 139990383.904 6      2657.906          39.000    26639271.070 7 107265332.230 7      2036.670          43.000
E30  22469449.289 6 118077756.856 6       744.504          40.000    22469448.211 5  90475155.585 5       570.222          34.000
E36  24176217.125 8 127046912.784 8     -1748.148          51.000    24176220.062 8  97347651.381 8     -1339.472          51.000
> 2020 05 03 14 05  0.0000000  0 18        .000000000000
G18  20361188.641 8 106998810.177 8      -326.602          50.000    20361188.016 8  83375708.149 8      -254.495          49.000
G20  23464504.336 7 123306820.543 7      3223.598          46.000    23464506.438 6  96083275.956 6      2511.894          36.000
G21  20707822.656 8 108820369.652 8      -469.480          48.000    20707822.328 8  84795053.847 8      -365.826          48.000
G25  24868235.867 5 130683424.381 5     -3586.723          35.000    24868240.469 5 101831264.768 5     -2794.852          34.000
G26  20411074.875 6 107260954.101 6       882.348          41.000    20411079.383 6  83579943.553 6       687.544          41.000
G31  22820736.664 8 119923754.352 8     -2905.508          50.000    22820734.445 8  93447094.831 8     -2264.035          50.000
R10  22625091.141 5 120604450.928 5     -4337.121          33.000
R11  19418030.070 8 103764061.999 8     -1147.035          51.000    19418031.664 7  80705372.960 7      -892.141          46.000
R21  19468683.219 7 104180870.800 7      -864.949          43.000    19468684.539 5  81029565.058 5      -672.738          35.000
R22  21135732.703 6 112824061.681 6      2614.781          37.000    21135735.508 6  87752040.660 6      2033.719          40.000
C05  39616381.961 5 206292895.782 5        12.508          35.000    39616382.258 6 159518754.578 6        10.487          36.000
C27  21533644.148 8 112131511.759 8       271.066          51.000
C28  23271673.195 6 121181683.858 6     -2226.359          36.000
C30  24397957.312 6 127046517.428 6      2468.379          39.000
E02  24267329.734 8 127525650.056 8     -2010.121          51.000    24267330.227 8  97714464.330 8     -1540.235          51.000
E15  26624111.266 6 139910714.349 6      2653.973          37.000    26624112.742 7 107204286.764 7      2033.414          45.000
E30  22465232.117 6 118055602.234 6       733.148          39.000    22465231.016 5  90458179.913 5       561.727          33.000
E36  24186216.398 8 127099459.041 8     -1754.324          51.000    24186219.430 8  97387914.088 8     -1344.204          51.000
> 2020 05 03 14 05 30.0000000  0 17        .000000000000
G18  20363106.977 8 107008891.866 8      -344.680          51.000    20363106.703 8  83383564.028 8      -268.582          49.000
G20  23446117.250 7 123210191.754 7      3219.215          46.000    23446118.750 6  96007980.873 6      2508.479          37.000
G21  20710546.898 8 108834686.419 8      -484.312          49.000    20710546.695 8  84806209.785 8      -377.386          49.000
G25  24888722.867 6 130791091.174 6     -3589.965          37.000    24888729.859 6 101915160.919 6     -2797.378          37.000
G26  20406083.039 6 107234721.457 6       867.055          41.000    20406087.008 6  83559502.535 6       675.627          41.000
G31  22837351.500 8 120011065.014 8     -2914.539          49.000    22837347.164 8  93515129.051 8     -2271.069          49.000
R11  19424544.578 8 103798872.651 8     -1172.914          51.000    19424545.914 7  80732447.873 7      -912.266          45.000
R21  19473578.141 6 104207061.022 6      -880.207          41.000    19473578.547 6  81049935.245 6      -684.605          36.000
R22  21121072.922 5 112745828.152 5      2601.680          35.000    21121079.422 6  87691192.353 6      2023.532          39.000
C05  39616309.281 5 206292517.736 5        12.871          35.000    39616309.648 6 159518462.281 6        10.055          36.000
C27  21532112.820 8 112123537.483 8       261.363          51.000
C28  23284515.180 5 121248553.315 5     -2231.316          30.000
C30  24383756.117 6 126972550.014 6      2463.180          37.000
E02  24278836.109 8 127586116.929 8     -2020.078          51.000    24278836.406 8  97760796.043 8     -1547.834          51.000
E15  26608975.672 6 139831181.281 6      2649.219          36.000    26608980.258 7 107143345.828 7      2029.948          47.000
E30  22461081.938 6 118033800.249 6       721.352          39.000    22461080.117 5  90441462.493 5       552.802          33.000
E36  24196252.852 8 127152201.004 8     -1760.926          51.000    24196255.922 8  97428326.757 8     -1349.296          51.000
> 2020 05 03 14 06  0.0000000  0 17        .000000000000
G18  20365129.414 8 107019519.846 8      -366.703          51.000    20365129.273 8  83391845.583 8      -285.740          50.000
G20  23427756.125 7 123113699.842 7      3210.574          45.000    23427756.914 6  95932792.472 6      2501.749          37.000
G21  20713356.195 8 108849448.868 8      -502.934          49.000    20713355.461 8  84817712.992 8      -391.896          49.000
G26  20401179.555 7 107208951.617 7       847.773          44.000    20401182.414 7  83539422.125 7       660.603          44.000
G29  22456665.891 5 118010522.872 5     -2544.086          35.000    22456639.578 5  91956188.235 5     -1982.395          34.000
G31  22854017.398 7 120098647.236 7     -2927.336          47.000    22854012.320 7  93583374.873 7     -2281.044          47.000
R11  19431204.438 8 103834458.976 8     -1202.613          51.000    19431205.500 7  80760126.071 7      -935.369          45.000
R21  19478556.742 7 104233705.169 7      -899.262          43.000    19478558.109 6  81070658.499 6      -699.426          38.000
R22  21106486.281 6 112667978.671 6      2585.461          37.000    21106496.398 6  87630642.832 6      2010.914          39.000
C05  39616236.219 5 206292136.640 5         9.301          35.000    39616236.477 6 159518167.610 6         7.135          36.000
C27  21530637.219 8 112115853.486 8       248.047          51.000
C28  23297378.703 6 121315549.445 6     -2238.711          37.000
C30  24369583.109 4 126898733.263 4      2454.605          27.000
E02  24290399.055 8 127646881.287 8     -2033.793          51.000    24290399.586 8  97807355.738 8     -1558.370          51.000
E15  26593865.250 6 139751787.720 6      2640.719          36.000    26593873.688 7 107082511.778 7      2023.417          47.000
E30  22457000.422 6 118012354.206 6       705.383          39.000    22456999.156 5  90425028.829 5       540.611          34.000
E36  24206326.734 8 127205139.695 8     -1771.289          51.000    24206329.695 8  97468890.168 8     -1357.248          51.000
> 2020 05 03 14 06 30.0000000  0 16        .000000000000
G18  20367262.508 8 107030729.342 8      -382.043          51.000    20367262.438 8  83400580.265 8      -297.696          50.000
G20  23409428.086 7 123017383.563 7      3208.844          44.000    23409426.516 5  95857740.919 5      2500.401          35.000
G21  20716256.797 8 108864691.255 8      -514.773          49.000    20716255.742 8  84829590.187 8      -401.122          49.000
G26  20396371.312 7 107183681.940 7       835.094          45.000    20396373.484 7  83519731.481 7       650.722          45.000
G31  22870740.766 7 120186534.481 7     -2933.305          45.000    22870736.570 7  93651858.391 7     -2285.692          45.000
R11  19438015.898 8 103870856.842 8     -1225.492          51.000    19438017.227 7  80788435.463 7      -953.164          46.000
R21  19483627.461 6 104260838.047 6      -911.402          40.000    19483628.430 6  81091761.818 6      -708.868          37.000
R22  21091981.430 6 112590550.776 6      2575.086          39.000    21091992.133 6  87570421.109 6      2002.845          40.000
C05  39616169.625 5 206291789.292 5        12.727          35.000    39616169.891 6 159517898.236 6         9.361          36.000
C27  21529224.141 8 112108494.983 8       241.094          50.000
C28  23310275.703 4 121382706.761 4     -2240.477          29.000
C30  24355453.578 5 126825254.173 5      2452.656          33.000
E02  24302025.203 8 127707978.500 8     -2040.973          51.000    24302026.789 8  97854170.468 8     -1563.766          51.000
E15  26578789.227 5 139672570.282 5      2639.059          35.000    26578799.477 7 107021812.724 7      2022.010          46.000
E30  22452994.008 6 117991301.292 6       696.504          41.000    22452992.883 5  90408897.340 5       533.652          33.000
E36  24216444.750 8 127258309.872 8     -1774.883          51.000    24216447.570 8  97509630.943 8     -1359.969          51.000
> 2020 05 03 14 07  0.0000000  0 16        .000000000000
G18  20369488.469 8 107042426.220 8      -399.395          51.000    20369488.500 8  83409694.733 8      -311.217          50.000
G20  23391115.992 7 122921152.954 7      3204.844          43.000    23391111.945 5  95782756.118 5      2497.284          35.000
G21  20719230.953 8 108880319.803 8      -528.703          49.000    20719229.781 8  84841768.270 8      -411.976          49.000
G26  20391640.719 7 107158820.740 7       820.586          44.000    20391642.633 7  83500359.123 7       639.418          44.000
G31  22887504.031 7 120274630.766 7     -2941.418          44.000    22887501.680 7  93720504.804 7     -2292.014          44.000
R11  19444961.414 8 103907970.379 8     -1250.438          51.000    19444963.281 7  80817301.522 7      -972.562          47.000
R21  19488770.172 6 104288362.971 6      -925.426          41.000    19488771.070 6  81113170.074 6      -719.779          37.000
R22  21077539.484 7 112513450.360 7      2563.184          43.000    21077548.203 6  87510454.160 6      1993.587          39.000
C05  39616091.508 5 206291383.486 5        12.973          35.000    39616091.883 6 159517582.879 6        10.197          36.000
C27  21527855.648 8 112101369.168 8       232.391          51.000
C28  23323187.102 5 121449932.231 5     -2243.355          32.000
C30  24341327.938 5 126751719.169 5      2448.023          35.000
E02  24313696.828 8 127769314.709 8     -2049.891          51.000    24313699.523 8  97901168.341 8     -1570.677          51.000
E15  26563729.664 5 139593436.522 5      2634.590          35.000    26563739.672 7 106961177.828 7      2019.011          45.000
E30  22449045.148 6 117970549.380 6       685.387          41.000    22449041.523 5  90392991.525 5       525.292          31.000
E36  24226588.781 8 127311617.075 8     -1780.520          51.000    24226591.641 8  97550476.722 8     -1364.300          51.000
> 2020 05 03 14 07 30.0000000  0 15        .000000000000
G18  20371828.156 8 107054720.712 8      -417.688          51.000    20371827.992 8  83419274.871 8      -325.468          50.000
G20  23372842.133 7 122825122.279 7      3199.840          45.000    23372837.328 6  95707927.111 6      2493.385          36.000
G21  20722299.484 8 108896444.201 8      -543.656          50.000    20722298.172 8  84854332.734 8      -423.628          50.000
G26  20387009.094 7 107134480.519 7       804.672          45.000    20387011.141 7  83481392.709 7       627.017          45.000
G31  22904328.336 7 120363044.664 7     -2950.531          44.000    22904327.961 7  93789398.711 7     -2299.115          44.000
R11  19452061.281 8 103945912.056 8     -1276.434          48.000    19452063.812 7  80846811.689 7      -992.782          47.000
R21  19494008.023 7 104316390.858 7      -940.543          42.000    19494009.359 6  81134969.519 6      -731.530          37.000
R22  21063180.703 7 112436791.266 7      2550.043          43.000    21063186.344 6  87450830.526 6      1983.370          39.000
C05  39616023.070 5 206291027.341 5        13.129          35.000    39616023.414 6 159517306.717 6        10.128          36.000
C27  21526552.938 8 112094585.706 8       222.477          51.000
C30  24327237.734 6 126678389.520 6      2442.973          39.000
E02  24325435.109 8 127831000.389 8     -2059.949          51.000    24325438.531 8  97948433.966 8     -1578.400          51.000
E15  26548708.164 6 139514498.279 6      2630.125          39.000    26548716.062 7 106900692.763 7      2015.279          44.000
E30  22445175.156 6 117950210.748 6       673.047          41.000    22445168.430 5  90377392.396 5       515.738          31.000
E36  24236779.789 8 127365171.208 8     -1787.195          51.000    24236782.820 8  97591511.705 8     -1369.442          51.000
> 2020 05 03 14 08  0.0000000  0 16        .000000000000
G18  20374273.766 8 107067572.324 8      -438.211          51.000    20374273.570 8  83429289.120 8      -341.463          51.000
G20  23354599.344 7 122729254.749 7      3192.414          45.000    23354595.656 6  95633225.223 6      2487.598          40.000
G21  20725454.719 8 108913023.743 8      -560.789          51.000    20725453.125 8  84867251.862 8      -436.978          51.000
G26  20382469.234 7 107110623.197 7       786.629          46.000    20382471.516 7  83462802.590 7       612.958          45.000
G31  22921205.477 7 120451733.731 7     -2961.520          45.000    22921206.688 7  93858507.059 7     -2307.681          45.000
R11  19459307.883 7 103984640.243 7     -1304.617          47.000    19459311.312 8  80876933.628 8     -1014.702          48.000
R21  19499331.953 6 104344879.861 6      -957.777          41.000    19499332.945 5  81157127.632 5      -744.938          35.000
R22  21048897.445 6 112360533.891 6      2534.609          41.000    21048901.625 6  87391519.258 6      1971.366          41.000
C05  39615956.742 5 206290681.823 5        10.523          35.000    39615957.188 6 159517042.510 6         8.427          36.000
C27  21525308.430 8 112088105.014 8       210.418          51.000
C28  23349102.055 5 121584911.905 5     -2253.516          30.000
C30  24313180.914 6 126605226.550 6      2435.652          41.000
E02  24337232.398 8 127892995.325 8     -2072.281          51.000    24337235.945 8  97995936.558 8     -1587.804          51.000
E15  26533717.422 7 139435716.896 7      2622.793          42.000    26533722.398 7 106840327.837 7      2009.762          43.000
E30  22441376.117 6 117930246.935 6       658.648          41.000    22441369.852 5  90362094.420 5       505.026          33.000
E36  24247010.023 8 127418931.494 8     -1796.031          51.000    24247013.359 8  97632704.641 8     -1376.123          51.000
> 2020 05 03 14 08 30.0000000  0 16        .000000000000
G18  20376818.625 8 107080945.266 8      -453.238          51.000    20376818.648 8  83439709.604 8      -353.170          51.000
G20  23336381.383 7 122633518.364 7      3190.145          46.000    23336379.516 7  95558625.501 7      2485.830          42.000
G21  20728689.664 8 108930022.254 8      -572.477          51.000    20728687.992 8  84880497.456 8      -446.083          51.000
G26  20378014.812 7 107087215.311 7       773.855          46.000    20378017.000 7  83444562.671 7       603.007          46.000
G31  22938128.117 7 120540660.278 7     -2967.105          46.000    22938130.266 7  93927800.424 7     -2312.030          45.000
R11  19466694.656 7 104024118.658 7     -1327.309          47.000    19466699.297 8  80907639.091 8     -1032.351          48.000
R21  19504735.086 7 104373792.308 7      -969.852          43.000    19504735.500 5  81179615.094 5      -754.329          35.000
R22  21034682.828 6 112284643.531 6      2524.734          36.000    21034685.875 6  87332493.473 6      1963.685          40.000
C05  39615885.938 5 206290313.363 5        14.312          35.000    39615886.555 6 159516757.627 6        10.868          36.000
C27  21524115.391 8 112081892.086 8       203.781          51.000
C28  23362097.930 6 121652553.588 6     -2255.402          36.000
C30  24299152.219 6 126532196.022 6      2433.133          41.000
E02  24349081.750 8 127955263.927 8     -2078.992          51.000    24349084.969 8  98043648.858 8     -1592.958          51.000
E15  26518750.281 7 139357058.122 7      2621.258          44.000    26518753.055 7 106780056.867 7      2008.377          43.000
E30  22437641.133 6 117910624.163 6       649.492          40.000    22437637.648 5  90347058.815 5       497.672          35.000
E36  24257272.633 8 127472861.785 8     -1799.230          51.000    24257276.289 8  97674027.850 8     -1378.640          51.000
> 2020 05 03 14 09  0.0000000  0 17        .000000000000
G18  20379462.586 8 107094839.510 8      -472.832          51.000    20379462.688 8  83450536.306 8      -368.441          51.000
G20  23318188.961 7 122537917.414 7      3183.348          47.000    23318188.789 7  95484131.308 7      2480.531          42.000
G21  20732004.195 8 108947439.294 8      -588.488          51.000    20732002.734 8  84894069.188 8      -458.562          51.000
G26  20373646.336 7 107064259.194 7       756.613          47.000    20373648.367 7  83426674.778 7       589.569          47.000
G31  22955095.781 7 120629822.873 7     -2976.977          45.000    22955098.531 7  93997277.730 7     -2319.722          45.000
R10  22821652.508 5 121652241.201 5     -4392.582          32.000
R11  19474222.859 8 104064347.023 8     -1354.523          51.000    19474227.602 8  80938927.802 8     -1053.518          48.000
R21  19510217.375 6 104403127.242 6      -985.848          40.000    19510217.336 6  81202431.164 6      -766.770          36.000
R22  21020526.898 4 112208970.926 4      2510.602          28.000    21020534.234 6  87273653.391 6      1952.687          36.000
C05  39615810.984 5 206289923.121 5        12.125          35.000    39615811.688 6 159516455.867 6         9.466          36.000
C27  21522973.562 8 112075947.396 8       192.727          50.000
C28  23375116.508 6 121720296.828 6     -2260.566          37.000
C30  24285150.984 6 126459299.197 6      2426.801          41.000
E02  24360983.109 8 128017806.464 8     -2090.359          51.000    24360985.820 8  98091571.069 8     -1601.722          51.000
E15  26503806.758 7 139278523.695 7      2614.758          47.000    26503808.508 7 106719881.153 7      2003.501          43.000
E30  22433971.414 6 117891344.510 6       635.902          40.000    22433970.336 6  90332286.059 6       487.109          36.000
E36  24267567.539 8 127526961.814 8     -1807.180          51.000    24267571.367 8  97715481.110 8     -1384.701          51.000
> 2020 05 03 14 09 30.0000000  0 17        .000000000000
G18  20382212.227 8 107109289.285 8      -490.844          51.000    20382212.258 8  83461795.875 8      -382.476          51.000
G20  23300029.453 7 122442489.742 7      3178.055          47.000    23300030.641 7  95409772.151 7      2476.409          44.000
G21  20735404.789 8 108965309.014 8      -603.094          51.000    20735403.289 8  84907993.649 8      -469.943          51.000
G26  20369370.805 8 107041791.462 8       740.781          48.000    20369372.930 7  83409167.452 7       577.232          47.000
G31  22972114.375 7 120719253.759 7     -2985.500          43.000    22972117.836 7  94066964.093 7     -2326.364          42.000
R10  22846390.375 5 121784108.373 5     -4399.000          34.000
R11  19481898.805 8 104105360.358 8     -1380.066          51.000    19481902.891 8  80970827.036 8     -1073.385          49.000
R21  19515784.031 6 104432918.615 6     -1000.520          40.000    19515785.133 6  81225602.263 6      -778.182          37.000
R22  21006466.352 6 112133854.442 6      2497.125          36.000    21006458.195 5  87215229.415 5      1942.214          33.000
C05  39615738.500 6 206289545.541 6        12.395          36.000    39615739.297 6 159516165.283 6         9.503          36.000
C27  21521889.781 8 112070305.406 8       183.086          50.000
C28  23388155.688 5 121788175.886 5     -2264.625          31.000
C30  24271183.969 6 126386571.448 6      2421.402          37.000
E02  24372943.023 8 128080657.469 8     -2100.219          51.000    24372945.344 8  98139729.619 8     -1609.169          51.000
E15  26488893.648 7 139200149.450 7      2609.918          47.000    26488895.148 7 106659828.205 7      1999.676          44.000
E30  22430375.258 7 117872444.170 7       623.625          43.000    22430374.789 6  90317803.982 6       477.678          36.000
E36  24277901.141 8 127581265.593 8     -1813.543          51.000    24277904.906 8  97757090.491 8     -1389.556          51.000
> 2020 05 03 14 10  0.0000000  0 17        .000000000000
G18  20385069.242 8 107124303.781 8      -509.262          51.000    20385069.492 8  83473495.486 8      -396.827          50.000
G20  23281905.320 7 122347248.939 7      3172.141          47.000    23281907.516 7  95335558.593 7      2471.798          44.000
G21  20738893.164 8 108983640.466 8      -618.246          51.000    20738891.602 8  84922277.906 8      -481.747          51.000
G26  20365190.391 8 107019823.640 8       724.484          48.000    20365192.398 8  83392049.663 8       564.533          48.000
G31  22989184.922 6 120808960.278 6     -2993.996          41.000    22989189.297 6  94136865.283 6     -2332.984          41.000
R10  22871170.438 5 121916189.001 5     -4405.414          32.000
R11  19489723.359 8 104147167.605 8     -1406.223          51.000    19489726.586 8  81003343.757 8     -1093.729          49.000
R21  19521438.117 6 104463174.951 6     -1015.566          39.000    19521440.148 6  81249134.961 6      -789.885          37.000
R22  20992472.148 6 112059153.822 6      2483.727          36.000    20992466.438 5  87157129.075 5      1931.793          35.000
C05  39615670.508 5 206289191.712 5        11.789          35.000    39615671.359 6 159515891.675 6         9.306          36.000
C27  21520866.133 8 112064975.738 8       173.082          50.000
C28  23401217.758 5 121856199.970 5     -2269.906          34.000
C30  24257253.477 5 126314023.168 5      2415.797          35.000
E02  24384963.227 8 128143826.400 8     -2110.273          50.000    24384965.766 8  98188131.759 8     -1617.026          51.000
E15  26474012.758 7 139121946.280 7      2604.531          46.000    26474014.648 7 106599906.349 7      1995.638          45.000
E30  22426853.695 7 117853934.411 7       610.988          44.000    22426853.516 6  90303621.168 6       468.184          38.000
E36  24288275.180 8 127635782.031 8     -1820.195          51.000    24288278.750 8  97798862.813 8     -1394.689          51.000
> 2020 05 03 14 10 30.0000000  0 17        .000000000000
G18  20388018.500 8 107139802.851 8      -511.848          50.000    20388018.883 8  83485572.684 8      -398.842          50.000
G20  23263802.234 7 122252118.638 7      3181.965          47.000    23263804.953 7  95261431.147 7      2479.453          44.000
G21  20742454.102 8 109002353.224 8      -617.293          51.000    20742452.711 8  84936859.297 8      -481.008          51.000
G26  20361090.359 8 106998277.946 8       724.027          49.000    20361092.000 8  83375260.826 8       564.177          49.000
G29  22588251.172 6 118702024.350 6     -2566.293          38.000    22588247.180 5  92495095.346 5     -1999.709          35.000
G31  23006292.359 7 120898860.646 7     -2986.992          43.000    23006297.039 7  94206917.512 7     -2327.526          44.000
R10  22895974.898 4 122048399.562 4     -4395.672          28.000
R11  19497681.180 8 104189687.317 8     -1416.047          51.000    19497683.484 8  81036414.636 8     -1101.370          49.000
R21  19527163.602 6 104493813.658 6     -1014.344          41.000    19527166.211 6  81272965.058 6      -788.934          37.000
R22  20978539.234 6 111984789.668 6      2486.664          36.000    20978536.234 5  87099290.383 5      1934.075          35.000
C05  39615591.906 5 206288782.433 5        27.199          35.000    39615592.797 6 159515575.604 6        21.026          36.000
C27  21519887.297 8 112059879.544 8       178.723          50.000
C28  23414295.484 6 121924289.492 6     -2257.805          36.000
E02  24397028.836 8 128207233.440 8     -2104.672          51.000    24397031.680 8  98236716.325 8     -1612.668          51.000
E15  26459149.055 7 139043835.777 7      2615.027          47.000    26459151.484 7 106540055.515 7      2003.707          45.000
E30  22423391.406 7 117835737.170 7       614.172          45.000    22423391.625 6  90289677.855 6       470.453          39.000
E36  24298674.445 8 127690430.779 8     -1811.004          51.000    24298677.906 8  97840736.518 8     -1387.634          51.000
> 2020 05 03 14 11  0.0000000  0 15        .000000000000
G18  20391082.375 8 107155903.684 8      -552.562          50.000    20391082.484 8  83498118.798 8      -430.568          50.000
G20  23245743.422 7 122157220.231 7      3153.711          46.000    23245746.180 7  95187484.355 7      2457.437          44.000
G21  20746109.766 8 109021564.317 8      -654.590          50.000    20746108.328 8  84951828.998 8      -510.070          50.000
G26  20357093.391 8 106977274.018 8       685.258          49.000    20357094.688 8  83358894.127 8       533.967          49.000
G31  23023458.969 7 120989070.345 7     -3017.867          45.000    23023463.156 7  94277210.708 7     -2351.588          45.000
R11  19505794.266 8 104233038.500 8     -1464.871          51.000    19505796.078 8  81070132.196 8     -1139.344          49.000
R21  19532983.820 6 104524953.128 6     -1052.500          38.000    19532985.438 6  81297184.624 6      -818.611          36.000
R22  20964691.836 6 111910882.457 6      2450.453          37.000    20964688.828 5  87041807.074 5      1905.911          33.000
C05  39615525.383 5 206288434.864 5         4.504          35.000    39615526.336 6 159515307.592 6         3.887          36.000
C27  21518975.578 8 112055133.544 8       146.504          50.000
C28  23427406.570 6 121992560.880 6     -2284.336          36.000
E02  24409162.570 8 128270996.057 8     -2137.094          51.000    24409165.383 8  98285573.369 8     -1637.567          51.000
E15  26444325.219 7 138965936.886 7      2587.273          47.000    26444328.297 7 106480366.817 7      1982.363          45.000
E30  22420011.094 7 117817971.786 7       579.172          43.000    22420011.555 6  90276065.408 6       443.688          39.000
E36  24309121.242 8 127745328.857 8     -1839.910          51.000    24309124.742 8  97882801.265 8     -1409.759          51.000
> 2020 05 03 14 11 30.0000000  0 16        .000000000000
G18  20394259.531 8 107172599.458 8      -562.660          51.000    20394259.602 8  83511128.499 8      -438.436          50.000
G20  23227728.234 7 122062550.929 7      3155.812          46.000    23227731.148 7  95113716.087 7      2459.072          44.000
G21  20749858.836 8 109041266.444 8      -660.949          50.000    20749857.180 8  84967181.309 8      -515.025          50.000
G26  20353198.625 8 106956807.385 8       677.188          49.000    20353199.703 8  83342946.117 8       527.679          49.000
G31  23040683.031 7 121079580.893 7     -3018.094          47.000    23040685.961 7  94347738.307 7     -2351.764          47.000
R11  19514061.016 8 104277213.916 8     -1482.340          51.000    19514062.930 8  81104490.827 8     -1152.931          49.000
R21  19538894.383 6 104556585.543 6     -1058.828          40.000    19538896.656 6  81321787.679 6      -823.530          36.000
R22  20950931.266 5 111837427.207 5      2445.125          35.000    20950929.938 5  86984675.272 5      1901.764          35.000
C05  39615469.609 5 206288144.976 5        12.395          35.000    39615470.625 6 159515083.456 6         9.738          36.000
C27  21518130.125 8 112050731.543 8       144.770          51.000
C28  23440547.820 6 122061007.662 6     -2280.812          36.000
C30  24215643.602 6 126097190.781 6      2401.070          38.000
E02  24421362.922 8 128335107.787 8     -2139.035          51.000    24421365.438 8  98334697.919 8     -1638.968          51.000
E15  26429540.609 7 138888244.512 7      2590.160          47.000    26429544.422 7 106420836.376 7      1984.674          45.000
E30  22416711.742 7 117800633.525 7       574.828          44.000    22416712.672 6  90262780.265 6       440.447          39.000
E36  24319614.188 8 127800469.257 8     -1838.133          51.000    24319617.734 8  97925051.701 8     -1408.433          51.000
> 2020 05 03 14 12  0.0000000  0 17        .000000000000
G18  20397529.461 8 107189782.593 8      -580.293          51.000    20397529.523 8  83524517.967 8      -452.176          50.000
G20  23209737.125 7 121968007.288 7      3149.750          47.000    23209740.023 7  95040045.760 7      2454.351          44.000
G21  20753680.875 8 109061351.923 8      -675.449          48.000    20753679.227 8  84982832.343 8      -526.324          48.000
G26  20349386.078 8 106936772.893 8       661.156          49.000    20349387.148 8  83327334.821 8       515.187          49.000
G29  22632571.609 6 118934958.372 6     -2593.492          36.000
G31  23057943.703 7 121170282.723 7     -3026.004          47.000    23057944.930 7  94418414.980 7     -2357.928          47.000
R11  19522461.344 8 104322104.001 8     -1507.605          51.000    19522463.562 8  81139405.338 8     -1172.582          49.000
R21  19544877.156 6 104588600.565 6     -1073.180          37.000    19544879.352 5  81346688.227 5      -834.692          35.000
R22  20937238.188 5 111764316.114 5      2432.145          34.000    20937236.375 6  86927811.246 6      1891.668          36.000
C05  39615404.648 5 206287806.288 5        12.750          35.000    39615405.578 6 159514821.590 6         9.518          36.000
C27  21517330.570 8 112046567.564 8       135.395          51.000
C28  23453704.891 5 122129523.278 5     -2284.613          32.000
C30  24201840.180 6 126025285.189 6      2395.586          40.000
E02  24433609.328 8 128399461.377 8     -2148.594          51.000    24433611.531 8  98384007.791 8     -1646.313          51.000
E15  26414775.062 7 138810652.877 7      2585.227          47.000    26414780.164 7 106361383.125 7      1980.903          46.000
E30  22413473.703 7 117783616.909 7       562.352          44.000    22413475.609 6  90249741.559 6       430.779          41.000
E36  24330132.742 8 127855744.280 8     -1844.219          51.000    24330136.188 8  97967405.277 8     -1413.121          51.000
> 2020 05 03 14 12 30.0000000  0 17        .000000000000
G18  20400896.141 8 107207474.113 8      -599.484          51.000    20400895.812 8  83538303.552 8      -467.131          50.000
G20  23191774.867 7 121873614.509 7      3142.547          46.000    23191777.859 7  94966492.973 7      2448.738          44.000
G21  20757579.727 8 109081841.442 8      -690.938          48.000    20757578.180 8  84998798.211 8      -538.393          48.000
G26  20345660.250 8 106917193.883 8       643.770          49.000    20345661.672 8  83312078.443 8       501.642          49.000
G29  22647396.125 5 119012856.075 5     -2599.672          35.000    22647420.828 5  92737373.080 5     -2025.724          31.000
G31  23075244.672 7 121261195.506 7     -3035.004          46.000    23075244.227 7  94489256.042 7     -2364.941          46.000
R10  22995575.703 5 122579377.427 5     -4435.977          30.000
R11  19530999.312 8 104367729.888 8     -1534.430          51.000    19531001.867 8  81174892.117 8     -1193.445          49.000
R21  19550934.023 6 104621018.703 6     -1088.578          39.000    19550937.203 5  81371902.322 5      -846.672          35.000
C05  39615334.430 5 206287440.803 5        11.203          35.000    39615335.398 6 159514538.931 6         8.763          36.000
C27  21516580.820 8 112042662.959 8       124.500          50.000
C28  23466876.711 5 122198128.841 5     -2289.398          35.000
C30  24188058.328 6 125953510.287 6      2388.965          40.000
E02  24445906.047 8 128464078.127 8     -2159.602          51.000    24445907.953 8  98433519.299 8     -1654.808          51.000
E15  26400032.953 7 138733184.684 7      2578.781          47.000    26400039.828 7 106302024.441 7      1976.054          47.000
E30  22410301.078 7 117766945.014 7       548.473          45.000    22410304.828 7  90236966.967 7       420.330          42.000
E36  24340680.852 8 127911174.731 8     -1851.688          51.000    24340684.055 8  98009877.942 8     -1418.831          51.000
> 2020 05 03 14 13  0.0000000  0 17        .000000000000
G18  20404368.234 8 107225720.295 8      -617.715          51.000    20404368.078 8  83552521.359 8      -481.336          51.000
G20  23173850.953 7 121779422.707 7      3136.215          47.000    23173853.695 7  94893096.793 7      2443.804          44.000
G21  20761564.398 8 109102781.306 8      -705.656          48.000    20761562.664 8  85015114.980 8      -549.862          48.000
G26  20342030.398 8 106898119.089 8       627.211          49.000    20342032.195 8  83297214.966 8       488.736          49.000
G29  22662246.219 5 119090904.985 5     -2603.992          31.000
G31  23092594.195 7 121352363.741 7     -3043.617          43.000    23092592.461 7  94560296.169 7     -2371.650          42.000
R11  19539683.992 8 104414138.363 8     -1560.285          51.000    19539686.664 8  81210987.561 8     -1213.558          49.000
R21  19557076.492 6 104653886.342 6     -1103.270          38.000    19557080.148 5  81397465.982 5      -858.105          34.000
R22  20910060.836 6 111619289.145 6      2403.902          41.000    20910059.000 5  86815027.009 5      1869.702          34.000
C05  39615268.055 5 206287095.509 5        11.051          35.000    39615269.039 6 159514271.944 6         8.403          36.000
C27  21515890.016 8 112039064.298 8       114.629          51.000
C28  23480076.133 5 122266870.380 5     -2294.477          32.000
C30  24174308.961 6 125881913.475 6      2383.520          40.000
E02  24458261.602 8 128529004.722 8     -2169.648          51.000    24458263.320 8  98483268.230 8     -1662.452          51.000
E15  26385323.617 8 138655888.044 8      2573.391          48.000    26385332.219 7 106242797.208 7      1971.792          47.000
E30  22407203.383 7 117750666.256 7       535.719          45.000    22407208.086 7  90224493.625 7       410.462          42.000
E36  24351267.383 8 127966806.822 8     -1858.043          51.000    24351270.352 8  98052505.129 8     -1423.698          50.000
> 2020 05 03 14 13 30.0000000  0 18        .000000000000
G18  20407945.812 8 107244520.748 8      -635.371          51.000    20407945.820 8  83567171.061 8      -495.094          50.000
G20  23155966.109 7 121685435.656 7      3129.957          46.000    23155967.914 7  94819860.158 7      2438.928          42.000
G21  20765634.406 8 109124170.404 8      -719.984          48.000    20765632.789 8  85031781.811 8      -561.027          48.000
G26  20338496.922 8 106879550.583 8       611.094          49.000    20338499.047 8  83282745.968 8       476.174          49.000
G29  22677128.031 5 119169100.380 5     -2608.250          34.000    22677147.938 5  92859131.773 5     -2032.415          34.000
G31  23109991.656 6 121443785.354 6     -3050.797          37.000    23109989.383 6  94631533.738 6     -2377.244          37.000
R10  23045568.203 5 122845835.706 5     -4446.852          31.000
R11  19548515.195 8 104461328.883 8     -1585.477          51.000    19548517.633 8  81247691.289 8     -1233.148          48.000
R21  19563302.195 5 104687201.902 5     -1117.430          33.000    19563305.906 5  81423378.129 5      -869.106          34.000
R22  20896592.156 6 111547378.710 6      2390.676          40.000    20896589.406 5  86759096.724 5      1859.414          33.000
C05  39615205.719 5 206286771.286 5        11.223          35.000    39615206.875 6 159514021.246 6         8.316          36.000
C27  21515258.281 8 112035771.882 8       105.281          51.000
C28  23493289.898 5 122335717.961 5     -2297.578          35.000
C30  24160591.438 6 125810495.927 6      2378.348          37.000
E02  24470675.578 8 128594241.135 8     -2179.180          51.000    24470677.805 8  98533254.537 8     -1669.710          51.000
E15  26370647.352 8 138578764.394 8      2568.371          48.000    26370657.188 7 106183702.481 7      1968.041          47.000
E30  22404180.789 7 117734782.409 7       523.461          45.000    22404185.094 7  90212322.882 7       401.156          42.000
E36  24361892.109 8 128022640.073 8     -1863.801          51.000    24361895.172 8  98095286.457 8     -1428.113          50.000
> 2020 05 03 14 14  0.0000000  0 16        .000000000000
G18  20411628.859 8 107263875.657 8      -654.840          51.000    20411628.836 8  83582252.795 8      -510.265          51.000
G20  23138120.711 7 121591658.026 7      3121.867          44.000    23138121.367 6  94746786.711 6      2432.627          41.000
G21  20769790.102 8 109146009.177 8      -735.930          49.000    20769788.703 8  85048799.039 8      -573.452          49.000
G26  20335060.328 8 106861490.856 8       592.984          50.000    20335062.477 8  83268673.447 8       462.066          50.000
