     3.02           OBSERVATION DATA    M (MIXED)           RINEX VERSION / TYPE
SAVERINEX           SC600               20200512 045930 LCL PGM / RUN BY / DATE
       G = GPS       R = GLONASS       C = COMPASS          COMMENT
       S = SBAS      J = QZSS          E = GALILEO          COMMENT
BEAN                                                        MARKER NAME
1                                                           MARKER NUMBER
GEODETIC                                                    MARKER TYPE
Unige DICCA         GTER                                    OBSERVER / AGENCY
SC60291900056       SC600               2.12(191226)        REC # / TYPE / VERS
                    HEMA45          NONE                    ANT # / TYPE
  4509407.8091   693652.4678  4442337.6214                  APPROX POSITION XYZ
        0.0000        0.0000        0.0000                  ANTENNA: DELTA H/E/N
G    8 C1C L1C D1C S1C C2Y L2Y D2Y S2Y                      SYS / # / OBS TYPES
R    8 C1C L1C D1C S1C C2P L2P D2P S2P                      SYS / # / OBS TYPES
C    8 C1I L1I D1I S1I C7I L7I D7I S7I                      SYS / # / OBS TYPES
E    8 C1C L1C D1C S1C C7Q L7Q D7Q S7Q                      SYS / # / OBS TYPES
DBHZ                                                        COMMENT
     30.000                                                 INTERVAL
  2020    05    12    02    00    0.0000000     GPS         TIME OF FIRST OBS
  2020    05    12    02    59   30.0000000     GPS         TIME OF LAST OBS
     0                                                      RCV CLOCK OFFS APPL
G L1C  0.00000                                              SYS / PHASE SHIFT
G L2Y  0.00000                                              SYS / PHASE SHIFT
R L1C  0.00000                                              SYS / PHASE SHIFT
R L2P  0.25000                                              SYS / PHASE SHIFT
C L1I  0.00000                                              SYS / PHASE SHIFT
C L7I  0.00000                                              SYS / PHASE SHIFT
E L1C  0.50000                                              SYS / PHASE SHIFT
E L7Q -0.25000                                              SYS / PHASE SHIFT
 13 R01  1 R02 -4 R03  5 R04  6 R05  1 R10 -5 R12 -1 R13 -2 GLONASS SLOT / FRQ #
    R14 -7 R15  0 R17  4 R18 -3 R19  3                      GLONASS SLOT / FRQ #
 C1C   71.950 C2C   71.950 C2P   71.950                     GLONASS COD/PHS/BIS
    18                                                      LEAP SECONDS
*** Above antenna height is from mark to ANTENNA BOTTOM.    COMMENT
    17     4        0.0000        ANT MEASURE TYPE/HEIGT    COMMENT
    0.0000    0.0000    0.0458    0.0405    0.0000          COMMENT
                    BASE STATION                            COMMENT
                                                            END OF HEADER
> 2020 05 12 02 00  0.0000000  0 13        .000000000000
G02  23134227.766 8 121571184.277 8     -1974.922          48.000    23134226.297 8  94730793.609 8     -1538.903          48.000
G07  20907207.922 8 109868122.604 8      -811.758          51.000    20907206.688 8  85611522.983 8      -632.539          51.000
G30  20693720.391 8 108746262.570 8      1370.410          51.000    20693722.094 8  84737371.932 8      1067.852          51.000
R04  19611662.672 8 105019546.556 8      -658.918          51.000    19611663.992 8  81681908.014 8      -512.492          49.000
R14  19562636.875 8 104279922.751 8       -63.629          51.000    19562639.625 8  81106613.742 8       -49.489          50.000
R15  21049391.859 7 112481572.333 7      3734.391          46.000    21049395.148 7  87485689.961 7      2904.523          47.000
C05  39796845.977 6 207232618.546 6        -9.496          36.000    39796842.961 6 160245392.767 6        -7.264          40.000
C19  22736525.891 8 118395049.351 8     -1967.707          51.000
C22  21980414.594 7 114457769.601 7       844.164          44.000
E03  23469608.586 8 123333638.375 8       390.980          51.000    23469610.539 8  94502371.124 8       299.609          51.000
E05                                                                  25182067.742 6 101397740.465 6     -1325.686          36.000
E15  26563296.477 7 139591061.759 7     -2533.547          47.000    26563299.070 8 106959397.047 8     -1941.277          49.000
E25  24784429.516 8 130243095.026 8      1914.258          51.000    24784430.023 8  99796661.140 8      1466.757          51.000
> 2020 05 12 02 00 30.0000000  0 14        .000000000000
G02  23145536.500 8 121630611.839 8     -1985.582          50.000    23145535.461 7  94777100.794 7     -1547.207          47.000
G07  20911882.516 8 109892687.580 8      -824.527          51.000    20911881.062 8  85630664.531 8      -642.489          51.000
G30  20685941.375 8 108705384.219 8      1356.145          51.000    20685943.422 8  84705518.677 8      1056.736          51.000
R03  22705174.633 5 121542563.421 5     -3142.418          31.000
R04  19615396.000 8 105039536.957 8      -672.332          51.000    19615397.156 8  81697456.096 8      -522.925          49.000
R14  19563071.164 8 104282237.667 8       -89.277          51.000    19563073.695 8  81108414.235 8       -69.438          50.000
R15  21028466.758 7 112369759.746 7      3721.094          46.000    21028471.070 7  87398724.581 7      2894.184          47.000
C05  39796899.820 6 207232899.291 6        -7.898          36.000    39796896.883 6 160245609.870 6        -6.322          40.000
C19  22747889.164 8 118454218.955 8     -1975.602          51.000
C22  21975581.391 7 114432602.413 7       835.012          45.000
E03  23467392.633 8 123321993.958 8       386.594          51.000    23467394.648 8  94493448.789 8       296.251          51.000
E05                                                                  25191954.195 6 101437559.723 6     -1327.886          37.000
E15  26577777.859 7 139667159.674 7     -2538.285          46.000    26577779.648 8 107017705.834 8     -1944.992          48.000
E25  24773534.820 8 130185843.914 8      1903.844          51.000    24773535.258 8  99752793.403 8      1458.801          51.000
> 2020 05 12 02 01  0.0000000  0 14        .000000000000
G02  23156908.578 8 121690372.025 8     -1998.449          51.000    23156907.352 7  94823667.157 7     -1557.233          46.000
G07  20916633.023 8 109917651.785 8      -839.738          51.000    20916631.273 8  85650117.154 8      -654.342          51.000
G30  20678246.758 8 108664949.346 8      1339.477          51.000    20678249.133 8  84674010.982 8      1043.748          51.000
R03  22722811.578 4 121636971.501 4     -3151.723          29.000
R04  19619207.828 8 105059947.892 8      -688.457          51.000    19619208.883 8  81713331.257 8      -535.467          49.000
R14  19563652.312 8 104285336.911 8      -117.363          50.000    19563655.234 8  81110824.757 8       -91.283          50.000
R15  21007621.078 7 112258369.515 7      3704.969          47.000    21007625.703 7  87312087.721 7      2881.642          47.000
C05  39796947.805 6 207233149.059 6        -9.062          36.000    39796944.773 6 160245802.975 6        -6.606          40.000
C19  22759300.875 8 118513641.203 8     -1985.871          51.000
C22  21970804.391 7 114407727.412 7       823.242          45.000
E03  23465205.305 8 123310500.115 8       379.727          51.000    23465207.312 8  94484641.828 8       290.932          51.000
E05  25201866.039 6 132436700.282 6     -1738.691          37.000    25201863.891 6 101477462.415 6     -1332.400          38.000
E15  26592289.219 7 139743415.948 7     -2545.461          45.000    26592290.242 8 107076135.949 8     -1950.457          48.000
E25  24762702.102 8 130128918.632 8      1891.129          51.000    24762702.578 8  99709175.334 8      1449.035          51.000
> 2020 05 12 02 01 30.0000000  0 14        .000000000000
G02  23168354.594 8 121750520.538 8     -2010.941          51.000    23168352.391 7  94870536.112 7     -1566.967          45.000
G07  20921470.305 8 109943072.239 8      -854.422          51.000    20921468.688 8  85669925.314 8      -665.783          50.000
G30  20670648.086 8 108625016.757 8      1323.125          51.000    20670650.172 8  84642894.665 8      1031.006          51.000
R03  22740493.977 5 121731643.428 5     -3159.039          34.000
R04  19623109.273 8 105080839.363 8      -703.934          51.000    19623110.016 8  81729580.159 8      -547.504          48.000
R14  19564391.484 8 104289279.229 8      -144.973          50.000    19564394.859 8  81113891.003 8      -112.757          50.000
R15  20986867.156 8 112147464.427 8      3689.367          49.000    20986870.938 7  87225828.253 7      2869.511          46.000
C05  39797000.906 6 207233425.547 6        -8.934          36.000    39796997.898 6 160246016.817 6        -7.252          40.000
C19  22770771.906 8 118573373.502 8     -1995.742          51.000
C22  21966094.578 7 114383203.568 7       812.199          44.000
E03  23463057.844 8 123299215.550 8       373.273          51.000    23463059.773 8  94475995.223 8       285.988          51.000
E05  25211804.469 6 132488943.891 6     -1743.641          37.000    25211805.938 6 101517493.216 6     -1336.096          37.000
E15  26606841.203 7 139819886.721 7     -2551.949          45.000    26606841.719 8 107134730.437 8     -1955.393          48.000
E25  24751942.867 8 130072378.851 8      1878.773          51.000    24751944.039 8  99665852.658 8      1439.687          51.000
> 2020 05 12 02 02  0.0000000  0 15        .000000000000
G02  23179868.656 8 121811027.868 8     -2023.191          49.000    23179865.531 7  94917684.659 7     -1576.513          46.000
G07  20926388.938 8 109968920.755 8      -869.012          51.000    20926387.359 8  85690067.017 8      -677.155          51.000
G09  22381885.469 5 117617609.800 5     -2461.395          33.000
G30  20663139.977 8 108585559.570 8      1306.961          51.000    20663141.711 8  84612148.805 8      1018.411          51.000
R03  22758219.141 5 121826550.787 5     -3167.656          33.000
R04  19627095.648 8 105102184.411 8      -719.426          51.000    19627095.953 8  81746181.857 8      -559.553          48.000
R14  19565283.383 8 104294036.053 8      -172.551          48.000    19565286.898 8  81117590.745 8      -134.206          50.000
R15  20966199.961 8 112037020.565 8      3673.430          51.000    20966202.273 7  87139927.532 7      2857.115          45.000
C05  39797053.992 6 207233701.758 6        -9.430          36.000    39797050.969 6 160246230.381 6        -7.343          40.000
C19  22782297.172 8 118633388.345 8     -2005.500          51.000
C22  21961447.289 7 114359004.906 7       800.777          45.000
E03  23460945.094 8 123288113.381 8       366.668          51.000    23460946.922 8  94467488.361 8       280.947          51.000
E05  25221771.367 6 132541327.476 6     -1748.512          38.000    25221773.992 5 101557631.316 5     -1339.990          33.000
E15  26621428.422 7 139896542.603 7     -2558.617          46.000    26621428.758 7 107193466.765 7     -1960.481          47.000
E25  24741251.984 8 130016198.611 8      1866.285          51.000    24741253.758 8  99622805.503 8      1430.011          51.000
> 2020 05 12 02 02 30.0000000  0 14        .000000000000
G02  23191448.656 8 121871881.895 8     -2033.840          48.000    23191445.219 7  94965103.385 7     -1584.810          47.000
G07  20931387.031 8 109995186.444 8      -882.195          50.000    20931385.281 8  85710533.782 8      -687.425          50.000
G30  20655720.586 8 108546568.872 8      1292.168          51.000    20655722.094 8  84581766.459 8      1006.884          51.000
R03  22775988.086 5 121921683.042 5     -3175.199          34.000
R04  19631164.359 8 105123974.119 8      -733.395          50.000    19631165.039 8  81763129.389 8      -570.418          48.000
R14  19566326.672 8 104299597.139 8      -198.434          50.000    19566330.273 8  81121916.034 8      -154.340          50.000
R15  20945617.984 8 111927031.872 8      3658.965          50.000    20945618.945 7  87054380.820 7      2845.862          45.000
C05  39797105.281 6 207233969.370 6        -8.332          36.000    39797102.180 6 160246436.539 6        -6.612          40.000
C19  22793874.969 8 118693676.033 8     -2013.848          49.000
C22  21956861.461 7 114335123.185 7       791.062          47.000
E03  23458865.477 8 123277184.593 8       361.789          51.000    23458867.070 8  94459114.357 8       277.200          51.000
E05  25231765.172 6 132593841.571 6     -1752.141          38.000    25231768.828 6 101597869.429 6     -1342.468          36.000
E15  26636048.742 7 139973371.997 7     -2563.480          46.000    26636049.273 7 107252336.048 7     -1964.264          47.000
E25  24730627.992 8 129960369.815 8      1855.516          51.000    24730630.211 8  99580027.641 8      1421.714          51.000
> 2020 05 12 02 03  0.0000000  0 14        .000000000000
G02  23203095.031 8 121933085.368 8     -2045.320          48.000    23203091.953 7  95012794.387 7     -1593.756          47.000
G07  20936465.219 8 110021873.013 8      -896.031          51.000    20936463.656 8  85731328.510 8      -698.206          51.000
G30  20648390.766 8 108508050.339 8      1276.586          51.000    20648392.250 8  84551752.038 8       994.745          51.000
R03  22793800.852 5 122017044.995 5     -3182.102          32.000    22793805.125 4  94902122.543 4     -2474.965          25.000
R04  19635317.320 8 105146214.592 8      -748.426          50.000    19635318.242 8  81780427.510 8      -582.109          48.000
R14  19567521.688 8 104305966.789 8      -225.320          50.000    19567525.391 8  81126870.201 8      -175.249          50.000
R15  20925121.891 7 111817507.301 7      3643.578          47.000    20925122.656 7  86969195.038 7      2833.894          45.000
C05  39797155.531 6 207234231.468 6        -7.750          36.000    39797152.477 6 160246639.237 6        -6.295          40.000
C19  22805505.516 8 118754241.415 8     -2023.055          49.000
C22  21952337.945 7 114311564.788 7       780.387          47.000
E03  23456820.094 8 123266434.862 8       355.824          51.000    23456821.328 8  94450877.549 8       272.603          51.000
E05  25241783.648 6 132646491.505 6     -1756.703          36.000    25241790.586 6 101638211.536 6     -1346.045          36.000
E15  26650702.719 7 140050378.014 7     -2569.418          45.000    26650703.359 7 107311340.627 7     -1968.676          47.000
E25  24720072.273 8 129904899.095 8      1843.441          51.000    24720074.398 8  99537524.120 8      1412.438          51.000
> 2020 05 12 02 03 30.0000000  0 14        .000000000000
G02  23214806.633 8 121994630.037 8     -2057.148          48.000    23214803.664 7  95060751.286 7     -1602.973          47.000
G07  20941622.195 8 110048973.272 8      -910.234          51.000    20941620.555 8  85752445.591 8      -709.274          51.000
G30  20641149.516 8 108469998.566 8      1260.621          51.000    20641150.812 8  84522101.310 8       982.302          51.000
R03  22811656.609 4 122112629.527 4     -3189.320          28.000    22811662.844 5  94976466.082 5     -2480.582          31.000
R04  19639553.695 8 105168900.595 8      -763.664          51.000    19639554.633 8  81798072.188 8      -593.961          48.000
R14  19568867.062 8 104313138.322 8      -252.332          51.000    19568870.758 8  81132448.060 8      -196.258          50.000
R15  20904711.453 7 111708444.648 7      3627.691          47.000    20904713.398 7  86884368.504 7      2821.538          45.000
C05  39797204.016 6 207234483.356 6        -8.230          36.000    39797200.867 6 160246833.970 6        -6.307          40.000
C19  22817188.367 8 118815078.223 8     -2032.449          49.000
C22  21947875.445 8 114288325.027 8       769.277          48.000
E03  23454807.789 8 123255858.754 8       349.547          51.000    23454808.734 8  94442773.774 8       267.799          51.000
E05  25251827.250 5 132699271.300 5     -1761.715          33.000    25251836.164 5 101678653.145 5     -1350.277          33.000
E15  26665388.414 7 140127552.592 7     -2575.422          45.000    26665389.266 7 107370474.387 7     -1973.372          47.000
E25  24709583.617 8 129849781.848 8      1831.332          51.000    24709585.898 8  99495291.430 8      1403.207          51.000
> 2020 05 12 02 04  0.0000000  0 13        .000000000000
G02  23226588.359 8 122056542.219 8     -2068.844          50.000    23226585.539 7  95108994.535 7     -1612.086          47.000
G07  20946863.203 8 110076514.625 8      -924.320          51.000    20946861.391 8  85773906.380 8      -720.250          51.000
G30  20634002.781 8 108432442.562 8      1244.586          51.000    20634004.047 8  84492836.889 8       969.807          51.000
R03  22829558.969 5 122208465.011 5     -3196.734          30.000    22829568.609 5  95051004.930 5     -2486.343          30.000
R04  19643878.523 8 105192061.854 8      -778.945          50.000    19643879.820 8  81816086.502 8      -605.846          48.000
R14  19570368.273 8 104321139.802 8      -279.566          51.000    19570371.961 8  81138671.446 8      -217.441          50.000
R15  20884394.164 8 111599876.317 8      3611.688          49.000    20884396.328 7  86799926.470 7      2809.090          43.000
C05  39797255.852 6 207234753.180 6        -8.168          36.000    39797252.680 6 160247042.631 6        -6.349          40.000
C19  22828928.508 8 118876214.444 8     -2041.844          49.000
C22  21943479.336 8 114265433.342 8       758.359          48.000
E03  23452833.977 8 123245485.265 8       343.496          51.000    23452834.773 8  94434825.267 8       263.174          51.000
E15  26680111.117 7 140204922.192 7     -2581.219          46.000    26680112.406 8 107429757.599 8     -1977.805          48.000
E25  24699167.844 8 129795048.000 8      1818.984          51.000    24699170.406 8  99453352.514 8      1393.740          51.000
> 2020 05 12 02 04 30.0000000  0 14        .000000000000
G02  23238433.500 8 122118787.265 8     -2079.711          50.000    23238430.523 7  95157497.162 7     -1620.554          46.000
G05  21124370.375 5 111009315.351 5      1830.969          32.000
G07  20952181.891 8 110104464.142 8      -937.867          51.000    20952180.188 8  85795685.223 8      -730.806          51.000
G09  22452539.078 5 117988888.184 5     -2488.852          33.000
G30  20626944.359 8 108395350.836 8      1229.234          51.000    20626945.797 8  84463934.265 8       957.845          51.000
R04  19648286.195 8 105215666.847 8      -793.625          51.000    19648287.922 8  81834445.929 8      -617.264          48.000
R14  19572019.117 8 104329938.122 8      -306.000          51.000    19572022.250 8  81145514.590 8      -238.000          50.000
R15  20864164.602 8 111491773.800 8      3596.277          49.000    20864165.703 6  86715846.774 6      2797.108          41.000
C05  39797305.055 6 207235009.465 6        -7.680          36.000    39797301.945 6 160247240.824 6        -5.960          40.000
C19  22840720.328 8 118937618.088 8     -2050.719          50.000
C22  21939144.062 8 114242859.318 8       747.738          48.000
E03  23450892.602 8 123235283.014 8       337.793          51.000    23450893.500 8  94427007.957 8       258.831          51.000
E15  26694864.570 7 140282452.830 7     -2586.531          46.000    26694866.438 8 107489164.195 8     -1981.861          48.000
E25  24688819.312 8 129740666.984 8      1807.441          51.000    24688822.375 8  99411683.957 8      1384.902          51.000
> 2020 05 12 02 05  0.0000000  0 15        .000000000000
G02  23250338.367 8 122181347.616 8     -2091.105          48.000    23250335.273 7  95206245.473 7     -1629.433          47.000
G06  24257562.258 5 127474350.921 5     -3490.695          31.000    24257543.094 4  99330612.939 4     -2720.013          27.000
G07  20957575.062 8 110132805.141 8      -951.758          51.000    20957573.422 8  85817769.128 8      -741.629          51.000
G09  22466762.219 5 118063630.420 5     -2494.258          31.000
G30  20619971.578 8 108358708.705 8      1213.387          51.000    20619973.195 8  84435381.982 8       945.499          51.000
R04  19652774.344 8 105239700.782 8      -808.801          51.000    19652776.281 8  81853138.978 8      -629.067          48.000
R14  19573816.086 8 104339516.654 8      -332.816          51.000    19573819.000 8  81152964.572 8      -258.854          50.000
R15  20844019.883 8 111384125.065 8      3580.066          50.000    20844018.742 6  86632120.000 6      2784.496          39.000
C05  39797348.719 6 207235237.194 6        -7.727          36.000    39797345.719 6 160247416.915 6        -6.020          40.000
C19  22852560.727 8 118999273.705 8     -2059.848          49.000
C22  21934867.125 8 114220589.075 8       736.754          48.000
E03  23448980.984 8 123225237.318 8       331.656          51.000    23448982.000 8  94419310.606 8       254.099          51.000
E05  25282122.766 5 132858451.559 5     -1775.184          34.000    25282136.766 5 101800669.072 5     -1360.023          31.000
E15  26709645.367 7 140360127.261 7     -2592.184          45.000    26709648.062 8 107548680.951 8     -1986.168          48.000
E25  24678535.258 8 129686624.990 8      1795.141          51.000    24678538.703 8  99370275.150 8      1375.527          51.000
> 2020 05 12 02 05 30.0000000  0 14        .000000000000
G02  23262312.141 7 122244271.085 7     -2103.090          47.000    23262309.492 7  95255276.716 7     -1638.771          47.000
G06  24277498.906 5 127579115.015 5     -3494.207          31.000    24277485.156 4  99412247.135 4     -2722.768          29.000
G07  20963052.000 8 110161586.595 8      -966.215          51.000    20963050.234 8  85840196.239 8      -752.895          51.000
G30  20613094.234 8 108322566.950 8      1196.828          51.000    20613095.727 8  84407219.569 8       932.593          51.000
R04  19657352.531 8 105264215.600 8      -824.660          51.000    19657354.398 8  81872206.044 8      -641.405          48.000
R14  19575769.062 8 104349925.866 8      -360.324          51.000    19575771.617 8  81161060.646 8      -280.252          50.000
R15  20823970.367 8 111276984.823 8      3563.328          50.000    20823968.391 6  86548788.705 6      2771.477          41.000
C05  39797396.586 6 207235486.227 6        -8.316          36.000    39797393.547 6 160247609.493 6        -6.373          40.000
C19  22864458.531 8 119061230.822 8     -2069.734          49.000
C22  21930658.516 8 114198673.622 8       725.043          49.000
E03  23447108.797 8 123215398.958 8       324.949          51.000    23447109.867 8  94411772.116 8       248.918          51.000
E05  25292269.766 5 132911787.036 5     -1780.547          35.000
E15  26724462.766 7 140437993.679 7     -2598.336          45.000    26724466.250 8 107608344.809 8     -1990.903          48.000
E25  24668325.617 8 129632973.636 8      1782.285          51.000    24668329.375 8  99329165.677 8      1365.623          51.000
> 2020 05 12 02 06  0.0000000  0 15        .000000000000
G02  23274349.367 7 122307527.835 7     -2113.043          47.000    23274347.258 7  95304567.692 7     -1646.527          46.000
G06  24297444.031 5 127683931.091 5     -3493.254          32.000    24297431.344 5  99493922.041 5     -2722.019          33.000
G07  20968607.211 8 110190779.506 8      -978.949          51.000    20968605.516 8  85862943.960 8      -762.818          51.000
G09  22495314.703 6 118213695.727 6     -2505.520          36.000
G30  20606307.016 8 108286898.435 8      1182.051          51.000    20606308.430 8  84379425.909 8       921.079          51.000
R04  19662015.547 8 105289184.132 8      -838.973          51.000    19662016.984 8  81891626.001 8      -652.534          48.000
R14  19577872.172 8 104361136.542 8      -386.020          51.000    19577874.633 8  81169780.085 8      -300.237          50.000
R15  20804011.555 8 111170328.906 8      3547.945          50.000    20804009.320 7  86465834.121 7      2759.513          42.000
C05  39797443.266 6 207235729.405 6        -7.277          36.000    39797440.234 6 160247797.523 6        -5.467          40.000
C19  22876409.141 8 119123461.785 8     -2077.906          49.000
C22  21926513.203 8 114177086.918 8       714.977          50.000
E03  23445270.945 8 123205740.957 8       319.922          51.000    23445271.992 8  94404371.830 8       245.114          51.000
E05  25302441.539 5 132965239.979 5     -1783.574          35.000    25302453.156 5 101882475.928 5     -1366.488          32.000
E15  26739311.109 7 140516022.460 7     -2602.535          46.000    26739314.953 8 107668133.111 8     -1994.270          48.000
E25  24658185.141 8 129579686.781 8      1771.121          51.000    24658189.297 8  99288335.495 8      1357.057          51.000
> 2020 05 12 02 06 30.0000000  0 15        .000000000000
G02  23286451.414 8 122371123.717 8     -2125.727          48.000    23286449.180 7  95354122.931 7     -1656.410          46.000
G06  24317399.891 5 127788804.766 5     -3496.512          32.000    24317388.766 5  99575641.684 5     -2724.561          32.000
G07  20974242.094 8 110220391.148 8      -994.254          51.000    20974240.695 8  85886017.979 8      -774.743          51.000
G09  22509636.516 5 118288969.207 5     -2512.387          34.000    22509670.422 4  92173302.004 4     -1957.704          29.000
G30  20599611.391 8 108251711.859 8      1164.594          51.000    20599612.922 8  84352007.820 8       907.479          51.000
R04  19666764.961 8 105314615.609 8      -855.691          51.000    19666766.336 8  81911406.022 8      -665.541          48.000
R14  19580127.008 8 104373156.336 8      -414.402          51.000    19580129.344 8  81179128.820 8      -322.313          49.000
R15  20784145.086 8 111064169.047 8      3529.965          50.000    20784143.695 7  86383265.397 7      2745.531          45.000
C05  39797490.391 6 207235975.005 6        -8.465          36.000    39797487.438 6 160247987.457 6        -6.654          40.000
C19  22888414.430 8 119185974.462 8     -2088.656          50.000
C22  21922432.547 8 114155838.330 8       702.336          49.000
E03  23443469.047 8 123196272.096 8       312.172          51.000    23443470.141 8  94397116.473 8       239.185          51.000
E05  25312647.672 5 133018859.908 5     -1789.828          33.000
E15  26754191.570 7 140594219.836 7     -2609.734          47.000    26754195.406 8 107728050.583 8     -1999.559          49.000
E25  24648115.484 8 129526774.067 8      1757.188          50.000    24648120.328 8  99247791.988 8      1346.380          51.000
> 2020 05 12 02 07  0.0000000  0 15        .000000000000
G02  23298620.031 8 122435067.869 8     -2137.199          49.000    23298616.898 7  95403949.529 7     -1665.350          45.000
G06  24337370.336 5 127893728.980 5     -3498.840          33.000
G07  20979958.578 8 110250431.694 8     -1008.328          51.000    20979957.211 8  85909426.201 8      -785.710          51.000
G09  22523995.625 6 118364426.571 6     -2518.273          36.000    22524021.188 5  92232099.622 5     -1962.297          35.000
G30  20593009.766 8 108217019.226 8      1148.297          51.000    20593011.023 8  84324974.607 8       894.777          51.000
R04  19671603.031 8 105340522.401 8      -871.395          51.000    19671604.219 8  81931555.729 8      -677.751          48.000
R14  19582535.664 8 104385995.701 8      -441.516          51.000    19582537.891 8  81189114.995 8      -343.401          50.000
R15  20764374.320 8 110958520.913 8      3513.090          50.000    20764374.656 7  86301094.676 7      2732.406          47.000
C05  39797540.164 6 207236233.482 6        -8.254          36.000    39797537.234 6 160248188.126 6        -6.842          40.000
C19  22900476.180 8 119248779.968 8     -2098.328          50.000
C22  21918418.836 8 114134940.505 8       690.832          49.000
E03  23441705.414 8 123187004.459 8       305.594          51.000    23441706.711 8  94390015.298 8       234.129          51.000
E05  25322878.031 6 133072629.256 6     -1795.137          36.000    25322883.906 6 101964733.123 6     -1375.327          38.000
E15  26769105.930 7 140672595.298 7     -2615.484          46.000    26769109.719 8 107788104.510 8     -2004.037          49.000
E25  24638119.688 8 129474248.343 8      1744.535          50.000    24638124.852 8  99207544.992 8      1336.716          51.000
> 2020 05 12 02 07 30.0000000  0 14        .000000000000
G02  23310848.344 8 122499326.002 8     -2147.477          50.000    23310844.102 7  95454020.787 7     -1673.358          45.000
G07  20985750.477 8 110280868.457 8     -1021.469          51.000    20985749.023 8  85933143.150 8      -795.950          51.000
G30  20586496.016 8 108182789.324 8      1132.965          51.000    20586497.094 8  84298301.950 8       882.830          51.000
R03  22956054.109 4 122885543.771 4     -3251.199          28.000
R04  19676524.023 8 105366873.128 8      -886.148          51.000    19676525.172 7  81952050.711 7      -689.230          47.000
R14  19585091.750 8 104399621.554 8      -467.590          51.000    19585094.164 8  81199712.903 8      -363.681          50.000
R15  20744693.922 8 110853355.851 8      3496.934          49.000    20744695.711 8  86219299.663 8      2719.837          48.000
C05  39797586.633 6 207236475.714 6        -7.969          36.000    39797583.727 6 160248375.425 6        -6.265          40.000
C19  22912587.859 8 119311846.573 8     -2106.930          51.000
C22  21914466.773 8 114114363.319 8       680.184          50.000
E03  23439974.078 8 123177906.971 8       300.082          51.000    23439975.734 8  94383044.488 8       229.969          51.000
E05  25333131.320 5 133126522.555 5     -1798.770          34.000    25333140.445 6 102006027.945 6     -1378.224          40.000
E15  26784047.688 7 140751115.155 7     -2619.957          45.000    26784051.766 8 107848269.064 8     -2007.589          49.000
E25  24628192.141 8 129422079.371 8      1732.543          50.000    24628197.391 8  99167571.353 8      1327.572          51.000
> 2020 05 12 02 08  0.0000000  0 15        .000000000000
G02  23323134.742 8 122563890.032 8     -2156.957          49.000    23323129.609 7  95504330.407 7     -1680.746          45.000
G06  24377316.641 5 128103662.641 5     -3499.164          31.000
G07  20991616.312 8 110311693.841 8     -1033.664          51.000    20991615.047 8  85957162.938 8      -805.453          51.000
G09  22552803.102 6 118515771.393 6     -2527.328          37.000    22552817.297 6  92349967.898 6     -1969.356          37.000
G30  20580069.016 8 108149016.540 8      1118.434          51.000    20580070.375 8  84271985.509 8       871.507          51.000
R04  19681526.859 8 105393662.353 8      -900.035          51.000    19681527.891 7  81972886.754 7      -700.027          47.000
R14  19587794.039 8 104414026.796 8      -492.871          51.000    19587796.336 8  81210916.974 8      -383.344          49.000
R15  20725103.312 8 110748671.325 8      3481.598          48.000    20725106.039 8  86137878.359 8      2707.909          49.000
C05  39797628.820 6 207236694.749 6        -6.699          36.000    39797625.812 6 160248544.783 6        -5.153          40.000
C19  22924748.359 8 119375168.053 8     -2114.758          51.000
C22  21910575.836 8 114094102.019 8       670.336          50.000
E03  23438274.094 8 123168974.214 8       295.184          51.000    23438275.984 8  94376199.908 8       226.159          51.000
E05                                                                  25343415.625 6 102047412.614 6     -1380.657          36.000
E15  26799015.125 7 140829771.407 7     -2624.008          45.000    26799020.039 8 107908538.131 8     -2010.544          49.000
E25  24618331.914 8 129370262.443 8      1721.559          51.000    24618337.172 8  99127867.482 8      1319.155          51.000
> 2020 05 12 02 08 30.0000000  0 14        .000000000000
G02  23335484.828 8 122628790.449 8     -2169.164          48.000    23335479.711 7  95554902.126 7     -1690.258          45.000
G07  20997562.258 8 110342939.994 8     -1048.762          51.000    20997561.070 8  85981510.600 8      -817.217          51.000
G09  22567254.438 5 118591704.102 5     -2534.273          35.000    22567261.273 6  92409136.107 6     -1974.765          36.000
G30  20573735.547 8 108115734.727 8      1101.004          51.000    20573737.008 8  84246051.631 8       857.925          51.000
R04  19686617.836 8 105420924.850 8      -916.832          50.000    19686619.008 7  81994090.900 7      -713.095          47.000
R14  19590648.664 8 104429244.111 8      -520.938          51.000    19590651.055 8  81222752.681 8      -405.174          50.000
R15  20705609.633 8 110644505.007 8      3463.340          48.000    20705613.430 8  86056860.071 8      2693.709          49.000
C05  39797672.820 6 207236924.802 6        -8.414          36.000    39797669.852 6 160248721.916 6        -6.334          40.000
C19  22936963.766 8 119438777.149 8     -2125.309          50.000
C22  21906752.344 8 114074190.927 8       657.586          50.000
E03  23436611.969 8 123160240.132 8       287.527          51.000    23436613.891 8  94369507.562 8       220.283          51.000
E05                                                                  25353720.680 6 102088912.778 6     -1385.443          38.000
E15  26814014.516 7 140908595.359 7     -2630.453          46.000    26814020.320 8 107968935.714 8     -2015.584          48.000
E25  24608545.602 8 129318832.332 8      1707.590          51.000    24608550.469 8  99088460.012 8      1308.410          51.000
> 2020 05 12 02 09  0.0000000  0 13        .000000000000
G02  23347902.266 7 122694046.522 7     -2183.688          45.000    23347897.914 7  95605751.030 7     -1701.575          45.000
G07  21003592.008 8 110374626.383 8     -1066.035          51.000    21003590.461 8  86006201.290 8      -830.677          51.000
G30  20567499.555 8 108082965.260 8      1081.242          51.000    20567501.117 8  84220516.971 8       842.523          51.000
R04  19691801.281 8 105448682.929 8      -936.176          50.000    19691802.555 7  82015680.517 7      -728.137          47.000
R14  19593659.461 8 104445293.464 8      -551.453          51.000    19593661.781 8  81235235.493 8      -428.908          49.000
R15  20686218.070 8 110540881.758 8      3442.418          50.000    20686221.828 8  85976264.166 8      2677.433          48.000
C05  39797722.852 6 207237184.824 6       -11.168          36.000    39797719.766 6 160248923.003 6        -9.013          40.000
C19  22949238.203 8 119502694.286 8     -2138.312          50.000
C22  21903000.055 8 114054652.086 8       642.562          50.000
E03  23434991.828 8 123151726.313 8       277.551          51.000    23434993.750 8  94362983.980 8       212.660          51.000
E05                                                                  25364060.680 6 102130544.480 6     -1391.974          39.000
E15  26829049.789 7 140987605.992 7     -2639.402          47.000    26829056.062 8 108029476.335 8     -2022.369          48.000
E25  24598837.391 8 129267811.339 8      1691.270          51.000    24598841.297 8  99049366.016 8      1295.938          51.000
> 2020 05 12 02 09 30.0000000  0 14        .000000000000
G02  23360375.758 7 122759597.652 7     -2188.230          45.000    23360372.516 7  95656829.863 7     -1705.115          45.000
G07  21009694.477 8 110406694.775 8     -1073.969          51.000    21009692.906 8  86031189.658 8      -836.859          51.000
G30  20561350.164 8 108050650.954 8      1071.012          51.000    20561351.969 8  84195336.997 8       834.555          51.000
R03  23029266.312 5 123277473.513 5     -3278.523          33.000
R04  19697066.109 8 105476878.384 8      -945.773          49.000    19697067.523 7  82037610.330 7      -735.602          47.000
R14  19596814.977 8 104462115.481 8      -572.207          51.000    19596817.656 8  81248319.311 8      -445.047          50.000
R15  20666918.195 8 110437746.701 8      3430.973          51.000    20666921.555 7  85896048.016 7      2668.534          47.000
C05  39797767.820 6 207237418.988 6        -6.078          36.000    39797764.742 6 160249104.070 6        -4.742          40.000
C19  22961560.836 8 119566862.077 8     -2141.770          49.000
C22  21899308.305 8 114035429.667 8       636.793          50.000
E03  23433402.789 8 123143375.800 8       276.992          51.000    23433404.883 8  94356585.531 8       212.250          51.000
E05                                                                  25374423.062 6 102172263.790 6     -1390.960          36.000
E15  26844109.648 7 141066743.739 7     -2638.660          47.000    26844115.750 7 108090114.359 7     -2021.804          47.000
E25  24589196.328 8 129217143.257 8      1684.383          51.000    24589199.156 8  99010542.445 8      1290.616          51.000
> 2020 05 12 02 10  0.0000000  0 13        .000000000000
G02  23372910.477 7 122825468.429 7     -2201.500          47.000    23372907.984 7  95708157.725 7     -1715.458          46.000
G07  21015874.484 8 110439170.599 8     -1089.727          51.000    21015873.117 8  86056495.511 8      -849.138          51.000
G30  20555292.672 8 108018819.113 8      1052.406          51.000    20555294.625 8  84170532.979 8       820.057          51.000
R04  19702418.242 8 105505539.651 8      -963.648          50.000    19702420.039 8  82059902.445 8      -749.504          48.000
R14  19600120.547 8 104479736.276 8      -601.203          51.000    19600123.188 8  81262024.373 8      -467.602          50.000
R15  20647715.383 8 110335130.619 8      3411.312          51.000    20647718.031 7  85816235.538 7      2653.243          45.000
C05  39797812.906 6 207237653.956 6        -8.473          36.000    39797809.859 6 160249285.742 6        -6.243          40.000
C19  22973936.344 8 119631306.910 8     -2153.371          49.000
C22  21895682.781 8 114016551.564 8       623.031          50.000
E03  23431850.062 8 123135216.090 8       268.238          51.000    23431852.367 8  94350333.285 8       205.563          51.000
E05                                                                  25384812.578 5 102214120.484 5     -1396.683          30.000
E15  26859198.656 7 141146033.524 7     -2646.059          46.000    26859203.906 7 108150868.857 7     -2027.428          47.000
E25  24579627.625 8 129166856.342 8      1669.348          51.000    24579629.719 8  98972010.942 8      1279.099          51.000
> 2020 05 12 02 10 30.0000000  0 13        .000000000000
G02  23385505.508 8 122891655.208 8     -2211.777          48.000    23385503.695 7  95759731.827 7     -1723.463          44.000
G07  21022131.539 8 110472051.351 8     -1103.133          51.000    21022129.953 8  86082116.868 8      -859.584          51.000
G30  20549326.914 8 107987469.041 8      1036.617          51.000    20549328.797 8  84146104.358 8       807.754          51.000
R04  19707857.328 8 105534666.258 8      -979.082          51.000    19707859.344 8  82082556.458 8      -761.508          48.000
R14  19603575.484 8 104498153.344 8      -627.531          51.000    19603577.961 8  81276348.767 8      -488.080          50.000
R15  20628609.891 8 110233036.017 8      3394.168          51.000    20628611.914 7  85736828.656 7      2639.908          45.000
C05  39797857.961 6 207237888.830 6        -8.117          36.000    39797854.984 6 160249467.388 6        -6.388          40.000
C19  22986365.242 8 119696027.288 8     -2162.332          49.000
C22  21892123.516 8 113998017.918 8       611.723          50.000
E03  23430333.492 8 123127246.687 8       262.117          51.000    23430335.961 8  94344226.872 8       200.771          51.000
E05  25395220.758 5 133452784.139 5     -1827.348          35.000
E15  26874315.844 7 141225472.186 7     -2650.871          45.000    26874319.867 7 108211737.421 7     -2031.220          47.000
E25  24570131.117 8 129116950.817 8      1656.793          51.000    24570132.492 8  98933771.666 8      1269.458          51.000
> 2020 05 12 02 11  0.0000000  0 13        .000000000000
G02  23398157.062 7 122958139.641 7     -2220.926          46.000    23398155.922 7  95811537.884 7     -1730.592          45.000
G07  21028462.305 8 110505319.748 8     -1115.250          51.000    21028460.672 8  86108040.305 8      -869.026          51.000
G30  20543449.703 8 107956584.885 8      1021.875          51.000    20543451.562 8  84122038.779 8       796.266          51.000
R04  19713380.695 8 105564242.462 8      -993.293          51.000    19713382.320 8  82105560.164 8      -772.561          48.000
R14  19607176.672 8 104517348.846 8      -652.773          51.000    19607179.242 8  81291278.615 8      -507.710          51.000
R15  20609599.242 8 110131450.068 8      3377.742          50.000    20609601.109 7  85657817.389 7      2627.136          45.000
C05  39797899.922 6 207238107.748 6        -6.992          36.000    39797897.031 6 160249636.678 6        -5.425          40.000
C19  22998844.102 8 119761006.931 8     -2170.289          48.000
C22  21888627.602 8 113979813.921 8       601.430          51.000
E03  23428850.117 8 123119452.048 8       257.004          51.000    23428852.680 8  94338254.350 8       196.937          51.000
E05  25405661.023 6 133507637.682 6     -1830.484          37.000
E15  26889457.531 7 141305041.582 7     -2654.414          44.000    26889460.383 7 108272706.122 7     -2033.929          46.000
E25  24560704.258 8 129067411.854 8      1645.219          51.000    24560705.102 8  98895813.255 8      1260.559          51.000
> 2020 05 12 02 11 30.0000000  0 14        .000000000000
G02  23410869.078 7 123024942.029 7     -2231.875          44.000    23410868.320 7  95863591.735 7     -1739.120          44.000
G06  24517391.469 5 128839761.698 5     -3508.000          30.000
G07  21034871.016 8 110538997.454 8     -1129.301          51.000    21034869.586 8  86134282.671 8      -879.975          51.000
G30  20537665.703 8 107926189.980 8      1005.043          51.000    20537667.625 8  84098354.444 8       783.150          51.000
R04  19718992.453 8 105594292.438 8     -1009.422          51.000    19718993.875 7  82128932.346 7      -785.106          47.000
R14  19610928.055 8 104537345.052 8      -679.754          51.000    19610930.742 8  81306831.223 8      -528.697          51.000
R15  20590688.852 8 110030399.655 8      3359.512          49.000    20590690.469 7  85579222.642 7      2612.954          46.000
C05  39797943.273 6 207238332.578 6        -7.914          36.000    39797940.328 6 160249811.286 6        -5.836          40.000
C19  23011376.852 8 119826268.089 8     -2179.863          48.000
C22  21885199.883 8 113961963.519 8       589.168          51.000
E03  23427404.484 8 123111855.712 8       250.043          51.000    23427407.125 8  94332433.769 8       191.594          51.000
E05                                                                  25416131.539 5 102340227.904 5     -1406.691          33.000
E15  26904627.523 7 141384762.603 7     -2659.676          43.000    26904629.828 7 108333791.016 7     -2037.981          47.000
E25  24551351.594 8 129018263.676 8      1631.996          51.000    24551352.094 8  98858154.253 8      1250.526          51.000
> 2020 05 12 02 12  0.0000000  0 13        .000000000000
G02  23423636.539 7 123092035.514 7     -2241.438          44.000    23423635.250 7  95915872.417 7     -1746.575          42.000
G07  21041352.609 8 110573058.503 8     -1141.875          51.000    21041351.203 8  86160823.752 8      -889.773          51.000
G30  20531970.477 8 107896260.116 8       989.781          51.000    20531971.969 8  84075032.477 8       771.258          51.000
R04  19724688.258 8 105624791.768 8     -1024.258          51.000    19724689.586 7  82152654.022 7      -796.648          47.000
R14  19614824.703 8 104558115.498 8      -705.398          51.000    19614827.547 8  81322986.021 8      -548.643          51.000
R15  20571874.656 8 109929863.416 8      3342.484          49.000    20571876.820 8  85501027.803 8      2599.710          48.000
C05  39797983.305 6 207238541.126 6        -6.816          36.000    39797980.320 6 160249972.556 6        -5.032          40.000
C19  23023958.711 7 119891786.180 7     -2188.305          47.000
C22  21881835.539 8 113944443.631 8       578.316          51.000
E03  23425992.078 8 123104433.755 8       244.371          51.000    23425994.734 8  94326746.815 8       187.236          51.000
E05  25426615.641 5 133617764.287 5     -1839.621          35.000    25426624.227 6 102382465.983 6     -1409.355          37.000
E15  26919820.820 7 141464608.682 7     -2663.656          44.000    26919823.367 7 108394971.782 7     -2040.965          47.000
E25  24542068.719 8 128969483.073 8      1619.703          51.000    24542069.297 8  98820776.904 8      1241.110          51.000
> 2020 05 12 02 12 30.0000000  0 13        .000000000000
G02  23436466.523 7 123159458.456 7     -2252.781          45.000    23436464.648 7  95968409.776 7     -1755.414          42.000
G07  21047914.703 8 110607542.728 8     -1156.379          51.000    21047913.258 8  86187694.573 8      -901.074          51.000
G30  20526371.539 8 107866836.728 8       972.434          51.000    20526372.461 8  84052105.151 8       757.740          51.000
R04  19730475.766 8 105655783.128 8     -1041.137          51.000    19730476.844 7  82176758.389 7      -809.773          46.000
R14  19618873.961 8 104579700.652 8      -732.941          51.000    19618876.945 8  81339774.477 8      -570.066          51.000
R15  20553165.031 8 109829886.627 8      3323.348          50.000    20553168.055 8  85423268.048 8      2584.826          48.000
C05  39798028.016 6 207238773.329 6        -8.383          37.000    39798024.938 6 160250152.114 6        -6.180          40.000
C19  23036596.781 7 119957601.644 7     -2198.605          46.000
C22  21878542.469 8 113927296.253 8       565.406          51.000
E03  23424620.797 8 123097227.941 8       236.785          51.000    23424623.422 8  94321225.475 8       181.412          51.000
E05  25437138.688 5 133673053.012 5     -1845.492          35.000    25437139.422 6 102424830.209 6     -1414.013          39.000
E15  26935045.523 7 141544618.996 7     -2669.715          45.000    26935048.391 7 108456278.379 7     -2045.551          47.000
E25  24532863.883 8 128921112.431 8      1605.711          51.000    24532864.539 8  98783713.678 8      1230.320          51.000
> 2020 05 12 02 13  0.0000000  0 13        .000000000000
G02  23449351.430 7 123227170.122 7     -2261.621          45.000    23449349.211 7  96021172.083 7     -1762.302          43.000
G07  21054549.727 8 110642410.330 8     -1168.414          51.000    21054548.531 8  86214864.122 8      -910.453          51.000
G30  20520861.727 8 107837881.696 8       957.457          51.000    20520862.320 8  84029542.788 8       746.070          51.000
R04  19736347.914 8 105687227.754 8     -1055.473          51.000    19736348.617 7  82201215.314 7      -820.923          46.000
R14  19623068.547 8 104602059.843 8      -757.965          51.000    19623071.398 8  81357164.949 8      -589.528          51.000
R15  20534553.258 8 109730433.601 8      3306.504          49.000    20534556.875 8  85345915.650 8      2571.722          48.000
C05  39798069.938 6 207238991.200 6        -7.129          36.000    39798066.789 6 160250320.586 6        -5.289          40.000
C19  23049284.875 7 120023675.898 7     -2206.684          47.000
C22  21875313.984 8 113910484.457 8       554.984          51.000
E03  23423283.438 8 123090200.445 8       231.426          51.000    23423285.992 8  94315840.767 8       177.338          51.000
E05  25447681.500 5 133728468.039 5     -1849.445          32.000    25447682.570 6 102467291.060 6     -1416.775          41.000
E15  26950294.109 7 141624753.081 7     -2673.074          45.000    26950297.125 7 108517679.814 7     -2048.227          47.000
E25  24523730.234 8 128873114.598 8      1593.875          51.000    24523731.141 8  98746936.111 8      1221.275          51.000
> 2020 05 12 02 13 30.0000000  0 14        .000000000000
G02  23462291.953 7 123295173.575 7     -2273.762          45.000    23462290.141 7  96074161.763 7     -1771.762          42.000
G07  21061258.422 8 110677665.377 8     -1183.746          51.000    21061257.516 8  86242335.594 8      -922.400          51.000
G09  22713480.570 4 119360130.046 4     -2590.594          29.000
G30  20515442.023 8 107809400.607 8       939.316          51.000    20515442.555 8  84007349.735 8       731.935          51.000
R04  19742305.836 8 105719132.037 8     -1073.414          51.000    19742306.914 7  82226029.728 7      -834.878          46.000
R14  19627409.062 8 104625197.241 8      -786.465          51.000    19627412.102 8  81375160.716 8      -611.695          51.000
R15  20516041.336 8 109631513.234 8      3286.145          49.000    20516044.961 7  85268977.558 7      2555.890          47.000
C05  39798110.133 6 207239200.144 6        -9.176          36.000    39798106.938 6 160250482.188 6        -7.041          40.000
C19  23062024.445 8 120090013.901 8     -2217.836          48.000
C22  21872151.289 8 113894014.709 8       541.074          51.000
E03  23421981.180 8 123083357.198 8       222.703          51.000    23421983.656 8  94310597.232 8       170.637          51.000
E05  25458250.047 5 133784006.641 5     -1855.969          33.000    25458253.219 6 102509852.754 6     -1421.998          41.000
E15  26965567.281 7 141705014.246 7     -2679.762          46.000    26965570.055 7 108579178.615 7     -2053.276          46.000
E25  24514668.648 8 128825496.125 8      1578.754          51.000    24514670.141 8  98710449.231 8      1209.620          51.000
> 2020 05 12 02 14  0.0000000  0 15        .000000000000
G02  23475286.758 7 123363460.973 7     -2280.891          47.000    23475285.945 7  96127372.718 7     -1777.317          42.000
G07  21068039.734 8 110713301.323 8     -1194.062          51.000    21068038.820 8  86270103.855 8      -930.438          51.000
G09  22728268.336 5 119437833.662 5     -2592.973          33.000    22728273.000 4  93068523.611 4     -2020.501          26.000
G30  20510111.570 8 107781388.674 8       926.109          51.000    20510111.906 8  83985522.239 8       721.644          51.000
R03  23196358.164 5 124171907.653 5     -3343.695          31.000
R04  19748348.367 8 105751491.325 8     -1086.012          50.000    19748349.859 7  82251198.036 7      -844.676          46.000
R14  19631894.289 8 104649105.856 8      -809.609          51.000    19631897.328 8  81393756.289 8      -629.699          50.000
R15  20497628.875 8 109533123.760 8      3270.902          48.000    20497632.445 7  85192452.426 7      2544.035          46.000
C05  39798147.648 6 207239395.282 6        -6.086          36.000    39798144.492 6 160250633.077 6        -4.730          40.000
C19  23074814.336 8 120156610.277 8     -2224.039          50.000
C22  21869053.500 8 113877883.211 8       532.191          51.000
E03  23420713.250 8 123076693.710 8       219.293          51.000    23420715.594 8  94305491.439 8       168.018          51.000
E05  25468843.984 5 133839678.918 5     -1857.766          35.000    25468847.672 6 102552511.586 6     -1423.450          38.000
E15  26980863.570 7 141785395.368 7     -2681.152          45.000    26980865.766 7 108640769.336 7     -2054.395          45.000
E25  24505678.227 8 128778253.189 8      1568.652          51.000    24505680.531 8  98674250.093 8      1201.954          51.000
> 2020 05 12 02 14 30.0000000  0 13        .000000000000
G02  23488346.438 8 123432087.371 8     -2291.676          49.000    23488345.977 7  96180847.826 7     -1785.721          42.000
G07  21074904.328 8 110749374.670 8     -1208.332          51.000    21074903.297 8  86298212.963 8      -941.554          51.000
G30  20504881.352 8 107753903.791 8       908.824          51.000    20504881.328 8  83964105.447 8       708.175          51.000
R04  19754487.453 8 105784365.195 8     -1102.922          50.000    19754488.680 7  82276766.600 7      -857.828          47.000
R14  19636534.734 8 104673842.934 8      -836.914          51.000    19636537.828 8  81412996.250 8      -650.930          50.000
R15  20479327.734 8 109435327.374 8      3251.504          48.000    20479330.961 7  85116388.570 7      2528.947          45.000
C05  39798193.406 6 207239633.985 6        -7.418          36.000    39798190.336 6 160250817.653 6        -5.745          40.000
C19  23087665.383 8 120223521.794 8     -2234.223          51.000
C22  21866031.852 8 113862148.287 8       519.242          51.000
E03  23419490.586 8 123070268.336 8       211.621          51.000    23419492.898 8  94300568.092 8       162.160          51.000
E05  25479473.680 5 133895536.730 5     -1863.551          34.000    25479476.992 6 102595311.841 6     -1427.996          37.000
E15  26996193.180 7 141865952.170 7     -2686.680          43.000    26996195.008 7 108702494.676 7     -2058.771          45.000
E25  24496770.359 8 128731444.743 8      1554.289          51.000    24496773.422 8  98638383.883 8      1190.931          51.000
> 2020 05 12 02 15  0.0000000  0 13        .000000000000
G02  23501455.406 8 123500973.089 8     -2300.867          50.000    23501454.586 7  96234524.976 7     -1792.884          42.000
G07  21081837.133 8 110785806.720 8     -1220.754          51.000    21081835.953 8  86326601.577 8      -951.237          51.000
G30  20499736.711 8 107726868.800 8       893.180          51.000    20499736.805 8  83943039.244 8       695.987          51.000
R04  19760707.883 8 105817675.365 8     -1117.965          51.000    19760709.211 7  82302674.523 7      -869.528          47.000
R14  19641315.727 8 104699328.271 8      -862.367          51.000    19641318.750 8  81432818.191 8      -670.730          49.000
R15  20461123.562 8 109338048.800 8      3233.598          50.000    20461126.422 7  85040727.447 7      2515.020          45.000
C05  39798232.898 6 207239839.577 6        -6.414          36.000    39798229.828 6 160250976.656 6        -5.135          40.000
C19  23100561.820 8 120290671.296 8     -2242.688          51.000
C22  21863071.773 8 113846734.435 8       508.016          51.000
E03  23418298.688 8 123064004.257 8       205.641          51.000    23418300.898 8  94295768.341 8       157.593          51.000
E05                                                                  25490128.609 6 102638194.251 6     -1431.298          36.000
E15  27011540.695 7 141946605.182 7     -2690.504          42.000    27011542.602 7 108764293.729 7     -2061.507          45.000
E25  24487930.984 8 128684994.579 8      1542.066          51.000    24487934.586 8  98602792.195 8      1181.571          51.000
> 2020 05 12 02 15 30.0000000  0 13        .000000000000
G02  23514619.227 8 123570148.872 8     -2310.434          49.000    23514616.984 6  96288428.124 6     -1800.338          40.000
G07  21088844.305 8 110822629.454 8     -1233.809          51.000    21088842.961 8  86355294.619 8      -961.409          51.000
G30  20494684.094 8 107700317.230 8       877.223          51.000    20494684.477 8  83922349.743 8       683.550          51.000
R04  19767016.055 8 105851456.231 8     -1133.715          51.000    19767017.406 8  82328948.517 8      -881.778          48.000
R14  19646243.039 8 104725593.895 8      -888.359          51.000    19646245.617 8  81453247.012 8      -690.946          49.000
R15  20443023.547 8 109241325.315 8      3215.000          51.000    20443025.719 7  84965498.073 7      2500.556          45.000
C05  39798272.367 6 207240046.284 6        -6.840          36.000    39798269.352 6 160251135.700 6        -5.117          40.000
C19  23113509.617 8 120358091.429 8     -2251.652          51.000
C22  21860179.945 8 113831675.802 8       496.160          51.000
E03  23417143.953 8 123057935.387 8       199.227          51.000    23417146.016 8  94291118.168 8       152.660          51.000
E05  25500799.680 6 134007618.813 6     -1872.203          38.000    25500806.359 5 102681184.436 5     -1434.794          33.000
E15  27026912.375 7 142027385.656 7     -2694.656          43.000    27026914.531 7 108826190.470 7     -2064.722          45.000
E25  24479166.742 8 128638937.246 8      1528.805          51.000    24479170.430 8  98567501.513 8      1171.401          51.000
> 2020 05 12 02 16  0.0000000  0 13        .000000000000
G02  23527836.852 7 123639609.695 7     -2319.578          47.000    23527832.820 6  96342553.371 6     -1807.467          39.000
G07  21095925.008 8 110859838.954 8     -1246.172          51.000    21095923.781 8  86384289.048 8      -971.043          51.000
G30  20489723.039 8 107674246.909 8       861.488          51.000    20489723.398 8  83902035.226 8       671.290          51.000
R04  19773411.906 8 105885706.084 8     -1148.938          51.000    19773413.344 8  82355587.294 8      -893.618          49.000
R14  19651316.047 8 104752635.858 8      -913.848          51.000    19651318.398 8  81474279.660 8      -710.770          49.000
R15  20425027.820 8 109145157.773 8      3196.801          51.000    20425028.672 7  84890701.131 7      2486.401          45.000
C05  39798311.445 6 207240249.896 6        -6.289          36.000    39798308.422 6 160251293.158 6        -4.800          40.000
C19  23126508.953 8 120425779.316 8     -2260.211          51.000
C22  21857356.055 8 113816971.225 8       484.742          51.000
E03  23416026.039 8 123052059.990 8       193.230          51.000    23416027.883 8  94286616.241 8       148.084          51.000
E05  25511506.617 6 134063863.065 6     -1876.684          38.000    25511508.016 4 102724270.622 4     -1437.386          29.000
E15  27042307.789 7 142108289.250 7     -2698.234          45.000    27042310.141 7 108888181.513 7     -2067.406          46.000
E25  24470477.070 8 128593271.530 8      1516.289          51.000    24470480.273 8  98532510.895 8      1161.859          51.000
> 2020 05 12 02 16 30.0000000  0 13        .000000000000
G02  23541106.422 7 123709344.079 7     -2329.375          46.000    23541101.812 6  96396891.816 6     -1815.097          41.000
G07  21103077.375 8 110897424.910 8     -1259.719          51.000    21103076.297 8  86413576.818 8      -981.599          51.000
G30  20484851.977 8 107648648.885 8       844.887          51.000    20484852.344 8  83882088.729 8       658.353          51.000
R04  19779893.594 8 105920416.168 8     -1165.273          51.000    19779895.281 8  82382584.035 8      -906.324          48.000
R14  19656532.664 8 104780443.108 8      -940.188          51.000    19656534.781 8  81495907.531 8      -731.254          48.000
R15  20407134.914 8 109049540.381 8      3177.453          51.000    20407135.438 7  84816332.095 7      2471.352          46.000
C05  39798348.391 6 207240442.366 6        -6.570          36.000    39798345.328 6 160251442.018 6        -5.449          40.000
C19  23139556.547 7 120493725.532 7     -2269.734          47.000
C22  21854598.734 8 113802612.799 8       472.273          51.000
E03  23414943.320 8 123046369.556 8       185.945          51.000    23414944.898 8  94282256.042 8       142.490          51.000
E05  25522235.969 6 134120236.891 6     -1882.082          37.000    25522239.391 5 102767475.011 5     -1441.747          32.000
E15  27057724.781 7 142189304.797 7     -2703.082          47.000    27057727.438 7 108950258.337 7     -2071.148          47.000
