     3.02           OBSERVATION DATA    M (MIXED)           RINEX VERSION / TYPE
SAVERINEX           SC600               20200507 225931 LCL PGM / RUN BY / DATE
       G = GPS       R = GLONASS       C = COMPASS          COMMENT
       S = SBAS      J = QZSS          E = GALILEO          COMMENT
BEAN                                                        MARKER NAME
1                                                           MARKER NUMBER
GEODETIC                                                    MARKER TYPE
Unige DICCA         GTER                                    OBSERVER / AGENCY
SC60291900056       SC600               2.12(191226)        REC # / TYPE / VERS
                    HEMA45          NONE                    ANT # / TYPE
  4509407.8091   693652.4678  4442337.6214                  APPROX POSITION XYZ
        0.0000        0.0000        0.0000                  ANTENNA: DELTA H/E/N
G    8 C1C L1C D1C S1C C2Y L2Y D2Y S2Y                      SYS / # / OBS TYPES
R    8 C1C L1C D1C S1C C2P L2P D2P S2P                      SYS / # / OBS TYPES
C    8 C1I L1I D1I S1I C7I L7I D7I S7I                      SYS / # / OBS TYPES
E    8 C1C L1C D1C S1C C7Q L7Q D7Q S7Q                      SYS / # / OBS TYPES
DBHZ                                                        COMMENT
     30.000                                                 INTERVAL
  2020    05    07    20    00    0.0000000     GPS         TIME OF FIRST OBS
  2020    05    07    20    59   30.0000000     GPS         TIME OF LAST OBS
     0                                                      RCV CLOCK OFFS APPL
G L1C  0.00000                                              SYS / PHASE SHIFT
G L2Y  0.00000                                              SYS / PHASE SHIFT
R L1C  0.00000                                              SYS / PHASE SHIFT
R L2P  0.25000                                              SYS / PHASE SHIFT
C L1I  0.00000                                              SYS / PHASE SHIFT
C L7I  0.00000                                              SYS / PHASE SHIFT
E L1C  0.50000                                              SYS / PHASE SHIFT
E L7Q -0.25000                                              SYS / PHASE SHIFT
 14 R03  5 R04  6 R05  1 R06 -4 R07  5 R09 -2 R10 -5 R14 -7 GLONASS SLOT / FRQ #
    R15  0 R16 -1 R17  4 R18 -3 R19  3 R20  2               GLONASS SLOT / FRQ #
 C1C   71.950 C2C   71.950 C2P   71.950                     GLONASS COD/PHS/BIS
    18                                                      LEAP SECONDS
*** Above antenna height is from mark to ANTENNA BOTTOM.    COMMENT
    17     4        0.0000        ANT MEASURE TYPE/HEIGT    COMMENT
    0.0000    0.0000    0.0458    0.0405    0.0000          COMMENT
                    BASE STATION                            COMMENT
                                                            END OF HEADER
> 2020 05 07 20 00  0.0000000  0 18        .000000000000
G01  20289430.562 8 106621675.388 8       314.012          51.000    20289431.547 8  83081836.692 8       244.684          51.000
G03  21157272.680 7 111182252.172 7      1881.129          44.000    21157276.492 7  86635551.666 7      1465.818          44.000
G08  22912130.336 7 120404056.211 7     -3427.383          46.000    22912133.961 7  93821332.959 7     -2670.688          46.000
G11  20364475.945 8 107016071.291 8     -1769.836          50.000    20364475.688 8  83389122.809 8     -1379.090          49.000
G22  20622683.859 8 108373033.444 8       226.348          51.000    20622680.625 8  84446445.498 8       176.378          51.000
G32  22821507.617 5 119927829.421 5     -2210.637          35.000    22821505.297 5  93450212.935 5     -1722.574          33.000
R05  19261542.172 8 102964014.526 8      -916.855          50.000    19261544.773 7  80083130.796 7      -713.110          47.000
R06  21025070.375 7 112193854.739 7      3299.434          45.000
R19  23036271.250 5 123228495.353 5     -3847.266          34.000    23036274.891 5  95844428.878 5     -2992.318          35.000
R20  19460817.648 6 104065737.685 6      -816.613          39.000    19460822.953 8  80940033.681 8      -635.147          48.000
C05                                                                  39672893.227 6 159746300.973 6       -27.052          36.000
C11  21905350.727 8 114066900.218 8     -1082.398          51.000    21905350.383 8  88203753.696 8      -836.919          51.000
C12  24990091.492 6 130129931.512 6     -3248.812          41.000    24990086.836 6 100624707.103 6     -2512.414          38.000
C14  22490344.203 8 117113119.961 8      1984.637          50.000    22490342.398 8  90559318.275 8      1534.626          51.000
C21  23272668.094 6 121186910.020 6     -2261.371          39.000
E03  25049073.273 8 131633769.836 8      2475.688          50.000    25049080.336 8 100862284.257 8      1896.958          51.000
E05  23785748.883 8 124995044.385 8      -117.730          51.000    23785751.602 8  95775359.877 8       -90.200          51.000
E36  26255566.547 7 137973983.705 7     -2429.453          45.000    26255568.781 6 105720333.576 6     -1861.628          41.000
> 2020 05 07 20 00 30.0000000  0 18        .000000000000
G01  20287658.547 8 106612364.014 8       304.203          51.000    20287660.000 8  83074581.086 8       237.041          51.000
G03  21146552.102 7 111125913.470 7      1872.078          44.000    21146555.242 7  86591651.415 7      1458.765          44.000
G08  22931702.523 7 120506909.738 7     -3431.980          44.000    22931706.719 7  93901478.546 7     -2674.274          43.000
G11  20374612.633 8 107069338.411 8     -1783.828          51.000    20374612.172 8  83430629.652 8     -1389.996          50.000
G14  21994136.492 5 115579970.811 5      -763.914          33.000
G22  20621410.305 8 108366340.479 8       217.336          51.000    20621407.055 8  84441230.219 8       169.353          51.000
R05  19266734.094 8 102991768.342 8      -935.996          50.000    19266736.852 7  80104717.138 7      -727.997          47.000
R06  21006547.195 7 112095008.772 7      3287.727          46.000
R19  23057855.711 5 123343958.399 5     -3853.148          35.000    23057858.805 5  95934233.534 5     -2996.893          34.000
R20  19465442.578 6 104090469.221 6      -834.637          39.000    19465447.812 8  80959269.317 8      -649.162          48.000
C05                                                                  39673079.805 6 159747052.618 6       -25.043          36.000
C11  21911613.695 8 114099513.470 8     -1094.328          51.000    21911613.711 8  88228972.338 8      -846.264          51.000
C12  25008810.891 6 130227404.114 6     -3251.590          41.000    25008807.062 6 100700079.059 6     -2514.311          40.000
C14  22478927.438 8 117053665.717 8      1976.578          49.000    22478924.938 8  90513344.525 8      1528.367          51.000
C21  23285700.547 6 121254776.548 6     -2265.645          41.000
E03  25034947.969 8 131559540.661 8      2470.320          51.000    25034954.906 8 100805407.396 8      1892.879          51.000
E05  23786443.430 8 124998693.692 8      -128.145          51.000    23786446.039 8  95778156.128 8       -98.213          51.000
E36  26269435.773 7 138046867.681 7     -2431.809          46.000    26269437.727 7 105776179.735 7     -1863.439          42.000
> 2020 05 07 20 01  0.0000000  0 19        .000000000000
G01  20285954.023 8 106603407.070 8       299.656          51.000    20285955.812 8  83067601.654 8       233.498          51.000
G03  21135893.773 7 111069902.754 7      1868.828          44.000    21135895.312 7  86548006.735 7      1456.230          44.000
G08  22951311.992 7 120609961.176 7     -3431.246          42.000    22951317.180 7  93981778.414 7     -2673.698          42.000
G11  20384840.828 8 107123085.749 8     -1792.547          51.000    20384840.180 8  83472510.703 8     -1396.790          49.000
G14  21998546.039 5 115603142.694 5      -773.293          34.000
G22  20620200.273 8 108359981.353 8       213.453          51.000    20620196.891 8  84436275.085 8       166.330          51.000
R05  19272045.219 8 103020158.939 8      -949.711          50.000    19272047.852 7  80126798.725 7      -738.664          47.000
R06  20988100.758 7 111996575.626 7      3281.320          44.000
R19  23079482.070 6 123459642.796 6     -3852.957          37.000    23079484.305 6  96024210.320 6     -2996.744          36.000
R20  19470181.820 6 104115810.358 6      -847.855          39.000    19470186.977 8  80978979.091 8      -659.443          49.000
C05                                                                  39673261.250 6 159747782.804 6       -18.595          36.000
C11  21917957.070 8 114132545.241 8     -1101.055          50.000    21917957.164 8  88254514.606 8      -851.281          51.000
C12  25027554.977 6 130325006.442 6     -3248.516          41.000    25027553.414 7 100775551.378 7     -2511.967          43.000
C14  22467568.078 7 116994514.145 7      1973.664          47.000    22467566.016 8  90467604.766 8      1526.331          51.000
C21  23298771.672 6 121322844.822 6     -2265.227          38.000
E03  25020864.930 8 131485533.078 8      2470.438          51.000    25020871.375 8 100748700.328 8      1892.972          51.000
E05  23787208.344 8 125002712.978 8      -133.078          51.000    23787211.031 8  95781235.866 8      -101.918          51.000
E09  24730770.836 5 129961070.780 5     -2465.059          35.000
E36  26283329.969 7 138119881.390 7     -2428.797          47.000    26283331.516 7 105832125.300 7     -1861.026          43.000
> 2020 05 07 20 01 30.0000000  0 20        .000000000000
G01  20284329.352 8 106594869.272 8       278.836          51.000    20284331.234 8  83060948.840 8       217.275          51.000
G03  21125310.094 7 111014284.367 7      1848.621          45.000    21125310.305 7  86504667.784 7      1440.487          45.000
G08  22970971.055 7 120713271.789 7     -3446.691          42.000    22970976.727 7  94062280.250 7     -2685.734          42.000
G11  20395172.250 8 107177376.301 8     -1817.562          51.000    20395171.367 8  83514815.041 8     -1416.282          48.000
G14  22003064.875 5 115626889.917 5      -799.992          35.000
G22  20619065.766 8 108354019.330 8       193.215          51.000    20619062.109 8  84431629.377 8       150.557          51.000
G32  22859668.406 5 120128373.581 5     -2251.648          30.000
R05  19277487.039 8 103049249.217 8      -980.070          50.000    19277489.688 8  80149424.507 8      -762.277          48.000
R06  20969743.922 7 111898623.099 7      3258.340          44.000
R19  23101161.758 6 123575611.416 6     -3869.039          37.000    23101163.688 6  96114408.119 6     -3009.253          37.000
R20  19475047.461 6 104141826.705 6      -877.523          39.000    19475052.203 8  80999214.039 8      -682.518          49.000
C05                                                                  39673449.914 6 159748542.637 6       -24.753          37.000
C11  21924392.945 8 114166058.696 8     -1123.879          49.000    21924393.062 8  88280429.351 8      -869.003          51.000
C12  25046335.680 6 130422800.323 6     -3261.895          41.000    25046336.461 7 100851171.828 7     -2522.038          45.000
C14  22456278.531 7 116935729.186 7      1954.434          47.000    22456277.711 8  90422148.497 8      1511.482          51.000
C21  23311893.305 5 121391176.467 5     -2281.285          35.000
E03  25006836.328 8 131411812.202 8      2453.793          51.000    25006842.086 8 100692212.957 8      1880.221          51.000
E05  23788055.734 8 125007165.674 8      -154.398          51.000    23788058.656 8  95784647.702 8      -118.218          51.000
E09  24744913.453 6 130035381.397 6     -2479.320          36.000
E36  26297261.078 7 138193088.391 7     -2442.242          46.000    26297262.609 7 105888218.951 7     -1871.248          44.000
> 2020 05 07 20 02  0.0000000  0 18        .000000000000
G01  20282770.477 8 106586677.657 8       267.070          51.000    20282772.359 8  83054565.777 8       208.107          51.000
G03  21114787.172 7 110958984.954 7      1837.723          46.000    21114786.789 7  86461577.361 7      1431.992          46.000
G08  22990665.742 7 120816765.687 7     -3453.113          44.000    22990670.570 7  94142924.876 7     -2690.735          44.000
G11  20405592.164 8 107232134.763 8     -1833.281          49.000    20405591.328 7  83557483.984 7     -1428.528          46.000
G22  20617992.625 8 108348380.048 8       182.336          51.000    20617989.008 8  84427235.144 8       142.080          51.000
R05  19283045.188 8 103078961.844 8     -1001.059          50.000    19283048.039 8  80172534.330 8      -778.601          48.000
R06  20951463.602 7 111801077.899 7      3244.438          44.000
R19  23122879.570 6 123691787.047 6     -3875.930          36.000    23122881.555 6  96204766.949 6     -3014.612          38.000
R20  19480025.531 6 104168443.783 6      -897.527          40.000    19480029.859 8  81019916.242 8      -698.074          49.000
C05                                                                  39673631.656 6 159749274.646 6       -24.171          37.000
C11  21930907.383 8 114199980.520 8     -1137.824          50.000    21930907.656 8  88306659.877 8      -879.922          51.000
C12  25065138.742 7 130520711.199 7     -3265.777          42.000    25065140.977 7 100926882.780 7     -2525.442          46.000
C14  22445045.570 8 116877238.288 8      1944.559          48.000    22445045.672 8  90376919.670 8      1503.520          51.000
C21  23325052.039 6 121459696.558 6     -2287.453          37.000
E03  24992848.492 8 131338305.508 8      2446.312          51.000    24992853.398 8 100635889.685 8      1874.378          51.000
E05  23788971.516 8 125011977.541 8      -166.613          51.000    23788974.359 8  95788334.745 8      -127.698          51.000
E09  24759083.266 6 130109841.224 6     -2484.816          37.000
E36  26311214.500 7 138266414.603 7     -2446.531          45.000    26311216.570 7 105944403.964 7     -1874.669          44.000
> 2020 05 07 20 02 30.0000000  0 19        .000000000000
G01  20281284.938 8 106578871.754 8       253.953          51.000    20281286.789 8  83048483.263 8       197.886          51.000
G03  21104332.234 7 110904043.666 7      1825.582          44.000    21104332.609 7  86418765.995 7      1422.534          44.000
G08  23010402.594 7 120920478.938 7     -3460.531          45.000    23010405.609 7  94223740.407 7     -2696.518          45.000
G11  20416108.031 8 107287399.634 8     -1850.312          48.000    20416107.391 7  83600547.526 7     -1441.802          46.000
G22  20616988.078 8 108343101.591 8       170.145          51.000    20616984.680 8  84423122.086 8       132.583          51.000
R04  22451846.328 4 120228616.890 4     -3905.234          29.000
R05  19288726.742 8 103109333.957 8     -1023.125          51.000    19288729.430 8  80196157.083 8      -795.764          48.000
R06  20933267.891 7 111703981.906 7      3229.352          44.000
R19  23144642.734 5 123808207.447 5     -3884.258          33.000    23144644.883 6  96295316.133 6     -3021.089          38.000
R20  19485123.148 6 104195701.367 6      -918.902          41.000    19485127.539 8  81041116.579 8      -714.702          49.000
C05                                                                  39673813.773 6 159750007.463 6       -24.316          37.000
C11  21937507.719 8 114234348.933 8     -1152.762          49.000    21937508.086 8  88333235.739 8      -891.434          51.000
C12  25083971.648 7 130618775.982 7     -3271.121          42.000    25083974.258 7 101002712.732 7     -2529.399          46.000
C14  22433876.766 8 116819080.480 8      1933.266          49.000    22433876.555 8  90331948.410 8      1494.945          49.000
C21  23338254.836 6 121528442.015 6     -2294.957          37.000
E03  24978909.094 8 131265052.913 8      2437.844          51.000    24978913.164 8 100579761.106 8      1868.021          51.000
E05  23789962.758 8 125017186.803 8      -180.086          51.000    23789965.328 8  95792326.275 8      -137.928          51.000
E09  24773288.164 6 130184487.363 6     -2490.711          36.000
E36  26325197.398 7 138339898.355 7     -2451.773          44.000    26325200.695 7 106000709.707 7     -1878.608          45.000
> 2020 05 07 20 03  0.0000000  0 19        .000000000000
G01  20279866.227 8 106571417.242 8       240.738          51.000    20279868.188 8  83042674.553 8       187.588          51.000
G03  21093938.250 7 110849425.822 7      1813.285          42.000    21093940.008 7  86376206.670 7      1412.953          42.000
G08  23030174.023 7 121024373.668 7     -3468.043          45.000    23030173.969 7  94304697.297 7     -2702.374          45.000
G11  20426713.953 8 107343134.684 8     -1867.430          50.000    20426713.180 8  83643977.437 8     -1455.140          48.000
G22  20616045.539 8 108338148.553 8       157.816          51.000    20616042.203 8  84419262.594 8       122.974          51.000
R04  22473754.695 5 120345887.844 5     -3911.527          31.000    22473762.008 4  93602419.603 4     -3042.299          26.000
R05  19294524.711 8 103140327.582 8     -1045.238          51.000    19294527.328 8  80220263.252 8      -812.963          49.000
R06  20915149.656 7 111607301.565 7      3213.953          44.000
R19  23166444.078 5 123924834.742 5     -3892.426          31.000    23166447.195 6  96386026.283 6     -3027.442          38.000
R20  19490333.969 7 104223564.406 7      -940.680          42.000    19490338.008 8  81062787.817 8      -731.640          49.000
C05                                                                  39673989.742 6 159750716.297 6       -24.454          37.000
C11  21944186.961 8 114269129.009 8     -1168.000          50.000    21944187.289 8  88360129.912 8      -903.114          51.000
C12  25102827.172 7 130716958.569 7     -3276.645          42.000    25102829.352 7 101078633.781 7     -2533.498          46.000
C14  22422765.633 8 116761221.580 8      1921.816          50.000    22422764.414 8  90287208.327 8      1486.113          50.000
C21  23351493.422 6 121597376.464 6     -2302.656          38.000
E03  24965011.773 8 131192020.600 8      2428.918          51.000    24965014.930 8 100523801.326 8      1861.149          50.000
E05  23791022.742 8 125022757.880 8      -193.512          51.000    23791025.336 8  95796595.049 8      -148.227          51.000
E09  24787521.102 5 130259283.358 5     -2497.707          34.000
E36  26339203.273 7 138413504.269 7     -2457.270          43.000    26339207.977 7 106057109.071 7     -1882.930          46.000
> 2020 05 07 20 03 30.0000000  0 20        .000000000000
G01  20278520.352 8 106564344.999 8       237.148          51.000    20278522.430 8  83037163.718 8       184.791          51.000
G03  21083611.562 7 110795161.943 7      1810.512          43.000    21083614.531 7  86333923.140 7      1410.788          43.000
G08  23049985.188 7 121128478.133 7     -3465.734          45.000    23049982.820 7  94385817.605 7     -2700.575          45.000
G11  20437415.281 8 107399368.962 8     -1874.973          50.000    20437414.570 8  83687796.353 8     -1461.018          49.000
G14  22022127.250 5 115727068.562 5      -860.902          34.000
G22  20615170.570 8 108333550.277 8       155.043          51.000    20615167.289 8  84415679.539 8       120.813          51.000
G32  22911745.836 5 120402011.237 5     -2299.520          33.000    22911748.961 5  93819776.934 5     -1791.833          31.000
R04  22495677.242 5 120463265.510 5     -3907.211          31.000    22495681.914 4  93693713.349 4     -3038.942          25.000
R05  19300444.430 8 103171971.227 8     -1057.820          51.000    19300447.070 8  80244874.987 8      -822.749          48.000
R06  20897116.047 7 111511069.480 7      3208.090          46.000
R19  23188289.031 5 124041697.602 5     -3890.977          30.000    23188293.500 6  96476919.660 6     -3026.315          37.000
R20  19495663.516 6 104252064.035 6      -952.551          41.000    19495667.273 8  81084954.179 8      -740.873          48.000
C05                                                                  39674165.383 6 159751423.305 6       -17.525          36.000
C11  21950951.125 8 114304350.380 8     -1173.754          50.000    21950950.992 8  88387365.336 8      -907.700          51.000
C12  25121710.711 7 130815287.293 7     -3272.676          42.000    25121712.141 7 101154667.851 7     -2530.577          45.000
C14  22411717.945 8 116703692.093 8      1919.852          50.000    22411716.172 8  90242722.932 8      1484.454          51.000
C21  23364773.656 6 121666528.019 6     -2301.117          39.000
E03  24951162.508 8 131119239.796 8      2429.410          51.000    24951164.547 8 100468034.263 8      1861.460          49.000
E05  23792157.156 8 125028720.364 8      -197.598          51.000    23792160.023 8  95801163.733 8      -151.433          51.000
E36  26353238.555 7 138487262.030 7     -2453.555          43.000    26353244.062 7 106113624.788 7     -1880.047          46.000
> 2020 05 07 20 04  0.0000000  0 20        .000000000000
G01  20277269.438 8 106557771.229 8       212.945          51.000    20277271.547 8  83032041.300 8       165.931          51.000
G03  21073374.633 7 110741367.849 7      1787.754          43.000    21073378.133 7  86292005.656 7      1393.055          43.000
G08  23069857.617 7 121232905.033 7     -3483.812          44.000    23069855.719 7  94467189.188 7     -2714.662          45.000
G11  20448233.422 8 107456216.932 8     -1902.770          51.000    20448232.852 8  83732093.459 8     -1482.681          50.000
G14  22027160.750 5 115753516.240 5      -889.977          34.000
G22  20614384.891 8 108329421.877 8       132.113          51.000    20614381.742 8  84412462.626 8       102.945          51.000
R04  22517648.938 5 120580918.399 5     -3924.363          30.000    22517653.336 4  93785221.192 4     -3052.283          28.000
R05  19306507.125 8 103204379.583 8     -1090.668          51.000    19306509.664 8  80270081.523 8      -848.297          48.000
R06  20879189.266 7 111415404.973 7      3181.766          45.000
R19  23210200.484 5 124158911.335 5     -3910.535          33.000    23210205.727 6  96568085.984 6     -3041.524          37.000
R20  19501133.992 6 104281317.544 6      -985.539          41.000    19501137.555 8  81107706.888 8      -766.530          48.000
C05                                                                  39674362.500 6 159752216.920 6       -25.965          36.000
C11  21957821.977 8 114340127.148 8     -1199.496          51.000    21957821.156 8  88415030.203 8      -927.575          51.000
C12  25140643.727 6 130913874.935 6     -3288.129          41.000    25140644.672 7 101230902.113 7     -2542.777          44.000
C14  22400755.586 8 116646606.858 8      1897.742          49.000    22400754.203 8  90198581.048 8      1467.458          51.000
C21  23378117.031 6 121736009.381 6     -2319.348          39.000
E03  24937383.414 8 131046827.116 8      2409.984          51.000    24937384.156 8 100412549.280 8      1846.599          49.000
E05  23793387.906 8 125035189.100 8      -221.766          51.000    23793390.953 8  95806120.317 8      -169.936          51.000
E09  24816108.875 5 130409532.956 5     -2511.562          33.000
E36  26367324.938 7 138561286.677 7     -2469.562          43.000    26367331.055 7 106170345.003 7     -1892.358          47.000
> 2020 05 07 20 04 30.0000000  0 19        .000000000000
G01  20276084.812 8 106551545.875 8       200.422          51.000    20276086.891 8  83027190.392 8       156.173          51.000
G03  21063198.680 7 110687893.203 7      1775.758          42.000    21063201.836 7  86250337.143 7      1383.710          42.000
G08  23089762.250 7 121337501.295 7     -3490.562          43.000    23089761.828 7  94548692.766 7     -2719.919          43.000
G11  20459139.578 8 107513527.030 8     -1919.309          51.000    20459139.102 8  83776750.682 8     -1495.565          50.000
G14  22032289.883 6 115780466.125 6      -907.953          36.000    22032291.148 5  90218554.890 5      -707.496          32.000
G22  20613659.773 8 108325611.663 8       120.484          51.000    20613656.633 8  84409493.645 8        93.887          51.000
R05  19312683.906 8 103237397.419 8     -1111.988          51.000    19312686.266 8  80295762.070 8      -864.880          49.000
R06  20861340.328 7 111320157.390 7      3166.590          43.000
R19  23232149.273 6 124276320.621 6     -3918.508          36.000    23232154.477 5  96659404.388 5     -3047.728          35.000
R20  19506716.859 6 104311172.200 6     -1006.438          39.000    19506720.094 8  81130927.167 8      -782.785          48.000
C05                                                                  39674552.375 6 159752981.669 6       -25.953          37.000
C11  21964770.508 8 114376309.809 8     -1214.129          51.000    21964769.188 8  88443008.900 8      -938.869          51.000
C12  25159597.195 6 131012570.842 6     -3292.969          40.000    25159597.711 7 101307220.056 7     -2546.335          43.000
C14  22389849.695 8 116589817.093 8      1886.762          48.000    22389849.086 8  90154667.632 8      1458.955          51.000
C21  23391494.094 6 121805669.392 6     -2326.297          37.000
E03  24923645.805 8 130974633.023 8      2401.477          51.000    24923645.523 8 100357231.791 8      1840.080          50.000
E05  23794686.445 8 125042012.843 8      -234.668          51.000    23794689.438 8  95811348.913 8      -179.861          51.000
E09  24830457.781 5 130484937.114 5     -2516.914          35.000
E36  26381433.422 7 138635427.124 7     -2474.695          42.000    26381439.781 7 106227153.946 7     -1896.039          47.000
> 2020 05 07 20 05  0.0000000  0 19        .000000000000
G01  20274968.953 8 106545681.689 8       188.965          51.000    20274970.898 8  83022620.917 8       147.248          51.000
G03  21053086.055 7 110634750.153 7      1765.523          42.000    21053087.938 7  86208927.077 7      1375.736          42.000
G08  23109700.508 6 121442276.397 6     -3495.703          40.000    23109701.398 6  94630335.707 6     -2723.925          41.000
G11  20470135.484 8 107571309.938 8     -1934.250          51.000    20470135.406 8  83821776.340 8     -1507.205          51.000
G14  22037514.922 6 115807927.403 6      -924.141          40.000    22037512.039 4  90239945.307 4      -720.119          26.000
G22  20612997.391 8 108322131.118 8       110.180          51.000    20612994.289 8  84406781.554 8        85.854          51.000
R05  19318976.359 8 103271034.155 8     -1131.895          51.000    19318978.617 8  80321923.983 8      -880.362          48.000
R06  20843570.711 7 111225340.761 7      3153.098          42.000
R19  23254137.453 6 124393935.401 6     -3924.293          39.000    23254141.727 6  96750882.651 6     -3052.225          36.000
R20  19512414.523 6 104341640.389 6     -1026.363          39.000    19512417.688 8  81154624.648 8      -798.283          48.000
C05                                                                  39674737.305 6 159753725.692 6       -24.932          36.000
C11  21971799.156 8 114412909.795 8     -1227.406          51.000    21971797.492 8  88471310.307 8      -949.024          51.000
C12  25178572.953 6 131111385.224 6     -3295.961          40.000    25178573.242 6 101383629.687 6     -2548.930          40.000
C14  22379002.406 8 116533335.196 8      1877.258          48.000    22379002.570 8  90110992.267 8      1451.576          51.000
C21  23404907.547 6 121875518.318 6     -2331.660          38.000
E03  24909951.867 8 130902670.565 8      2394.383          51.000    24909951.312 8 100302091.798 8      1834.690          50.000
E05  23796054.711 8 125049202.927 8      -246.129          51.000    23796057.766 8  95816858.230 8      -188.595          51.000
E09  24844835.648 6 130560493.482 6     -2521.566          37.000
E36  26395565.836 7 138709694.880 7     -2478.168          42.000    26395572.477 7 106284060.421 7     -1898.799          46.000
> 2020 05 07 20 05 30.0000000  0 19        .000000000000
G01  20273926.555 8 106540203.668 8       176.102          51.000    20273928.461 8  83018352.339 8       137.222          51.000
G03  21043040.977 6 110581963.512 6      1753.703          40.000    21043043.055 6  86167794.661 6      1366.522          41.000
G08  23129676.945 6 121547252.433 6     -3502.918          38.000    23129678.367 6  94712135.234 6     -2729.546          38.000
G11  20481225.477 8 107629588.597 8     -1950.965          51.000    20481225.945 8  83867188.302 8     -1520.232          50.000
G14  22042840.789 6 115835916.620 6      -941.930          40.000    22042838.477 5  90261755.016 5      -733.983          32.000
G22  20612402.258 8 108319003.764 8        98.250          51.000    20612399.266 8  84404344.666 8        76.558          51.000
R05  19325388.695 8 103305312.332 8     -1153.383          51.000    19325391.078 8  80348584.801 8      -897.076          48.000
R06  20825887.164 7 111130982.232 7      3137.793          43.000
R19  23276168.391 6 124511778.382 6     -3932.277          38.000    23276171.438 6  96842538.355 6     -3058.435          36.000
R20  19518231.562 6 104372747.187 6     -1047.992          39.000    19518234.406 8  81178818.840 8      -815.102          48.000
C05                                                                  39674922.055 6 159754469.659 6       -24.753          37.000
C11  21978912.391 8 114449950.914 8     -1242.055          51.000    21978910.609 8  88499952.852 8      -960.529          51.000
C12  25197575.766 6 131210340.762 6     -3300.746          39.000    25197575.656 6 101460148.428 6     -2552.458          37.000
C14  22368219.078 8 116477185.720 8      1866.035          49.000    22368219.234 8  90067573.956 8      1442.861          51.000
C21  23418361.945 6 121945578.642 6     -2339.000          39.000
E03  24896306.406 8 130830965.216 8      2385.773          51.000    24896306.320 8 100247148.810 8      1828.048          51.000
E05  23797497.188 8 125056783.110 8      -259.375          51.000    23797500.391 8  95822666.444 8      -198.730          51.000
E09  24859246.609 6 130636222.700 6     -2527.266          38.000
E36  26409727.102 7 138784113.785 7     -2483.383          43.000    26409733.492 7 106341082.689 7     -1902.879          46.000
> 2020 05 07 20 06  0.0000000  0 19        .000000000000
G01  20272957.609 8 106535111.649 8       163.184          51.000    20272959.461 8  83014384.534 8       127.156          51.000
G03  21033063.500 6 110529532.725 6      1741.504          39.000    21033066.344 6  86126939.470 6      1357.016          38.000
G08  23149690.898 5 121652425.491 5     -3509.059          35.000    23149692.789 5  94794088.294 5     -2734.331          34.000
G11  20492409.203 8 107688361.180 8     -1967.465          51.000    20492410.188 8  83912985.117 8     -1533.089          49.000
G14  22048267.094 6 115864431.587 6      -959.289          37.000    22048264.719 5  90283974.513 5      -747.501          35.000
G22  20611874.031 8 108316228.251 8        86.582          51.000    20611871.141 8  84402181.951 8        67.470          51.000
R05  19331920.320 8 103340228.381 8     -1174.543          51.000    19331922.781 8  80375741.734 8      -913.533          48.000
R06  20808290.148 7 111037082.638 7      3122.305          43.000
R19  23298240.438 5 124629846.393 5     -3939.531          35.000    23298242.961 6  96934369.075 6     -3064.080          37.000
R20  19524167.969 6 104404492.059 6     -1068.832          39.000    19524170.758 8  81203509.300 8      -831.314          48.000
C05                                                                  39675106.352 6 159755211.890 6       -24.515          37.000
C11  21986109.602 8 114487431.993 8     -1256.770          51.000    21986108.344 8  88528935.570 8      -971.769          51.000
C12  25216605.352 6 131309435.067 6     -3305.363          38.000    25216604.891 5 101536774.521 5     -2555.892          32.000
C14  22357499.938 8 116421368.274 8      1854.879          49.000    22357499.586 8  90024412.389 8      1434.431          51.000
C21  23431856.836 6 122015847.659 6     -2345.777          38.000
E03  24882709.664 8 130759517.210 8      2377.324          50.000    24882710.461 8 100192402.998 8      1821.544          51.000
E05  23799013.609 8 125064751.815 8      -272.121          51.000    23799016.891 8  95828772.360 8      -208.469          51.000
E09  24873690.219 6 130712122.358 6     -2532.750          38.000
E36  26423916.992 7 138858682.500 7     -2488.270          44.000    26423922.844 7 106398219.740 7     -1906.435          45.000
> 2020 05 07 20 06 30.0000000  0 19        .000000000000
G01  20272061.438 8 106530402.293 8       150.586          51.000    20272063.234 8  83010714.916 8       117.340          51.000
G03  21023153.750 6 110477453.938 6      1729.902          41.000    21023156.156 7  86086358.619 7      1347.976          42.000
G08  23169742.305 5 121757789.489 5     -3515.090          35.000    23169743.469 5  94876190.092 5     -2739.028          35.000
G11  20503686.273 8 107747622.898 8     -1983.562          51.000    20503687.031 7  83959163.066 7     -1545.633          47.000
G14  22053792.445 6 115893467.536 6      -976.102          36.000    22053792.391 5  90306599.990 5      -760.593          35.000
G22  20611411.883 8 108313799.734 8        75.195          51.000    20611408.992 8  84400289.606 8        58.594          51.000
R05  19338570.156 8 103375775.965 8     -1195.406          51.000    19338572.609 8  80403389.857 8      -929.763          48.000
R06  20790779.289 7 110943639.625 7      3107.133          46.000
R19  23320351.977 4 124748157.651 4     -3946.773          29.000    23320355.484 6  97026359.749 6     -3069.716          38.000
R20  19530223.297 6 104436870.928 6     -1090.031          40.000    19530225.789 7  81228692.861 7      -847.802          47.000
C05                                                                  39675289.477 6 159755949.347 6       -24.581          36.000
C11  21993390.625 8 114525348.712 8     -1271.199          51.000    21993389.938 8  88558255.181 8      -982.963          51.000
C12  25235660.445 6 131408662.603 6     -3309.695          38.000    25235663.578 5 101613503.674 5     -2559.221          34.000
C14  22346844.008 8 116365879.421 8      1844.195          49.000    22346843.523 8  89981504.939 8      1426.046          51.000
C21  23445390.695 6 122086319.804 6     -2352.340          38.000
E03  24869161.375 8 130688323.642 8      2368.887          50.000    24869163.266 8 100137852.137 8      1815.094          51.000
E05  23800603.039 8 125073104.455 8      -284.742          51.000    23800606.344 8  95835172.466 8      -218.215          51.000
E09  24888165.125 6 130788186.803 6     -2538.176          38.000
E36  26438134.516 7 138933396.544 7     -2492.961          43.000    26438140.133 7 106455468.169 7     -1910.131          46.000
> 2020 05 07 20 07  0.0000000  0 18        .000000000000
G01  20271240.070 8 106526085.628 8       137.887          51.000    20271241.875 8  83007351.289 8       107.447          51.000
G03  21013312.688 6 110425736.799 6      1718.340          39.000    21013314.664 6  86046059.595 6      1338.966          39.000
G08  23189832.352 5 121863351.253 5     -3521.875          32.000    23189831.930 5  94958446.025 5     -2744.318          31.000
G11  20515058.070 8 107807381.260 8     -1999.719          51.000    20515057.891 7  84005727.978 7     -1558.222          45.000
G14  22059418.102 6 115923032.184 6      -993.332          38.000    22059419.523 6  90329637.495 6      -774.022          36.000
G22  20611017.469 8 108311727.125 8        63.676          51.000    20611014.609 8  84398674.608 8        49.621          51.000
R05  19345339.398 8 103411961.822 8     -1216.277          51.000    19345341.852 8  80431534.427 8      -945.993          48.000
R06  20773357.094 7 110850664.973 7      3091.875          47.000
R20  19536398.672 6 104469893.592 6     -1110.805          39.000    19536400.812 7  81254377.150 7      -863.959          47.000
C05                                                                  39675473.203 6 159756689.159 6       -24.225          36.000
C11  22000757.234 8 114563709.987 8     -1285.531          50.000    22000756.891 8  88587918.558 8      -994.106          51.000
C12  25254742.938 6 131508031.121 6     -3314.121          38.000    25254749.188 5 101690341.776 5     -2562.586          35.000
C14  22336252.812 8 116310728.852 8      1833.277          48.000    22336252.758 8  89938859.074 8      1417.543          51.000
C21  23458964.820 6 122157002.675 6     -2358.785          38.000
E03  24855663.719 8 130617394.948 8      2360.461          50.000    24855666.523 8 100083504.202 8      1808.671          51.000
E05  23802267.180 8 125081849.722 8      -297.543          51.000    23802270.516 8  95841873.405 8      -227.946          51.000
E09  24902672.508 6 130864423.793 6     -2543.559          39.000
E36  26452381.453 7 139008264.804 7     -2497.512          45.000    26452387.320 7 106512834.789 7     -1913.771          46.000
> 2020 05 07 20 07 30.0000000  0 19        .000000000000
G01  20270494.031 8 106522164.823 8       124.156          51.000    20270495.898 8  83004296.130 8        96.745          51.000
G03  21003540.398 6 110374384.148 6      1705.562          40.000    21003543.062 6  86006044.617 6      1329.010          40.000
G08  23209960.516 5 121969110.630 5     -3529.488          33.000    23209958.195 5  95040855.845 5     -2750.251          32.000
G11  20526524.734 8 107867638.137 8     -2016.770          51.000    20526524.023 7  84052681.330 7     -1571.509          46.000
G14  22065144.961 6 115953127.615 6     -1011.844          39.000    22065144.297 5  90353088.411 5      -788.453          32.000
G22  20610690.945 8 108310012.175 8        51.223          51.000    20610688.180 8  84397338.313 8        39.914          51.000
G32  23019734.250 5 120969519.047 5     -2419.688          31.000
R05  19352228.125 8 103448786.118 8     -1238.059          51.000    19352230.539 8  80460175.554 8      -962.934          49.000
R06  20756023.539 7 110758163.217 7      3075.555          46.000
R20  19542694.945 6 104503562.802 6     -1133.250          38.000    19542697.281 7  81280564.299 7      -881.417          47.000
C05                                                                  39675657.891 6 159757433.267 6       -24.744          36.000
C11  22008209.766 8 114602517.908 8     -1300.926          50.000    22008209.586 8  88617927.300 8     -1006.004          51.000
C12  25273852.555 6 131607541.438 6     -3319.023          36.000    25273861.445 6 101767289.586 6     -2566.649          38.000
C14  22325727.125 8 116255919.567 8      1821.309          48.000    22325727.477 8  89896477.109 8      1408.388          51.000
C21  23472579.219 6 122227897.003 6     -2366.629          38.000
E03  24842217.391 8 130546734.709 8      2350.953          51.000    24842220.594 8 100029361.986 8      1801.350          51.000
E05  23804006.414 8 125090989.460 8      -311.203          51.000    23804009.680 8  95848876.612 8      -238.442          51.000
E09  24917212.562 6 130940834.252 6     -2550.027          38.000
E36  26466658.516 7 139083289.413 7     -2503.363          45.000    26466664.453 7 106570321.202 7     -1918.123          46.000
> 2020 05 07 20 08  0.0000000  0 20        .000000000000
G01  20269822.531 8 106518635.820 8       110.863          51.000    20269824.414 8  83001546.268 8        86.390          51.000
G03  20993837.078 7 110323391.560 7      1693.590          43.000    20993839.914 7  85966310.145 7      1319.683          42.000
G08  23230124.133 5 122075060.485 5     -3534.918          33.000    23230120.203 5  95123414.101 5     -2754.488          33.000
G11  20538085.102 8 107928387.535 8     -2033.309          51.000    20538084.438 8  84100018.480 8     -1584.396          48.000
G14  22070971.562 6 115983747.776 6     -1030.281          39.000    22070970.594 5  90376948.332 5      -802.820          34.000
G22  20610431.508 8 108308649.353 8        39.387          51.000    20610428.727 8  84396276.378 8        30.691          51.000
G32  23033601.234 6 121042409.476 6     -2433.430          36.000
R05  19359234.961 8 103486241.776 8     -1259.270          51.000    19359237.570 8  80489307.738 8      -979.432          49.000
R06  20738776.711 7 110666131.570 7      3059.508          42.000
R19  23386937.836 4 125104344.676 4     -3968.668          29.000    23386945.930 7  97303406.021 7     -3086.742          42.000
R20  19549111.016 6 104537873.607 6     -1154.605          38.000    19549113.336 7  81307250.504 7      -898.026          46.000
C05                                                                  39675842.820 6 159758178.030 6       -24.962          37.000
C11  22015747.234 8 114641767.290 8     -1315.875          50.000    22015747.062 8  88648277.418 8     -1017.524          51.000
C12  25292988.062 5 131707187.502 5     -3323.621          33.000    25292999.523 6 101844342.257 6     -2570.288          37.000
C14  22315266.539 8 116201447.239 8      1809.906          49.000    22315266.773 8  89854355.711 8      1399.574          51.000
C21  23486233.172 6 122298996.326 6     -2373.883          39.000
E03  24828821.586 8 130476339.242 8      2341.855          51.000    24828824.688 8  99975422.630 8      1794.421          51.000
E05  23805819.727 8 125100518.223 8      -324.230          51.000    23805822.641 8  95856177.895 8      -248.484          51.000
E09  24931784.094 6 131017411.773 6     -2555.773          37.000
E36  26480964.484 7 139158465.100 7     -2508.641          46.000    26480970.016 7 106627923.357 7     -1922.205          46.000
> 2020 05 07 20 08 30.0000000  0 20        .000000000000
G01  20269226.094 8 106515501.479 8        98.391          51.000    20269228.078 8  82999103.938 8        76.668          51.000
G03  20984202.672 7 110272761.423 7      1682.324          42.000    20984205.211 6  85926858.138 6      1310.902          41.000
G08  23250323.031 6 122181200.672 6     -3540.797          36.000    23250315.445 5  95206120.647 5     -2759.072          35.000
G11  20549739.438 8 107989630.457 8     -2049.137          50.000    20549738.930 8  84147740.275 8     -1596.730          49.000
G14  22076898.422 6 116014893.552 6     -1046.789          36.000    22076898.414 5  90401217.858 5      -815.671          33.000
G22  20610239.453 8 108307640.160 8        28.254          51.000    20610236.680 8  84395490.008 8        22.019          51.000
G32  23047526.656 6 121115603.612 6     -2446.090          37.000
R05  19366359.656 8 103524328.029 8     -1279.418          51.000    19366362.453 8  80518930.384 8      -995.103          48.000
R06  20721617.430 7 110574574.056 7      3044.672          42.000
R19  23409219.648 5 125223524.233 5     -3975.547          33.000    23409225.578 7  97396101.309 7     -3092.089          42.000
R20  19555646.812 6 104572828.398 6     -1175.328          38.000    19555649.758 7  81334437.554 7      -914.144          47.000
C05                                                                  39676028.258 6 159758924.091 6       -24.690          36.000
C11  22023370.203 8 114681460.045 8     -1329.895          51.000    22023369.906 8  88678970.382 8     -1028.280          51.000
C12  25312149.695 5 131806969.846 5     -3327.297          34.000    25312163.422 5 101921500.365 5     -2573.134          35.000
C14  22304871.188 8 116147314.515 8      1799.285          49.000    22304871.000 8  89812496.886 8      1391.403          51.000
C21  23499926.570 6 122370301.213 6     -2379.754          37.000
E03  24815476.883 8 130406211.822 8      2333.750          51.000    24815479.820 8  99921688.671 8      1788.216          51.000
E05  23807707.328 8 125110437.556 8      -336.590          51.000    23807709.984 8  95863778.443 8      -257.808          51.000
E09  24946387.305 6 131094157.022 6     -2560.598          36.000
E36  26495299.648 7 139233793.562 7     -2512.895          47.000    26495304.305 7 106685642.610 7     -1925.453          46.000
> 2020 05 07 20 09  0.0000000  0 20        .000000000000
G01  20268704.875 8 106512762.663 8        84.641          51.000    20268706.984 8  82996969.810 8        65.954          51.000
G03  20974636.891 7 110222494.122 7      1669.375          42.000    20974639.062 7  85887688.896 7      1300.815          42.000
G08  23270557.164 6 122287528.702 6     -3547.105          38.000    23270542.680 6  95288973.499 6     -2763.984          36.000
G11  20561487.227 8 108051365.995 8     -2066.242          50.000    20561487.039 8  84195845.940 8     -1610.059          49.000
G14  22082925.047 6 116046563.924 6     -1064.449          37.000    22082925.312 5  90425896.058 5      -829.441          33.000
G22  20610114.609 8 108306984.199 8        15.766          51.000    20610111.914 8  84394978.902 8        12.288          51.000
G32  23061530.898 6 121189202.249 6     -2460.062          38.000    23061536.648 5  94433137.791 5     -1916.926          33.000
R05  19373601.961 8 103563042.664 8     -1301.090          51.000    19373604.914 8  80549041.772 8     -1011.959          48.000
R06  20704547.883 7 110483493.009 7      3027.773          42.000
R19  23431541.633 5 125342921.583 5     -3983.879          34.000    23431545.297 6  97488965.963 6     -3098.572          40.000
R20  19562303.836 6 104608427.413 6     -1197.324          39.000    19562307.031 7  81362125.656 7      -931.252          46.000
C05                                                                  39676214.297 6 159759673.561 6       -25.182          37.000
C11  22031078.430 8 114721595.775 8     -1345.367          51.000    22031077.938 8  88710005.904 8     -1040.284          51.000
C12  25331338.047 5 131906887.089 5     -3332.777          35.000    25331352.266 6 101998762.797 6     -2577.070          37.000
C14  22294540.922 8 116093522.014 8      1787.227          49.000    22294540.281 8  89770901.122 8      1382.003          51.000
C21  23513658.664 6 122441810.196 6     -2387.215          36.000
E03  24802183.328 8 130336353.690 8      2324.008          51.000    24802186.312 8  99868161.056 8      1780.745          51.000
E05  23809669.188 8 125120746.925 8      -350.242          51.000    23809671.930 8  95871677.869 8      -268.409          51.000
E09  24961022.266 6 131171068.479 6     -2566.332          36.000
E36  26509663.656 7 139309274.510 7     -2518.641          47.000    26509667.664 7 106743478.663 7     -1929.832          47.000
> 2020 05 07 20 09 30.0000000  0 20        .000000000000
G01  20268258.266 8 106510416.039 8        71.723          51.000    20268260.523 8  82995141.281 8        55.888          51.000
G03  20965139.789 7 110172586.095 7      1657.523          43.000    20965141.789 7  85848799.535 7      1291.577          43.000
G08  23290825.484 6 122394038.174 6     -3553.188          36.000    23290809.508 5  95371967.809 5     -2768.724          32.000
G11  20573327.680 8 108113588.848 8     -2082.121          51.000    20573327.797 8  84244331.316 8     -1622.429          50.000
G14  22089051.070 6 116078753.713 6     -1081.523          36.000    22089049.750 5  90450979.005 5      -842.749          32.000
G22  20610056.250 8 108306677.085 8         4.555          51.000    20610053.383 8  84394739.598 8         3.549          51.000
G32  23075611.359 6 121263199.029 6     -2473.590          38.000    23075618.727 5  94490797.586 5     -1927.473          31.000
R05  19380960.672 8 103602378.920 8     -1321.453          51.000    19380963.516 8  80579636.642 8     -1027.797          48.000
R06  20687567.391 7 110392885.794 7      3012.566          43.000
R19  23453901.734 5 125462530.823 5     -3990.883          35.000    23453904.258 6  97581995.415 6     -3104.017          39.000
R20  19569080.492 6 104644666.780 6     -1218.770          39.000    19569083.391 7  81390311.825 7      -947.932          46.000
C05                                                                  39676400.297 6 159760422.455 6       -24.938          36.000
C11  22038870.742 8 114762170.199 8     -1359.703          51.000    22038870.133 8  88741380.640 8     -1051.436          51.000
C12  25350551.461 5 132006933.757 5     -3337.078          35.000    25350564.641 5 102076125.321 5     -2580.477          35.000
C14  22284275.117 8 116040066.155 8      1776.340          48.000    22284274.344 8  89729565.688 8      1373.545          51.000
C21  23527429.008 5 122513517.513 5     -2393.055          34.000
E03  24788940.312 8 130266761.938 8      2315.297          51.000    24788943.375 8  99814837.547 8      1774.095          50.000
E05  23811704.398 8 125131441.676 8      -362.820          51.000    23811707.234 8  95879872.572 8      -277.996          51.000
E09  24975688.008 5 131248140.679 5     -2571.805          35.000
E36  26524055.570 8 139384903.475 8     -2523.293          48.000    26524059.297 7 106801428.120 7     -1933.399          46.000
> 2020 05 07 20 10  0.0000000  0 20        .000000000000
G01  20267884.781 8 106508453.863 8        62.117          51.000    20267887.180 8  82993612.307 8        48.403          51.000
G03  20955709.398 6 110123029.053 6      1649.129          41.000    20955711.398 6  85810183.716 6      1285.039          41.000
G08  23311113.211 5 122500739.473 5     -3555.527          34.000    23311111.133 5  95455107.363 5     -2770.541          32.000
G11  20585259.062 8 108176289.001 8     -2094.727          51.000    20585259.273 8  84293188.592 8     -1632.251          50.000
G14  22095274.391 5 116111453.690 5     -1095.562          32.000    22095271.766 5  90476459.490 5      -853.682          30.000
G22  20610062.406 8 108306709.288 8        -3.520          51.000    20610059.461 8  84394764.705 8        -2.742          51.000
G32  23089765.805 6 121337583.269 6     -2482.859          37.000
R05  19388433.617 8 103642325.758 8     -1338.531          51.000    19388436.367 8  80610706.422 8     -1041.080          48.000
R06  20670675.484 7 110302745.621 7      3000.023          46.000
R19  23476299.031 5 125582340.778 5     -3993.867          34.000    23476300.648 6  97675181.011 6     -3106.338          37.000
R20  19575975.859 6 104681537.783 6     -1236.344          40.000    19575977.922 7  81418989.278 7      -961.601          46.000
C05                                                                  39676584.625 6 159761164.312 6       -22.056          36.000
C11  22046745.211 8 114803174.589 8     -1370.805          50.000    22046745.086 8  88773087.833 8     -1060.087          51.000
C12  25369787.508 5 132107099.891 5     -3337.453          34.000    25369798.133 6 102153580.287 6     -2581.099          38.000
C14  22274072.516 8 115986939.096 8      1768.465          48.000    22274071.562 8  89688484.523 8      1367.483          51.000
C21  23541236.438 6 122585413.354 6     -2396.406          36.000
E03  24775746.492 8 130197429.248 8      2309.832          50.000    24775749.617 8  99761712.528 8      1769.892          49.000
E05  23813811.125 8 125142512.735 8      -372.148          51.000    23813813.734 8  95888355.599 8      -285.222          51.000
E09  24990382.398 5 131325346.577 5     -2573.621          34.000
E36  26538473.625 7 139460671.569 7     -2524.816          47.000    26538477.023 7 106859484.186 7     -1934.603          46.000
> 2020 05 07 20 10 30.0000000  0 18        .000000000000
G01  20267584.336 8 106506875.512 8        44.414          51.000    20267586.820 8  82992382.432 8        34.608          51.000
G03  20946344.969 6 110073822.012 6      1632.582          40.000    20946346.023 6  85771840.627 6      1272.142          40.000
G11  20597280.789 8 108239464.232 8     -2115.594          51.000    20597280.875 8  84342416.056 8     -1648.515          48.000
G14  22101593.562 5 116144657.937 5     -1116.559          34.000
G22  20610132.633 8 108307078.859 8       -19.750          51.000    20610129.977 8  84395052.705 8       -15.387          51.000
G32  23103993.758 5 121412351.318 5     -2500.828          32.000    23104006.406 5  94607027.699 5     -1948.709          32.000
R05  19396020.172 8 103682879.322 8     -1363.668          51.000    19396022.922 8  80642248.109 8     -1060.631          48.000
R06  20653872.016 7 110213073.888 7      2979.328          46.000
R19  23498732.469 5 125702348.063 5     -4005.797          33.000    23498734.562 6  97768520.063 6     -3115.620          36.000
R20  19582988.945 6 104719039.161 6     -1262.332          39.000    19582991.312 7  81448156.977 7      -981.814          46.000
C05                                                                  39676766.789 6 159761898.181 6       -25.282          36.000
C11  22054701.641 8 114844607.212 8     -1390.000          50.000    22054702.305 8  88805126.154 8     -1074.848          51.000
C12  25389046.359 5 132207382.999 5     -3347.312          33.000    25389054.406 6 102231125.504 6     -2587.699          41.000
C14  22263932.945 8 115934139.967 8      1752.766          48.000    22263931.758 8  89647656.960 8      1355.350          51.000
C21  23555079.086 6 122657494.736 6     -2407.754          36.000
E03  24762602.023 8 130128355.384 8      2296.344          50.000    24762604.828 8  99708785.842 8      1759.572          49.000
E05  23815989.117 8 125153958.089 8      -389.551          51.000    23815991.445 8  95897125.438 8      -298.475          51.000
E36  26552917.344 7 139536577.062 7     -2534.266          46.000    26552920.977 7 106917645.538 7     -1941.870          47.000
> 2020 05 07 20 11  0.0000000  0 19        .000000000000
G01  20267371.305 8 106505756.285 8        31.145          51.000    20267373.852 8  82991510.312 8        24.268          51.000
G03  20937061.562 6 110025039.964 6      1620.473          39.000    20937061.039 6  85733828.590 6      1262.703          39.000
G08  23351833.047 5 122714710.356 5     -3571.723          30.000
G11  20609406.938 8 108303188.057 8     -2131.719          51.000    20609406.984 8  84392070.979 8     -1661.080          48.000
G14  22108023.352 5 116178446.144 5     -1134.527          34.000
G22  20610281.266 8 108307859.912 8       -31.328          51.000    20610278.789 8  84395661.329 8       -24.408          51.000
R04  22827883.234 5 122242254.782 5     -3985.781          30.000
R05  19403733.867 8 103724112.899 8     -1384.141          51.000    19403736.258 8  80674318.677 8     -1076.554          48.000
R06  20637169.742 7 110123948.243 7      2963.320          43.000
R19  23521216.234 5 125822626.330 5     -4012.328          32.000    23521219.797 6  97862069.948 6     -3120.694          36.000
R20  19590134.117 6 104757247.102 6     -1283.832          40.000    19590136.430 7  81477874.261 7      -998.536          46.000
C05                                                                  39676961.227 6 159762681.261 6       -25.935          36.000
C11  22062754.805 8 114886541.454 8     -1404.594          51.000    22062755.430 8  88837552.407 8     -1086.178          51.000
C12  25408342.547 5 132307855.134 5     -3351.055          35.000    25408347.656 7 102308816.971 7     -2591.103          42.000
C14  22253870.773 8 115881743.102 8      1741.516          48.000    22253869.352 8  89607140.412 8      1346.493          51.000
C21  23568970.391 5 122729833.911 5     -2413.719          34.000
E03  24749521.398 8 130059615.986 8      2287.242          51.000    24749523.648 8  99656115.436 8      1752.550          49.000
E05  23818252.562 8 125165851.682 8      -402.410          51.000    23818254.945 8  95906238.738 8      -308.370          51.000
E36  26567401.227 7 139612694.057 7     -2539.215          46.000    26567405.438 7 106975968.959 7     -1945.668          47.000
> 2020 05 07 20 11 30.0000000  0 20        .000000000000
G01  20267217.797 8 106504949.645 8        19.391          51.000    20267220.320 8  82990881.761 8        15.110          51.000
G03  20927831.750 6 109976535.818 6      1609.762          40.000    20927830.844 6  85696033.173 6      1254.363          40.000
G08  23372228.406 5 122821884.795 5     -3576.629          35.000    23372225.688 5  95705351.705 5     -2786.984          34.000
G11  20621609.312 8 108367311.819 8     -2146.391          51.000    20621609.102 7  84442037.528 7     -1672.515          46.000
G14  22114535.312 5 116212666.910 5     -1150.301          32.000
G22  20610480.133 8 108308904.402 8       -41.457          51.000    20610477.469 8  84396475.223 8       -32.304          51.000
R04  22850210.250 5 122361826.122 5     -3988.145          30.000
R05  19411546.180 8 103765874.116 8     -1403.113          51.000    19411548.719 8  80706799.636 8     -1091.310          48.000
R06  20620541.242 7 110035220.461 7      2948.586          44.000
R19  23543722.961 5 125943024.089 5     -4018.184          31.000    23543727.398 6  97955712.751 6     -3125.254          37.000
R20  19597383.641 6 104796011.426 6     -1303.875          41.000    19597385.664 7  81508024.285 7     -1014.125          47.000
C05                                                                  39677139.898 6 159763400.752 6       -24.693          36.000
C11  22070876.211 8 114928831.020 8     -1417.816          50.000    22070876.570 8  88870253.420 8     -1096.312          51.000
C12  25427647.133 6 132408369.041 6     -3353.766          36.000    25427649.156 6 102386540.710 6     -2592.943          41.000
C14  22243857.695 8 115829603.086 8      1731.402          49.000    22243856.461 8  89566822.434 8      1338.894          51.000
C21  23582882.461 6 122802283.466 6     -2418.660          36.000
E03  24736476.727 8 129991064.926 8      2279.652          51.000    24736478.852 8  99603589.356 8      1746.699          49.000
E05  23820572.961 8 125178045.591 8      -413.727          51.000    23820575.453 8  95915582.146 8      -316.990          51.000
E09  25034649.633 5 131557970.704 5     -2591.957          32.000
E36  26581897.773 8 139688874.912 8     -2542.781          48.000    26581902.391 7 107034341.319 7     -1948.161          47.000
> 2020 05 07 20 12  0.0000000  0 20        .000000000000
G01  20267147.953 8 106504582.516 8         5.758          51.000    20267150.523 8  82990595.691 8         4.487          51.000
G03  20918679.141 7 109928436.037 7      1597.449          42.000    20918679.234 7  85658552.924 7      1244.769          42.000
G08  23392663.258 6 122929272.194 6     -3582.207          37.000    23392659.719 5  95789030.210 5     -2791.333          35.000
G11  20633911.648 8 108431960.707 8     -2162.824          51.000    20633910.492 7  84492413.274 7     -1685.318          45.000
G14  22121153.180 6 116247445.091 6     -1167.770          38.000
G22  20610753.047 8 108310338.159 8       -53.414          51.000    20610750.094 8  84397592.453 8       -41.621          51.000
R04  22872569.227 4 122481551.086 4     -3991.609          27.000
R05  19419480.562 8 103808288.563 8     -1423.727          51.000    19419483.352 8  80739788.658 8     -1107.343          48.000
R06  20604013.078 7 109947021.010 7      2932.184          45.000
R19  23566275.047 5 126063667.272 5     -4024.082          30.000    23566280.914 6  98049546.397 6     -3129.842          37.000
R20  19604760.953 6 104835460.526 6     -1325.465          40.000    19604763.461 7  81538706.910 7     -1030.917          47.000
