     3.02           OBSERVATION DATA    M (MIXED)           RINEX VERSION / TYPE
SAVERINEX           SC600               20200505 155932 LCL PGM / RUN BY / DATE
       G = GPS       R = GLONASS       C = COMPASS          COMMENT
       S = SBAS      J = QZSS          E = GALILEO          COMMENT
BEAN                                                        MARKER NAME
1                                                           MARKER NUMBER
GEODETIC                                                    MARKER TYPE
Unige DICCA         GTER                                    OBSERVER / AGENCY
SC60291900056       SC600               2.12(191226)        REC # / TYPE / VERS
                    HEMA45          NONE                    ANT # / TYPE
  4509407.8091   693652.4678  4442337.6214                  APPROX POSITION XYZ
        0.0000        0.0000        0.0000                  ANTENNA: DELTA H/E/N
G    8 C1C L1C D1C S1C C2Y L2Y D2Y S2Y                      SYS / # / OBS TYPES
R    8 C1C L1C D1C S1C C2P L2P D2P S2P                      SYS / # / OBS TYPES
C    8 C1I L1I D1I S1I C7I L7I D7I S7I                      SYS / # / OBS TYPES
E    8 C1C L1C D1C S1C C7Q L7Q D7Q S7Q                      SYS / # / OBS TYPES
DBHZ                                                        COMMENT
     30.000                                                 INTERVAL
  2020    05    05    13    00    0.0000000     GPS         TIME OF FIRST OBS
  2020    05    05    13    59   30.0000000     GPS         TIME OF LAST OBS
     0                                                      RCV CLOCK OFFS APPL
G L1C  0.00000                                              SYS / PHASE SHIFT
G L2Y  0.00000                                              SYS / PHASE SHIFT
R L1C  0.00000                                              SYS / PHASE SHIFT
R L2P  0.25000                                              SYS / PHASE SHIFT
C L1I  0.00000                                              SYS / PHASE SHIFT
C L7I  0.00000                                              SYS / PHASE SHIFT
E L1C  0.50000                                              SYS / PHASE SHIFT
E L7Q -0.25000                                              SYS / PHASE SHIFT
 12 R01  1 R06 -4 R07  5 R08  6 R09 -2 R10 -5 R11  0 R12 -1 GLONASS SLOT / FRQ #
    R13 -2 R21  4 R22 -3 R23  3                             GLONASS SLOT / FRQ #
 C1C   71.950 C2C   71.950 C2P   71.950                     GLONASS COD/PHS/BIS
    18                                                      LEAP SECONDS
*** Above antenna height is from mark to ANTENNA BOTTOM.    COMMENT
    17     4        0.0000        ANT MEASURE TYPE/HEIGT    COMMENT
    0.0000    0.0000    0.0458    0.0405    0.0000          COMMENT
                    BASE STATION                            COMMENT
                                                            END OF HEADER
> 2020 05 05 13 00  0.0000000  0 18        .000000000000
G18  20862883.555 7 109635271.987 7      1838.199          43.000    20862885.555 7  85430092.913 7      1432.360          43.000
G21  20992309.352 8 110315349.085 8      1377.766          51.000    20992308.773 8  85959990.324 8      1073.584          49.000
G25  22723515.414 6 119412901.857 6     -2970.195          38.000    22723519.922 6  93048977.758 6     -2314.441          37.000
G29  21008701.141 8 110401475.578 8     -1777.773          51.000    21008700.438 8  86027118.464 8     -1385.278          51.000
G31  21401066.188 8 112463361.703 8     -1316.051          50.000    21401064.000 8  87633797.562 8     -1025.494          50.000
R12  20136367.820 8 107564869.057 8     -2701.461          51.000    20136373.055 8  83661565.337 8     -2101.136          48.000
R22  20138389.117 6 107500061.513 6     -2587.051          37.000    20138406.234 5  83611193.242 5     -2012.145          33.000
R23  19864874.492 8 106263750.154 8      1979.078          51.000    19864878.875 6  82649538.501 6      1539.283          41.000
R24  22908816.984 5 122503779.840 5      3753.918          32.000    22908828.828 5  95280711.963 5      2919.717          31.000
C05  39627974.234 6 206353249.161 6        19.105          36.000    39627973.578 6 159565429.659 6        14.586          38.000
C11  21977111.625 8 114440684.067 8       893.875          49.000    21977110.422 8  88492798.439 8       691.228          51.000
C12  22593860.539 8 117652158.438 8     -1958.090          51.000    22593859.945 8  90976109.906 8     -1514.216          51.000
C24  25188254.438 5 131161813.073 5     -3321.922          33.000
C25  22187529.609 8 115536298.215 8     -1116.648          51.000
E13  23800860.828 8 125074374.888 8     -1249.715          49.000    23800863.656 8  95836233.118 8      -957.517          51.000
E21  23891735.328 8 125551895.360 8     -1276.496          51.000    23891738.547 8  96202132.022 8      -978.094          51.000
E26  22961820.227 8 120665285.371 8      1634.086          51.000    22961823.734 8  92457773.110 8      1252.131          51.000
E27  27464900.055 7 144328994.415 7     -2815.004          45.000    27464904.922 7 110589715.870 7     -2156.975          46.000
> 2020 05 05 13 00 30.0000000  0 18        .000000000000
G18  20852439.375 7 109580388.279 7      1820.586          45.000    20852441.133 7  85387326.379 7      1418.641          45.000
G21  20984491.164 8 110274265.410 8      1361.020          50.000    20984490.906 8  85927977.095 8      1060.535          49.000
G25  22740496.836 7 119502133.870 7     -2978.578          43.000    22740501.070 7  93118509.171 7     -2320.970          43.000
G29  21018876.172 8 110454945.828 8     -1786.949          51.000    21018875.250 8  86068783.592 8     -1392.428          51.000
G31  21408630.758 8 112503114.738 8     -1334.312          51.000    21408627.727 8  87664773.944 8     -1039.721          51.000
R12  20151594.078 8 107646205.682 8     -2721.074          51.000    20151599.211 7  83724827.090 7     -2116.394          47.000
R22  20152961.711 6 107577873.299 6     -2600.715          37.000
R23  19853828.820 8 106204662.429 8      1960.000          51.000    19853832.984 6  82603581.376 6      1524.444          40.000
R24  22887782.492 5 122391298.208 5      3745.574          30.000
C05  39627863.555 5 206352684.676 5        18.883          35.000    39627863.656 6 159564984.755 6        14.568          38.000
C11  21971995.305 8 114414042.715 8       882.164          50.000    21971994.320 8  88472197.680 8       682.109          51.000
C12  22605163.289 8 117711014.798 8     -1965.707          51.000    22605162.648 8  91021621.367 8     -1519.970          51.000
C24  25207405.977 5 131261541.770 5     -3326.789          34.000
C25  22194007.359 8 115570032.722 8     -1132.496          51.000
E13  23808025.242 8 125112023.663 8     -1260.336          49.000    23808027.789 8  95865080.861 8      -965.724          51.000
E21  23899053.023 8 125590350.270 8     -1287.254          51.000    23899056.508 8  96231597.467 8      -986.334          51.000
E26  22952522.703 8 120616428.457 8      1622.945          51.000    22952526.547 8  92420337.326 8      1243.558          51.000
E27  27480981.078 7 144413502.726 7     -2818.770          43.000    27480985.219 7 110654468.891 7     -2160.010          45.000
> 2020 05 05 13 01  0.0000000  0 18        .000000000000
G18  20842094.617 8 109526024.211 8      1803.719          48.000    20842096.070 8  85344964.791 8      1405.495          48.000
G21  20976766.438 8 110233673.373 8      1345.227          48.000    20976766.562 8  85896346.945 8      1048.228          48.000
G25  22757521.562 7 119591593.349 7     -2985.480          44.000    22757525.336 7  93188217.824 7     -2326.348          44.000
G29  21029101.805 8 110508681.793 8     -1795.332          51.000    21029100.719 8  86110655.755 8     -1398.960          51.000
G31  21416296.977 8 112543401.854 8     -1351.531          51.000    21416294.297 8  87696166.506 8     -1053.141          51.000
R12  20166927.906 8 107728118.063 8     -2739.730          49.000    20166933.383 7  83788536.656 7     -2130.901          47.000
R22  20167614.133 6 107656084.945 6     -2613.395          41.000    20167615.703 4  83732509.659 4     -2032.643          27.000
R23  19842887.719 8 106146135.076 8      1941.828          51.000    19842891.852 6  82558060.093 6      1510.311          40.000
R24  22866801.953 4 122279061.154 4      3736.844          29.000
C05  39627754.039 6 206352113.589 6        18.957          36.000    39627753.695 6 159564541.899 6        14.786          37.000
C11  21966944.727 8 114387742.445 8       871.227          51.000    21966943.727 8  88451860.654 8       673.787          51.000
C12  22616507.031 8 117770084.816 8     -1972.277          51.000    22616506.445 8  91067298.054 8     -1525.017          51.000
C24  25226584.617 5 131361406.147 5     -3331.137          35.000
C25  22200575.070 8 115604234.550 8     -1147.586          51.000
E13  23815248.703 8 125149983.615 8     -1270.258          49.000    23815250.977 8  95894167.067 8      -973.287          51.000
E21  23906430.008 8 125629118.107 8     -1297.180          51.000    23906433.609 8  96261302.702 8      -993.907          51.000
E26  22943287.125 8 120567898.235 8      1612.480          51.000    22943290.734 8  92383151.847 8      1235.588          51.000
E27  27497081.742 6 144498120.411 6     -2822.055          41.000    27497085.820 7 110719305.694 7     -2162.228          43.000
> 2020 05 05 13 01 30.0000000  0 18        .000000000000
G18  20831842.195 8 109472145.548 8      1786.703          49.000    20831843.758 8  85302981.434 8      1392.236          49.000
G21  20969128.461 7 110193538.009 7      1328.898          47.000    20969129.141 7  85865072.639 7      1035.505          47.000
G25  22774582.312 7 119681243.584 7     -2992.781          43.000    22774585.930 7  93258075.130 7     -2332.040          43.000
G29  21039371.070 8 110562646.640 8     -1803.809          51.000    21039369.953 8  86152706.275 8     -1405.565          51.000
G31  21424057.914 8 112584186.092 8     -1368.844          51.000    21424056.062 8  87727946.414 8     -1066.635          51.000
R12  20182361.812 7 107810567.602 7     -2758.391          47.000    20182368.266 7  83852664.051 7     -2145.415          47.000
R22  20182332.750 6 107734656.347 6     -2626.000          38.000    20182333.555 4  83793637.357 4     -2042.444          26.000
R23  19832044.422 8 106088132.442 8      1923.430          51.000    19832048.789 6  82512946.929 6      1496.004          40.000
R24  22845871.852 5 122167098.363 5      3728.812          33.000
C05  39627638.422 6 206351511.405 6        19.875          36.000    39627637.867 6 159564074.723 6        15.202          37.000
C11  21961952.852 8 114361747.382 8       860.281          50.000    21961951.609 8  88431759.622 8       665.251          51.000
C12  22627884.789 8 117829331.678 8     -1978.945          51.000    22627884.320 8  91113111.486 8     -1530.255          51.000
C24  25245782.094 5 131461369.099 5     -3334.953          33.000
C25  22207225.969 8 115638867.694 8     -1162.766          51.000
E13  23822524.398 8 125188217.667 8     -1280.180          50.000    23822526.578 8  95923463.291 8      -980.857          51.000
E21  23913859.547 8 125668163.156 8     -1307.344          50.000    23913863.281 8  96291220.345 8     -1001.656          51.000
E26  22934106.805 8 120519659.381 8      1601.953          51.000    22934109.992 8  92346189.630 8      1227.527          51.000
E27  27513196.406 6 144582810.911 6     -2825.305          41.000    27513200.656 7 110784198.315 7     -2164.832          42.000
> 2020 05 05 13 02  0.0000000  0 18        .000000000000
G18  20821694.297 8 109418815.290 8      1769.203          51.000    20821695.758 8  85261425.401 8      1378.600          50.000
G21  20961589.633 8 110153921.970 8      1312.527          49.000    20961590.641 8  85834203.034 8      1022.749          49.000
G25  22791690.188 6 119771145.174 6     -3000.332          41.000    22791694.352 6  93328128.269 6     -2337.921          41.000
G29  21049695.359 8 110616900.761 8     -1812.559          51.000    21049694.422 8  86194982.213 8     -1412.380          51.000
G31  21431925.141 8 112625527.241 8     -1386.645          51.000    21431923.852 8  87760160.292 8     -1080.502          51.000
R12  20197907.195 7 107893614.809 7     -2777.516          47.000    20197914.680 7  83917256.317 7     -2160.290          47.000
R22  20197130.688 6 107813647.144 6     -2639.305          38.000    20197124.578 4  83855044.616 4     -2052.793          26.000
R23  19821311.469 8 106030717.740 8      1904.777          51.000    19821315.648 6  82468291.104 6      1481.497          41.000
R24  22824984.945 6 122055376.317 6      3720.238          37.000
C05  39627526.867 5 206350935.275 5        18.789          35.000    39627527.641 6 159563634.437 6        14.916          38.000
C11  21957030.742 8 114336118.306 8       848.898          49.000    21957029.844 8  88411941.613 8       656.371          51.000
C12  22639307.977 8 117888814.923 8     -1986.016          51.000    22639307.555 8  91159107.698 8     -1535.777          51.000
C24  25265008.570 5 131561489.869 5     -3339.258          31.000
C25  22213971.172 8 115673992.558 8     -1178.348          51.000
E13  23829863.953 8 125226786.094 8     -1290.543          50.000    23829865.828 8  95953015.722 8      -988.852          51.000
E21  23921353.539 8 125707546.886 8     -1317.828          51.000    23921357.336 8  96321397.510 8     -1009.746          51.000
E26  22924993.977 8 120471773.837 8      1590.918          51.000    22924997.094 8  92309498.147 8      1218.973          51.000
E27  27529337.305 6 144667634.974 6     -2828.918          40.000    27529342.047 7 110849193.249 7     -2167.717          43.000
> 2020 05 05 13 02 30.0000000  0 18        .000000000000
G18  20811656.375 8 109366063.084 8      1749.762          51.000    20811657.992 8  85220319.789 8      1363.451          50.000
G21  20954155.422 8 110114853.388 8      1294.152          50.000    20954156.414 8  85803759.979 8      1008.430          50.000
G25  22808851.047 7 119861325.200 7     -3009.562          43.000    22808855.211 7  93398398.433 7     -2345.111          43.000
G29  21060079.672 8 110671470.784 8     -1823.242          51.000    21060078.883 8  86237504.309 8     -1420.708          51.000
G31  21439903.523 8 112667452.050 8     -1406.234          51.000    21439902.086 8  87792828.958 8     -1095.767          51.000
R12  20213570.562 8 107977286.500 8     -2798.309          49.000    20213577.703 7  83982334.286 7     -2176.462          46.000
R22  20212010.664 5 107893082.320 5     -2652.984          30.000    20212008.992 5  83916832.139 5     -2063.420          30.000
R23  19810693.484 8 105973920.156 8      1884.062          51.000    19810698.422 7  82424115.257 7      1465.382          42.000
R24  22804128.266 6 121943928.620 6      3709.164          40.000    22804135.375 5  94845292.235 5      2884.908          30.000
C05  39627427.383 6 206350412.019 6        17.984          36.000    39627427.055 6 159563225.597 6        13.680          37.000
C11  21952184.344 8 114310882.766 8       835.719          51.000    21952183.781 8  88392427.908 8       646.176          51.000
C12  22650781.594 8 117948560.982 8     -1994.859          51.000    22650781.117 8  91205307.131 8     -1542.540          51.000
C24  25284270.273 5 131661794.614 5     -3345.180          30.000
C25  22220816.125 8 115709636.422 8     -1195.695          51.000
E13  23837272.102 8 125265715.702 8     -1302.629          49.000    23837273.672 8  95982844.899 8      -998.139          51.000
E21  23928917.773 8 125747297.406 8     -1330.086          51.000    23928920.984 8  96351855.721 8     -1019.148          51.000
E26  22915954.266 8 120424270.177 8      1578.184          51.000    22915957.516 8  92273099.270 8      1209.237          51.000
E27  27545509.062 6 144752619.977 6     -2834.520          39.000    27545515.547 7 110914311.478 7     -2171.914          43.000
> 2020 05 05 13 03  0.0000000  0 18        .000000000000
G18  20801708.516 8 109313784.931 8      1734.414          51.000    20801710.289 8  85179583.585 8      1351.491          51.000
G21  20946805.477 8 110076227.892 8      1279.859          50.000    20946806.383 8  85773662.182 8       997.293          50.000
G25  22826044.719 7 119951677.291 7     -3014.906          42.000    22826048.820 7  93468802.676 7     -2349.278          42.000
G29  21070503.805 8 110726250.033 8     -1829.699          51.000    21070503.078 8  86280189.420 8     -1425.740          51.000
G31  21447972.492 8 112709853.712 8     -1421.559          51.000    21447970.797 8  87825869.177 8     -1107.711          51.000
R12  20229331.258 8 108061473.166 8     -2815.113          51.000    20229337.047 7  84047812.749 7     -2189.536          46.000
R22  20226954.438 6 107972852.108 6     -2664.742          39.000    20226956.805 5  83978875.321 5     -2072.577          33.000
R23  19800170.773 8 105917632.981 8      1867.453          51.000    19800176.422 7  82380336.370 7      1452.467          42.000
R24  22783334.625 7 121832731.924 7      3702.750          42.000    22783348.086 5  94758806.013 5      2879.920          32.000
C05  39627317.477 6 206349839.294 6        20.168          36.000    39627317.266 6 159562783.506 6        15.151          38.000
C11  21947393.656 8 114285936.084 8       826.426          51.000    21947393.227 8  88373137.533 8       639.054          51.000
C12  22662285.211 8 118008463.910 8     -1999.664          50.000    22662284.602 8  91251627.861 8     -1546.291          51.000
C24  25303547.672 4 131762212.944 4     -3348.035          29.000
C25  22227740.766 8 115745694.144 8     -1209.051          51.000
E13  23844728.547 8 125304899.731 8     -1310.688          50.000    23844730.211 8  96012869.028 8     -1004.320          51.000
E21  23936531.961 8 125787309.310 8     -1338.457          51.000    23936534.172 8  96382514.181 8     -1025.550          51.000
E26  22906967.617 8 120377043.404 8      1569.305          51.000    22906970.898 8  92236912.547 8      1202.382          51.000
E27  27561691.547 6 144837659.612 6     -2835.855          40.000    27561700.320 7 110979471.564 7     -2172.994          44.000
> 2020 05 05 13 03 30.0000000  0 17        .000000000000
G18  20791861.508 8 109262037.106 8      1715.445          51.000    20791863.078 8  85139260.620 8      1336.711          51.000
G21  20939550.344 8 110038100.588 8      1261.797          50.000    20939550.812 8  85743952.584 8       983.218          50.000
G25  22843281.195 6 120042255.371 6     -3023.586          39.000    22843284.820 6  93539382.996 6     -2356.041          39.000
G29  21080977.922 8 110781291.795 8     -1839.785          51.000    21080977.094 8  86323079.089 8     -1433.599          51.000
G31  21456142.219 8 112752785.551 8     -1440.598          51.000    21456140.406 8  87859322.519 8     -1122.544          51.000
R12  20245198.664 8 108146228.402 8     -2835.375          51.000    20245203.414 7  84113733.451 7     -2205.295          46.000
R22  20241970.820 5 108053008.664 5     -2679.117          35.000    20241972.203 5  84041219.323 5     -2083.752          35.000
R23  19789754.273 8 105861912.616 8      1847.211          51.000    19789760.234 7  82336998.330 7      1436.720          42.000
R24  22762589.648 7 121721802.781 7      3692.262          43.000    22762600.359 5  94672527.805 5      2871.759          35.000
C05  39627208.289 5 206349277.459 5        17.926          35.000    39627208.859 6 159562349.158 6        14.148          38.000
C11  21942668.688 8 114261332.204 8       813.715          50.000    21942668.641 8  88354112.247 8       629.249          51.000
C12  22673829.195 8 118068576.720 8     -2008.035          50.000    22673828.438 8  91298110.894 8     -1552.592          50.000
C25  22234755.328 8 115782219.517 8     -1225.992          51.000
E13  23852243.727 8 125344391.769 8     -1322.223          50.000    23852245.578 8  96043129.145 8     -1013.072          51.000
E21  23944206.211 8 125827637.369 8     -1350.211          51.000    23944207.281 8  96413414.867 8     -1034.526          51.000
E26  22898044.344 8 120330148.786 8      1556.957          51.000    22898047.414 8  92200980.310 8      1193.008          51.000
E27  27577894.953 6 144922807.983 6     -2840.926          39.000    27577905.719 7 111044715.002 7     -2176.750          45.000
> 2020 05 05 13 04  0.0000000  0 18        .000000000000
G18  20782117.695 8 109210831.563 8      1698.270          51.000    20782118.773 8  85099360.235 8      1323.327          50.000
G21  20932392.367 8 110000483.035 8      1245.824          50.000    20932392.078 8  85714640.223 8       970.775          49.000
G25  22860561.531 5 120133068.986 5     -3030.195          34.000    22860565.156 5  93610146.704 5     -2361.197          35.000
G29  21091503.844 8 110836605.598 8     -1847.836          51.000    21091502.734 8  86366180.740 8     -1439.872          51.000
G31  21464414.219 8 112796256.631 8     -1457.539          50.000    21464412.844 8  87893196.046 8     -1135.745          50.000
R12  20261173.922 8 108231560.738 8     -2853.594          51.000    20261178.047 7  84180103.019 7     -2219.462          46.000
R22  20257059.742 6 108133559.066 6     -2691.473          37.000    20257060.648 5  84103869.648 5     -2093.374          35.000
R23  19779446.203 8 105806770.249 8      1828.984          51.000    19779452.086 7  82294109.824 7      1422.543          42.000
R24  22741897.383 7 121611153.839 7      3684.117          44.000    22741905.336 6  94586467.555 6      2865.424          39.000
C05  39627102.672 6 206348720.986 6        18.199          36.000    39627102.219 6 159561917.716 6        14.462          38.000
C11  21938011.352 8 114237081.342 8       802.992          50.000    21938011.766 8  88335359.970 8       620.864          51.000
C12  22685415.266 8 118128908.332 8     -2014.309          49.000    22685414.469 8  91344763.111 8     -1557.600          50.000
C24  25342177.750 4 131963369.471 4     -3355.379          27.000
C25  22241861.594 8 115819222.217 8     -1240.969          51.000
E13  23859819.336 8 125384200.977 8     -1331.816          49.000    23859821.070 8  96073632.307 8     -1020.474          51.000
E21  23951942.688 8 125868292.055 8     -1360.191          51.000    23951942.617 8  96444565.823 8     -1042.258          50.000
E26  22889186.391 8 120283597.232 8      1546.457          51.000    22889189.266 8  92165310.935 8      1184.966          51.000
E27  27594119.836 6 145008074.777 6     -2843.535          36.000    27594133.078 7 111110049.198 7     -2178.968          46.000
> 2020 05 05 13 04 30.0000000  0 17        .000000000000
G18  20772473.219 8 109160148.558 8      1680.277          51.000    20772473.727 8  85059867.000 8      1309.307          50.000
G21  20925327.398 8 109963354.726 8      1228.934          51.000    20925326.359 8  85685709.094 8       957.611          48.000
G25  22877882.297 5 120224095.869 5     -3038.312          33.000    22877884.359 5  93681076.511 5     -2367.519          34.000
G29  21102077.320 8 110892169.087 8     -1856.699          51.000    21102076.133 8  86409476.949 8     -1446.779          51.000
G31  21472784.578 8 112840244.436 8     -1475.328          50.000    21472784.039 8  87927472.228 8     -1149.606          50.000
R12  20277252.336 8 108317446.497 8     -2872.547          51.000    20277255.711 7  84246903.033 7     -2234.206          46.000
R22  20272218.750 5 108214479.299 5     -2703.523          32.000    20272220.117 6  84166807.449 6     -2102.747          37.000
R23  19769242.016 8 105752185.021 8      1809.766          51.000    19769247.805 6  82251654.639 6      1407.595          41.000
R24  22721253.930 7 121500765.563 7      3674.816          44.000    22721261.219 6  94500610.070 6      2858.194          40.000
C05  39626994.672 5 206348159.344 5        18.012          35.000    39626995.047 6 159561491.898 6        14.148          38.000
C11  21933417.820 8 114213162.143 8       791.258          51.000    21933418.141 8  88316864.147 8       611.866          51.000
C12  22697039.117 8 118189436.460 8     -2021.332          49.000    22697038.438 8  91391567.297 8     -1563.034          51.000
C25  22249055.086 8 115856680.626 8     -1256.633          50.000
E13  23867450.820 8 125424304.834 8     -1342.254          50.000    23867452.516 8  96104361.240 8     -1028.462          51.000
E21  23959737.367 8 125909252.121 8     -1370.891          51.000    23959736.570 8  96475950.758 8     -1050.399          50.000
E26  22880389.508 8 120237367.959 8      1535.137          51.000    22880392.625 8  92129888.501 8      1176.262          51.000
E27                                                                  27610378.203 7 111175457.340 7     -2181.821          47.000
> 2020 05 05 13 05  0.0000000  0 16        .000000000000
G18  20762930.133 8 109109999.349 8      1663.312          51.000    20762930.438 8  85020789.732 8      1296.088          49.000
G21  20918357.469 8 109926726.233 8      1213.148          51.000    20918355.680 8  85657167.413 8       945.310          48.000
G25  22895246.000 6 120315344.864 6     -3044.703          38.000    22895249.961 6  93752179.646 6     -2372.496          38.000
G29  21112699.883 8 110947990.842 8     -1864.469          51.000    21112698.805 8  86452974.403 8     -1452.836          51.000
G31  21481255.023 8 112884757.555 8     -1491.891          51.000    21481255.281 8  87962157.754 8     -1162.512          51.000
R12  20293435.367 8 108403893.759 8     -2890.262          50.000    20293438.320 7  84314139.757 7     -2247.984          45.000
R23  19759144.117 8 105698167.397 8      1791.668          51.000    19759149.867 6  82209640.915 6      1393.520          40.000
R24  22700661.281 7 121390649.898 7      3666.672          43.000    22700668.227 6  94414964.616 6      2851.859          39.000
C05  39626889.281 6 206347612.063 6        19.023          36.000    39626889.234 6 159561066.470 6        14.450          37.000
C11  21928890.086 8 114189584.193 8       780.871          51.000    21928889.898 8  88298632.177 8       603.807          51.000
C12  22708702.430 8 118250169.344 8     -2027.293          49.000    22708701.766 8  91438529.813 8     -1567.604          50.000
C25  22256337.680 8 115894603.934 8     -1271.285          51.000
E13  23875140.039 8 125464712.002 8     -1351.336          51.000    23875141.859 8  96135322.563 8     -1035.451          51.000
E21  23967591.984 8 125950527.443 8     -1380.492          51.000    23967591.359 8  96507577.268 8     -1057.804          51.000
E26  22871655.656 8 120191471.295 8      1524.902          51.000    22871659.211 8  92094720.929 8      1168.492          51.000
E27                                                                  27626642.711 7 111240946.385 7     -2183.775          46.000
> 2020 05 05 13 05 30.0000000  0 17        .000000000000
G18  20753488.594 8 109060383.808 8      1645.426          51.000    20753488.641 8  84982128.304 8      1282.150          49.000
G21  20911482.031 8 109890596.120 8      1196.504          50.000    20911480.328 8  85629014.094 8       932.341          48.000
G25  22912652.984 6 120406813.644 6     -3052.039          39.000    22912656.742 6  93823454.072 6     -2378.209          39.000
G29  21123370.875 8 111004067.675 8     -1873.059          51.000    21123370.047 8  86496670.626 8     -1459.526          51.000
G31  21489824.867 8 112929792.275 8     -1509.406          51.000    21489825.500 8  87997249.733 8     -1176.161          51.000
R12  20309722.828 8 108490898.442 8     -2908.883          51.000    20309725.695 7  84381810.011 7     -2262.467          43.000
R22  20302747.461 5 108377427.025 5     -2728.281          30.000    20302753.156 6  84293583.219 6     -2121.997          36.000
R23  19749152.367 8 105644716.235 8      1772.738          51.000    19749157.680 6  82168067.793 6      1378.799          40.000
R24  22680119.312 7 121280806.825 7      3657.551          42.000    22680125.477 6  94329531.228 6      2844.765          37.000
C05  39626783.375 6 206347060.017 6        19.238          36.000    39626783.789 6 159560641.166 6        14.393          38.000
C11  21924427.195 8 114166345.586 8       769.535          50.000    21924427.305 8  88280662.622 8       595.005          51.000
C12  22720404.469 8 118311104.324 8     -2033.902          48.000    22720403.758 8  91485648.596 8     -1572.766          50.000
C25  22263709.477 8 115932989.904 8     -1286.750          51.000
E13  23882886.398 8 125505419.596 8     -1361.332          51.000    23882888.273 8  96166514.090 8     -1043.131          50.000
E21  23975506.312 8 125992116.404 8     -1391.016          51.000    23975506.281 8  96539444.111 8     -1065.861          51.000
E26  22862984.734 8 120145906.083 8      1513.801          51.000    22862988.672 8  92059807.337 8      1159.958          51.000
E27                                                                  27642926.570 7 111306514.607 7     -2186.490          46.000
> 2020 05 05 13 06  0.0000000  0 17        .000000000000
G18  20744144.320 8 109011279.628 8      1627.367          51.000    20744144.062 8  84943865.304 8      1268.078          49.000
G21  20904696.562 8 109854941.086 8      1179.660          50.000    20904695.414 8  85601230.971 8       919.216          48.000
G25  22930096.828 6 120498477.631 6     -3059.133          38.000    22930100.953 6  93894880.569 6     -2383.740          39.000
G29  21134085.672 8 111060374.803 8     -1881.727          51.000    21134085.164 8  86540546.296 8     -1466.280          51.000
G31  21498489.297 8 112975323.668 8     -1527.055          51.000    21498489.711 8  88032728.747 8     -1189.910          51.000
R12  20326110.180 8 108578434.445 8     -2927.699          51.000    20326112.656 7  84449893.461 7     -2277.102          43.000
R23  19739261.992 8 105591807.953 8      1753.527          51.000    19739267.117 7  82126916.940 7      1363.855          42.000
R24  22659624.062 6 121171214.479 6      3648.082          40.000    22659628.773 6  94244292.824 6      2837.400          36.000
C05  39626673.688 5 206346488.464 5        18.266          35.000    39626674.180 6 159560199.950 6        14.133          38.000
C11  21920024.914 8 114143422.699 8       757.859          51.000    21920025.414 8  88262937.207 8       585.977          51.000
C12  22732140.469 8 118372216.425 8     -2040.969          48.000    22732139.617 8  91532904.351 8     -1578.264          49.000
C24  25419735.266 5 132367219.723 5     -3372.773          31.000
C25  22271165.320 8 115971814.419 8     -1302.449          50.000
E13  23890685.078 8 125546402.629 8     -1371.680          51.000    23890686.812 8  96197916.682 8     -1051.003          49.000
E21  23983475.719 8 126033995.278 8     -1401.684          51.000    23983476.602 8  96571533.124 8     -1074.050          51.000
E26  22854372.164 8 120100649.017 8      1502.598          51.000    22854376.594 8  92025129.878 8      1151.269          51.000
E27                                                                  27659225.430 7 111372143.179 7     -2189.417          47.000
> 2020 05 05 13 06 30.0000000  0 18        .000000000000
G18  20734906.742 8 108962737.357 8      1609.547          51.000    20734906.750 8  84906040.168 8      1254.195          49.000
G21  20898011.438 8 109819811.444 8      1163.055          51.000    20898010.297 7  85573857.241 7       906.276          47.000
G25  22947587.031 6 120590384.899 6     -3066.848          38.000    22947591.688 6  93966496.650 6     -2389.754          38.000
G29  21144853.469 8 111116960.278 8     -1889.926          51.000    21144853.156 8  86584638.860 8     -1472.669          51.000
G31  21507257.344 8 113021399.370 8     -1544.074          51.000    21507257.398 8  88068631.873 8     -1203.175          51.000
R12  20342606.273 8 108666549.493 8     -2945.945          51.000    20342608.352 7  84518427.325 7     -2291.294          45.000
R22  20333546.266 4 108541854.116 4     -2752.246          28.000    20333551.695 5  84421449.767 5     -2140.636          35.000
R23  19729482.492 8 105539492.982 8      1734.715          51.000    19729487.594 7  82086227.520 7      1349.223          42.000
R24  22639183.461 5 121061924.650 5      3639.227          35.000    22639189.211 6  94159289.628 6      2830.507          37.000
C05  39626569.617 6 206345946.112 6        18.582          36.000    39626570.148 6 159559775.576 6        14.088          38.000
C11  21915692.742 8 114120863.793 8       746.727          51.000    21915693.008 8  88245493.228 8       577.413          51.000
C12  22743919.594 8 118433552.970 8     -2047.383          48.000    22743918.602 8  91580333.631 8     -1583.160          49.000
C24  25439180.219 5 132468471.658 5     -3376.840          32.000
C25  22278714.039 8 116011125.520 8     -1317.648          50.000
E13  23898545.289 8 125587709.017 8     -1381.379          51.000    23898546.859 8  96229567.029 8     -1058.405          49.000
E21  23991509.617 8 126076213.230 8     -1412.047          51.000    23991511.531 8  96603881.948 8     -1081.961          51.000
E26  22845827.641 8 120055749.766 8      1491.516          51.000    22845832.297 8  91990726.564 8      1142.853          51.000
E27  27675543.508 6 145435964.070 6     -2860.434          38.000    27675548.625 8 111437869.252 8     -2191.821          48.000
> 2020 05 05 13 07  0.0000000  0 18        .000000000000
G18  20725771.602 8 108914733.093 8      1591.234          51.000    20725771.891 8  84868634.274 8      1239.926          50.000
G21  20891421.797 8 109785182.097 8      1146.012          51.000    20891420.266 7  85546873.345 7       892.996          47.000
G25  22965118.133 6 120682509.345 6     -3074.430          38.000    22965122.945 6  94038281.901 6     -2395.663          38.000
G29  21155669.320 8 111173797.756 8     -1898.727          51.000    21155669.000 8  86628927.792 8     -1479.527          51.000
G31  21516123.977 8 113067992.524 8     -1561.641          51.000    21516123.680 8  88104938.221 8     -1216.863          51.000
R12  20359205.414 8 108755215.766 8     -2964.582          51.000    20359207.398 8  84587389.939 8     -2305.786          48.000
R22  20349053.172 5 108624614.642 5     -2764.766          34.000    20349063.391 6  84485822.248 6     -2150.373          36.000
R23  19719809.070 8 105487746.262 8      1715.520          51.000    19719814.172 7  82045980.103 7      1334.293          42.000
R24  22618795.078 6 120952913.766 6      3629.227          36.000    22618803.148 6  94074503.352 6      2822.732          40.000
C05  39626466.195 5 206345408.155 5        18.242          35.000    39626466.719 6 159559358.797 6        13.889          38.000
C11  21911425.617 8 114098643.695 8       735.125          51.000    21911425.492 8  88228311.242 8       568.373          51.000
C12  22755736.773 7 118495087.740 7     -2054.398          47.000    22755735.781 8  91627916.204 8     -1588.630          49.000
C24  25458643.570 5 132569839.745 5     -3380.449          34.000
C25  22286351.414 8 116050897.528 8     -1333.262          50.000
E13  23906462.055 8 125629312.286 8     -1391.570          51.000    23906463.398 8  96261444.849 8     -1066.289          48.000
E21  23999603.266 8 126118745.013 8     -1422.844          51.000    23999605.906 8  96636471.244 8     -1090.261          51.000
E26  22837346.750 8 120011183.537 8      1479.980          51.000    22837351.125 8  91956578.414 8      1134.083          51.000
E27  27691883.773 7 145521843.560 7     -2864.328          43.000    27691890.859 8 111503672.873 8     -2194.670          48.000
> 2020 05 05 13 07 30.0000000  0 18        .000000000000
G18  20716736.703 8 108867254.381 8      1573.551          51.000    20716736.930 8  84831637.895 8      1226.143          50.000
G21  20884924.797 8 109751039.993 8      1129.594          51.000    20884922.930 7  85520269.146 7       880.206          46.000
G25  22982687.227 6 120774836.203 6     -3081.227          39.000    22982692.328 6  94110224.765 6     -2400.962          39.000
G29  21166530.195 8 111230871.942 8     -1906.621          51.000    21166529.836 8  86673401.172 8     -1485.679          51.000
G31  21525086.219 8 113115087.951 8     -1578.527          51.000    21525085.984 8  88141635.956 8     -1230.021          51.000
R12  20375904.070 8 108844416.852 8     -2982.480          51.000    20375906.398 8  84656768.539 8     -2319.710          48.000
R22  20364624.156 5 108707724.228 5     -2776.992          34.000    20364631.469 5  84550462.971 5     -2159.889          30.000
R23  19710238.906 8 105436554.074 8      1696.895          51.000    19710244.250 6  82006164.004 6      1319.810          41.000
R24  22598461.750 6 120844169.398 6      3620.062          38.000    22598468.102 6  93989924.414 6      2815.604          40.000
C05  39626360.867 6 206344858.977 6        18.570          36.000    39626361.250 6 159558934.139 6        13.864          37.000
C11  21907220.656 8 114076748.433 8       724.176          50.000    21907220.414 8  88211380.459 8       559.994          51.000
C12  22767589.070 7 118556805.615 7     -2060.664          46.000    22767588.234 8  91675640.366 8     -1593.358          49.000
C24  25478127.742 5 132671308.628 5     -3384.598          35.000
C25  22294074.781 8 116091116.038 8     -1348.348          50.000
E13  23914432.367 8 125671197.272 8     -1401.156          50.000    23914433.680 8  96293538.551 8     -1073.607          48.000
E21  24007753.930 8 126161576.767 8     -1432.992          51.000    24007756.992 8  96669290.369 8     -1098.007          51.000
E26  22828926.945 8 119966936.854 8      1469.273          51.000    22828930.828 8  91922675.120 8      1125.792          51.000
E27  27708241.836 7 145607809.623 7     -2867.180          45.000    27708249.305 7 111569542.839 7     -2196.978          46.000
> 2020 05 05 13 08  0.0000000  0 18        .000000000000
G18  20707804.039 8 108820313.094 8      1555.660          51.000    20707804.297 8  84795060.299 8      1212.206          50.000
G21  20878522.742 8 109717396.340 8      1113.035          51.000    20878520.602 7  85494053.364 7       867.303          46.000
G25  23000297.492 6 120867375.060 6     -3088.285          39.000    23000300.641 6  94182332.805 6     -2406.459          39.000
G29  21177437.906 8 111288192.447 8     -1914.863          51.000    21177437.523 8  86718066.488 8     -1492.101          51.000
G31  21534145.641 8 113162694.770 8     -1595.535          51.000    21534145.781 8  88178732.169 8     -1243.274          51.000
R12  20392703.734 8 108934161.414 8     -3000.547          49.000    20392707.164 8  84726569.863 8     -2333.759          49.000
R22  20380257.383 5 108791185.853 5     -2787.926          35.000    20380258.336 5  84615377.495 5     -2168.387          33.000
R23  19700774.547 8 105385927.703 8      1678.004          51.000    19700780.047 7  81966787.946 7      1305.114          42.000
R24  22578181.328 6 120735704.147 6      3610.957          39.000    22578185.047 6  93905562.633 6      2808.528          40.000
C05  39626255.477 6 206344310.218 6        18.133          36.000    39626255.828 6 159558509.769 6        14.015          37.000
C11  21903080.117 8 114055188.139 8       712.914          50.000    21903079.766 8  88194708.686 8       551.331          51.000
C12  22779478.141 7 118618715.846 7     -2067.129          46.000    22779477.617 8  91723513.300 8     -1598.381          48.000
C24  25497633.938 6 132772886.958 6     -3387.895          36.000
C25  22301886.266 8 116131790.814 8     -1363.484          51.000
E13  23922458.320 8 125713373.319 8     -1410.812          51.000    23922459.672 8  96325855.273 8     -1081.003          48.000
E21  24015963.742 8 126204719.002 8     -1443.352          51.000    24015966.773 8  96702347.402 8     -1105.966          51.000
E26  22820570.141 8 119923020.705 8      1458.219          51.000    22820573.625 8  91889025.087 8      1117.327          51.000
E27  27724618.477 7 145693872.307 7     -2870.328          46.000    27724625.758 7 111635486.841 7     -2199.552          44.000
> 2020 05 05 13 08 30.0000000  0 18        .000000000000
G18  20698975.773 8 108773919.899 8      1537.367          51.000    20698975.883 8  84758909.781 8      1197.948          50.000
G21  20872217.398 8 109684260.495 8      1096.098          51.000    20872214.992 7  85468233.254 7       854.105          47.000
G25  23017949.797 5 120960134.101 5     -3095.523          35.000    23017950.203 5  94254612.503 5     -2412.099          34.000
G29  21188393.953 8 111345767.183 8     -1923.242          51.000    21188393.508 8  86762929.907 8     -1498.630          51.000
G31  21543303.531 8 113210820.431 8     -1612.637          51.000    21543303.953 8  88216232.668 8     -1256.603          51.000
R12  20409605.672 7 109024456.506 7     -3018.910          47.000    20409610.914 8  84796799.422 8     -2348.041          49.000
R22  20395959.945 5 108875006.513 5     -2799.965          34.000    20395962.781 5  84680571.292 5     -2177.750          35.000
R23  19691418.172 8 105335876.604 8      1658.844          51.000    19691423.461 6  81927859.327 6      1290.212          41.000
R24  22557953.672 6 120627529.499 6      3600.891          41.000    22557955.477 6  93821426.879 6      2800.696          39.000
C05  39626151.898 5 206343771.084 5        17.586          35.000    39626152.250 6 159558092.866 6        14.079          37.000
C11  21899005.883 8 114033971.794 8       701.547          51.000    21899005.242 8  88178302.862 8       542.517          51.000
C12  22791405.617 7 118680826.287 7     -2073.625          45.000    22791405.492 8  91771541.025 8     -1603.455          48.000
C24  25517162.609 5 132874582.283 5     -3391.555          34.000
C25  22309787.398 8 116172930.310 8     -1378.949          51.000
E13  23930541.312 8 125755848.432 8     -1420.668          51.000    23930542.336 8  96358401.124 8     -1088.540          48.000
E21  24024234.414 8 126248180.958 8     -1453.949          51.000    24024237.570 8  96735649.396 8     -1114.065          51.000
E26  22812278.117 8 119879444.732 8      1446.992          51.000    22812281.281 8  91855635.702 8      1108.743          51.000
E27  27741015.055 7 145780039.937 7     -2873.859          46.000    27741021.508 7 111701511.236 7     -2202.021          42.000
> 2020 05 05 13 09  0.0000000  0 17        .000000000000
G18  20690251.406 8 108728072.857 8      1519.086          51.000    20690251.547 8  84723184.830 8      1183.706          50.000
G21  20866008.023 8 109651630.086 8      1079.242          51.000    20866005.664 7  85442806.991 7       840.968          47.000
G29  21199397.602 8 111403592.015 8     -1931.613          51.000    21199397.102 8  86807988.216 8     -1505.153          51.000
G31  21552559.219 8 113259460.305 8     -1629.879          51.000    21552559.422 8  88254133.839 8     -1270.036          51.000
R12  20426610.758 8 109115296.639 8     -3037.051          49.000    20426616.508 8  84867452.875 8     -2362.151          48.000
R22  20411728.625 4 108959191.347 4     -2811.672          28.000    20411732.414 5  84746053.105 5     -2186.865          35.000
R23  19682168.539 8 105286398.402 8      1639.730          51.000    19682173.602 6  81889376.316 6      1275.346          40.000
R24  22537778.492 6 120519643.997 6      3591.344          40.000    22537779.367 6  93737515.992 6      2793.267          38.000
C05  39626049.562 5 206343238.621 5        17.535          35.000    39626049.984 6 159557681.144 6        13.529          38.000
C11  21894996.984 8 114013095.922 8       690.203          50.000    21894996.336 8  88162160.325 8       533.724          51.000
C12  22803370.719 7 118743132.456 7     -2080.234          45.000    22803370.766 7  91819720.103 7     -1608.433          47.000
C24  25536712.211 5 132976389.870 5     -3395.410          32.000
C25  22317777.102 8 116214530.634 8     -1394.312          51.000
E13  23938680.109 8 125798618.152 8     -1430.512          50.000    23938680.656 8  96391172.734 8     -1096.100          48.000
E21  24032565.219 8 126291959.368 8     -1464.523          51.000    24032568.359 8  96769193.855 8     -1122.185          51.000
E26  22804050.398 8 119836206.164 8      1435.664          51.000    22804053.414 8  91822504.865 8      1100.099          51.000
E27  27757430.719 7 145866308.567 7     -2877.316          45.000    27757435.969 6 111767613.035 6     -2204.745          40.000
> 2020 05 05 13 09 30.0000000  0 16        .000000000000
G18  20681627.719 8 108682755.969 8      1501.035          50.000    20681627.977 8  84687872.977 8      1169.638          50.000
G21  20859891.383 8 109619488.193 8      1062.684          51.000    20859889.359 7  85417761.402 7       828.065          47.000
G25  23053369.438 6 121146247.407 6     -3109.785          36.000    23053372.758 6  94399700.206 6     -2423.212          36.000
G29  21210445.383 8 111461648.467 8     -1939.703          51.000    21210444.859 8  86853226.989 8     -1511.457          51.000
G31  21561909.156 8 113308595.487 8     -1646.668          51.000    21561908.656 8  88292420.960 8     -1283.121          51.000
R12  20443715.070 8 109206662.042 8     -3054.926          51.000    20443720.336 8  84938514.818 8     -2376.053          48.000
R23  19673022.977 8 105237475.744 8      1620.805          51.000    19673027.125 6  81851325.346 6      1260.626          39.000
R24  22517653.711 6 120412031.852 6      3581.758          40.000    22517654.789 6  93653817.704 6      2785.815          39.000
C05  39625945.305 6 206342695.718 6        17.922          36.000    39625945.625 6 159557261.313 6        14.127          38.000
C11  21891050.297 8 113992543.023 8       679.074          51.000    21891049.758 8  88146267.510 8       525.191          51.000
C12  22815370.141 7 118805615.987 7     -2086.367          46.000    22815369.898 7  91868036.313 7     -1613.242          46.000
C24  25556279.844 5 133078290.796 5     -3398.953          33.000
C25  22325851.750 8 116256573.933 8     -1409.457          51.000
E13  23946871.367 8 125841663.877 8     -1440.051          50.000    23946871.977 8  96424155.810 8     -1103.311          48.000
E21  24040952.867 8 126336036.886 8     -1474.816          51.000    24040955.406 8  96802967.493 8     -1130.000          51.000
E26  22795883.719 8 119793288.071 8      1424.719          51.000    22795886.602 8  91789619.590 8      1091.677          51.000
> 2020 05 05 13 10  0.0000000  0 17        .000000000000
G18  20673108.352 8 108637987.868 8      1483.328          49.000    20673108.656 8  84652988.750 8      1155.840          49.000
G21  20853871.234 8 109587852.762 8      1046.297          50.000    20853869.172 8  85393110.426 8       815.296          48.000
G25  23071144.312 6 121239634.873 6     -3116.129          40.000    23071140.234 6  94472469.600 6     -2428.152          40.000
G29  21221540.297 8 111519952.482 8     -1947.344          51.000    21221539.797 8  86898658.685 8     -1517.411          51.000
G31  21571356.289 8 113358241.439 8     -1663.125          51.000    21571355.148 8  88331106.073 8     -1295.945          51.000
R12  20460920.570 8 109298567.847 8     -3072.309          51.000    20460925.289 7  85009997.066 7     -2389.573          47.000
R22  20443455.234 5 109128552.655 5     -2833.871          33.000    20443458.734 6  84877777.032 6     -2204.122          36.000
R23  19663983.922 8 105189126.559 8      1602.359          51.000    19663988.758 6  81813720.456 6      1246.283          40.000
R24  22497584.227 7 120304712.645 7      3572.590          43.000    22497586.055 6  93570347.282 6      2778.684          39.000
C05  39625842.383 6 206342159.807 6        17.812          36.000    39625842.734 6 159556846.894 6        14.018          38.000
C11  21887168.969 8 113972330.037 8       668.363          51.000    21887168.359 8  88130637.555 8       516.763          51.000
C12  22827406.820 7 118868292.659 7     -2092.109          46.000    22827405.945 7  91916501.880 7     -1617.818          44.000
C24  25575869.062 5 133180300.561 5     -3401.508          34.000
C25  22334014.625 8 116299076.651 8     -1424.258          51.000
E13  23955118.320 8 125885001.721 8     -1449.320          50.000    23955119.227 8  96457362.725 8     -1110.416          49.000
E21  24049400.508 8 126380430.820 8     -1484.863          51.000    24049402.070 8  96836983.569 8     -1137.770          50.000
E26  22787781.273 8 119750708.256 8      1413.871          51.000    22787783.922 8  91756993.510 8      1083.332          51.000
> 2020 05 05 13 10 30.0000000  0 17        .000000000000
G18  20664691.258 7 108593758.723 7      1465.156          47.000    20664692.102 7  84618524.482 7      1141.683          47.000
G21  20847945.141 8 109556713.089 8      1029.590          48.000    20847943.414 7  85368845.756 7       802.281          47.000
G25  23088954.055 6 121333224.645 6     -3123.082          36.000    23088951.547 6  94545396.628 6     -2433.573          37.000
G29  21232680.023 8 111578492.058 8     -1955.344          51.000    21232679.445 8  86944273.934 8     -1523.644          51.000
G31  21580898.422 8 113408385.901 8     -1679.938          51.000    21580897.062 8  88370179.676 8     -1309.042          51.000
R12  20478224.367 8 109391000.589 8     -3089.906          51.000    20478229.000 7  85081889.170 7     -2403.260          47.000
R22  20459411.586 5 109213735.450 5     -2845.250          35.000    20459423.250 6  84944030.289 6     -2212.975          38.000
R23  19655050.266 8 105141339.886 8      1583.402          51.000    19655055.758 6  81776553.050 6      1231.535          40.000
R24  22477568.008 7 120197676.954 7      3562.969          46.000    22477570.117 6  93487097.357 6      2771.201          38.000
C05  39625738.703 5 206341619.999 5        17.434          35.000    39625739.047 6 159556429.515 6        13.565          38.000
C11  21883350.633 8 113952445.688 8       657.184          51.000    21883349.586 8  88115261.719 8       508.197          51.000
C12  22839478.086 7 118931150.373 7     -2098.359          45.000    22839476.781 7  91965107.444 7     -1622.560          44.000
C24  25595477.141 5 133282406.637 5     -3405.613          35.000
C25  22342263.281 8 116342027.095 8     -1439.219          51.000
E13  23963418.367 8 125928619.349 8     -1458.719          49.000    23963419.383 8  96490784.029 8     -1117.654          49.000
E21  24057905.781 8 126425130.011 8     -1495.180          49.000    24057906.891 8  96871233.565 8     -1145.654          50.000
E26  22779740.727 8 119708455.988 8      1402.867          51.000    22779743.602 8  91724618.421 8      1074.849          51.000
> 2020 05 05 13 11  0.0000000  0 17        .000000000000
G18  20656379.492 7 108550083.597 7      1446.867          47.000    20656381.047 7  84584491.950 7      1127.429          47.000
G21  20842115.820 7 109526083.153 7      1012.781          47.000    20842115.016 7  85344978.293 7       789.183          47.000
G25  23106801.383 5 121427029.730 5     -3129.297          35.000    23106805.328 6  94618491.307 6     -2438.416          36.000
G29  21243867.000 8 111637279.832 8     -1963.500          51.000    21243866.180 8  86990082.583 8     -1530.000          51.000
G31  21590537.945 8 113459040.646 8     -1696.684          51.000    21590536.516 8  88409650.887 8     -1322.091          51.000
R12  20495628.281 8 109483971.985 8     -3107.629          50.000    20495633.359 7  85154200.206 7     -2417.048          46.000
R22  20475435.258 5 109299261.020 5     -2856.285          33.000    20475443.055 5  85010550.152 5     -2221.558          35.000
R23  19646224.812 8 105094130.219 8      1564.344          51.000    19646230.141 6  81739834.410 6      1216.712          39.000
R24  22457607.461 7 120090940.791 7      3553.137          46.000    22457608.219 5  93404080.368 5      2763.551          34.000
C05  39625637.055 6 206341090.127 6        17.875          36.000    39625637.312 6 159556019.802 6        13.580          38.000
C11  21879597.930 8 113932903.481 8       646.043          51.000    21879596.562 8  88100150.449 8       499.549          51.000
C12  22851586.312 7 118994201.480 7     -2104.617          45.000    22851584.898 7  92013862.550 7     -1627.357          44.000
C24  25615105.891 5 133384621.011 5     -3408.402          35.000
C25  22350599.828 8 116385438.191 8     -1454.387          51.000
E13  23971774.031 8 125972529.376 8     -1468.250          50.000    23971775.211 8  96524429.372 8     -1125.059          50.000
E21  24066471.484 8 126470148.219 8     -1505.660          49.000    24066473.734 8  96905728.032 8     -1153.679          51.000
E26  22771764.914 8 119666545.486 8      1391.570          51.000    22771768.453 8  91692505.197 8      1066.271          51.000
> 2020 05 05 13 11 30.0000000  0 16        .000000000000
G18  20648171.219 8 108506949.381 8      1428.559          49.000    20648172.844 8  84550880.866 8      1113.163          49.000
G21  20836381.375 8 109495949.479 8       995.992          48.000    20836380.875 8  85321497.508 8       776.098          48.000
G25  23124689.164 6 121521034.671 6     -3137.113          37.000    23124695.445 6  94691741.904 6     -2444.507          38.000
G29  21255098.211 8 111696300.349 8     -1971.391          50.000    21255097.320 8  87036072.596 8     -1536.149          50.000
G31  21600271.734 8 113510189.905 8     -1713.406          51.000    21600270.102 8  88449507.431 8     -1335.122          51.000
R12  20513130.188 8 109577465.157 8     -3125.340          50.000    20513134.969 7  85226917.050 7     -2430.823          45.000
R23  19637505.047 8 105047483.404 8      1545.258          51.000    19637510.062 6  81703553.576 6      1201.870          40.000
R24  22437700.320 7 119984491.327 7      3543.344          46.000    22437696.492 4  93321286.436 4      2755.937          29.000
C05  39625534.523 6 206340556.273 6        17.613          36.000    39625534.766 6 159555606.959 6        13.843          37.000
C11  21875907.922 8 113913688.815 8       634.812          51.000    21875906.961 8  88085292.454 8       490.850          51.000
C12  22863728.789 7 119057430.657 7     -2110.809          44.000    22863727.555 7  92062755.360 7     -1632.287          44.000
C24  25634752.906 6 133486927.729 6     -3411.352          36.000
C25  22359021.438 8 116429294.942 8     -1469.562          51.000
E13  23980182.609 8 126016716.221 8     -1477.715          50.000    23980184.172 8  96558286.805 8     -1132.269          50.000
E21  24075095.750 8 126515471.127 8     -1516.039          51.000    24075099.227 8  96940455.982 8     -1161.706          51.000
E26  22763851.742 8 119624962.804 8      1380.355          51.000    22763855.820 8  91660643.152 8      1057.708          51.000
> 2020 05 05 13 12  0.0000000  0 17        .000000000000
G18  20640066.281 8 108464356.675 8      1410.352          49.000    20640067.664 8  84517691.730 8      1098.975          49.000
G21  20830741.766 8 109466311.656 8       979.234          50.000    20830740.961 8  85298403.109 8       763.040          49.000
G25  23142615.680 6 121615238.012 6     -3143.555          40.000    23142621.484 6  94765147.055 6     -2449.526          41.000
G29  21266373.398 8 111755551.729 8     -1979.184          50.000    21266372.602 8  87082242.492 8     -1542.221          50.000
G31  21610099.039 8 113561831.267 8     -1729.867          50.000    21610097.156 8  88489747.441 8     -1347.948          51.000
R12  20530729.672 8 109671476.917 8     -3142.777          51.000    20530733.852 7  85300037.251 7     -2444.385          45.000
R22  20507658.430 5 109471272.371 5     -2877.594          31.000
R23  19628890.461 8 105001398.793 8      1526.398          51.000    19628895.680 7  81667710.035 7      1187.202          42.000
R24  22417847.578 8 119878329.759 8      3533.543          48.000    22417841.648 5  93238657.078 5      2748.311          31.000
C05  39625431.141 6 206340017.804 6        17.508          36.000    39625431.328 6 159555190.596 6        13.620          37.000
C11  21872280.289 8 113894800.754 8       623.867          50.000    21872280.094 8  88070687.011 8       482.371          51.000
C12  22875905.109 7 119120835.822 7     -2116.855          44.000    22875904.266 7  92111784.230 7     -1636.836          44.000
C24  25654418.398 6 133589324.599 6     -3414.945          37.000
C25  22367528.227 8 116473595.903 8     -1484.496          51.000
E13  23988643.562 8 126061177.962 8     -1486.949          50.000    23988645.430 8  96592354.891 8     -1139.360          50.000
E21  24083778.562 8 126561098.049 8     -1526.332          51.000    24083782.367 8  96975416.861 8     -1169.533          51.000
E26  22756001.078 8 119583707.652 8      1369.410          51.000    22756005.477 8  91629032.077 8      1049.276          51.000
> 2020 05 05 13 12 30.0000000  0 16        .000000000000
G18  20632066.609 8 108422317.833 8      1392.285          49.000    20632068.031 8  84484934.213 8      1084.898          49.000
G21  20825198.922 8 109437181.290 8       962.887          51.000    20825197.820 8  85275704.133 8       750.301          48.000
G25  23160582.469 7 121709649.933 7     -3149.965          43.000    23160586.852 7  94838714.812 7     -2454.518          43.000
G29  21277694.477 8 111815044.031 8     -1986.820          49.000    21277693.641 8  87128600.122 8     -1548.172          50.000
G31  21620021.375 8 113613974.364 8     -1746.203          49.000    21620019.398 8  88530378.434 8     -1360.678          50.000
R12  20548427.891 8 109766016.511 8     -3159.766          50.000    20548431.516 7  85373568.002 7     -2457.595          45.000
R23  19620383.016 8 104955888.002 8      1507.754          51.000    19620388.617 7  81632312.771 7      1172.697          42.000
R24  22398051.562 8 119772469.298 8      3523.945          49.000    22398053.695 6  93156320.807 6      2740.849          38.000
C05                                                                  39625329.156 6 159554779.354 6        14.109          37.000
C11  21868717.523 8 113876250.172 8       613.020          51.000    21868717.656 8  88056342.516 8       474.059          51.000
C12  22888116.992 7 119184426.931 7     -2122.340          44.000    22888116.547 7  92160956.884 7     -1641.345          43.000
C24  25674103.203 6 133691820.912 6     -3417.887          37.000
C25  22376122.203 8 116518351.433 8     -1499.125          51.000
E13  23997158.617 8 126105924.515 8     -1496.043          50.000    23997160.523 8  96626641.205 8     -1146.289          51.000
E21  24092521.656 8 126607040.076 8     -1536.359          51.000    24092525.430 8  97010619.183 8     -1177.249          51.000
E26  22748215.000 8 119542791.664 8      1358.484          51.000    22748219.477 8  91597680.883 8      1040.875          51.000
> 2020 05 05 13 13  0.0000000  0 17        .000000000000
G18  20624172.438 8 108380832.109 8      1373.965          51.000    20624173.555 8  84452607.674 8      1070.622          49.000
G21  20819752.273 8 109408556.951 8       945.961          51.000    20819750.867 8  85253399.479 8       737.115          48.000
G25  23178588.516 6 121804267.586 6     -3157.312          41.000    23178592.375 6  94912442.821 6     -2460.244          40.000
