     3.02           OBSERVATION DATA    M (MIXED)           RINEX VERSION / TYPE
SAVERINEX           SC600               20200510 215931 LCL PGM / RUN BY / DATE
       G = GPS       R = GLONASS       C = COMPASS          COMMENT
       S = SBAS      J = QZSS          E = GALILEO          COMMENT
BEAN                                                        MARKER NAME
1                                                           MARKER NUMBER
GEODETIC                                                    MARKER TYPE
Unige DICCA         GTER                                    OBSERVER / AGENCY
SC60291900056       SC600               2.12(191226)        REC # / TYPE / VERS
                    HEMA45          NONE                    ANT # / TYPE
  4509407.8091   693652.4678  4442337.6214                  APPROX POSITION XYZ
        0.0000        0.0000        0.0000                  ANTENNA: DELTA H/E/N
G    8 C1C L1C D1C S1C C2Y L2Y D2Y S2Y                      SYS / # / OBS TYPES
R    8 C1C L1C D1C S1C C2P L2P D2P S2P                      SYS / # / OBS TYPES
C    8 C1I L1I D1I S1I C7I L7I D7I S7I                      SYS / # / OBS TYPES
E    8 C1C L1C D1C S1C C7Q L7Q D7Q S7Q                      SYS / # / OBS TYPES
DBHZ                                                        COMMENT
     30.000                                                 INTERVAL
  2020    05    10    19    00    0.0000000     GPS         TIME OF FIRST OBS
  2020    05    10    19    59   30.0000000     GPS         TIME OF LAST OBS
     0                                                      RCV CLOCK OFFS APPL
G L1C  0.00000                                              SYS / PHASE SHIFT
G L2Y  0.00000                                              SYS / PHASE SHIFT
R L1C  0.00000                                              SYS / PHASE SHIFT
R L2P  0.25000                                              SYS / PHASE SHIFT
C L1I  0.00000                                              SYS / PHASE SHIFT
C L7I  0.00000                                              SYS / PHASE SHIFT
E L1C  0.50000                                              SYS / PHASE SHIFT
E L7Q -0.25000                                              SYS / PHASE SHIFT
 13 R01  1 R06 -4 R07  5 R08  6 R09 -2 R10 -5 R11  0 R12 -1 GLONASS SLOT / FRQ #
    R19  3 R20  2 R21  4 R22 -3 R23  3                      GLONASS SLOT / FRQ #
 C1C   71.950 C2C   71.950 C2P   71.950                     GLONASS COD/PHS/BIS
    18                                                      LEAP SECONDS
*** Above antenna height is from mark to ANTENNA BOTTOM.    COMMENT
    17     4        0.0000        ANT MEASURE TYPE/HEIGT    COMMENT
    0.0000    0.0000    0.0458    0.0405    0.0000          COMMENT
                    BASE STATION                            COMMENT
                                                            END OF HEADER
> 2020 05 10 19 00  0.0000000  0 19        .000000000000
G03  22462531.328 8 118041382.185 8      2910.184          48.000    22462534.508 8  91980335.410 8      2267.676          48.000
G08  21308594.953 8 111977430.383 8     -2356.223          50.000    21308598.578 8  87255131.297 8     -1836.018          50.000
G11  19856030.812 8 104344148.751 8       -82.129          49.000    19856029.602 8  81307126.837 8       -63.997          49.000
G14  22060605.508 6 115929262.785 6       990.027          39.000    22060604.219 5  90334537.710 5       771.447          35.000
G22  21062740.383 8 110685445.211 8      1426.395          50.000    21062738.539 8  86248388.037 8      1111.479          49.000
G27  23663605.914 6 124353042.486 6     -3620.652          37.000    23663606.695 6  96898457.871 6     -2821.288          37.000
R01  21932825.719 6 117243526.607 6      4016.168          39.000    21932844.648 4  91189476.325 4      3123.686          27.000
R07  20394846.297 6 109175281.700 6     -2530.895          38.000    20394851.094 5  84914061.085 5     -1968.477          33.000
R08  19456793.391 7 104190238.525 7      1448.922          46.000    19456794.852 7  81036909.707 7      1126.939          45.000
R22  20467797.594 8 109258496.403 8     -2207.059          51.000    20467800.250 8  84978812.614 8     -1716.604          49.000
C05                                                                  39660384.820 6 159695944.474 6       -22.479          37.000
C19  23627981.797 8 123037082.745 8      2813.117          50.000
C20  21895956.047 8 114018099.491 8       195.926          51.000
C29  21488540.742 8 111896494.320 8       -24.934          51.000
C30  23731902.602 8 123578214.527 8     -2719.062          49.000
E03  24262399.055 8 127499829.557 8      1723.520          51.000    24262402.414 8  97694711.020 8      1320.622          51.000
E05  24965069.109 5 131192318.323 5     -1121.098          33.000    24965071.961 5 100524001.460 5      -859.355          34.000
E15  23234945.383 7 122100467.193 7       805.223          42.000    23234947.758 6  93557522.658 6       616.962          40.000
E27  27720401.695 6 145671690.353 6     -2507.859          38.000
> 2020 05 10 19 00 30.0000000  0 20        .000000000000
G03  22445934.141 7 117954162.232 7      2900.941          47.000    22445936.875 8  91912371.862 8      2260.477          48.000
G08  21322076.523 8 112048277.455 8     -2370.453          49.000    21322080.242 8  87310336.805 8     -1847.106          49.000
G11  19856539.016 8 104346819.404 8       -99.445          49.000    19856537.664 8  81309207.866 8       -77.490          49.000
G14  22054992.352 6 115899765.771 6       972.586          41.000    22054992.414 5  90311553.096 5       757.859          34.000
G22  21054623.766 8 110642792.952 8      1413.473          51.000    21054621.109 8  86215152.532 8      1101.410          48.000
G27  23684277.000 5 124461686.515 5     -3625.590          33.000    23684281.680 5  96983115.652 5     -2825.129          33.000
G32  22053639.656 5 115892654.209 5      -558.418          33.000    22053628.359 5  90305959.024 5      -435.143          34.000
R01  21910306.711 6 117123151.419 6      4005.238          39.000    21910322.078 4  91095851.225 4      3115.185          27.000
R07  20409072.297 6 109251433.377 6     -2549.516          36.000    20409074.914 5  84973290.193 5     -1982.957          32.000
R08  19448733.523 7 104147078.987 7      1424.762          47.000    19448735.234 7  81003341.177 7      1108.151          46.000
R22  20480233.680 8 109324880.753 8     -2222.270          51.000    20480236.242 8  85030444.853 8     -1728.432          49.000
C05                                                                  39660541.875 6 159696577.012 6       -22.627          37.000
C19  23611788.805 8 122952763.444 8      2804.676          49.000
C20  21894859.812 8 114012391.414 8       181.090          51.000
C29  21488714.453 8 111897397.965 8       -38.812          51.000
C30  23747579.547 7 123659850.911 7     -2727.016          46.000
E03  24252582.891 8 127448244.290 8      1711.914          51.000    24252585.766 8  97655184.668 8      1311.717          51.000
E05  24971495.484 5 131226100.329 5     -1133.480          33.000    24971500.633 5 100549881.159 5      -868.421          35.000
E15  23230356.695 7 122076354.842 7       798.711          43.000    23230359.664 6  93539046.982 6       611.966          40.000
E27  27734721.531 6 145746940.939 6     -2512.438          37.000
> 2020 05 10 19 01  0.0000000  0 19        .000000000000
G03  22429416.734 7 117867363.690 7      2890.590          45.000    22429419.461 7  91844736.650 7      2252.405          44.000
G08  21335665.891 8 112119691.634 8     -2385.496          48.000    21335669.938 8  87365984.206 8     -1858.828          48.000
G11  19857172.797 8 104350149.993 8      -117.582          49.000    19857171.547 8  81311803.112 8       -91.622          49.000
G14  22049504.844 6 115870928.266 6       954.512          39.000    22049505.031 5  90289082.323 5       743.778          34.000
G22  21046607.711 8 110600666.837 8      1399.715          51.000    21046604.266 8  86182326.978 8      1090.687          49.000
G27  23705006.406 5 124570633.616 5     -3632.070          34.000    23705014.352 5  97068009.519 5     -2830.185          35.000
R01  21887874.078 6 117003245.067 6      3993.234          38.000    21887889.602 4  91002590.762 4      3105.849          26.000
R07  20423428.648 6 109328285.538 6     -2569.055          38.000    20423434.406 5  85033064.033 5     -1998.154          35.000
R08  19440835.984 7 104104788.660 7      1399.609          47.000    19440838.180 7  80970448.735 7      1088.585          47.000
R22  20492782.203 8 109391865.973 8     -2238.367          51.000    20492784.977 8  85082544.462 8     -1740.952          50.000
C05                                                                  39660725.391 6 159697315.837 6       -23.264          37.000
C19  23595670.586 8 122868834.281 8      2795.500          48.000
C20  21893876.234 8 114007270.330 8       165.250          51.000
C29  21488994.930 8 111898857.184 8       -53.613          51.000
C30  23763328.500 7 123741864.986 7     -2735.801          45.000
E03  24242860.031 8 127397151.432 8      1699.078          51.000    24242862.531 8  97616035.632 8      1301.912          49.000
E05  24978018.555 6 131260391.912 6     -1147.309          40.000    24978026.203 5 100576156.500 5      -879.092          34.000
E15  23225832.703 7 122052580.741 7       791.027          42.000    23225836.289 6  93520830.469 6       606.031          41.000
E27  27749092.773 6 145822461.103 6     -2517.422          36.000
> 2020 05 10 19 01 30.0000000  0 19        .000000000000
G03  22412941.000 7 117780787.245 7      2883.852          45.000    22412944.742 7  91777274.449 7      2247.157          45.000
G08  21349325.023 8 112191471.500 8     -2396.938          50.000    21349329.578 8  87421916.549 8     -1867.744          50.000
G11  19857894.195 8 104353940.650 8      -132.242          50.000    19857892.930 8  81314756.850 8      -103.046          49.000
G14  22044104.828 6 115842550.938 6       939.969          41.000    22044105.680 6  90266970.132 6       732.440          36.000
G22  21038653.664 8 110558866.594 8      1389.664          51.000    21038650.711 8  86149755.361 8      1082.855          50.000
G27  23725757.609 6 124679681.013 6     -3634.188          37.000    23725766.188 6  97152981.509 6     -2831.834          36.000
G32  22060261.172 5 115927477.528 5      -595.492          33.000    22060244.969 5  90333014.637 5      -464.020          32.000
R01  21865490.656 6 116883606.510 6      3984.957          37.000    21865507.422 4  90909538.596 4      3099.411          27.000
R07  20437877.328 6 109405630.036 6     -2584.609          39.000    20437885.289 5  85093220.940 5     -2010.252          32.000
R08  19433063.039 7 104063164.456 7      1378.207          46.000    19433065.078 7  80938074.346 7      1071.939          46.000
R22  20505404.664 8 109459247.872 8     -2250.848          51.000    20505407.844 8  85134952.576 8     -1750.659          49.000
C05                                                                  39660896.984 6 159698007.342 6       -20.954          38.000
C19  23579589.516 8 122785097.921 8      2789.668          48.000
C20  21892967.164 8 114002537.163 8       153.047          51.000
C29  21489343.953 8 111900674.053 8       -64.770          51.000
C30  23779111.438 7 123824057.090 7     -2740.871          44.000
E03  24233192.633 8 127346351.564 8      1690.156          51.000    24233195.445 8  97577111.115 8      1295.022          49.000
E05  24984603.273 6 131294998.286 6     -1157.289          39.000    24984610.297 5 100602672.988 5      -886.191          33.000
E15  23221335.117 7 122028945.298 7       787.254          43.000    23221339.375 6  93502720.200 6       603.328          41.000
> 2020 05 10 19 02  0.0000000  0 19        .000000000000
G03  22396510.438 8 117694445.098 8      2871.410          48.000    22396514.945 7  91709994.898 7      2237.462          47.000
G08  21363055.750 8 112263625.973 8     -2414.145          51.000    21363060.469 8  87478140.803 8     -1881.152          51.000
G11  19858705.492 8 104358203.269 8      -152.824          50.000    19858704.156 8  81318078.346 8      -119.084          49.000
G14  22038795.250 6 115814646.369 6       919.406          41.000    22038796.328 5  90245226.275 5       716.420          33.000
G22  21030763.500 8 110517403.867 8      1373.590          51.000    21030761.508 8  86117446.754 8      1070.330          50.000
G27  23746530.188 6 124788837.899 6     -3643.020          41.000    23746538.930 6  97238038.801 6     -2838.717          41.000
G32  22063715.758 6 115945653.392 6      -618.000          37.000    22063717.992 5  90347177.454 5      -481.555          35.000
R01  21843160.852 5 116764250.442 5      3971.176          35.000    21843178.555 4  90816683.138 4      3088.695          26.000
R07  20452419.914 6 109483475.190 6     -2606.195          38.000    20452423.531 5  85153767.033 5     -2027.044          30.000
R08  19425416.727 7 104022218.829 7      1350.840          47.000    19425418.961 7  80906227.751 7      1050.653          47.000
R22  20518103.852 8 109527037.071 8     -2269.234          51.000    20518107.078 8  85187677.505 8     -1764.960          48.000
C05                                                                  39661059.180 6 159698660.197 6       -23.144          38.000
C19  23563548.516 8 122701566.768 8      2778.129          50.000
C20  21892134.680 8 113998202.488 8       135.039          51.000
C29  21489763.711 8 111902860.376 8       -81.809          51.000
C30  23794931.461 7 123906437.418 7     -2751.965          46.000
E03  24223583.336 8 127295856.926 8      1675.281          51.000    24223586.062 8  97538420.487 8      1283.669          48.000
E05  24991250.945 5 131329929.494 5     -1172.551          35.000    24991256.516 5 100629433.456 5      -898.550          32.000
E15  23216866.141 7 122005460.580 7       777.461          43.000    23216871.117 7  93484725.437 7       595.693          42.000
> 2020 05 10 19 02 30.0000000  0 18        .000000000000
G03  22380154.594 8 117608494.476 8      2863.488          48.000    22380158.719 8  91643020.442 8      2231.293          48.000
G08  21376887.109 8 112336309.572 8     -2426.469          49.000    21376891.773 8  87534777.350 8     -1890.758          50.000
G11  19859636.352 8 104363094.419 8      -168.504          51.000    19859634.891 8  81321889.611 8      -131.302          48.000
G14  22033605.352 6 115787371.413 6       903.992          39.000    22033605.305 6  90223973.125 6       704.413          38.000
G22  21022967.297 8 110476434.746 8      1362.500          51.000    21022965.414 8  86085522.755 8      1061.688          49.000
G27  23767353.398 7 124898258.055 7     -3646.336          42.000    23767361.914 7  97323301.236 7     -2841.301          42.000
R01  21820916.016 6 116645338.596 6      3961.359          36.000    21820918.805 4  90724134.204 4      3081.057          26.000
R07  20467085.328 6 109561975.912 6     -2622.438          37.000    20467088.492 5  85214823.190 5     -2039.671          32.000
R08  19417927.219 7 103982111.401 7      1328.109          47.000    19417929.352 7  80875033.089 7      1032.974          46.000
R22  20530908.844 8 109595391.841 8     -2282.754          51.000    20530912.023 8  85240842.284 8     -1775.478          48.000
C05                                                                  39661241.391 6 159699393.874 6       -21.887          38.000
C19  23547577.305 8 122618396.678 8      2771.316          51.000
C20  21891408.180 8 113994420.345 8       121.941          51.000
C29  21490284.305 8 111905571.415 8       -94.125          51.000
C30  23810818.656 8 123989159.447 8     -2758.070          49.000
E03  24214061.992 8 127245824.436 8      1665.070          51.000    24214065.078 8  97500083.975 8      1275.857          49.000
E05  24997990.070 5 131365322.464 5     -1183.273          34.000    24997994.758 5 100656565.525 5      -906.395          31.000
E15  23212455.742 7 121982283.475 7       772.379          44.000    23212460.734 7  93466966.344 7       591.916          43.000
> 2020 05 10 19 03  0.0000000  0 18        .000000000000
G03  22363837.008 8 117522744.386 8      2853.434          48.000    22363839.914 8  91576202.248 8      2223.458          48.000
G08  21390782.180 8 112409328.210 8     -2440.871          50.000    21390786.297 8  87591674.968 8     -1901.977          50.000
G11  19860650.414 8 104368422.776 8      -186.188          51.000    19860648.703 8  81326041.566 8      -145.081          48.000
G14  22028499.273 6 115760535.315 6       885.773          41.000    22028498.195 5  90203061.918 5       690.216          33.000
G22  21015228.523 8 110435766.883 8      1349.180          51.000    21015225.430 7  86053833.546 7      1051.312          47.000
G27  23788190.297 7 125007747.338 7     -3652.094          42.000    23788197.961 6  97408617.548 6     -2845.787          41.000
R01  21798719.211 6 116526678.321 6      3949.656          38.000    21798725.750 4  90631863.414 4      3071.955          27.000
R07  20481836.773 5 109640933.160 5     -2640.461          33.000    20481839.148 5  85276234.333 5     -2053.695          30.000
R08  19410557.766 8 103942647.347 8      1303.445          48.000    19410559.219 7  80844338.806 7      1013.791          45.000
R22  20543782.992 8 109664116.043 8     -2298.336          51.000    20543786.062 8  85294294.411 8     -1787.595          48.000
C05                                                                  39661407.055 6 159700061.111 6       -21.887          38.000
C19  23531639.000 8 122535398.424 8      2762.438          50.000
C20  21890751.125 8 113990999.763 8       106.703          51.000
C29  21490869.148 8 111908617.378 8      -108.363          51.000
C30  23826735.602 8 124072031.757 8     -2766.297          51.000
E03  24204592.445 8 127196062.915 8      1652.895          51.000    24204596.109 8  97461955.066 8      1266.510          51.000
E05                                                                  25004789.383 5 100683918.131 5      -916.215          33.000
E15  23208067.555 7 121959222.629 7       765.484          44.000    23208072.203 7  93449296.330 7       586.594          44.000
> 2020 05 10 19 03 30.0000000  0 18        .000000000000
G03  22347574.977 8 117437286.337 8      2841.867          48.000    22347575.766 8  91509611.584 8      2214.442          48.000
G08  21404757.898 8 112482770.648 8     -2457.051          50.000    21404761.195 8  87648902.808 8     -1914.588          50.000
G11  19861764.945 8 104374279.259 8      -206.074          51.000    19861762.953 8  81330605.053 8      -160.580          48.000
G14  22023493.469 6 115734229.675 6       865.922          40.000    22023491.734 6  90182564.118 6       674.750          36.000
G22  21007563.984 8 110395490.977 8      1334.125          50.000    21007560.305 8  86022449.783 8      1039.578          49.000
G27  23809057.195 6 125117394.002 6     -3659.543          41.000    23809063.945 6  97494056.471 6     -2851.592          41.000
R01  21776587.547 6 116408364.995 6      3936.066          39.000    21776593.375 5  90539841.521 5      3061.388          31.000
R07  20496687.281 5 109720434.889 5     -2660.875          34.000    20496687.883 4  85338073.070 4     -2069.572          27.000
R08  19403326.172 8 103903919.544 8      1276.676          49.000    19403327.031 7  80814217.206 7       992.970          46.000
R22  20556743.234 8 109733301.089 8     -2315.809          51.000    20556746.836 8  85348104.961 8     -1801.184          48.000
C05                                                                  39661573.555 6 159700731.315 6       -23.748          37.000
C19  23515750.812 8 122452663.029 8      2751.480          50.000
C20  21890180.680 8 113988029.870 8        89.664          51.000
C29  21491535.406 8 111912088.586 8      -124.695          51.000
C30  23842698.195 8 124155142.912 8     -2776.227          51.000
E03  24195192.125 8 127146663.811 8      1638.852          51.000    24195196.555 8  97424103.844 8      1255.687          51.000
E05                                                                  25011657.164 5 100711558.737 5      -927.484          33.000
E15  23203718.773 7 121936369.381 7       756.484          44.000    23203723.828 7  93431785.387 7       579.704          44.000
> 2020 05 10 19 04  0.0000000  0 18        .000000000000
G03  22331373.375 8 117352145.915 8      2833.445          48.000    22331373.766 8  91443268.446 8      2207.879          48.000
G08  21418818.844 8 112556659.696 8     -2469.680          51.000    21418821.266 8  87706478.617 8     -1924.429          51.000
G11  19862984.641 8 104380688.808 8      -222.254          50.000    19862982.539 8  81335599.500 8      -173.185          49.000
G14  22018593.586 6 115708480.001 6       849.852          41.000    22018591.648 5  90162499.463 5       662.222          33.000
G22  20999978.727 8 110355631.633 8      1322.410          50.000    20999975.828 8  85991390.568 8      1030.449          50.000
G27  23829958.258 6 125227220.381 6     -3663.500          41.000    23829964.523 6  97579635.474 6     -2854.678          41.000
R01  21754526.062 6 116290426.500 6      3925.613          39.000    21754531.258 5  90448111.601 5      3053.258          35.000
R07  20511645.391 5 109800503.223 5     -2677.570          30.000    20511645.078 5  85400341.356 5     -2082.552          30.000
R08  19396236.734 8 103865953.593 8      1253.539          49.000    19396236.812 7  80784688.148 7       974.975          45.000
R22  20569794.461 8 109802970.913 8     -2329.691          51.000    20569798.664 8  85402292.572 8     -1811.985          49.000
C05                                                                  39661745.328 6 159701423.171 6       -22.993          38.000
C19  23499917.742 8 122370215.967 8      2744.184          50.000
C20  21889701.453 8 113985534.332 8        75.938          51.000
C29  21492288.211 8 111916009.909 8      -137.559          51.000
C30  23858709.773 8 124238516.091 8     -2782.730          49.000
E03  24185865.547 8 127097652.558 8      1627.898          51.000    24185870.445 8  97386549.787 8      1247.384          51.000
E05                                                                  25018599.719 5 100739505.230 5      -936.110          32.000
E15  23199414.258 7 121913749.070 7       750.691          45.000    23199420.117 7  93414452.932 7       575.286          45.000
> 2020 05 10 19 04 30.0000000  0 18        .000000000000
G03  22315226.391 8 117267292.701 8      2823.066          48.000    22315227.945 8  91377149.119 8      2199.795          48.000
G08  21432958.844 8 112630962.251 8     -2484.203          51.000    21432960.016 8  87764376.672 8     -1935.743          51.000
G11  19864303.672 8 104387620.690 8      -240.375          49.000    19864301.891 8  81341000.958 8      -187.305          49.000
G14  22013793.609 6 115683256.041 6       831.230          40.000    22013792.258 5  90142844.486 5       647.709          33.000
G22  20992467.047 8 110316157.660 8      1308.828          51.000    20992464.914 8  85960631.627 8      1019.866          51.000
G27  23850886.828 6 125337192.819 6     -3668.457          38.000    23850893.008 6  97665328.347 6     -2858.529          37.000
R01  21732528.297 6 116172833.615 6      3913.363          39.000    21732533.711 6  90356650.521 6      3043.730          36.000
R07  20526699.906 6 109881101.925 6     -2695.840          36.000    20526703.156 4  85463029.331 4     -2096.764          29.000
R08  19389283.484 8 103828718.240 8      1228.391          50.000    19389283.055 7  80755727.336 7       955.415          46.000
R22  20582931.195 8 109873093.306 8     -2345.586          51.000    20582935.141 8  85456832.207 8     -1824.345          48.000
C05                                                                  39661916.453 6 159702112.568 6       -23.361          38.000
C19  23484134.148 8 122288027.281 8      2734.734          49.000
C20  21889307.172 8 113983481.344 8        60.469          51.000
C29  21493121.656 8 111920350.800 8      -152.266          51.000
C30  23874763.016 7 124322119.032 7     -2791.129          45.000
E03  24176606.805 8 127048998.548 8      1615.250          50.000    24176612.172 8  97349269.459 8      1237.623          51.000
E05                                                                  25025609.133 5 100767757.566 5      -946.125          30.000
E15  23195148.336 7 121891331.063 7       743.484          45.000    23195154.539 7  93397275.490 7       569.623          45.000
> 2020 05 10 19 05  0.0000000  0 17        .000000000000
G03  22299137.953 8 117182747.427 8      2814.465          48.000    22299140.961 8  91311269.704 8      2193.089          48.000
G08  21447180.742 8 112705695.876 8     -2496.902          51.000    21447180.969 8  87822610.628 8     -1945.638          51.000
G11  19865725.828 8 104395094.808 8      -256.832          49.000    19865724.281 8  81346824.946 8      -200.132          49.000
G14  22009097.719 6 115658578.287 6       814.918          37.000    22009096.336 5  90123615.001 5       634.992          35.000
G22  20985032.648 8 110277088.303 8      1296.949          51.000    20985030.469 8  85930187.975 8      1010.610          50.000
G27  23871846.516 6 125447328.994 6     -3672.723          38.000    23871855.094 6  97751148.933 6     -2861.856          38.000
R01  21710599.062 6 116055609.268 6      3902.824          39.000    21710604.562 6  90265476.076 6      3035.530          37.000
R07  20541858.281 6 109962247.477 6     -2712.656          36.000    20541863.016 4  85526142.500 4     -2109.841          29.000
R08  19382469.938 8 103792233.873 8      1205.027          50.000    19382470.031 7  80727350.673 7       937.243          45.000
R22  20596156.422 8 109943687.344 8     -2359.566          51.000    20596159.695 8  85511738.656 8     -1835.221          49.000
C05                                                                  39662090.797 6 159702814.460 6       -22.558          38.000
C19  23468404.023 7 122206117.600 7      2727.062          47.000
C20  21889001.703 8 113981889.704 8        46.793          51.000
C29  21494039.461 8 111925131.207 8      -165.227          51.000
C30  23890863.875 7 124405970.084 7     -2797.719          45.000
E03  24167419.852 8 127000722.323 8      1604.305          49.000    24167425.297 8  97312278.558 8      1229.284          51.000
E15  23190924.969 7 121869135.813 7       737.504          45.000    23190930.789 7  93380268.718 7       565.223          45.000
> 2020 05 10 19 05 30.0000000  0 16        .000000000000
G03  22283098.945 8 117098461.946 8      2804.695          49.000    22283102.922 8  91245592.719 8      2185.480          48.000
G08  21461474.648 8 112780809.964 8     -2510.516          51.000    21461474.453 8  87881141.048 8     -1956.246          51.000
G11  19867241.898 8 104403062.425 8      -274.398          49.000    19867240.469 8  81353033.478 8      -213.817          49.000
G22  20977666.055 8 110238374.675 8      1284.059          51.000    20977663.227 8  85900021.535 8      1000.565          50.000
G27  23892827.633 6 125557577.396 6     -3677.262          39.000    23892834.148 6  97837056.752 6     -2865.399          39.000
R01  21688730.680 6 115938706.447 6      3890.891          37.000    21688735.609 6  90174551.720 6      3026.251          37.000
R07  20557109.438 6 110043886.155 6     -2730.004          38.000    20557114.477 4  85589639.231 4     -2123.339          28.000
R08  19375787.188 8 103756451.156 8      1180.496          49.000    19375787.781 7  80699519.690 7       918.164          45.000
R22  20609460.531 8 110014702.247 8     -2374.613          51.000    20609463.461 8  85566972.407 8     -1846.921          49.000
C05                                                                  39662258.844 6 159703491.219 6       -22.313          38.000
C19  23452717.453 7 122124439.434 7      2718.367          45.000
C20  21888775.430 8 113980710.071 8        31.992          51.000
C29  21495032.695 8 111930303.046 8      -179.363          51.000
C30  23907003.844 7 124490019.291 7     -2805.355          45.000
E03  24158295.789 8 126952775.593 8      1592.418          50.000    24158301.172 8  97275540.136 8      1220.096          51.000
E15  23186734.750 7 121847114.964 7       730.648          45.000    23186739.938 7  93363395.606 7       559.859          45.000
> 2020 05 10 19 06  0.0000000  0 17        .000000000000
G03  22267118.312 8 117014482.833 8      2794.543          49.000    22267122.383 8  91180154.493 8      2177.569          49.000
G08  21475848.711 8 112856348.077 8     -2524.734          48.000    21475848.594 8  87940001.897 8     -1967.325          48.000
G11  19868860.742 8 104411569.891 8      -292.176          49.000    19868859.477 8  81359662.677 8      -227.666          49.000
G22  20970375.641 8 110200062.054 8      1270.852          51.000    20970372.523 8  85870167.553 8       990.274          51.000
G27  23913838.062 6 125667981.496 6     -3681.949          40.000    23913841.945 6  97923085.947 6     -2869.048          40.000
G32  22095384.617 5 116112029.270 5      -769.715          34.000    22095366.648 5  90476831.552 5      -599.778          32.000
R01  21666934.117 5 115822174.467 5      3878.625          32.000    21666935.875 5  90083915.886 5      3016.717          35.000
R07  20572462.906 4 110126060.426 4     -2746.879          29.000    20572463.789 4  85653552.504 4     -2136.455          28.000
R08  19369244.039 8 103721417.103 8      1155.773          48.000    19369246.039 7  80672271.033 7       898.938          47.000
R22  20622851.961 8 110086183.613 8     -2390.035          51.000    20622854.203 8  85622568.991 8     -1858.916          48.000
C05                                                                  39662429.359 6 159704177.805 6       -22.651          37.000
C19  23437082.812 7 122043039.154 7      2708.875          42.000
C20  21888636.727 8 113979986.968 8        16.930          51.000
C29  21496109.914 8 111935912.060 8      -193.898          51.000
C30  23923191.086 7 124574310.797 7     -2813.250          47.000
E03  24149243.555 8 126905204.823 8      1579.863          51.000    24149248.312 8  97239089.810 8      1210.527          51.000
E15  23182586.281 7 121825314.988 7       723.301          44.000    23182591.086 7  93346691.722 7       554.292          45.000
> 2020 05 10 19 06 30.0000000  0 17        .000000000000
G03  22251195.984 8 116930810.807 8      2784.336          48.000    22251199.984 8  91114955.587 8      2169.612          48.000
G08  21490301.961 7 112932308.016 7     -2538.645          45.000    21490303.328 7  87999191.480 7     -1978.162          45.000
G11  19870582.352 8 104420617.027 8      -310.156          49.000    19870581.031 8  81366712.395 8      -241.680          49.000
G14  21995602.914 5 115587662.214 5       760.609          35.000
G22  20963161.398 8 110162150.172 8      1257.383          51.000    20963158.289 8  85840625.831 8       979.779          51.000
G27  23934877.297 6 125778538.884 6     -3687.508          40.000    23934879.055 6  98009234.468 6     -2873.389          39.000
G32  22099836.578 5 116135425.165 5      -789.379          31.000
R07  20587910.453 6 110208766.743 6     -2765.293          37.000    20587915.547 4  85717879.778 4     -2150.783          25.000
R08  19362841.164 8 103687132.030 8      1130.812          48.000    19362843.883 7  80645604.883 7       879.521          46.000
R22  20636329.906 8 110158130.368 8     -2405.539          51.000    20636332.242 8  85678527.562 8     -1870.975          50.000
C05                                                                  39662602.219 6 159704873.840 6       -23.026          38.000
C19  23421502.750 7 121961917.649 7      2699.797          44.000
C20  21888585.570 8 113979719.379 8         1.805          51.000
C29  21497271.055 8 111941958.483 8      -208.461          51.000
C30  23939425.617 8 124658843.168 8     -2821.344          49.000
E03  24140263.266 8 126858010.547 8      1567.266          51.000    24140267.078 8  97202927.969 8      1200.856          51.000
E15  23178479.766 7 121803736.352 7       715.980          44.000    23178484.508 7  93330157.437 7       548.656          45.000
> 2020 05 10 19 07  0.0000000  0 18        .000000000000
G03  22235327.023 8 116847419.439 8      2774.746          48.000    22235329.945 8  91049975.334 8      2162.140          48.000
G08  21504830.492 8 113008660.589 8     -2551.781          48.000    21504833.242 8  88058687.018 8     -1988.401          48.000
G11  19872401.555 8 104430176.843 8      -327.453          49.000    19872400.086 8  81374161.612 8      -255.158          50.000
G14  21991308.062 6 115565091.211 6       743.621          36.000
G22  20956017.672 8 110124611.778 8      1244.828          50.000    20956014.734 8  85811375.168 8       969.999          50.000
G27  23955939.492 6 125889219.720 6     -3691.773          39.000    23955938.219 6  98095479.165 6     -2876.713          37.000
G32  22104390.945 5 116159364.166 5      -807.875          33.000
R01  21623529.477 6 115590140.940 6      3854.297          37.000    21623534.656 5  89903480.561 5      2997.793          31.000
R07  20603454.742 6 110291973.074 6     -2782.367          36.000
R08  19356573.039 8 103653568.132 8      1106.598          48.000    19356575.938 7  80619499.620 7       860.687          46.000
R22  20649889.234 8 110230513.751 8     -2420.344          51.000    20649892.445 8  85734825.739 8     -1882.490          50.000
C05                                                                  39662772.156 6 159705558.216 6       -22.684          38.000
C19  23405973.125 7 121881048.690 7      2691.141          46.000
C20  21888616.633 8 113979879.306 8       -12.738          51.000
C29  21498511.062 8 111948415.440 8      -222.379          51.000
C30  23955700.914 8 124743587.937 8     -2828.559          48.000
E03  24131349.656 8 126811166.043 8      1555.465          51.000    24131352.484 8  97167034.137 8      1191.871          51.000
E15  23174410.133 7 121782352.335 7       709.371          45.000    23174414.773 7  93313772.283 7       543.532          45.000
> 2020 05 10 19 07 30.0000000  0 18        .000000000000
G03  22219519.195 8 116764348.226 8      2763.883          49.000    22219520.586 8  90985244.563 8      2153.678          49.000
G08  21519442.078 8 113085442.123 8     -2566.316          50.000    21519444.938 8  88118516.756 8     -1999.727          51.000
G11  19874325.688 8 104440288.514 8      -345.973          49.000    19874324.273 8  81382040.836 8      -269.589          49.000
G14  21987119.281 6 115543078.322 6       724.750          37.000
G22  20948952.109 8 110087485.225 8      1230.879          50.000    20948949.289 8  85782445.394 8       959.126          50.000
G27  23977031.695 6 126000060.517 6     -3697.098          37.000    23977028.484 5  98181848.565 5     -2880.855          34.000
G32  22109061.148 6 116183907.358 6      -827.457          36.000    22109066.047 5  90532951.406 5      -644.793          35.000
R01  21601938.977 6 115474721.792 6      3841.055          41.000    21601941.953 5  89813710.245 5      2987.490          32.000
R07  20619097.898 5 110375714.783 5     -2800.539          32.000    20619104.812 4  85847725.037 4     -2178.194          28.000
R08  19350447.328 8 103620765.108 8      1081.012          49.000    19350450.336 7  80593986.181 7       840.790          46.000
R22  20663538.000 8 110303372.112 8     -2436.273          51.000    20663541.195 8  85791493.353 8     -1894.879          49.000
C05                                                                  39662946.594 6 159706260.470 6       -23.518          38.000
C19  23390500.773 8 121800471.672 8      2681.219          49.000
C20  21888736.906 8 113980504.302 8       -28.355          51.000
C29  21499837.344 8 111955321.762 8      -237.414          51.000
C30  23972023.430 8 124828582.181 8     -2837.094          48.000
E03  24122509.930 8 126764710.700 8      1542.254          51.000    24122512.422 8  97131438.519 8      1181.715          51.000
E15  23170385.188 7 121761202.313 7       701.293          45.000    23170389.328 7  93297566.434 7       537.429          46.000
> 2020 05 10 19 08  0.0000000  0 19        .000000000000
G03  22203764.938 8 116681558.283 8      2754.965          50.000    22203765.578 8  90920732.967 8      2146.726          50.000
G08  21534127.633 8 113162611.462 8     -2578.754          51.000    21534130.344 8  88178648.657 8     -2009.419          51.000
G11  19876347.289 8 104450912.196 8      -362.543          49.000    19876346.094 8  81390319.029 8      -282.501          49.000
G14  21983029.773 5 115521584.870 5       707.766          35.000
G22  20941957.914 8 110050730.486 8      1218.941          51.000    20941955.031 8  85753805.324 8       949.824          50.000
G27  23998146.703 5 126111019.159 5     -3701.012          35.000    23998145.047 5  98268309.776 5     -2883.908          35.000
G32  22113836.188 5 116208993.255 5      -845.137          31.000    22113835.805 5  90552460.841 5      -658.545          31.000
R01  21580414.984 6 115359655.849 6      3829.613          41.000    21580416.930 5  89724214.586 5      2978.591          34.000
R07  20634831.445 6 110459947.817 6     -2815.926          37.000    20634841.367 4  85913239.682 4     -2190.168          27.000
R08  19344456.461 8 103588682.835 8      1057.492          48.000    19344458.672 7  80569033.286 7       822.491          45.000
R22  20677268.430 8 110376664.259 8     -2450.305          51.000    20677271.375 8  85848498.329 8     -1905.796          49.000
R23  19596829.281 5 104829848.919 5      1849.758          33.000
C05                                                                  39663117.859 6 159706950.005 6       -22.884          38.000
C19  23375077.578 8 121720148.243 8      2673.281          51.000
C20  21888938.594 8 113981554.120 8       -42.055          51.000
C29  21501242.602 8 111962638.401 8      -250.684          51.000
C30  23988385.711 7 124913785.216 7     -2843.602          46.000
E03  24113736.430 8 126718605.475 8      1530.883          51.000    24113738.938 8  97096111.175 8      1173.014          51.000
E15  23166397.359 7 121740247.244 7       695.121          46.000    23166401.320 7  93281509.964 7       532.613          46.000
> 2020 05 10 19 08 30.0000000  0 19        .000000000000
G03  22188066.758 8 116599063.999 8      2744.855          48.000    22188068.062 8  90856451.733 8      2138.851          48.000
G08  21548888.805 8 113240179.318 8     -2592.305          51.000    21548891.523 8  88239091.116 8     -2019.978          51.000
G11  19878469.039 8 104462061.891 8      -380.484          49.000    19878467.938 8  81399007.100 8      -296.481          49.000
G14  21979041.906 6 115500624.807 6       689.277          37.000
G22  20935037.219 8 110014361.080 8      1205.840          51.000    20935034.297 8  85725465.538 8       939.615          50.000
G27  24019285.812 5 126222106.801 5     -3705.000          35.000    24019284.398 5  98354871.447 5     -2887.019          34.000
G32  22118719.328 6 116234648.456 6      -864.535          37.000    22118724.188 6  90572451.983 6      -673.661          36.000
R01  21558959.281 7 115244959.293 7      3816.855          43.000    21558959.844 5  89635006.215 5      2968.668          35.000
R07  20650662.203 6 110544682.069 6     -2832.484          36.000    20650663.031 4  85979155.898 4     -2203.053          25.000
R08  19338602.680 8 103557335.634 8      1032.570          49.000    19338604.516 7  80544652.148 7       803.110          46.000
R22  20691082.383 8 110450403.083 8     -2465.555          51.000    20691085.375 8  85905850.698 8     -1917.657          49.000
R23  19586495.727 5 104774585.725 5      1834.566          33.000
C05                                                                  39663288.406 6 159707637.083 6       -22.772          38.000
C19  23359705.312 8 121640092.864 8      2663.953          51.000
C20  21889224.086 8 113983041.317 8       -56.891          51.000
C29  21502729.086 8 111970379.167 8      -265.164          50.000
C30  24004790.172 7 124999209.245 7     -2851.262          44.000
E03  24105032.008 8 126672864.591 8      1518.602          51.000    24105034.758 8  97061062.994 8      1163.604          51.000
E15  23162449.641 7 121719501.403 7       688.102          45.000    23162453.836 7  93265613.790 7       527.196          47.000
> 2020 05 10 19 09  0.0000000  0 18        .000000000000
G03  22172426.758 8 116516876.256 8      2733.488          48.000    22172429.195 8  90792409.361 8      2129.991          48.000
G08  21563726.977 8 113318154.284 8     -2606.906          50.000    21563729.953 8  88299850.822 8     -2031.356          50.000
G11  19880692.820 8 104473747.794 8      -399.551          50.000    19880691.719 8  81408112.991 8      -311.338          50.000
G14  21975157.609 6 115480209.163 6       670.301          38.000    21975158.766 5  89984579.682 5       522.315          35.000
G22  20928191.594 8 109978386.668 8      1191.539          51.000    20928188.617 8  85697433.552 8       928.472          51.000
G27  24040450.836 5 126333331.253 5     -3710.969          35.000    24040449.328 5  98441539.704 5     -2891.670          34.000
G32  22123710.117 6 116260876.631 6      -884.520          37.000    22123721.828 6  90592889.593 6      -689.233          37.000
R01  21537575.016 7 115130645.204 7      3802.891          44.000    21537574.531 5  89546095.322 5      2957.807          35.000
R08  19332887.906 8 103526733.407 8      1006.633          48.000    19332889.711 7  80520850.437 7       782.937          45.000
R22  20704981.641 8 110524597.428 8     -2481.742          51.000    20704984.516 8  85963557.384 8     -1930.247          48.000
R23  19576251.133 5 104719781.207 5      1817.969          32.000
C05                                                                  39663460.352 6 159708329.264 6       -24.023          38.000
C19  23344385.805 8 121560316.423 8      2653.496          50.000
C20  21889595.219 8 113984974.933 8       -72.949          51.000
C29  21504298.977 8 111978554.315 8      -280.738          50.000
C30  24021237.172 7 125084862.933 7     -2859.980          45.000
E03  24096398.992 8 126627498.750 8      1504.914          51.000    24096401.922 8  97026302.172 8      1153.119          51.000
E15  23158543.719 7 121698975.447 7       679.391          46.000    23158548.266 7  93249886.088 7       520.722          47.000
> 2020 05 10 19 09 30.0000000  0 19        .000000000000
G01  20626347.422 5 108392184.674 5      1205.633          35.000
G03  22156845.781 8 116434997.799 8      2723.348          49.000    22156848.555 8  90728608.009 8      2122.092          49.000
G08  21578641.852 8 113396535.979 8     -2620.371          48.000    21578645.477 8  88360927.443 8     -2041.851          48.000
G11  19883018.992 8 104485971.907 8      -417.211          49.000    19883017.664 8  81417638.274 8      -325.099          49.000
G14  21971376.859 5 115460340.259 5       652.461          31.000    21971377.906 3  89969097.509 3       508.429          22.000
G22  20921421.461 8 109942809.203 8      1178.465          51.000    20921418.430 8  85669710.858 8       918.287          51.000
G32  22128809.836 5 116287678.615 5      -904.117          33.000    22128817.430 5  90613774.151 5      -704.498          32.000
R01  21516262.852 7 115016718.205 7      3790.258          43.000    21516263.000 6  89457485.488 6      2947.978          37.000
R07  20682604.812 4 110715610.834 4     -2867.277          28.000    20682610.766 4  86112161.298 4     -2230.099          28.000
R08  19327312.391 8 103496878.387 8       981.902          48.000    19327313.914 7  80497629.874 7       763.702          46.000
R22  20718966.039 8 110599248.319 8     -2496.773          51.000    20718969.102 8  86021619.144 8     -1941.935          48.000
R23  19566092.500 5 104665440.165 5      1802.648          35.000
C05                                                                  39663633.898 6 159709027.847 6       -24.146          38.000
C19  23329119.531 8 121480821.918 8      2644.219          49.000
C20  21890052.289 8 113987355.961 8       -87.629          51.000
C29  21505952.844 8 111987166.041 8      -295.172          50.000
C30  24037730.039 7 125170746.688 7     -2867.469          47.000
E03  24087837.898 8 126582510.502 8      1492.406          51.000    24087841.117 8  96991830.657 8      1143.529          51.000
E15  23154680.156 7 121678671.974 7       672.078          46.000    23154684.461 7  93234328.893 7       515.017          47.000
> 2020 05 10 19 10  0.0000000  0 19        .000000000000
G01  20619492.406 5 108356155.425 5      1196.324          34.000    20619486.578 5  84433355.897 5       932.198          35.000
G03  22141322.492 8 116353422.270 8      2714.699          48.000    22141324.914 8  90665042.707 8      2115.350          48.000
G08  21593632.633 8 113475315.285 8     -2631.969          48.000    21593636.344 8  88422313.880 8     -2050.888          48.000
G11  19885446.258 8 104498727.346 8      -433.328          49.000    19885444.750 8  81427577.573 8      -337.658          49.000
G14  21967698.320 5 115441033.921 5       636.340          34.000    21967700.078 5  89954062.329 5       495.846          33.000
G22  20914725.414 8 109907621.180 8      1167.176          50.000    20914722.180 8  85642291.603 8       909.488          50.000
G32  22134018.094 5 116315046.093 5      -920.828          34.000    22134026.055 5  90635099.572 5      -717.522          34.000
R01  21495021.320 7 114903173.777 7      3779.086          45.000    21495023.719 6  89369173.202 6      2939.289          39.000
R07  20698716.336 4 110801852.242 4     -2881.574          29.000    20698717.758 4  86179223.928 4     -2241.224          25.000
R08  19321875.148 8 103467763.421 8       958.809          49.000    19321876.875 7  80474984.935 7       745.743          46.000
R22  20733034.250 8 110674347.499 8     -2510.113          51.000    20733037.305 7  86080029.584 7     -1952.310          47.000
R23  19556018.992 5 104611557.625 5      1789.121          30.000
C05                                                                  39663807.594 6 159709727.189 6       -22.727          38.000
C19  23313905.125 8 121401603.087 8      2636.691          48.000
C20  21890593.812 8 113990176.406 8      -100.648          51.000
C29  21507689.031 8 111996207.552 8      -307.867          50.000
C30  24054266.336 7 125256852.154 7     -2873.141          47.000
E03  24079347.367 8 126537893.290 8      1481.801          51.000    24079350.883 8  96957643.433 8      1135.337          51.000
E15  23150857.758 7 121658584.513 7       666.562          46.000    23150861.492 7  93218937.205 7       510.800          47.000
> 2020 05 10 19 10 30.0000000  0 16        .000000000000
G03  22125859.711 8 116272164.988 8      2704.059          49.000    22125862.125 8  90601725.393 8      2107.059          49.000
G08  21608701.930 8 113554504.795 8     -2645.664          50.000    21608704.844 8  88484019.963 8     -2061.556          51.000
G11  19887977.469 8 104512028.988 8      -451.688          49.000    19887976.031 8  81437942.488 8      -351.964          49.000
G14  21964126.070 6 115422261.028 6       617.418          36.000    21964126.461 5  89939434.021 5       481.105          35.000
G22  20908106.266 8 109872836.704 8      1153.582          51.000    20908102.922 8  85615186.815 8       898.895          51.000
G32  22139336.570 6 116342992.759 6      -940.684          36.000    22139343.141 6  90656876.159 6      -733.006          37.000
R01  21473854.516 7 114790029.575 7      3765.602          45.000    21473859.281 6  89281172.190 6      2928.801          40.000
R08  19316578.922 8 103439403.628 8       933.504          48.000    19316580.539 7  80452927.316 7       726.059          45.000
R22  20747189.102 8 110749908.872 8     -2525.629          51.000    20747192.117 8  86138799.535 8     -1964.378          48.000
C05                                                                  39663984.156 6 159710438.279 6       -23.098          38.000
C19  23298746.867 8 121322675.421 8      2626.848          48.000
C20  21891222.234 8 113993449.740 8      -115.875          51.000
C29  21509510.547 8 112005693.595 8      -322.852          50.000
C30  24070847.234 7 125343192.368 7     -2881.086          45.000
E03  24070930.305 8 126493662.260 8      1468.805          51.000    24070933.914 8  96923752.128 8      1125.436          51.000
E15  23147079.297 7 121638728.249 7       658.938          47.000    23147082.578 7  93203722.672 7       504.897          47.000
> 2020 05 10 19 11  0.0000000  0 18        .000000000000
G03  22110446.930 8 116191170.384 8      2695.328          48.000    22110449.812 8  90538612.708 8      2100.253          48.000
G08  21623838.352 8 113634045.492 8     -2657.141          51.000    21623839.852 8  88545999.687 8     -2070.499          51.000
G11  19890601.852 8 104525820.469 8      -467.797          49.000    19890600.609 8  81448689.081 8      -364.517          49.000
G14  21960648.852 6 115403987.555 6       600.535          37.000    21960650.031 6  89925194.967 6       467.949          36.000
G22  20901553.219 8 109838399.189 8      1142.184          51.000    20901549.969 8  85588352.396 8       890.013          51.000
G27  24125355.703 5 126779611.607 5     -3724.336          32.000    24125353.570 5  98789288.809 5     -2902.086          32.000
R01  21452752.281 7 114677230.809 7      3754.184          46.000    21452758.906 6  89193439.858 6      2919.921          40.000
R07  20731209.984 5 110975807.625 5     -2913.508          33.000    20731219.023 5  86314526.509 5     -2266.062          30.000
R08  19311413.172 8 103411741.389 8       910.523          48.000    19311415.102 7  80431412.256 7       708.185          46.000
R22  20761419.414 8 110825873.725 8     -2538.797          51.000    20761423.023 8  86197883.312 8     -1974.620          48.000
C05                                                                  39664152.914 6 159711117.679 6       -21.969          38.000
C19  23283634.375 8 121243983.879 8      2619.102          48.000
C20  21891927.000 8 113997119.062 8      -128.832          51.000
C29  21511406.742 8 112015568.472 8      -335.621          50.000
C30  24087462.109 7 125429710.052 7     -2886.812          46.000
E03  24062576.281 8 126449761.552 8      1457.855          51.000    24062579.555 8  96890113.945 8      1117.040          51.000
E05  25123057.867 5 132022548.234 5     -1388.703          32.000
E15  23143334.180 7 121619047.433 7       653.176          47.000    23143337.125 7  93188642.568 7       500.482          47.000
> 2020 05 10 19 11 30.0000000  0 16        .000000000000
G03  22095090.484 8 116110472.209 8      2675.277          48.000    22095093.953 7  90475731.028 7      2084.632          47.000
G08  21639047.703 8 113713968.782 8     -2680.062          50.000    21639047.844 8  88608277.534 8     -2088.363          50.000
G11  19893325.773 8 104540134.652 8      -495.488          49.000    19893324.664 8  81459842.986 8      -386.095          49.000
G14  21957272.570 6 115386247.197 6       572.914          40.000    21957274.289 6  89911371.379 6       446.430          37.000
G22  20895072.281 8 109804341.389 8      1119.262          51.000    20895069.188 8  85561813.862 8       872.152          51.000
G32  22150299.609 6 116400632.713 6      -986.254          38.000    22150289.047 6  90701782.833 6      -768.513          38.000
R01  21431721.594 7 114564813.639 7      3730.906          45.000    21431728.969 6  89106004.330 6      2901.816          39.000
R08  19306384.305 8 103384810.520 8       875.672          49.000    19306386.039 7  80410466.038 7       681.078          46.000
R22  20775731.969 8 110902274.637 8     -2563.738          51.000    20775735.656 8  86257306.235 8     -1994.019          48.000
C05                                                                  39664320.062 6 159711790.673 6       -29.686          38.000
C19  23268573.914 8 121165562.113 8      2599.969          48.000
C20  21892713.828 8 114001216.171 8      -153.211          51.000
C29  21513383.984 8 112025865.162 8      -359.797          51.000
C30  24104117.961 8 125516436.657 8     -2904.035          49.000
E03  24054291.750 8 126406224.797 8      1435.539          51.000    24054294.219 8  96856754.649 8      1099.926          51.000
E15  23139628.828 7 121599575.748 7       635.867          47.000    23139631.594 8  93173722.710 8       487.259          48.000
> 2020 05 10 19 12  0.0000000  0 16        .000000000000
G03  22079809.867 8 116030172.116 8      2677.645          49.000    22079812.914 8  90413159.553 8      2086.479          49.000
G08  21654348.438 8 113794373.214 8     -2680.625          50.000    21654348.734 8  88670930.315 8     -2088.799          50.000
G11  19896168.516 8 104555072.619 8      -500.789          50.000    19896167.109 8  81471482.954 8      -390.225          49.000
G14  21954017.305 6 115369141.846 6       567.250          40.000    21954017.430 5  89898042.535 5       442.010          35.000
G22  20888682.789 8 109770763.875 8      1118.832          51.000    20888679.672 8  85535649.586 8       871.817          50.000
R01  21410781.938 7 114452883.258 7      3730.570          45.000    21410789.266 6  89018947.436 6      2901.555          38.000
R08  19301511.289 8 103358713.337 8       863.727          48.000    19301512.625 7  80390168.211 7       671.787          46.000
R22  20790145.539 8 110979213.020 8     -2565.789          51.000    20790149.398 8  86317147.167 8     -1995.617          49.000
R23  19516598.727 5 104400620.522 5      1730.051          35.000
C05                                                                  39664504.680 6 159712534.233 6       -19.933          38.000
C19  23253585.156 8 121087511.023 8      2602.980          48.000
C20  21893601.547 8 114005840.009 8      -155.359          51.000
C29  21515461.672 8 112036683.872 8      -361.730          51.000
C30  24120833.477 8 125603470.716 8     -2898.750          50.000
E03  24046095.758 8 126363153.408 8      1435.539          51.000    24046097.281 8  96823751.939 8      1100.003          50.000
E15  23135982.469 7 121580414.719 7       641.098          47.000    23135985.375 8  93159040.896 8       491.261          48.000
> 2020 05 10 19 12 30.0000000  0 20        .000000000000
G01  20586111.305 5 108180748.084 5      1142.621          31.000
G03  22064571.977 8 115950096.668 8      2663.039          49.000    22064573.961 8  90350763.176 8      2075.098          49.000
G08  21669706.992 8 113875082.358 8     -2697.738          50.000    21669708.258 8  88733820.538 8     -2102.134          50.000
G11  19899096.852 8 104570460.155 8      -522.754          51.000    19899095.055 8  81483473.240 8      -407.341          49.000
G14  21950849.930 6 115352497.414 6       544.543          38.000    21950851.117 5  89885072.869 5       424.325          34.000
G22  20882351.406 8 109737492.060 8      1101.543          51.000    20882348.250 8  85509723.523 8       858.345          50.000
G27  24189274.062 5 127115496.496 5     -3738.801          34.000    24189274.227 5  99051032.122 5     -2913.357          35.000
R01  21389900.781 7 114341265.241 7      3712.910          45.000    21389908.234 6  88932133.473 6      2887.819          39.000
R07  20780644.156 4 111240335.418 4     -2963.402          27.000    20780642.812 4  86520260.007 4     -2304.865          29.000
R08  19296760.711 8 103333272.763 8       834.691          48.000    19296762.453 7  80370381.135 7       649.204          47.000
R22  20804626.203 8 111056510.772 8     -2584.934          51.000    20804629.859 8  86377267.610 8     -2010.504          48.000
R23  19506953.250 6 104349043.494 6      1710.320          36.000
C05                                                                  39664673.742 6 159713214.855 6       -23.554          38.000
C19  23238634.500 8 121009658.941 8      2589.316          48.000
C20  21894557.109 8 114010817.005 8      -174.098          51.000
C29  21517606.633 8 112047852.260 8      -380.418          51.000
C30  24137574.281 8 125690638.334 8     -2910.094          49.000
E03  24037954.891 8 126320373.793 8      1418.719          51.000    24037956.055 8  96790972.807 8      1087.103          51.000
E05  25147165.305 5 132149261.380 5     -1426.074          34.000    25147171.375 5 101257237.676 5     -1093.065          34.000
E15  23132362.195 8 121561390.870 8       629.488          48.000    23132365.398 8  93144464.176 8       482.311          48.000
> 2020 05 10 19 13  0.0000000  0 20        .000000000000
G01  20579620.602 5 108146635.090 5      1132.871          34.000    20579627.922 5  84270117.408 5       882.760          35.000
G03  22049396.977 8 115870352.490 8      2654.562          48.000    22049398.766 8  90288624.899 8      2068.490          48.000
G08  21685142.930 8 113956200.102 8     -2708.887          48.000    21685145.414 8  88797029.129 8     -2110.821          48.000
G11  19902130.883 8 104586403.512 8      -538.840          51.000    19902129.062 8  81495896.623 8      -419.878          50.000
G14  21947790.359 5 115336420.493 5       528.156          33.000    21947791.531 5  89872545.468 5       411.550          30.000
G22  20876097.969 8 109704631.574 8      1090.383          51.000    20876095.141 8  85484117.972 8       849.649          50.000
G27  24210623.500 6 127227693.209 6     -3740.453          37.000    24210625.570 6  99138457.998 6     -2914.642          38.000
R01  21369099.016 7 114230070.104 7      3701.316          46.000    21369106.836 6  88845648.415 6      2878.805          40.000
R07  20797313.680 5 111329651.744 5     -2977.070          35.000    20797298.953 4  86589686.009 4     -2315.502          29.000
R08  19292152.781 8 103308596.108 8       811.793          49.000    19292154.484 7  80351188.188 7       631.395          47.000
R22  20819193.859 8 111134274.306 8     -2598.000          51.000    20819197.438 8  86437750.341 8     -2020.670          48.000
R23  19497404.117 5 104297965.400 5      1696.141          34.000
C05                                                                  39664847.242 6 159713913.409 6       -21.999          38.000
C19  23223742.695 8 120932111.642 8      2581.676          48.000
C20  21895600.320 8 114016251.060 8      -186.938          50.000
C29  21519838.906 8 112059475.424 8      -393.164          51.000
C30  24154359.367 8 125778042.966 8     -2915.672          49.000
E03  24029889.711 8 126277992.356 8      1408.004          51.000    24029891.000 8  96758498.760 8      1078.896          51.000
E05                                                                  25155344.672 5 101290150.395 5     -1100.539          35.000
E15  23128788.484 7 121542610.674 7       623.824          47.000    23128791.688 8  93130074.144 8       478.049          48.000
> 2020 05 10 19 13 30.0000000  0 19        .000000000000
G01  20573191.617 5 108112854.372 5      1121.414          34.000    20573200.148 5  84243794.814 5       873.841          34.000
G03  22034282.344 8 115790926.745 8      2643.469          48.000    22034284.867 8  90226734.720 8      2059.846          48.000
