     3.02           OBSERVATION DATA    M (MIXED)           RINEX VERSION / TYPE
SAVERINEX           SC600               20200513 235931 LCL PGM / RUN BY / DATE
       G = GPS       R = GLONASS       C = COMPASS          COMMENT
       S = SBAS      J = QZSS          E = GALILEO          COMMENT
BEAN                                                        MARKER NAME
1                                                           MARKER NUMBER
GEODETIC                                                    MARKER TYPE
Unige DICCA         GTER                                    OBSERVER / AGENCY
SC60291900056       SC600               2.12(191226)        REC # / TYPE / VERS
                    HEMA45          NONE                    ANT # / TYPE
  4509407.8091   693652.4678  4442337.6214                  APPROX POSITION XYZ
        0.0000        0.0000        0.0000                  ANTENNA: DELTA H/E/N
G    8 C1C L1C D1C S1C C2Y L2Y D2Y S2Y                      SYS / # / OBS TYPES
R    8 C1C L1C D1C S1C C2P L2P D2P S2P                      SYS / # / OBS TYPES
C    8 C1I L1I D1I S1I C7I L7I D7I S7I                      SYS / # / OBS TYPES
E    8 C1C L1C D1C S1C C7Q L7Q D7Q S7Q                      SYS / # / OBS TYPES
DBHZ                                                        COMMENT
     30.000                                                 INTERVAL
  2020    05    13    21    00    0.0000000     GPS         TIME OF FIRST OBS
  2020    05    13    21    59   30.0000000     GPS         TIME OF LAST OBS
     0                                                      RCV CLOCK OFFS APPL
G L1C  0.00000                                              SYS / PHASE SHIFT
G L2Y  0.00000                                              SYS / PHASE SHIFT
R L1C  0.00000                                              SYS / PHASE SHIFT
R L2P  0.25000                                              SYS / PHASE SHIFT
C L1I  0.00000                                              SYS / PHASE SHIFT
C L7I  0.00000                                              SYS / PHASE SHIFT
E L1C  0.50000                                              SYS / PHASE SHIFT
E L7Q -0.25000                                              SYS / PHASE SHIFT
 12 R02 -4 R03  5 R04  6 R05  1 R10 -5 R12 -1 R13 -2 R14 -7 GLONASS SLOT / FRQ #
    R15  0 R17  4 R18 -3 R19  3                             GLONASS SLOT / FRQ #
 C1C   71.950 C2C   71.950 C2P   71.950                     GLONASS COD/PHS/BIS
    18                                                      LEAP SECONDS
*** Above antenna height is from mark to ANTENNA BOTTOM.    COMMENT
    17     4        0.0000        ANT MEASURE TYPE/HEIGT    COMMENT
    0.0000    0.0000    0.0458    0.0405    0.0000          COMMENT
                    BASE STATION                            COMMENT
                                                            END OF HEADER
> 2020 05 13 21 00  0.0000000  0 20        .000000000000
G01  21098197.258 8 110871775.139 8     -2006.395          51.000    21098198.055 8  86393589.835 8     -1563.424          51.000
G03  20320042.070 8 106782546.819 8      -141.395          50.000    20320042.695 8  83207190.050 8      -110.178          50.000
G04  21502881.836 8 112998401.988 8      2629.824          49.000    21502881.086 7  88050724.227 7      2049.214          45.000
G11  23207289.086 7 121955110.161 7     -3832.652          46.000    23207289.750 6  95029946.019 6     -2986.485          40.000
G14  23956353.094 5 125891483.199 5     -2998.102          33.000    23956348.047 4  98097239.083 4     -2336.183          28.000
G17  22123363.688 5 116259063.394 5       750.582          32.000
G22  21295499.953 8 111908608.552 8     -1478.641          49.000    21295496.492 7  87201500.633 7     -1152.191          43.000
G31  23336188.125 6 122632510.536 6       575.109          36.000
R03  21342255.242 4 114246723.827 4     -3186.375          27.000    21342255.898 4  88858594.963 4     -2478.292          24.000
R04  19293750.195 7 103317174.272 7      -124.148          43.000    19293749.664 6  80357811.810 6       -96.560          39.000
R05  21640597.562 7 115681497.200 7      3031.445          47.000    21640601.750 7  89974425.499 7      2357.794          46.000
R18  21815731.289 8 116453829.451 8     -3997.797          51.000    21815733.031 7  90575207.767 7     -3109.398          47.000
R19  19286571.242 7 103170138.524 7      -924.180          42.000    19286571.953 7  80243444.010 7      -718.809          47.000
C14                                                                  24056389.852 5  96865104.616 5     -1975.613          32.000
C28  22839520.992 8 118931367.761 8     -2497.277          51.000
E03  27338136.805 5 143662856.294 5     -2701.812          35.000    27338141.133 6 110079344.947 6     -2070.349          36.000
E07  24280719.039 8 127596129.512 8      1731.629          51.000    24280721.117 8  97768474.551 8      1326.848          51.000
E08  21761386.438 8 114356866.707 8      -946.117          51.000    21761386.805 8  87624100.970 8      -724.926          51.000
E13  23494326.289 8 123463532.293 8     -1231.848          51.000    23494327.953 8  94601927.624 8      -943.844          51.000
E15                                                                  26884102.289 7 108251117.737 7     -2240.599          42.000
> 2020 05 13 21 00 30.0000000  0 17        .000000000000
G01  21109696.367 8 110932201.226 8     -2022.852          51.000    21109696.609 8  86440675.076 8     -1576.248          51.000
G03  20320887.391 8 106786988.812 8      -155.680          50.000    20320888.148 8  83210651.334 8      -121.309          50.000
G04  21487913.641 8 112919744.683 8      2613.129          48.000    21487913.453 7  87989432.832 7      2036.204          45.000
G11  23229193.391 7 122070213.007 7     -3841.801          46.000    23229192.516 6  95119636.472 6     -2993.614          38.000
G22  21303970.227 8 111953119.883 8     -1489.531          49.000    21303966.398 7  87236184.763 7     -1160.677          43.000
R03  21360147.062 6 114342469.754 6     -3196.949          36.000
R04  19294500.977 7 103321195.531 7      -145.043          45.000    19294500.633 6  80360939.495 6      -112.811          39.000
R05  21623622.328 7 115590763.222 7      3016.637          47.000    21623628.547 7  89903854.691 7      2346.273          44.000
R18  21838237.297 8 116573969.094 8     -4012.445          50.000    21838239.961 8  90668649.690 8     -3120.791          48.000
R19  19291832.758 7 103198284.041 7      -953.324          43.000    19291833.594 7  80265334.943 7      -741.474          46.000
C14                                                                  24071125.703 4  96924447.170 4     -1979.434          26.000
C28  22853948.148 8 119006492.298 8     -2511.945          51.000
E03  27353572.938 5 143743975.672 5     -2706.941          34.000    27353577.672 6 110141501.389 6     -2074.443          36.000
E07  24270867.008 8 127544355.006 8      1719.113          51.000    24270869.016 8  97728803.212 8      1317.198          51.000
E08  21766822.109 8 114385431.966 8      -959.078          51.000    21766822.508 8  87645988.632 8      -734.896          51.000
E13  23501398.297 8 123500695.018 8     -1246.523          51.000    23501399.516 8  94630402.967 8      -955.167          51.000
E15                                                                  26900814.008 7 108318409.666 7     -2246.047          42.000
> 2020 05 13 21 01  0.0000000  0 16        .000000000000
G01  21121266.945 8 110993002.823 8     -2032.309          51.000    21121266.609 8  86488052.930 8     -1583.620          51.000
G03  20321791.648 8 106791740.891 8      -162.789          50.000    20321792.820 8  83214354.264 8      -126.849          50.000
G04  21473018.703 8 112841473.622 8      2603.234          48.000    21473019.367 7  87928442.396 7      2028.497          46.000
G11  23251128.148 7 122185476.539 7     -3844.027          46.000    23251125.133 5  95209452.129 5     -2995.349          35.000
G22  21312480.672 8 111997842.421 8     -1493.500          49.000    21312476.461 7  87271033.470 7     -1163.769          43.000
R03  21378058.609 4 114438368.842 4     -3199.027          29.000
R04  19295347.586 7 103325729.356 7      -158.938          43.000    19295346.938 6  80364465.834 6      -123.615          38.000
R05  21606710.164 8 115500358.334 8      3008.766          48.000    21606715.828 7  89833539.846 7      2340.154          43.000
R18  21860803.633 8 116694432.747 8     -4020.102          50.000    21860807.484 8  90762343.625 8     -3126.746          49.000
R19  19297235.148 7 103227184.885 7      -975.453          42.000    19297235.859 7  80287813.380 7      -758.686          44.000
C28  22868437.555 8 119081942.004 8     -2519.789          51.000
E03  27369015.359 5 143825146.633 5     -2705.156          33.000    27369020.570 5 110203683.530 5     -2072.378          34.000
E07  24261064.727 8 127492843.260 8      1713.359          51.000    24261066.805 8  97689333.216 8      1312.864          51.000
E08  21772310.023 8 114414271.603 8      -965.176          51.000    21772310.484 8  87668086.526 8      -739.520          51.000
E13  23508532.367 8 123538185.580 8     -1254.473          51.000    23508533.602 8  94659129.488 8      -961.225          51.000
E15                                                                  26917544.633 7 108385779.205 7     -2246.463          42.000
> 2020 05 13 21 01 30.0000000  0 16        .000000000000
G01  21132913.906 8 111054207.328 8     -2046.242          51.000    21132913.555 8  86535744.734 8     -1594.474          51.000
G03  20322760.164 8 106796830.626 8      -174.594          50.000    20322761.633 8  83218320.296 8      -136.047          51.000
G04  21458202.773 8 112763618.670 8      2588.863          48.000    21458204.234 7  87867776.184 7      2017.296          45.000
G11  23273098.195 7 122300926.669 7     -3850.809          45.000    23273093.383 6  95299413.173 6     -3000.633          36.000
G17  22110992.125 4 116194056.910 4       695.059          29.000
G22  21321036.555 8 112042803.550 8     -1502.094          50.000    21321032.352 7  87306068.094 7     -1170.463          43.000
R04  19296294.180 7 103330802.511 7      -177.227          44.000    19296294.469 6  80368411.617 6      -137.846          39.000
R05  21589865.492 8 115410312.387 8      2996.254          48.000    21589869.461 7  89763504.220 7      2330.423          42.000
R18  21883435.328 8 116815245.690 8     -4032.230          49.000    21883440.297 8  90856309.234 8     -3136.179          48.000
R19  19302783.930 7 103256869.482 7     -1001.734          42.000    19302784.734 7  80310901.383 7      -779.130          44.000
C28  22882993.844 8 119157742.869 8     -2531.922          49.000
E03  27384469.273 5 143906357.050 5     -2707.633          32.000    27384475.086 5 110265912.081 5     -2074.719          34.000
E07  24251317.773 8 127441622.686 8      1703.078          51.000    24251319.984 8  97650086.326 8      1304.926          51.000
E08  21777855.172 8 114443412.558 8      -975.789          51.000    21777856.078 8  87690415.320 8      -747.680          51.000
E13  23515734.102 8 123576031.807 8     -1266.945          51.000    23515735.703 8  94688128.506 8      -970.746          51.000
E15  26934303.078 5 141540751.587 5     -2937.020          35.000    26934299.898 7 108453247.056 7     -2250.168          43.000
> 2020 05 13 21 02  0.0000000  0 15        .000000000000
G01  21144633.500 8 111115794.694 8     -2059.387          51.000    21144633.727 8  86583734.890 8     -1604.717          51.000
G03  20323789.109 8 106802238.366 8      -185.684          51.000    20323790.539 8  83222534.119 8      -144.689          51.000
G04  21443463.102 8 112686162.385 8      2575.023          49.000    21443464.797 7  87807420.631 7      2006.515          44.000
G11  23295099.664 7 122416541.429 7     -3856.824          44.000    23295094.102 6  95389502.529 6     -3005.321          37.000
G22  21329634.023 8 112087983.153 8     -1509.656          50.000    21329630.133 7  87341272.955 7     -1176.356          44.000
R04  19297338.391 7 103336394.043 7      -195.094          44.000    19297338.859 6  80372760.603 6      -151.740          39.000
R05  21573084.602 8 115320606.803 8      2984.332          49.000    21573088.852 7  89693733.334 7      2321.150          43.000
R18  21906128.781 8 116936385.958 8     -4043.559          50.000    21906134.156 7  90950529.426 7     -3144.990          47.000
R19  19308475.500 6 103287317.886 6     -1027.844          41.000    19308476.828 7  80334583.408 7      -799.437          43.000
C28  22897612.797 7 119233874.139 7     -2543.438          47.000
E03                                                                  27399937.266 5 110328171.256 5     -2076.152          34.000
E07  24241622.672 8 127390674.483 8      1693.613          51.000    24241625.148 8  97611048.110 8      1297.683          51.000
E08  21783453.883 8 114472834.491 8      -985.516          51.000    21783455.266 8  87712959.414 8      -755.183          51.000
E13  23523000.242 8 123614214.307 8     -1278.438          51.000    23523001.914 8  94717385.209 8      -979.627          51.000
E15  26951075.508 6 141628910.755 6     -2940.582          39.000    26951076.266 7 108520797.555 7     -2253.242          43.000
> 2020 05 13 21 02 30.0000000  0 16        .000000000000
G01  21156423.781 8 111177754.385 8     -2073.152          51.000    21156424.562 8  86632015.152 8     -1615.443          51.000
G03  20324876.617 8 106807953.789 8      -197.102          51.000    20324877.898 8  83226987.701 8      -153.586          51.000
G04  21428798.234 8 112609096.751 8      2560.680          50.000    21428799.109 7  87747369.530 7      1995.338          43.000
G11  23317130.461 6 122532308.826 6     -3863.000          41.000    23317124.945 6  95479710.846 6     -3010.130          39.000
G22  21338271.078 8 112133370.858 8     -1517.938          48.000    21338267.352 7  87376639.986 7     -1182.808          44.000
G31  23321136.031 5 122553371.791 5       478.703          30.000    23321126.789 4  95496136.456 4       373.015          28.000
R04  19298477.648 7 103342492.317 7      -213.297          45.000    19298477.914 6  80377503.694 6      -165.898          40.000
R05  21556366.031 8 115231232.493 8      2972.102          49.000    21556369.977 7  89624220.041 7      2311.635          43.000
R18  21928881.219 8 117057839.553 8     -4055.273          49.000    21928886.742 7  91044993.315 7     -3154.102          46.000
R19  19314307.945 6 103318519.322 6     -1054.301          39.000    19314309.031 7  80358851.200 7      -820.012          42.000
C28  22912293.188 7 119310324.242 7     -2555.219          47.000
E03                                                                  27415404.859 5 110390452.636 5     -2077.427          34.000
E07  24231977.359 8 127339989.155 8      1683.555          51.000    24231980.406 8  97572211.305 8      1290.023          51.000
E08  21789104.125 8 114502526.480 8      -995.852          51.000    21789105.484 8  87735710.401 8      -763.025          51.000
E13  23530328.461 8 123652723.104 8     -1290.625          51.000    23530330.102 8  94746891.930 8      -988.947          51.000
E15  26967868.227 6 141717167.110 6     -2945.199          40.000    26967871.219 7 108588422.506 7     -2256.600          43.000
> 2020 05 13 21 03  0.0000000  0 16        .000000000000
G01  21168293.297 8 111240131.414 8     -2086.570          49.000    21168294.289 8  86680620.634 8     -1625.899          50.000
G03  20326031.344 8 106814022.292 8      -208.645          51.000    20326032.703 8  83231716.409 8      -162.577          51.000
G04  21414216.852 8 112532469.405 8      2546.520          50.000    21414216.898 7  87687659.973 7      1984.304          43.000
G11  23339198.500 5 122648272.258 5     -3868.988          35.000    23339193.203 5  95570071.936 5     -3014.796          35.000
G22  21346956.219 7 112179011.919 7     -1525.992          47.000    21346952.898 7  87412204.459 7     -1189.085          45.000
R04  19299719.359 7 103349142.480 7      -231.199          43.000    19299719.609 6  80382676.033 6      -179.822          40.000
R05  21539718.000 8 115142237.594 8      2959.668          49.000    21539721.391 7  89555001.849 7      2301.967          44.000
R18  21951700.672 8 117179650.322 8     -4066.691          49.000    21951706.094 7  91139734.998 7     -3162.982          44.000
R19  19320290.039 6 103350520.441 6     -1080.441          39.000    19320291.594 7  80383740.938 7      -840.346          44.000
C14  24144985.141 5 125729259.168 5     -2573.449          31.000
C28  22927044.641 8 119387136.918 8     -2566.945          50.000
E03                                                                  27430886.414 5 110452790.396 5     -2079.098          33.000
E07  24222390.633 8 127289612.846 8      1673.672          51.000    24222394.352 8  97533611.272 8      1282.397          51.000
E08  21794813.984 8 114532533.171 8     -1005.891          51.000    21794815.289 8  87758702.545 8      -770.750          51.000
E13  23537727.172 8 123691603.878 8     -1302.684          51.000    23537728.891 8  94776683.664 8      -998.118          51.000
E15  26984688.352 7 141805565.311 7     -2949.391          42.000    26984693.422 7 108656156.164 7     -2259.908          43.000
> 2020 05 13 21 03 30.0000000  0 16        .000000000000
G01  21180239.867 8 111302913.960 8     -2099.859          49.000    21180241.305 8  86729542.097 8     -1636.254          49.000
G03  20327251.141 8 106820432.389 8      -219.617          51.000    20327252.742 8  83236711.290 8      -171.130          51.000
G04  21399717.086 8 112456271.157 8      2532.398          50.000    21399716.984 7  87628284.769 7      1973.297          44.000
G14  24077118.703 5 126526105.425 5     -3047.422          31.000
G22  21355687.219 7 112224894.688 7     -1533.859          47.000    21355684.539 7  87447957.277 7     -1195.215          44.000
R04  19301062.148 7 103356331.922 7      -248.949          44.000    19301062.602 6  80388267.826 6      -193.627          40.000
R05  21523138.773 8 115053611.607 8      2947.668          49.000    21523141.891 7  89486070.584 7      2292.634          43.000
R18  21974584.656 8 117301803.610 8     -4077.711          48.000    21974588.953 6  91234743.030 6     -3171.556          41.000
R19  19326419.836 6 103383309.540 6     -1106.309          38.000    19326421.648 7  80409243.549 7      -860.462          44.000
C14  24159813.367 4 125806469.574 4     -2575.863          28.000
C28  22941863.781 8 119464299.422 8     -2578.281          51.000
E03                                                                  27446379.680 5 110515175.335 5     -2080.498          32.000
E07  24212860.852 8 127239534.862 8      1663.984          51.000    24212864.828 8  97495239.824 8      1275.037          51.000
E08  21800581.586 8 114562842.492 8     -1015.625          51.000    21800583.023 8  87781926.564 8      -778.239          51.000
E13  23545194.719 8 123730845.375 8     -1314.406          51.000    23545196.383 8  94806751.808 8     -1007.104          51.000
E15  27001534.266 7 141894093.326 7     -2953.477          43.000    27001540.438 7 108723989.309 7     -2263.039          43.000
> 2020 05 13 21 04  0.0000000  0 15        .000000000000
G01  21192256.812 8 111366065.904 8     -2115.043          49.000    21192258.477 8  86778751.383 8     -1648.088          49.000
G03  20328529.164 8 106827148.239 8      -232.969          51.000    20328530.867 8  83241944.412 8      -181.534          51.000
G04  21385292.562 8 112380468.389 8      2516.031          51.000    21385292.797 7  87569217.725 7      1960.547          46.000
G11  23383421.656 5 122880695.636 5     -3882.680          34.000    23383423.828 5  95751199.459 5     -3025.465          33.000
G22  21364457.320 7 112270983.140 7     -1543.738          46.000    21364455.195 7  87483870.356 7     -1202.913          45.000
R04  19302498.242 7 103364022.712 7      -268.953          43.000    19302498.555 6  80394249.553 6      -209.186          39.000
R05  21506622.047 8 114965319.663 8      2933.309          48.000    21506625.461 7  89417399.144 7      2281.465          44.000
R18  21997525.805 8 117424260.345 8     -4091.055          48.000    21997528.445 6  91329987.046 6     -3181.934          41.000
R19  19332690.305 6 103416849.917 6     -1134.523          38.000    19332691.492 7  80435330.529 7      -882.407          44.000
C28  22956742.969 8 119541774.892 8     -2591.727          51.000
E03                                                                  27461877.672 5 110577600.438 5     -2083.491          31.000
E07  24203381.727 8 127189720.151 8      1652.023          51.000    24203385.180 8  97457070.128 8      1265.824          51.000
E08  21806400.008 8 114593417.912 8     -1027.652          51.000    21806401.602 8  87805354.482 8      -787.422          51.000
E13  23552724.328 8 123770412.038 8     -1328.375          51.000    23552725.539 8  94837069.131 8     -1017.867          51.000
E15  27018398.477 7 141982714.809 7     -2959.707          43.000    27018405.273 7 108791894.060 7     -2267.777          43.000
> 2020 05 13 21 04 30.0000000  0 16        .000000000000
G01  21204358.414 8 111429660.609 8     -2123.844          50.000    21204360.297 8  86828305.662 8     -1654.943          50.000
G03  20329879.445 8 106834243.492 8      -239.648          51.000    20329880.984 8  83247473.194 8      -186.739          51.000
G04  21370957.578 8 112305136.958 8      2506.305          50.000    21370958.219 7  87510517.929 7      1952.965          46.000
G11  23405593.156 6 122997202.539 6     -3883.883          38.000    23405598.578 6  95841984.074 6     -3026.405          36.000
G22  21373280.602 7 112317350.638 7     -1546.965          46.000    21373278.656 7  87520000.884 7     -1205.427          44.000
R04  19304042.422 7 103372289.072 7      -281.988          43.000    19304042.344 6  80400678.939 6      -219.324          40.000
R05  21490181.820 8 114877438.282 8      2925.855          49.000    21490185.953 7  89349046.973 7      2275.665          44.000
R18  22020537.336 7 117547092.536 7     -4097.461          46.000    22020538.992 7  91425523.113 7     -3186.917          43.000
R19  19339114.906 6 103451216.312 6     -1156.172          39.000    19339115.992 7  80462059.941 7      -899.248          44.000
C14  24189518.633 4 125961170.854 4     -2578.926          28.000
C28  22971695.453 8 119619634.938 8     -2598.582          51.000
E03                                                                  27477394.289 4 110640079.522 4     -2081.423          29.000
E07  24193967.227 8 127140243.061 8      1646.820          51.000    24193969.812 8  97419159.134 8      1261.822          51.000
E08  21812282.828 8 114624332.360 8     -1032.957          51.000    21812284.328 8  87829042.185 8      -791.436          51.000
E13  23560329.789 8 123810377.756 8     -1335.672          51.000    23560330.367 8  94867692.225 8     -1023.395          51.000
E15  27035294.617 7 142071502.687 7     -2959.090          44.000    27035301.461 7 108859926.301 7     -2267.367          43.000
> 2020 05 13 21 05  0.0000000  0 14        .000000000000
G01  21216550.016 8 111493726.756 8     -2138.750          51.000    21216552.359 8  86878227.307 8     -1666.558          51.000
G03  20331307.469 8 106841747.223 8      -252.340          51.000    20331308.711 8  83253320.252 8      -196.628          51.000
G04  21356717.859 8 112230308.134 8      2490.461          49.000    21356719.086 8  87452209.756 8      1940.619          48.000
G11  23427811.898 6 123113953.177 6     -3891.297          38.000    23427816.148 6  95932958.603 6     -3032.182          38.000
G22  21382162.617 7 112364026.222 7     -1556.445          46.000    21382160.758 7  87556371.489 7     -1212.815          44.000
R04  19305697.906 7 103381159.393 7      -301.047          44.000    19305699.516 6  80407578.129 6      -234.148          39.000
R05  21473824.555 8 114789998.472 8      2911.941          49.000    21473829.117 7  89281038.240 7      2264.843          42.000
R18  22043623.844 7 117670326.754 7     -4109.848          44.000    22043625.742 7  91521371.903 7     -3196.548          45.000
R19  19345699.422 6 103486438.409 6     -1183.406          39.000    19345700.273 7  80489454.891 7      -920.427          44.000
C28  22986726.633 8 119697907.016 8     -2611.387          51.000
E07  24184622.484 8 127091133.505 8      1635.383          51.000    24184624.523 8  97381529.744 8      1253.095          51.000
E08  21818235.664 8 114655614.316 8     -1044.250          51.000    21818236.719 8  87853011.470 8      -800.173          51.000
E13  23568016.570 8 123850771.902 8     -1349.055          51.000    23568016.836 8  94898643.584 8     -1033.712          51.000
E15  27052228.023 7 142160485.528 7     -2964.730          45.000    27052234.188 7 108928107.917 7     -2271.790          42.000
> 2020 05 13 21 05 30.0000000  0 14        .000000000000
G01  21228787.586 8 111558033.120 8     -2150.891          51.000    21228790.148 8  86928336.158 8     -1676.019          51.000
G03  20332769.258 8 106849428.623 8      -262.281          51.000    20332770.406 8  83259305.737 8      -204.375          51.000
G04  21342530.047 8 112155753.145 8      2477.254          48.000    21342532.086 8  87394114.961 8      1930.328          48.000
G11  23450032.266 6 123230714.607 6     -3895.344          39.000    23450036.047 5  96023941.540 5     -3035.333          34.000
G22  21391059.531 7 112410778.887 7     -1562.922          45.000    21391057.516 7  87592802.115 7     -1217.861          44.000
R04  19307422.828 7 103390397.280 7      -317.367          44.000    19307424.258 6  80414763.104 6      -246.844          39.000
R05  21457506.430 8 114702766.797 8      2900.930          49.000    21457509.562 6  89213191.444 6      2256.279          38.000
R18  22066738.719 6 117793725.828 6     -4119.172          37.000    22066743.547 7  91617349.002 7     -3203.797          46.000
R19  19352399.664 6 103522280.973 6     -1208.277          39.000    19352400.383 7  80517332.431 7      -939.771          44.000
C28  23001792.734 8 119776361.042 8     -2621.414          51.000
E07  24175303.414 8 127042161.367 8      1626.867          51.000    24175305.445 8  97344005.640 8      1246.596          51.000
E08  21824214.422 8 114687032.192 8     -1052.754          51.000    21824215.266 8  87877084.892 8      -806.608          51.000
E13  23575740.945 8 123891363.836 8     -1359.559          51.000    23575741.164 8  94929746.489 8     -1041.734          51.000
E15  27069154.766 7 142249431.851 7     -2967.367          45.000    27069159.867 7 108996261.539 7     -2273.814          42.000
> 2020 05 13 21 06  0.0000000  0 15        .000000000000
G01  21241099.914 8 111622732.793 8     -2160.387          51.000    21241102.500 8  86978751.492 8     -1683.415          51.000
G03  20334294.039 8 106857441.081 8      -269.730          51.000    20334295.234 8  83265549.204 8      -210.180          51.000
G04  21328424.359 8 112081627.883 8      2466.492          49.000    21328426.812 8  87336355.013 8      1921.942          48.000
G11  23472282.883 6 123347638.166 6     -3897.098          39.000    23472287.648 5  96115050.815 5     -3036.696          33.000
G17  22079674.867 5 116029465.884 5       528.281          35.000
G22  21400000.188 7 112457761.996 7     -1566.988          45.000    21399997.922 7  87629412.324 7     -1221.030          43.000
R04  19309245.031 7 103400157.998 7      -331.246          44.000    19309247.711 6  80422354.824 6      -257.636          40.000
R05  21441255.812 7 114615900.987 7      2892.234          46.000    21441255.594 6  89145629.257 6      2249.522          37.000
R18  22089912.906 7 117917442.615 7     -4126.238          42.000    22089920.414 7  91713573.290 7     -3209.293          47.000
R19  19359245.148 6 103558900.213 6     -1230.867          40.000    19359245.641 7  80545814.064 7      -957.341          44.000
C28  23016922.562 8 119855147.691 8     -2628.902          50.000
E07  24166039.203 8 126993480.931 8      1620.523          51.000    24166041.734 8  97306705.038 8      1241.751          51.000
E08  21830248.016 8 114718738.782 8     -1058.836          51.000    21830249.016 8  87901379.560 8      -811.364          51.000
E13  23583532.250 8 123932307.236 8     -1367.789          51.000    23583532.547 8  94961118.711 8     -1048.058          51.000
E15  27086103.594 7 142338494.500 7     -2967.902          45.000    27086108.227 7 109064504.313 7     -2274.071          42.000
> 2020 05 13 21 06 30.0000000  0 16        .000000000000
G01  21253482.094 8 111687800.778 8     -2176.906          51.000    21253484.711 8  87029453.822 8     -1696.291          51.000
G03  20335877.070 8 106865760.018 8      -284.141          51.000    20335878.422 8  83272031.502 8      -221.408          51.000
G04  21314396.531 8 112007909.794 8      2448.750          50.000    21314398.703 8  87278912.336 8      1908.117          48.000
G11  23494559.680 6 123464697.571 6     -3905.891          40.000    23494566.672 4  96206265.941 4     -3043.560          29.000
G17  22076724.570 5 116013959.398 5       506.215          35.000    22076736.000 5  90400522.517 5       394.447          35.000
G22  21408979.938 7 112504950.744 7     -1578.059          47.000    21408977.336 6  87666182.751 6     -1229.659          41.000
G31  23302771.453 5 122456906.701 5       324.492          32.000
R04  19311160.641 7 103410415.332 7      -351.910          44.000    19311163.516 6  80430332.743 6      -273.711          39.000
R05  21425069.070 7 114529377.564 7      2876.617          47.000    21425069.891 6  89078333.320 6      2237.372          38.000
R18  22113145.484 7 118041450.080 7     -4140.203          45.000    22113151.695 7  91810023.552 7     -3220.158          45.000
R19  19366230.961 6 103596270.796 6     -1259.961          40.000    19366231.922 7  80574880.055 7      -979.970          44.000
C28  23032110.883 8 119934241.155 8     -2643.273          49.000
E07  24156825.484 8 126945068.275 8      1607.574          51.000    24156828.828 8  97269609.638 8      1231.745          51.000
E08  21836331.820 8 114750708.827 8     -1071.836          51.000    21836332.789 8  87925876.072 8      -821.238          51.000
E13  23591385.594 8 123973577.701 8     -1382.887          51.000    23591386.320 8  94992741.532 8     -1059.597          51.000
E15  27103069.555 7 142427648.278 7     -2975.074          44.000    27103074.375 7 109132816.913 7     -2279.539          42.000
> 2020 05 13 21 07  0.0000000  0 16        .000000000000
G01  21265940.984 8 111753271.636 8     -2184.305          51.000    21265943.523 8  87080470.069 8     -1702.056          51.000
G03  20337525.008 8 106874420.337 8      -289.676          51.000    20337526.406 8  83278779.807 8      -225.721          51.000
G04  21300453.359 8 111934635.922 8      2439.844          51.000    21300454.898 7  87221815.823 7      1901.177          47.000
G11  23516868.375 6 123581925.365 6     -3905.848          39.000
G17  22073884.594 5 115999036.637 5       492.719          34.000    22073894.312 5  90388894.497 5       383.931          31.000
G22  21418005.398 7 112552379.510 7     -1580.457          44.000    21418002.484 7  87703140.211 7     -1231.525          42.000
R04  19313175.039 7 103421203.469 7      -363.574          44.000    19313177.961 6  80438723.534 6      -282.780          40.000
R05  21408954.742 8 114443233.225 8      2869.949          49.000    21408956.047 6  89011332.180 6      2232.186          40.000
R18  22136438.641 7 118165780.177 7     -4144.824          47.000    22136443.469 7  91906724.733 7     -3223.752          43.000
R19  19373363.703 6 103634427.690 6     -1280.016          41.000    19373365.156 7  80604557.629 7      -995.568          44.000
C14  24264030.117 5 126349103.811 5     -2586.762          32.000    24264027.242 4  97701181.812 4     -2000.559          29.000
C28  23047364.328 8 120013674.623 8     -2648.867          49.000
E07  24147669.734 8 126896959.064 8      1603.316          51.000    24147673.352 8  97232746.764 8      1228.473          51.000
E08  21842472.273 8 114782976.495 8     -1075.883          51.000    21842472.945 8  87950600.642 8      -824.375          51.000
E13  23599307.453 8 124015210.388 8     -1389.098          51.000    23599309.078 8  95024641.883 8     -1064.412          51.000
E15  27120059.000 7 142516927.407 7     -2973.410          43.000    27120064.352 6 109201225.543 6     -2278.288          41.000
> 2020 05 13 21 07 30.0000000  0 17        .000000000000
G01  21278472.719 8 111819125.300 8     -2202.852          51.000    21278474.969 8  87131784.609 8     -1716.508          51.000
G03  20339234.188 8 106883402.476 8      -306.125          51.000    20339235.562 8  83285778.874 8      -238.539          51.000
G04  21286591.219 8 111861788.898 8      2419.629          50.000    21286592.047 7  87165051.936 7      1885.428          47.000
G11  23539205.469 6 123699300.516 6     -3916.199          38.000    23539196.078 5  96389066.891 5     -3051.590          31.000
G17  22071153.078 6 115984679.359 6       468.098          36.000    22071159.445 5  90377707.012 5       364.745          35.000
G22  21427072.836 7 112600028.918 7     -1593.594          43.000    21427070.094 6  87740269.624 6     -1241.761          41.000
R03  21613970.570 5 115701212.942 5     -3273.727          30.000
R04  19315284.781 7 103432501.596 7      -386.598          44.000    19315287.797 6  80447510.963 6      -300.690          40.000
R05  21392907.898 8 114357449.274 8      2851.926          49.000    21392909.836 7  88944611.372 7      2218.164          42.000
R18  22159787.758 7 118290410.561 7     -4160.707          46.000    22159791.500 6  92003659.480 6     -3236.105          40.000
R19  19380639.969 6 103673350.867 6     -1311.859          40.000    19380641.820 7  80634831.197 7     -1020.335          44.000
C14  24278963.922 5 126426884.197 5     -2594.531          32.000    24278971.469 4  97761356.499 4     -2006.845          27.000
C28  23062680.375 8 120093427.328 8     -2665.219          50.000
E07  24138568.891 8 126849134.480 8      1587.953          51.000    24138572.078 8  97196101.992 8      1216.740          51.000
E08  21848665.414 8 114815521.589 8     -1090.801          51.000    21848665.914 8  87975537.794 8      -835.859          51.000
E13  23607294.789 8 124057185.905 8     -1406.391          51.000    23607297.117 8  95056804.918 8     -1077.561          51.000
E15  27137068.094 6 142606311.819 6     -2982.637          40.000    27137074.266 6 109269714.896 6     -2285.532          39.000
> 2020 05 13 21 08  0.0000000  0 17        .000000000000
G01  21291088.086 8 111885418.897 8     -2215.715          51.000    21291090.086 8  87183441.935 8     -1726.534          51.000
G03  20341015.539 8 106892763.944 8      -317.082          51.000    20341017.031 8  83293073.527 8      -247.077          51.000
G04  21272821.141 8 111789428.269 8      2405.078          48.000    21272821.883 7  87108667.072 7      1874.090          47.000
G11  23561580.234 5 123816878.607 5     -3921.145          35.000    23561574.336 5  96480686.210 5     -3055.443          32.000
G17  22068546.305 6 115971005.954 6       448.668          36.000    22068548.422 5  90367007.693 5       349.611          35.000
G22  21436193.078 6 112647956.494 6     -1600.922          41.000    21436190.766 7  87777615.769 7     -1247.472          42.000
G31  23297704.531 5 122430271.974 5       265.512          31.000
R03  21632327.258 5 115799516.040 5     -3279.078          33.000
R04  19317500.836 7 103444366.976 7      -403.648          44.000    19317503.164 6  80456739.575 6      -313.952          40.000
R05  21376939.609 8 114272086.188 8      2839.598          49.000    21376941.398 7  88878217.848 7      2208.576          42.000
R18  22183202.789 7 118415396.789 7     -4170.926          44.000    22183207.672 5  92100870.989 5     -3244.053          35.000
R19  19388070.352 6 103713098.214 6     -1337.578          41.000    19388072.359 7  80665745.802 7     -1040.339          43.000
C28  23078069.172 8 120173554.933 8     -2675.926          51.000
E07  24129533.898 8 126801652.745 8      1578.352          51.000    24129536.641 8  97159719.903 8      1209.383          51.000
E08  21854922.180 8 114848400.883 8     -1100.258          51.000    21854922.633 8  88000731.018 8      -843.046          51.000
E13  23615358.664 8 124099561.893 8     -1417.895          51.000    23615361.438 8  95089274.825 8     -1086.454          51.000
E15  27154107.750 6 142695858.383 6     -2986.109          38.000    27154115.445 6 109338328.473 6     -2288.139          37.000
> 2020 05 13 21 08 30.0000000  0 18        .000000000000
G01  21303767.383 8 111952048.728 8     -2230.523          51.000    21303768.195 8  87235361.228 8     -1738.073          51.000
G03  20342849.430 8 106902401.361 8      -329.715          51.000    20342851.188 8  83300583.202 8      -256.921          51.000
G04  21259124.148 8 111717452.881 8      2388.883          48.000    21259125.445 7  87052582.370 7      1861.467          47.000
G11  23583973.727 5 123934554.015 5     -3928.148          34.000    23583969.258 5  96572381.344 5     -3060.898          32.000
G22  21445346.234 6 112696058.236 6     -1610.652          39.000    21445344.164 6  87815097.693 6     -1255.051          39.000
G31  23296233.922 5 122422548.045 5       244.336          30.000    23296222.539 4  95394174.861 4       190.392          28.000
R03  21650703.008 5 115897920.787 5     -3285.898          34.000    21650712.672 4  90142844.315 4     -2555.699          27.000
R04  19319803.102 7 103456692.928 7      -422.445          44.000    19319804.820 6  80466326.439 6      -328.569          40.000
R05  21361030.305 8 114187040.078 8      2825.738          49.000    21361032.078 7  88812070.886 7      2197.796          43.000
R18  22206664.875 6 118540630.886 6     -4182.379          41.000    22206672.953 5  92198275.382 5     -3252.958          33.000
R19  19395634.812 6 103753564.617 6     -1364.773          40.000    19395637.359 7  80697219.637 7     -1061.490          43.000
C14  24308885.164 4 126582745.382 4     -2601.340          29.000    24308894.891 5  97881822.278 5     -2011.618          33.000
C27  22304673.898 6 116146324.748 6       295.371          36.000
C28  23093509.609 8 120253953.534 8     -2688.254          51.000
E07  24120544.930 8 126754411.280 8      1567.008          51.000    24120547.375 8  97123521.894 8      1200.709          51.000
E08  21861222.680 8 114881510.383 8     -1111.234          51.000    21861223.133 8  88026100.631 8      -851.471          51.000
E13  23623479.180 8 124142235.265 8     -1431.117          51.000    23623482.328 8  95121972.560 8     -1096.561          51.000
E15  27171158.297 6 142785463.117 6     -2991.387          36.000    27171167.547 5 109406986.630 5     -2292.278          33.000
> 2020 05 13 21 09  0.0000000  0 17        .000000000000
G01  21316527.484 8 112019103.794 8     -2238.738          51.000    21316526.742 8  87287611.835 8     -1744.474          51.000
G03  20344752.914 8 106912404.259 8      -336.043          51.000    20344754.836 8  83308377.664 8      -261.852          51.000
G04  21245518.039 8 111645954.292 8      2378.914          48.000    21245519.828 8  86996869.182 8      1853.699          48.000
G11  23606403.039 6 124052414.246 6     -3927.980          36.000    23606399.133 5  96664220.427 5     -3060.761          33.000
G22  21454549.680 6 112744423.873 6     -1612.941          41.000    21454547.406 6  87852785.197 6     -1256.841          40.000
R03  21669116.234 5 115996516.316 5     -3285.934          32.000    21669130.156 4  90219529.704 4     -2555.723          24.000
R04  19322207.578 7 103469569.586 7      -434.805          44.000    19322209.695 6  80476341.621 6      -338.181          40.000
R05  21345197.055 8 114102403.342 8      2818.027          48.000    21345199.281 7  88746242.301 7      2191.799          42.000
R18  22230191.805 5 118666201.390 5     -4187.703          35.000    22230197.250 5  92295941.378 5     -3257.102          35.000
R19  19403350.617 6 103794840.594 6     -1385.699          41.000    19403353.438 7  80729323.154 7     -1077.769          43.000
C14                                                                  24323879.461 5  97942168.685 5     -2009.887          32.000
C27  22303007.656 5 116137681.125 5       282.203          31.000
C28  23109018.172 8 120334710.439 8     -2694.363          51.000
E07  24111618.852 8 126707500.261 8      1561.664          51.000    24111621.234 8  97087577.077 8      1196.603          51.000
E08  21867583.742 8 114914938.875 8     -1116.234          51.000    21867584.164 8  88051714.664 8      -855.180          51.000
E13  23631673.531 8 124185295.708 8     -1438.363          51.000    23631676.781 8  95154966.875 8     -1102.084          51.000
E15                                                                  27188245.734 4 109475798.477 4     -2291.398          28.000
> 2020 05 13 21 09 30.0000000  0 15        .000000000000
G01  21329362.047 8 112086552.434 8     -2259.129          48.000    21329361.867 7  87340169.178 7     -1760.360          47.000
G03  20346720.047 8 106922741.381 8      -354.309          51.000    20346721.742 8  83316432.560 8      -276.085          51.000
G04  21231997.641 8 111574903.362 8      2356.852          50.000    21231999.320 8  86941504.831 8      1836.508          48.000
G11  23628860.648 6 124170426.193 6     -3940.418          38.000    23628857.742 5  96756177.838 5     -3070.449          31.000
G22  21463797.742 6 112793021.969 6     -1627.910          40.000    21463795.320 6  87890653.875 6     -1268.498          40.000
R03  21687561.461 5 116095268.820 5     -3298.297          35.000    21687574.930 4  90296288.286 4     -2565.336          27.000
R04  19324709.023 7 103482964.061 7      -459.352          42.000    19324710.617 6  80486759.532 6      -357.273          39.000
R05  21329434.227 8 114018145.536 8      2798.102          48.000    21329437.070 7  88680708.414 7      2176.301          42.000
R18  22253776.047 6 118792073.530 6     -4204.875          37.000    22253774.539 6  92393841.801 6     -3270.461          40.000
R19  19411212.078 6 103836893.929 6     -1418.980          41.000    19411214.859 7  80762031.251 7     -1103.655          43.000
C27  22301444.016 5 116129558.919 5       258.270          33.000
C28  23124588.812 8 120415793.223 8     -2712.305          50.000
E07  24102749.539 8 126660889.107 8      1544.680          51.000    24102751.922 8  97051862.023 8      1183.625          51.000
E08  21873999.523 8 114948654.369 8     -1132.707          51.000    21873999.750 8  88077548.616 8      -867.879          51.000
E13  23639935.797 8 124228712.039 8     -1457.191          51.000    23639938.625 8  95188233.898 8     -1116.480          51.000
> 2020 05 13 21 10  0.0000000  0 18        .000000000000
G01  21342243.008 7 112154247.754 7     -2265.730          47.000    21342244.727 7  87392918.816 7     -1765.504          47.000
G03  20348722.859 8 106933266.319 8      -359.164          51.000    20348724.297 8  83324633.821 8      -279.865          51.000
G04  21218535.344 8 111504155.856 8      2348.000          51.000    21218536.492 8  86886376.908 8      1829.610          48.000
G11  23651318.656 6 124288441.680 6     -3939.332          37.000    23651316.844 5  96848137.962 5     -3069.609          34.000
G14  24306252.203 5 127730216.194 5     -3126.727          30.000    24306258.070 5  99530062.146 5     -2436.410          31.000
G17  22059136.938 5 115921560.368 5       372.801          33.000
G22  21473062.539 7 112841706.101 7     -1629.520          42.000    21473059.828 6  87928589.562 6     -1269.752          40.000
R03  21706021.102 5 116194018.239 5     -3296.359          30.000    21706021.445 5  90373135.169 5     -2563.835          30.000
R04  19327278.867 7 103496725.742 7      -470.145          44.000    19327280.750 6  80497463.056 6      -365.668          41.000
R05  21313715.297 8 113934119.282 8      2791.613          49.000    21313717.773 6  88615354.691 6      2171.258          41.000
R18  22277382.867 6 118918095.463 6     -4208.309          40.000    22277380.906 7  92491858.769 7     -3273.132          42.000
R19  19419191.281 6 103879574.922 6     -1438.430          41.000    19419193.133 7  80795227.544 7     -1118.782          43.000
C14  24353872.539 5 126817018.867 5     -2606.035          32.000
C27  22299957.047 4 116121814.220 4       245.887          29.000
C28  23140194.023 8 120497055.386 8     -2716.914          50.000
E07  24093908.898 8 126614432.176 8      1540.730          51.000    24093911.664 8  97016265.154 8      1180.560          51.000
E08  21880442.070 8 114982509.832 8     -1136.082          51.000    21880442.039 8  88103489.823 8      -870.492          51.000
E13  23648237.852 8 124272338.104 8     -1462.867          51.000    23648240.164 8  95221661.648 8     -1120.922          51.000
> 2020 05 13 21 10 30.0000000  0 16        .000000000000
G01  21355218.961 8 112222439.301 8     -2276.672          49.000    21355221.891 8  87446055.121 8     -1774.027          49.000
G03  20350808.961 8 106944229.054 8      -368.094          51.000    20350810.336 8  83333176.208 8      -286.826          51.000
G04  21205178.734 8 111433963.767 8      2334.969          50.000    21205179.172 8  86831681.780 8      1819.456          48.000
G11  23673824.836 5 124406708.568 5     -3941.609          35.000    23673822.586 5  96940293.942 5     -3071.393          34.000
G14  24324121.664 5 127824117.545 5     -3130.781          31.000
G22  21482391.305 7 112890725.870 7     -1635.102          42.000    21482387.609 6  87966786.764 6     -1274.105          41.000
R03  21724515.602 5 116293037.524 5     -3300.652          31.000    21724525.609 5  90450140.530 5     -2567.171          30.000
R04  19329965.008 7 103511108.047 7      -484.996          43.000    19329966.992 6  80508649.291 6      -377.219          40.000
R05  21298087.359 8 113850579.921 8      2781.113          49.000    21298088.734 6  88550379.659 6      2163.091          40.000
R18  22301064.602 7 119044518.393 7     -4216.043          42.000    22301063.297 7  92590187.666 7     -3279.148          43.000
R19  19427335.180 6 103923137.448 6     -1462.332          41.000    19427336.195 7  80829109.498 7     -1137.369          44.000
C14  24368887.188 5 126895256.480 5     -2606.574          30.000    24368901.477 5  98123418.308 5     -2016.124          30.000
C28  23155881.125 8 120578743.206 8     -2725.531          51.000
E07  24085144.773 8 126568380.125 8      1532.871          51.000    24085148.109 8  96980978.510 8      1174.547          51.000
E08  21886958.703 8 115016754.507 8     -1143.410          51.000    21886958.516 8  88129729.251 8      -876.134          51.000
E13  23656627.125 8 124316424.005 8     -1472.625          51.000    23656629.289 8  95255441.731 8     -1128.390          51.000
> 2020 05 13 21 11  0.0000000  0 18        .000000000000
G01  21368263.875 8 112290989.250 8     -2291.332          50.000    21368267.422 8  87499470.658 8     -1785.454          50.000
G03  20352952.219 8 106955492.143 8      -380.805          51.000    20352953.750 8  83341952.636 8      -296.731          51.000
G04  21191901.664 8 111364191.635 8      2318.340          49.000    21191901.656 7  86777313.909 7      1806.499          46.000
G11  23696352.281 5 124525087.595 5     -3948.078          34.000    23696350.289 4  97032537.218 4     -3076.440          29.000
G14  24342018.898 5 127918167.933 5     -3137.746          32.000
G17  22055116.414 5 115900403.272 5       335.445          30.000
G22  21491757.539 7 112939943.749 7     -1644.211          44.000    21491753.180 6  88005138.349 6     -1281.203          38.000
G31  23290573.836 5 122392795.802 5       149.457          30.000
R04  19332739.812 7 103525969.772 7      -503.949          42.000    19332742.359 6  80520208.390 6      -391.961          40.000
R05  21282524.477 8 113767389.293 8      2766.715          49.000    21282523.906 6  88485675.876 6      2151.889          37.000
R18  22324794.523 6 119171199.953 6     -4227.250          41.000    22324794.781 6  92688717.700 6     -3287.864          41.000
R19  19435617.594 6 103967441.075 6     -1489.738          40.000    19435618.516 7  80863567.845 7     -1158.685          45.000
C14                                                                  24383932.422 5  98183951.383 5     -2018.961          30.000
C28  23171623.656 8 120660718.987 8     -2737.711          51.000
E07  24076431.805 8 126522596.193 8      1521.145          51.000    24076435.219 8  96945897.313 8      1165.537          51.000
E08  21893523.008 8 115051250.307 8     -1154.523          51.000    21893522.930 8  88156161.098 8      -884.638          51.000
E13  23665077.828 8 124360832.401 8     -1486.121          51.000    23665079.695 8  95289468.945 8     -1138.743          51.000
E15  27256724.766 6 143235053.053 6     -3005.969          37.000
> 2020 05 13 21 11 30.0000000  0 17        .000000000000
G01  21381380.344 8 112359914.747 8     -2303.367          51.000    21381384.078 8  87553178.821 8     -1794.835          51.000
G03  20355156.000 8 106967073.299 8      -391.059          51.000    20355157.664 8  83350976.912 8      -304.721          51.000
G04  21178707.930 8 111294859.263 8      2304.262          49.000    21178707.930 7  86723288.712 7      1795.529          46.000
G11  23718903.625 5 124643594.426 5     -3951.699          33.000
G14  24359947.570 5 128012382.703 5     -3143.133          32.000    24359942.023 4  99749875.089 4     -2449.194          28.000
G22  21501164.695 7 112989377.437 7     -1651.137          44.000    21501160.102 6  88043658.103 6     -1286.600          39.000
G31  23289781.828 5 122388631.692 5       130.816          31.000    23289775.453 4  95367745.034 4       101.935          27.000
R04  19335607.148 7 103541327.651 7      -520.012          43.000    19335610.305 6  80532153.415 6      -404.454          40.000
R05  21267030.812 8 113684566.701 8      2754.938          49.000    21267028.539 6  88421258.361 6      2142.732          37.000
R18  22348574.328 5 119298155.261 5     -4236.117          35.000    22348577.648 6  92787460.768 6     -3294.752          39.000
R19  19444041.836 6 104012503.375 6     -1514.418          39.000    19444042.758 7  80898616.302 7     -1177.881          45.000
C14                                                                  24398976.555 5  98244532.610 5     -2019.936          31.000
C28  23187424.438 8 120742998.908 8     -2747.406          50.000
E07  24067773.633 8 126477098.796 8      1512.195          51.000    24067777.094 8  96911035.695 8      1158.689          51.000
E08  21900138.320 8 115086014.186 8     -1162.914          51.000    21900138.359 8  88182798.354 8      -891.046          51.000
E13  23673593.289 8 124405581.147 8     -1496.895          51.000    23673594.859 8  95323756.944 8     -1146.977          51.000
E15  27273892.641 6 143325281.683 6     -3008.812          39.000
> 2020 05 13 21 12  0.0000000  0 18        .000000000000
G01  21394572.961 8 112429240.419 8     -2317.453          51.000    21394576.734 8  87607198.813 8     -1805.808          51.000
G03  20357425.078 8 106978997.606 8      -403.156          51.000    20357426.773 8  83360268.572 8      -314.148          51.000
G04  21165603.109 8 111225993.778 8      2287.758          50.000    21165603.430 7  86669627.353 7      1782.671          47.000
G11  23741484.164 5 124762252.113 5     -3957.512          34.000
G14  24377911.766 4 128106790.442 4     -3149.992          29.000    24377903.586 4  99823442.082 4     -2454.539          26.000
G17  22051506.711 5 115881449.424 5       295.738          31.000
G22  21510617.320 7 113039051.865 7     -1659.699          42.000    21510613.109 6  88082365.437 6     -1293.275          39.000
G31  23289096.234 5 122385036.172 5       109.199          31.000
R04  19338572.242 7 103557205.891 7      -537.887          43.000    19338575.828 6  80544503.176 6      -418.356          40.000
R05  21251611.078 8 113602138.825 8      2741.129          48.000    21251609.922 6  88357147.817 6      2131.989          40.000
R18  22372408.203 6 119425406.751 6     -4246.711          37.000    22372416.438 5  92886434.214 5     -3302.994          34.000
R19  19452612.250 6 104058349.185 6     -1541.164          39.000    19452613.281 7  80934274.197 7     -1198.683          45.000
C14                                                                  24414035.914 4  98305180.728 4     -2022.745          28.000
C28  23203288.023 8 120825606.372 8     -2759.004          50.000
E07  24059175.008 8 126431913.692 8      1501.074          51.000    24059178.781 8  96876413.395 8      1150.198          51.000
E08  21906809.391 8 115121070.579 8     -1173.273          51.000    21906809.359 8  88209659.730 8      -899.017          51.000
E13  23682178.055 8 124450695.452 8     -1509.801          51.000    23682179.617 8  95358325.038 8     -1156.851          51.000
E15  27291084.297 6 143415631.303 6     -3013.660          40.000    27291092.602 5 109889920.328 5     -2308.872          33.000
> 2020 05 13 21 12 30.0000000  0 16        .000000000000
G01  21407864.438 8 112499087.267 8     -2311.734          50.000    21407868.406 8  87661624.938 8     -1801.351          50.000
G03  20359782.547 8 106991386.557 8      -395.461          51.000    20359784.273 8  83369922.294 8      -308.151          51.000
G04  21152611.047 8 111157718.638 8      2291.207          51.000    21152611.266 7  86616425.985 7      1785.356          47.000
G11  23764114.914 5 124881180.322 5     -3943.805          35.000
G22  21520138.719 6 113089088.266 6     -1648.590          41.000    21520134.906 6  88121354.863 6     -1284.619          37.000
G31  23288559.914 5 122382215.889 5       107.477          34.000
R04  19341657.312 7 103573727.077 7      -535.785          43.000    19341660.508 6  80557352.976 6      -416.725          39.000
R05  21236288.375 7 113520230.791 7      2747.238          46.000    21236289.617 7  88293441.515 7      2136.741          42.000
R18  22396324.805 6 119553075.273 6     -4237.074          41.000    22396334.227 4  92985732.148 4     -3295.493          28.000
R19  19461351.750 6 104105101.441 6     -1547.988          39.000    19461353.414 7  80970637.062 7     -1203.991          45.000
C14  24429142.602 5 127208955.243 5     -2599.719          33.000
C28  23219237.625 8 120908660.265 8     -2750.918          50.000
E07  24050659.367 8 126387163.026 8      1509.648          51.000    24050663.203 8  96842123.977 8      1156.714          51.000
E08  21913558.953 8 115156540.203 8     -1163.957          51.000    21913559.062 8  88236837.750 8      -891.824          51.000
E13  23690855.320 8 124496296.949 8     -1502.945          51.000    23690857.031 8  95393266.436 8     -1151.592          51.000
E15  27308322.531 6 143506222.697 6     -2998.723          41.000    27308331.789 5 109959333.499 5     -2297.435          35.000
> 2020 05 13 21 13  0.0000000  0 15        .000000000000
G01  21421171.078 8 112569016.216 8     -2364.328          48.000    21421175.586 8  87716115.028 8     -1842.334          48.000
G03  20362145.055 8 107003801.561 8      -446.172          51.000    20362146.859 8  83379596.313 8      -347.669          51.000
G04  21139648.461 8 111089597.367 8      2236.254          51.000    21139648.250 7  86563344.515 7      1742.536          47.000
G11  23786711.836 6 124999938.637 6     -3987.641          36.000
G22  21529645.336 6 113139047.998 6     -1695.805          39.000    21529641.516 5  88160284.585 5     -1321.400          35.000
R04  19344779.836 7 103590442.954 7      -593.051          43.000    19344781.758 6  80570354.194 6      -461.262          40.000
R05  21220980.141 7 113438397.738 7      2693.973          47.000    21220983.031 7  88229793.610 7      2095.312          42.000
R18  22420236.703 7 119680712.621 7     -4286.574          42.000    22420247.109 5  93085005.744 5     -3333.999          35.000
R19  19470177.445 6 104152313.090 6     -1613.902          40.000    19470179.414 7  81007357.214 7     -1255.257          45.000
C14  24444198.195 5 127287364.556 5     -2640.652          30.000    24444194.961 5  98426639.948 5     -2042.273          32.000
C28  23235189.430 8 120991724.448 8     -2800.559          50.000
E07  24042143.266 8 126342408.922 8      1460.000          51.000    24042146.781 8  96807831.899 8      1118.692          51.000
E08  21920303.367 8 115191983.862 8     -1212.906          51.000    21920303.930 8  88263995.880 8      -929.346          51.000
E13  23699541.891 8 124541947.139 8     -1554.348          51.000    23699543.781 8  95428245.155 8     -1191.024          51.000
E15  27325523.656 6 143596616.718 6     -3041.641          40.000    27325534.242 5 110028596.449 5     -2330.521          34.000
> 2020 05 13 21 13 30.0000000  0 16        .000000000000
G01  21434599.078 8 112639582.993 8     -2352.332          48.000    21434603.867 8  87771102.119 8     -1832.986          48.000
G03  20364618.461 8 107016798.918 8      -432.320          51.000    20364620.312 8  83389724.122 8      -336.873          51.000
G04  21126821.172 8 111022188.140 8      2245.746          51.000    21126820.547 7  86510817.851 7      1749.932          47.000
G11  23809382.633 6 125119081.363 6     -3967.445          37.000
G22  21539243.125 6 113189487.489 6     -1678.578          38.000    21539239.039 5  88199588.088 5     -1307.989          34.000
G31  23287744.141 5 122377923.236 5        53.375          32.000
R04  19348043.492 7 103607919.196 7      -584.449          43.000    19348046.172 6  80583946.847 6      -454.572          39.000
R05  21205792.164 7 113357206.801 7      2706.414          46.000    21205794.781 6  88166645.123 6      2104.992          41.000
R18  22444248.227 7 119808880.812 7     -4270.262          43.000    22444256.391 6  93184692.145 6     -3321.315          39.000
R19  19479194.781 6 104200549.347 6     -1614.238          41.000    19479196.617 7  81044874.304 7     -1255.519          45.000
C14  24459312.234 5 127366060.463 5     -2618.348          30.000    24459315.750 5  98487520.275 5     -2025.271          35.000
C28  23251249.094 8 121075348.704 8     -2786.320          50.000
E07  24033732.352 8 126298208.290 8      1474.746          51.000    24033735.570 8  96773963.906 8      1129.943          51.000
E08  21927148.852 8 115227957.092 8     -1197.379          51.000    21927149.492 8  88291559.780 8      -917.439          51.000
E13  23708343.961 8 124588202.380 8     -1541.301          51.000    23708345.945 8  95463687.492 8     -1181.021          51.000
E15  27342793.047 6 143687368.979 6     -3020.656          38.000    27342803.922 5 110098133.977 5     -2314.601          32.000
> 2020 05 13 21 14  0.0000000  0 17        .000000000000
G01  21448070.570 8 112710375.703 8     -2368.230          50.000    21448074.547 8  87826265.236 8     -1845.374          50.000
G03  20367124.352 8 107029967.219 8      -446.477          51.000    20367126.180 8  83399985.141 8      -347.904          51.000
