     3.02           OBSERVATION DATA    M (MIXED)           RINEX VERSION / TYPE
SAVERINEX           SC600               20200511 235931 LCL PGM / RUN BY / DATE
       G = GPS       R = GLONASS       C = COMPASS          COMMENT
       S = SBAS      J = QZSS          E = GALILEO          COMMENT
BEAN                                                        MARKER NAME
1                                                           MARKER NUMBER
GEODETIC                                                    MARKER TYPE
Unige DICCA         GTER                                    OBSERVER / AGENCY
SC60291900056       SC600               2.12(191226)        REC # / TYPE / VERS
                    HEMA45          NONE                    ANT # / TYPE
  4509407.8091   693652.4678  4442337.6214                  APPROX POSITION XYZ
        0.0000        0.0000        0.0000                  ANTENNA: DELTA H/E/N
G    8 C1C L1C D1C S1C C2Y L2Y D2Y S2Y                      SYS / # / OBS TYPES
R    8 C1C L1C D1C S1C C2P L2P D2P S2P                      SYS / # / OBS TYPES
C    8 C1I L1I D1I S1I C7I L7I D7I S7I                      SYS / # / OBS TYPES
E    8 C1C L1C D1C S1C C7Q L7Q D7Q S7Q                      SYS / # / OBS TYPES
DBHZ                                                        COMMENT
     30.000                                                 INTERVAL
  2020    05    11    21    00    0.0000000     GPS         TIME OF FIRST OBS
  2020    05    11    21    59   30.0000000     GPS         TIME OF LAST OBS
     0                                                      RCV CLOCK OFFS APPL
G L1C  0.00000                                              SYS / PHASE SHIFT
G L2Y  0.00000                                              SYS / PHASE SHIFT
R L1C  0.00000                                              SYS / PHASE SHIFT
R L2P  0.25000                                              SYS / PHASE SHIFT
C L1I  0.00000                                              SYS / PHASE SHIFT
C L7I  0.00000                                              SYS / PHASE SHIFT
E L1C  0.50000                                              SYS / PHASE SHIFT
E L7Q -0.25000                                              SYS / PHASE SHIFT
 11 R01  1 R02 -4 R03  5 R08  6 R10 -5 R11  0 R12 -1 R13 -2 GLONASS SLOT / FRQ #
    R17  4 R22 -3 R23  3                                    GLONASS SLOT / FRQ #
 C1C   71.950 C2C   71.950 C2P   71.950                     GLONASS COD/PHS/BIS
    18                                                      LEAP SECONDS
*** Above antenna height is from mark to ANTENNA BOTTOM.    COMMENT
    17     4        0.0000        ANT MEASURE TYPE/HEIGT    COMMENT
    0.0000    0.0000    0.0458    0.0405    0.0000          COMMENT
                    BASE STATION                            COMMENT
                                                            END OF HEADER
> 2020 05 11 21 00  0.0000000  0 20        .000000000000
G01  20918962.141 8 109929883.086 8     -1784.406          51.000    20918963.742 8  85659656.000 8     -1390.443          51.000
G03  20315466.875 8 106758496.551 8        47.922          49.000    20315468.508 8  83188483.044 8        37.342          49.000
G04  21757942.508 8 114338750.621 8      2842.234          48.000    21757943.883 7  89095147.113 7      2214.728          47.000
G11  22857915.914 7 120119150.912 7     -3721.988          44.000    22857915.688 6  93599328.022 6     -2900.254          41.000
G17  22206721.352 5 116697119.905 5      1049.938          35.000    22206709.422 4  90932761.412 4       818.133          28.000
G22  21157016.125 8 111180882.131 8     -1340.473          50.000    21157012.945 8  86634482.613 8     -1044.524          48.000
R02  19219687.125 8 102559931.705 8       296.137          50.000    19219690.156 7  79768889.519 7       230.329          47.000
R03  22118110.578 6 118399998.837 6      3262.465          40.000    22118113.359 7  92088910.918 7      2537.473          42.000
R17  19113266.430 8 102278975.919 8        62.867          49.000    19113267.688 7  79550292.043 7        48.897          46.000
R24  21159964.422 8 113151838.146 8     -3626.254          48.000    21159968.484 7  88007005.054 7     -2820.423          42.000
C05                                                                  39708542.023 5 159889843.041 5       -26.560          35.000
C19  24661617.477 7 128419537.406 7      2626.621          47.000
C20  21983769.570 8 114475345.077 8       588.781          51.000
C29  22126516.016 7 115218566.229 7       -76.691          46.000
C30  23506774.469 7 122405943.636 7     -2940.184          47.000
E04  26285946.664 5 138133582.627 5     -2456.914          34.000
E05  25110170.219 8 131954819.325 8      2255.055          51.000    25110172.312 8 101108276.040 8      1727.875          51.000
E09  21491520.328 8 112938779.189 8      -212.395          51.000    21491520.609 8  86537518.106 8      -162.762          51.000
E11  25104224.070 7 131923577.108 7     -2650.055          46.000    25104222.461 7 101084295.880 7     -2030.516          44.000
E36  23138206.148 8 121592103.101 8      -472.785          51.000    23138209.914 8  93167977.828 8      -362.195          51.000
> 2020 05 11 21 00 30.0000000  0 21        .000000000000
G01  20929187.234 8 109983617.722 8     -1797.023          51.000    20929189.320 8  85701527.169 8     -1400.278          51.000
G03  20315225.367 8 106757227.108 8        37.664          49.000    20315226.594 8  83187493.882 8        29.349          49.000
G04  21741752.562 8 114253673.103 8      2830.594          48.000    21741754.391 7  89028852.965 7      2205.661          47.000
G11  22879185.688 7 120230925.775 7     -3728.699          44.000    22879184.945 6  93686425.318 6     -2905.477          40.000
G14  23695365.500 5 124519974.679 5     -2875.109          34.000
G17  22200781.625 5 116665894.272 5      1031.453          32.000    22200763.328 5  90908416.036 5       803.730          32.000
G22  21164692.055 8 111221219.381 8     -1347.664          50.000    21164688.789 7  86665914.236 7     -1050.128          47.000
R02  19218074.453 8 102551325.621 8       278.602          51.000    19218077.320 7  79762195.890 7       216.690          47.000
R03  22099854.438 6 118302286.420 6      3252.926          40.000    22099860.422 7  92012912.323 7      2530.053          43.000
R17  19112987.289 8 102277482.233 8        37.746          48.000    19112988.375 7  79549130.304 7        29.358          45.000
R24  21180349.805 8 113260847.822 8     -3639.902          49.000    21180350.797 6  88091790.316 6     -2831.035          37.000
C05                                                                  39708740.617 5 159890642.128 5       -25.853          35.000
C19  24646500.781 7 128340819.194 7      2622.273          47.000
C20  21980408.328 8 114457840.677 8       579.121          51.000
C29  22127007.312 7 115221122.710 7       -92.688          46.000
C30  23523738.273 7 122494282.371 7     -2948.016          47.000
E04  26299983.625 5 138207348.258 5     -2459.770          34.000
E05  25097319.641 8 131887286.062 8      2248.094          51.000    25097322.938 8 101056529.775 8      1722.607          51.000
E09  21492765.375 8 112945320.156 8      -222.668          51.000    21492765.570 8  86542530.013 8      -170.592          51.000
E11  25119370.555 7 132003170.083 7     -2655.234          47.000    25119368.273 7 101145282.676 7     -2034.339          43.000
E36  23140940.047 8 121606468.333 8      -483.852          51.000    23140943.281 8  93178984.970 8      -370.785          51.000
> 2020 05 11 21 01  0.0000000  0 20        .000000000000
G01  20939484.289 8 110037730.351 8     -1810.957          51.000    20939486.812 8  85743692.850 8     -1411.135          51.000
G03  20315042.617 8 106756266.692 8        25.914          50.000    20315043.797 8  83186745.508 8        20.193          49.000
G04  21725628.672 8 114168941.868 8      2817.641          48.000    21725630.695 7  88962828.638 7      2195.564          47.000
G11  22900492.234 7 120342892.235 7     -3736.273          44.000    22900489.375 6  93773671.856 6     -2911.382          38.000
G17  22194941.016 5 116635198.696 5      1014.746          32.000    22194923.969 5  90884495.306 5       790.714          30.000
G22  21172408.820 8 111261771.217 8     -1356.180          50.000    21172405.477 7  86697513.053 7     -1056.763          47.000
R02  19216559.414 8 102543240.814 8       260.008          51.000    19216562.305 7  79755907.717 7       202.228          47.000
R03  22081656.094 7 118204857.284 7      3241.910          44.000    22081659.828 7  91937134.116 7      2521.486          43.000
R17  19112848.586 8 102276740.637 8        11.160          49.000    19112849.328 7  79548553.503 7         8.680          45.000
R24  21200811.484 8 113370262.994 8     -3654.836          50.000    21200810.281 6  88176890.937 6     -2842.650          40.000
C05                                                                  39708933.383 5 159891419.327 5       -25.916          35.000
C19  24631409.281 7 128262232.721 7      2616.430          47.000
C20  21977102.133 8 114440623.697 8       568.203          51.000
C29  22127591.117 7 115224160.947 7      -110.293          46.000
C30  23540746.961 7 122582853.171 7     -2957.082          47.000
E04  26314039.336 5 138281209.188 5     -2464.930          33.000
E05  25084507.914 8 131819958.847 8      2239.895          51.000    25084512.281 8 101004941.392 8      1716.271          51.000
E09  21494068.664 8 112952167.767 8      -234.191          51.000    21494069.133 8  86547776.900 8      -179.466          51.000
E11  25134547.203 7 132082922.844 7     -2661.965          46.000    25134543.922 6 101206391.883 6     -2039.657          40.000
E36  23143737.367 8 121621167.075 8      -496.379          51.000    23143740.188 8  93190247.646 8      -380.333          51.000
> 2020 05 11 21 01 30.0000000  0 19        .000000000000
G01  20949879.055 8 110092355.047 8     -1828.020          51.000    20949881.562 8  85786257.530 8     -1424.431          51.000
G03  20314944.117 8 106755749.461 8        11.008          50.000    20314945.438 8  83186342.477 8         8.574          50.000
G04  21709596.648 8 114084693.576 8      2801.453          48.000    21709598.617 7  88897180.628 7      2182.950          46.000
G11  22921860.609 7 120455182.266 7     -3747.090          45.000    22921856.367 6  93861170.492 6     -2919.813          38.000
G17  22189221.445 5 116605147.055 5       992.027          34.000
G22  21180191.867 8 111302671.330 8     -1367.910          49.000    21180188.445 7  86729383.265 7     -1065.904          45.000
R02  19215167.242 8 102535812.906 8       237.898          50.000    19215170.180 7  79750130.453 7       185.032          47.000
R03  22063535.594 7 118107849.631 7      3227.742          44.000    22063537.469 7  91861683.739 7      2510.469          44.000
R17  19112876.531 8 102276889.420 8       -18.535          48.000    19112877.008 7  79548669.211 7       -14.419          45.000
R24  21221374.008 8 113480217.507 8     -3672.910          49.000    21221373.438 7  88262411.106 7     -2856.708          44.000
C19  24616368.242 7 128183911.954 7      2607.496          45.000
C20  21973876.500 8 114423827.139 8       554.109          51.000
C29  22128292.664 7 115227814.487 7      -130.695          45.000
C30  23557825.633 8 122671787.550 8     -2969.250          48.000
E04  26328138.281 5 138355299.645 5     -2472.250          33.000
E05  25071760.438 8 131752973.023 8      2228.281          49.000    25071765.938 8 100953614.583 8      1707.357          51.000
E09  21495455.672 8 112959455.947 8      -249.102          51.000    21495456.398 8  86553361.357 8      -190.918          51.000
E11  25149779.406 7 132162969.238 7     -2672.203          46.000    25149774.461 6 101267726.084 6     -2047.326          39.000
E36  23146623.594 8 121636334.362 8      -512.254          51.000    23146626.586 8  93201869.324 8      -392.503          51.000
> 2020 05 11 21 02  0.0000000  0 19        .000000000000
G01  20960334.812 8 110147299.160 8     -1844.734          51.000    20960336.742 8  85829071.106 8     -1437.458          51.000
G03  20314893.359 8 106755482.924 8        -3.379          49.000    20314894.766 8  83186134.772 8        -2.633          49.000
G04  21693620.398 8 114000738.167 8      2785.465          48.000    21693622.141 7  88831760.825 7      2170.492          46.000
G11  22943253.305 7 120567601.526 7     -3757.387          44.000    22943249.820 6  93948769.885 6     -2927.834          40.000
G17  22183590.570 5 116575555.213 5       970.770          32.000    22183578.617 3  90838033.955 3       756.453          22.000
G22  21188004.641 8 111343727.326 8     -1379.152          50.000    21188000.820 7  86761374.934 7     -1074.664          44.000
R02  19213861.445 8 102528845.950 8       216.355          50.000    19213864.500 7  79744711.707 7       168.276          47.000
R03  22045455.695 7 118011069.561 7      3214.039          44.000    22045457.195 7  91786410.397 7      2499.808          43.000
R17  19113034.594 8 102277734.027 8       -47.949          49.000    19113034.938 7  79549326.109 7       -37.294          45.000
R24  21241999.516 7 113590512.735 7     -3690.398          46.000    21242001.055 7  88348196.317 7     -2870.307          45.000
C05                                                                  39709342.133 5 159893064.463 5       -31.507          35.000
C19  24601341.086 7 128105667.024 7      2598.906          44.000
C20  21970695.211 8 114407260.264 8       540.379          51.000
C29  22129074.875 7 115231893.294 7      -151.074          44.000
C30  23574937.188 8 122760893.172 8     -2981.090          48.000
E05  25059041.125 8 131686137.101 8      2217.387          48.000    25059047.742 8 100902402.629 8      1698.983          51.000
E09  21496889.766 8 112966991.817 8      -263.367          51.000    21496890.461 8  86559135.599 8      -201.762          51.000
E11  25165030.625 7 132243116.096 7     -2681.117          45.000    25165025.891 6 101329137.283 6     -2054.521          40.000
E36  23149562.570 8 121651778.455 8      -527.578          51.000    23149565.703 8  93213703.103 8      -404.194          51.000
> 2020 05 11 21 02 30.0000000  0 18        .000000000000
G01  20970884.703 8 110202737.269 8     -1850.988          51.000    20970886.055 8  85872269.601 8     -1442.329          51.000
G03  20314923.633 8 106755641.820 8        -7.484          49.000    20314924.945 8  83186258.594 8        -5.832          49.000
G04  21677733.648 8 113917252.763 8      2779.949          48.000    21677735.109 7  88766707.264 7      2166.194          46.000
G11  22964703.352 7 120680322.771 7     -3757.324          45.000    22964701.203 6  94036604.653 6     -2927.785          41.000
G22  21195880.133 8 111385112.955 8     -1379.965          50.000    21195875.750 7  86793623.466 7     -1075.297          43.000
R02  19212675.117 8 102522516.635 8       205.438          50.000    19212678.570 7  79739788.937 7       159.788          47.000
R03  22027451.352 7 117914696.618 7      3210.801          45.000    22027452.062 7  91711453.670 7      2497.289          42.000
R17  19113356.062 8 102279453.396 8       -66.801          50.000    19113356.250 7  79550663.396 7       -51.956          45.000
R24  21262720.375 7 113701324.140 7     -3697.105          46.000    21262724.680 7  88434383.027 7     -2875.526          43.000
C05                                                                  39709554.844 5 159893921.390 5       -25.699          35.000
C19  24586362.398 7 128027671.964 7      2600.695          45.000
C20  21967591.219 8 114391096.186 8       537.070          51.000
C29  22129972.688 7 115236571.007 7      -160.688          45.000
C30  23592114.516 8 122850341.678 8     -2982.375          48.000
E05  25046384.227 8 131619626.904 8      2216.574          49.000    25046391.250 8 100851440.264 8      1698.426          51.000
E09  21498404.203 8 112974949.806 8      -267.262          51.000    21498404.930 8  86565233.285 8      -204.764          51.000
E11  25180334.594 7 132323537.922 7     -2680.090          46.000    25180332.211 7 101390759.156 7     -2053.605          43.000
E36  23152587.727 8 121667674.855 8      -532.406          51.000    23152590.672 8  93225883.462 8      -407.915          51.000
> 2020 05 11 21 03  0.0000000  0 18        .000000000000
G01  20981492.938 8 110258482.909 8     -1864.961          51.000    20981494.016 8  85915707.750 8     -1453.216          51.000
G03  20314999.258 8 106756039.807 8       -18.969          50.000    20315000.398 8  83186568.732 8       -14.781          50.000
G04  21661901.586 8 113834053.448 8      2766.883          48.000    21661902.766 7  88701876.645 7      2156.016          47.000
G11  22986175.625 7 120793157.891 7     -3764.648          47.000    22986174.398 7  94124528.130 7     -2933.495          43.000
G22  21203782.922 8 111426642.079 8     -1388.297          50.000    21203778.273 7  86825983.798 7     -1081.790          43.000
R02  19211572.859 8 102516634.870 8       186.977          50.000    19211576.336 7  79735214.247 7       145.426          46.000
R03  22009489.383 8 117818542.700 8      3199.734          48.000    22009488.289 7  91636667.305 7      2488.682          43.000
R17  19113805.633 8 102281859.524 8       -93.316          50.000    19113806.039 7  79552534.827 7       -72.579          46.000
R24  21283503.602 8 113812459.581 8     -3711.520          50.000    21283506.758 6  88520821.650 6     -2886.740          39.000
C05                                                                  39709749.094 6 159894703.266 6       -25.919          36.000
C19  24571397.484 7 127949743.077 7      2594.961          47.000
C20  21964528.906 8 114375150.285 8       526.270          51.000
C29  22130950.766 7 115241663.692 7      -178.359          46.000
C30  23609322.062 8 122939946.889 8     -2991.023          48.000
E05  25033754.250 8 131553257.204 8      2208.254          49.000    25033760.594 8 100800585.563 8      1692.131          50.000
E09  21499963.336 8 112983143.220 8      -278.598          51.000    21499964.312 8  86571511.367 8      -213.510          51.000
E11  25195655.656 7 132404047.865 7     -2686.859          46.000    25195655.336 7 101452448.579 7     -2058.762          45.000
E36  23155663.539 8 121683838.028 8      -544.777          51.000    23155666.211 8  93238268.231 8      -417.406          51.000
> 2020 05 11 21 03 30.0000000  0 19        .000000000000
G01  20992170.750 8 110314596.111 8     -1882.051          50.000    20992171.703 8  85959432.319 8     -1466.536          50.000
G03  20315131.984 8 106756737.176 8       -33.672          51.000    20315132.859 8  83187112.131 8       -26.238          51.000
G04  21646136.000 8 113751202.910 8      2750.402          49.000    21646136.859 7  88637317.808 7      2143.174          46.000
G11  23007680.852 8 120906165.115 8     -3775.141          50.000    23007679.930 7  94212585.684 7     -2941.668          44.000
G14  23794735.961 5 125042173.134 5     -2928.863          32.000
G22  21211724.422 8 111468374.725 8     -1399.883          50.000    21211720.172 7  86858502.723 7     -1090.818          43.000
R02  19210565.805 8 102511261.586 8       165.121          49.000    19210569.438 7  79731035.014 7       128.428          46.000
R03  21991581.117 8 117722670.806 8      3185.461          48.000    21991579.242 7  91562100.337 7      2477.584          44.000
R17  19114395.211 8 102285014.889 8      -123.258          50.000    19114395.836 7  79554988.994 7       -95.867          46.000
R24  21304359.344 8 113923977.761 8     -3729.215          51.000    21304359.430 6  88607557.854 6     -2900.507          41.000
C05                                                                  39709936.125 5 159895456.552 5       -28.771          35.000
C19  24556457.406 7 127871940.985 7      2585.965          47.000
C20  21961520.062 8 114359482.261 8       512.262          51.000
C29  22132020.570 7 115247231.570 7      -198.926          47.000
C30  23626571.391 8 123029767.035 8     -3002.961          48.000
E05  25021162.688 8 131487089.343 8      2196.855          49.000    25021167.633 8 100749885.518 8      1683.254          49.000
E09  21501578.445 8 112991631.983 8      -293.320          51.000    21501579.703 8  86578015.748 8      -224.740          51.000
E11  25211005.070 7 132484705.685 7     -2696.461          45.000    25211005.812 7 101514251.335 7     -2066.036          47.000
E36  23158801.703 8 121700329.024 8      -560.613          51.000    23158804.125 8  93250904.181 8      -429.558          51.000
> 2020 05 11 21 04  0.0000000  0 19        .000000000000
G01  21002920.094 8 110371086.621 8     -1892.551          50.000    21002921.383 8  86003450.906 8     -1474.715          50.000
G03  20315323.641 8 106757743.857 8       -41.949          51.000    20315324.430 8  83187896.572 8       -32.685          51.000
G04  21630438.922 8 113668713.461 8      2740.391          48.000    21630439.898 8  88573040.343 8      2135.369          48.000
G11  23029220.289 8 121019352.307 8     -3779.176          50.000    23029219.352 7  94300783.491 7     -2944.812          45.000
G14  23811443.109 5 125129960.131 5     -2933.301          32.000
G22  21219706.492 8 111510320.533 8     -1405.004          50.000    21219702.547 7  86891187.753 7     -1094.808          43.000
R02  19209655.766 8 102506405.745 8       149.863          49.000    19209659.602 7  79727258.277 7       116.563          45.000
R03  21973726.883 7 117627092.753 7      3177.785          47.000    21973725.852 7  91487761.905 7      2471.614          45.000
R17  19115127.078 8 102288931.088 8      -146.598          51.000    19115127.672 7  79558034.941 7      -114.017          46.000
R24  21325287.719 8 114035886.416 8     -3740.121          51.000    21325287.766 7  88694597.865 7     -2908.986          44.000
C05                                                                  39710118.086 5 159896189.264 5       -26.672          35.000
C19  24541543.539 8 127794276.421 8      2583.320          48.000
C20  21958566.508 8 114344101.955 8       504.629          51.000
C29  22133183.461 7 115253285.020 7      -213.094          46.000
C30  23643864.023 8 123119810.454 8     -3008.387          49.000
E05  25008611.977 8 131421134.330 8      2191.820          49.000    25008614.641 8 100699348.586 8      1679.432          49.000
E09  21503251.703 8 113000425.648 8      -301.414          51.000    21503253.008 8  86584753.747 8      -230.912          51.000
E11  25226384.195 7 132565520.802 7     -2699.473          43.000    25226385.344 8 101576174.626 8     -2068.562          48.000
E36  23162004.258 8 121717158.499 8      -569.809          51.000    23162006.547 8  93263799.485 8      -436.628          51.000
> 2020 05 11 21 04 30.0000000  0 19        .000000000000
G01  21013762.898 8 110428067.058 8     -1904.820          50.000    21013764.609 8  86047851.249 8     -1484.276          50.000
G03  20315595.555 8 106759172.575 8       -51.957          51.000    20315596.500 8  83189009.878 8       -40.486          50.000
G04  21614832.250 8 113586700.342 8      2728.508          48.000    21614833.867 8  88509134.019 8      2126.110          48.000
G11  23050814.820 8 121132830.300 8     -3784.770          50.000    23050813.945 7  94389207.865 7     -2949.171          45.000
G14  23828212.062 5 125218095.382 5     -2939.945          34.000
G22  21227750.492 8 111552592.000 8     -1411.812          50.000    21227746.625 7  86924126.556 7     -1100.114          44.000
R02  19208864.430 8 102502181.037 8       133.023          50.000    19208867.180 7  79723972.383 7       103.460          44.000
R03  21955947.766 7 117531925.176 7      3168.113          45.000    21955948.805 7  91413742.684 7      2464.088          45.000
R17  19116022.375 8 102293723.771 8      -171.676          51.000    19116023.367 7  79561762.573 7      -133.526          46.000
R24  21346309.297 8 114148297.550 8     -3752.754          50.000    21346310.094 7  88782028.736 7     -2918.809          45.000
C05                                                                  39710316.547 5 159896988.089 5       -26.134          35.000
C19  24526677.445 7 127716862.016 7      2578.852          47.000
C20  21955689.453 8 114329121.101 8       495.305          51.000
C29  22134460.703 8 115259936.365 8      -229.055          48.000
C30  23661220.516 8 123210187.325 8     -3015.527          48.000
E05  24996123.922 8 131355505.975 8      2184.699          51.000    24996123.836 8 100649061.973 8      1674.002          49.000
E09  21505004.281 8 113009636.643 8      -311.312          51.000    21505005.766 8  86591811.532 8      -238.556          51.000
E11  25241813.375 6 132646605.586 6     -2704.672          41.000    25241815.180 7 101638304.549 7     -2072.611          47.000
E36  23165292.734 8 121734439.998 8      -580.965          51.000    23165295.117 8  93277041.140 8      -445.152          51.000
> 2020 05 11 21 05  0.0000000  0 19        .000000000000
G01  21024681.273 8 110485443.755 8     -1924.473          51.000    21024683.102 8  86092560.325 8     -1499.589          51.000
G03  20315929.945 8 106760929.815 8       -69.402          50.000    20315930.930 8  83190379.178 8       -54.080          50.000
G04  21599298.883 8 113505072.385 8      2709.105          49.000    21599300.906 8  88445527.819 8      2110.991          48.000
G11  23072446.266 8 121246503.643 8     -3797.668          49.000    23072445.273 7  94477784.462 7     -2959.222          43.000
G14  23845023.836 5 125306445.173 5     -2953.703          34.000    23845028.602 5  97641404.954 5     -2301.587          31.000
G22  21235838.609 8 111595095.466 8     -1425.941          50.000    21235834.773 7  86957246.128 7     -1111.123          44.000
R02  19208173.148 8 102498491.790 8       108.656          48.000    19208175.805 7  79721102.995 7        84.513          44.000
R03  21938227.438 7 117437074.428 7      3150.973          45.000    21938230.219 7  91339969.876 7      2450.757          44.000
R17  19117064.078 8 102299299.212 8      -204.312          51.000    19117065.289 7  79566099.031 7      -158.910          46.000
R24  21367406.133 8 114261113.364 8     -3772.691          49.000    21367407.633 7  88869774.383 7     -2934.316          45.000
C05                                                                  39710513.711 5 159897782.660 5       -30.529          35.000
C19  24511841.477 7 127639605.952 7      2567.328          46.000
C20  21952871.359 8 114314447.000 8       478.695          51.000
C29  22135835.383 8 115267093.401 8      -252.254          48.000
C30  23678622.258 7 123300803.393 7     -3029.809          47.000
E05  24983680.672 8 131290111.778 8      2170.582          51.000    24983678.930 8 100598954.790 8      1663.167          50.000
E09  21506818.328 8 113019171.063 8      -328.539          51.000    21506819.977 8  86599117.137 8      -251.786          51.000
E11  25257275.328 6 132727865.993 6     -2716.766          41.000    25257277.906 7 101700569.042 7     -2081.713          47.000
E36  23168649.562 8 121752080.760 8      -599.406          51.000    23168652.047 8  93290558.073 8      -459.291          51.000
> 2020 05 11 21 05 30.0000000  0 20        .000000000000
G01  21035677.852 8 110543230.547 8     -1932.105          51.000    21035679.461 8  86137588.960 8     -1505.537          51.000
G03  20316329.570 8 106763029.625 8       -74.723          50.000    20316330.367 8  83192015.398 8       -58.225          50.000
G04  21583842.055 8 113423845.939 8      2701.777          49.000    21583843.914 7  88382234.490 7      2105.281          47.000
G11  23094116.625 7 121360384.262 7     -3798.582          46.000    23094115.953 7  94566522.588 7     -2959.934          43.000
G14  23861880.312 5 125395028.092 5     -2956.031          33.000
G22  21243973.461 8 111637844.697 8     -1428.043          50.000    21243969.961 7  86990557.219 7     -1112.761          44.000
R01  21981477.516 5 117503530.621 5     -3488.055          30.000
R02  19207584.852 8 102495351.496 8        96.551          49.000    19207587.172 7  79718660.544 7        75.095          44.000
R03  21920570.516 7 117342556.437 7      3145.902          47.000    21920573.562 7  91266455.899 7      2446.813          45.000
R17  19118254.914 8 102305672.765 8      -224.766          51.000    19118256.234 7  79571056.227 7      -174.818          46.000
R24  21388580.680 8 114374345.639 8     -3780.402          49.000    21388583.094 7  88957843.940 7     -2940.313          45.000
C05                                                                  39710712.344 5 159898581.194 5       -26.243          35.000
C19  24497038.750 7 127562523.124 7      2567.484          46.000
C20  21950115.031 8 114300093.550 8       474.051          51.000
C29  22137309.820 8 115274770.564 8      -263.598          48.000
C30  23696071.781 7 123391671.051 7     -3032.125          47.000
E05  24971284.711 8 131224966.881 8      2168.348          51.000    24971282.914 8 100549038.618 8      1661.518          51.000
E09  21508696.656 8 113029042.619 8      -333.688          51.000    21508698.250 8  86606681.052 8      -255.662          51.000
E11  25272773.711 6 132809315.579 6     -2717.043          41.000    25272776.430 7 101762978.473 7     -2081.962          46.000
E36  23172077.594 8 121770095.537 8      -605.785          51.000    23172080.156 8  93304361.588 8      -464.107          51.000
> 2020 05 11 21 06  0.0000000  0 22        .000000000000
G01  21046750.359 8 110601416.478 8     -1949.820          51.000    21046751.820 8  86182928.601 8     -1519.341          51.000
G03  20316792.328 8 106765461.513 8       -90.457          50.000    20316792.812 8  83193910.365 8       -70.486          49.000
G04  21568460.039 8 113343012.837 8      2684.094          50.000    21568461.227 7  88319247.675 7      2091.502          46.000
G11  23115823.266 7 121474459.661 7     -3809.547          44.000    23115823.867 7  94655412.485 7     -2968.478          43.000
G14  23878779.375 5 125483831.792 5     -2967.988          33.000
G17  22142309.289 5 116358620.026 5       826.086          32.000
G22  21252153.031 8 111680828.871 8     -1440.477          50.000    21252149.828 7  87024051.382 7     -1122.449          44.000
R01  22001067.711 4 117608256.835 4     -3496.359          28.000
R02  19207096.859 8 102492748.346 8        73.941          48.000    19207099.547 7  79716635.876 7        57.510          44.000
R03  21902974.477 8 117248362.244 8      3130.562          48.000    21902977.258 7  91193193.778 7      2434.882          45.000
R17  19119593.250 8 102312834.871 8      -255.727          51.000    19119594.492 7  79576626.733 7      -198.898          46.000
R24  21409830.898 8 114487980.954 8     -3798.250          49.000    21409833.250 7  89046226.962 7     -2954.194          43.000
C05                                                                  39710910.531 5 159899379.877 5       -29.589          35.000
C19  24482267.469 7 127485603.937 7      2557.512          45.000
C20  21947418.078 8 114286050.267 8       459.199          51.000
C29  22138882.547 8 115282957.914 8      -285.094          48.000
C30  23713567.898 8 123482778.295 8     -3044.625          49.000
E04  26455904.172 5 139026713.850 5     -2507.406          32.000
E05  24958933.977 8 131160061.781 8      2155.703          51.000    24958933.219 8 100499306.172 8      1651.784          51.000
E09  21510636.875 8 113039240.333 8      -349.086          51.000    21510638.594 8  86614494.897 8      -267.520          51.000
E11  25288306.320 7 132890943.346 7     -2727.777          42.000    25288308.180 7 101825524.395 7     -2090.196          45.000
E36  23175574.859 8 121788474.462 8      -622.457          51.000    23175577.688 8  93318444.127 8      -476.924          51.000
> 2020 05 11 21 06 30.0000000  0 19        .000000000000
G01  21057897.719 8 110659995.870 8     -1960.195          51.000    21057899.312 8  86228574.840 8     -1527.425          51.000
G03  20317317.039 8 106768219.804 8       -98.352          49.000    20317317.281 8  83196059.681 8       -76.638          49.000
G04  21553152.414 8 113262569.842 8      2673.898          50.000    21553152.453 7  88256564.860 7      2083.557          45.000
G11  23137565.297 7 121588722.360 7     -3812.844          42.000    23137567.586 7  94744448.371 7     -2971.047          42.000
G14  23895719.797 5 125572863.403 5     -2972.098          35.000
G22  21260376.289 8 111724042.349 8     -1445.305          49.000    21260373.266 7  87057724.210 7     -1126.211          45.000
R02  19206708.641 8 102490676.252 8        59.309          48.000    19206711.141 7  79715024.239 7        46.129          44.000
R03  21885437.805 7 117154487.718 7      3122.730          47.000    21885441.039 7  91120180.261 7      2428.790          46.000
R17  19121078.109 8 102320780.786 8      -278.938          51.000    19121079.375 7  79582806.871 7      -216.951          47.000
R24  21431154.609 8 114602011.250 8     -3808.672          48.000    21431157.016 7  89134917.118 7     -2962.303          42.000
C05                                                                  39711107.109 5 159900171.740 5       -27.182          35.000
C19  24467525.883 7 127408843.685 7      2554.922          44.000
C20  21944779.484 8 114272311.564 8       451.875          51.000
C29  22140552.352 8 115291650.353 8      -299.223          48.000
C30  23731109.289 8 123574118.036 8     -3049.438          50.000
E05  24946627.562 8 131095391.947 8      2150.621          51.000    24946628.430 8 100449753.974 8      1647.896          51.000
E09  21512638.141 8 113049758.241 8      -356.969          51.000    21512639.852 8  86622554.081 8      -273.554          51.000
E11  25303871.820 7 132972743.205 7     -2730.672          42.000    25303872.711 7 101888202.156 7     -2092.117          45.000
E36  23179140.281 8 121807212.723 8      -631.660          51.000    23179143.469 8  93332801.995 8      -484.008          51.000
> 2020 05 11 21 07  0.0000000  0 19        .000000000000
G01  21069126.492 8 110719003.008 8     -1973.281          51.000    21069127.883 8  86274554.435 8     -1537.622          51.000
G03  20317910.570 8 106771339.085 8      -109.180          49.000    20317910.695 8  83198490.314 8       -85.075          49.000
G04  21537925.922 8 113182553.893 8      2660.762          49.000    21537925.039 7  88194214.812 7      2073.324          44.000
G11  23159350.492 7 121703205.020 7     -3819.020          43.000    23159353.148 7  94833655.668 7     -2975.859          43.000
G14  23912708.953 5 125662135.866 5     -2979.121          34.000
G22  21268649.648 8 111767518.940 8     -1452.766          50.000    21268646.664 7  87091602.058 7     -1132.025          44.000
R02  19206426.188 8 102489169.406 8        41.598          48.000    19206428.438 7  79713852.280 7        32.357          43.000
R03  21867967.836 8 117060969.727 8      3112.109          49.000    21867971.180 7  91047444.067 7      2420.530          46.000
R17  19122715.953 8 102329546.821 8      -305.090          50.000    19122717.805 7  79589624.884 7      -237.292          47.000
R24  21452557.930 7 114716468.759 7     -3821.586          45.000    21452560.875 7  89223939.544 7     -2972.348          42.000
C05                                                                  39711308.953 5 159900984.725 5       -26.850          35.000
C19  24452821.117 7 127332277.616 7      2549.570          43.000
C20  21942206.188 8 114258911.706 8       441.777          51.000
C29  22142325.578 8 115300882.628 8      -315.922          48.000
C30  23748701.836 8 123665722.989 8     -3057.090          51.000
E05  24934372.539 8 131030992.973 8      2142.938          51.000    24934374.820 8 100400409.315 8      1641.973          51.000
E09  21514706.953 8 113060630.560 8      -367.598          51.000    21514708.656 8  86630884.819 8      -281.585          51.000
E11  25319476.648 7 133054749.280 7     -2736.031          42.000    25319477.695 7 101951037.935 7     -2096.463          46.000
E36  23182780.828 8 121826345.591 8      -643.602          51.000    23182783.977 8  93347462.243 8      -493.146          51.000
> 2020 05 11 21 07 30.0000000  0 20        .000000000000
G01  21080422.398 8 110778363.119 8     -1985.781          51.000    21080423.758 8  86320809.084 8     -1547.362          51.000
G03  20318558.688 8 106774744.849 8      -119.641          50.000    20318559.078 8  83201144.172 8       -93.226          51.000
G04  21522766.758 8 113102892.751 8      2648.168          49.000    21522765.875 7  88132141.217 7      2063.508          44.000
G11  23181164.023 7 121817831.061 7     -3824.355          45.000    23181165.844 7  94922974.635 7     -2980.017          43.000
G14  23929731.773 5 125751597.028 5     -2986.207          33.000
G17  22128577.227 6 116286455.087 6       774.438          36.000    22128573.234 5  90612809.494 5       603.461          34.000
G22  21276958.984 8 111811184.434 8     -1459.941          50.000    21276956.008 7  87125627.114 7     -1137.617          43.000
R02  19206235.578 8 102488151.238 8        24.484          48.000    19206237.070 7  79713060.390 7        19.043          43.000
R03  21850550.750 8 116967733.871 8      3101.832          49.000    21850553.250 7  90974927.296 7      2412.536          45.000
R17  19124493.180 8 102339058.156 8      -330.777          50.000    19124495.578 8  79597022.592 8      -257.271          48.000
R24  21474025.867 7 114831275.182 7     -3834.008          43.000    21474030.523 7  89313233.390 7     -2982.006          43.000
C05                                                                  39711502.016 6 159901762.020 6       -26.436          36.000
C19  24438139.867 7 127255832.649 7      2544.863          44.000
C20  21939683.789 8 114245776.829 8       432.156          51.000
C29  22144188.266 8 115310581.302 8      -332.414          49.000
C30  23766330.953 8 123757517.712 8     -3064.223          51.000
E05  24922154.969 8 130966791.356 8      2135.449          51.000    24922158.359 8 100351215.885 8      1636.241          51.000
E09  21516828.930 8 113071782.346 8      -377.664          51.000    21516830.734 8  86639429.710 8      -289.442          51.000
E11  25335106.359 6 133136886.493 6     -2741.707          41.000    25335108.492 7 102013974.217 7     -2100.687          46.000
E36  23186482.594 8 121845799.234 8      -655.156          51.000    23186485.586 8  93362368.292 8      -501.985          51.000
> 2020 05 11 21 08  0.0000000  0 20        .000000000000
G01  21091799.164 8 110838147.741 8     -1999.148          51.000    21091800.367 8  86367394.490 8     -1557.778          51.000
G03  20319274.969 8 106778508.827 8      -130.699          51.000    20319275.625 8  83204077.128 8      -101.844          51.000
G04  21507689.203 8 113023660.503 8      2634.645          49.000    21507688.703 7  88070401.811 7      2052.970          45.000
G11  23203018.289 7 121932670.318 7     -3830.727          47.000    23203019.039 6  95012459.725 6     -2984.982          40.000
G14  23946801.953 5 125841304.548 5     -2994.434          34.000    23946807.172 4  98058164.349 4     -2333.325          29.000
G17  22124212.102 6 116263514.930 6       755.746          36.000    22124205.398 5  90594934.083 5       588.890          34.000
G22  21285317.773 8 111855110.238 8     -1467.797          50.000    21285314.734 7  87159855.016 7     -1143.738          43.000
R02  19206149.789 7 102487693.425 7         6.789          47.000    19206151.133 7  79712704.314 7         5.280          43.000
R03  21833199.805 8 116874855.007 8      3090.777          48.000    21833201.711 7  90902688.201 7      2403.938          44.000
R17  19126423.297 8 102349388.696 8      -357.281          49.000    19126426.461 8  79605057.448 8      -277.885          49.000
R24  21495572.773 7 114946500.828 7     -3846.898          43.000    21495578.797 7  89402853.325 7     -2992.032          44.000
C05                                                                  39711699.961 6 159902558.894 6       -26.315          36.000
C19  24423496.367 7 127179580.755 7      2539.320          44.000
C20  21937225.859 8 114232977.897 8       421.812          51.000
C29  22146154.070 8 115320817.826 8      -349.438          49.000
C30  23784009.680 8 123849571.755 8     -3071.992          51.000
E05  24909988.773 8 130902859.844 8      2127.254          51.000    24909992.953 8 100302229.434 8      1629.992          51.000
E09  21519017.742 8 113083284.956 8      -388.477          51.000    21519019.477 8  86648243.400 8      -297.721          51.000
E11  25350774.258 6 133219226.004 6     -2747.098          41.000    25350778.078 7 102077065.582 7     -2104.970          46.000
E36  23190259.141 8 121865646.054 8      -667.363          51.000    23190262.375 8  93377575.604 8      -511.323          51.000
> 2020 05 11 21 08 30.0000000  0 19        .000000000000
G01  21103258.367 8 110898364.253 8     -2015.723          51.000    21103258.938 8  86414316.436 8     -1570.693          51.000
G03  20320060.906 8 106782638.682 8      -144.988          50.000    20320061.547 8  83207295.192 8      -112.978          50.000
G04  21492695.234 8 112944867.143 8      2617.750          48.000    21492695.289 7  88009004.403 7      2039.805          46.000
G11  23224914.258 7 122047728.599 7     -3840.383          46.000    23224913.258 6  95102115.466 6     -2992.509          38.000
G17  22119960.867 5 116241168.226 5       733.520          33.000    22119960.336 5  90577536.130 5       571.577          33.000
G22  21293727.469 8 111899303.763 8     -1478.941          49.000    21293724.281 7  87194291.512 7     -1152.422          44.000
R02  19206170.453 7 102487803.375 7       -14.367          47.000    19206171.969 7  79712789.860 7       -11.174          43.000
R03  21815916.992 8 116782342.506 8      3076.418          48.000    21815917.977 7  90830734.010 7      2392.766          43.000
R17  19128508.438 8 102360547.246 8      -387.098          50.000    19128511.938 8  79613736.307 8      -301.076          49.000
R24  21517200.312 7 115062150.868 7     -3863.293          45.000    21517206.445 7  89492803.336 7     -3004.783          45.000
C05                                                                  39711904.180 6 159903381.666 6       -28.789          36.000
C19  24408892.117 7 127103530.485 7      2530.293          44.000
C20  21934833.875 8 114220522.578 8       408.137          51.000
C29  22148224.477 8 115331600.284 8      -369.875          49.000
C30  23801738.938 8 123941891.153 8     -3082.914          51.000
E05  24897875.883 8 130839207.172 8      2115.777          51.000    24897880.336 8 100253456.619 8      1621.267          51.000
E09  21521274.695 8 113095145.648 8      -402.602          51.000    21521276.352 8  86657331.475 8      -308.442          51.000
E11  25366482.719 7 133301775.122 7     -2756.184          42.000    25366487.594 7 102140317.532 7     -2111.884          46.000
E36  23194112.031 8 121885894.490 8      -682.863          50.000    23194115.891 8  93393090.631 8      -523.272          51.000
> 2020 05 11 21 09  0.0000000  0 18        .000000000000
G01  21114804.477 8 110959037.042 8     -2024.766          51.000    21114804.148 8  86461593.906 8     -1577.739          51.000
G03  20320921.125 8 106787159.118 8      -152.023          50.000    20320921.953 8  83210817.602 8      -118.460          50.000
G04  21477789.898 8 112866539.618 8      2608.414          48.000    21477790.727 7  87947969.980 7      2032.530          47.000
G11  23246856.031 7 122163028.539 7     -3842.102          46.000    23246852.797 6  95191959.485 6     -2993.848          37.000
G22  21302192.789 8 111943789.367 8     -1482.453          49.000    21302189.242 7  87228955.600 7     -1155.158          44.000
R02  19206301.930 7 102488504.810 7       -27.949          46.000    19206303.461 7  79713335.417 7       -21.738          42.000
R03  21798709.047 8 116690223.039 8      3069.410          48.000    21798709.008 7  90759085.566 7      2387.322          44.000
R17  19130753.477 8 102372559.694 8      -409.340          50.000    19130756.977 8  79623079.330 8      -318.375          48.000
R24  21538911.672 7 115178247.893 7     -3871.750          44.000    21538917.547 7  89583100.961 7     -3011.364          46.000
C05                                                                  39712119.805 6 159904248.603 6       -25.962          36.000
C19  24394331.047 7 127027707.189 7      2528.922          42.000
C20  21932512.633 8 114208435.217 8       402.023          51.000
C29  22150404.289 8 115342953.438 8      -382.719          48.000
C30  23819522.906 8 124034498.768 8     -3086.441          51.000
E05  24885821.297 8 130775858.979 8      2111.902          51.000    24885825.531 8 100204917.116 8      1618.178          51.000
E09  21523604.617 8 113107388.688 8      -409.133          51.000    21523606.070 8  86666712.515 8      -313.521          51.000
E11  25382237.039 7 133384558.011 7     -2758.219          44.000    25382241.016 7 102203748.593 7     -2113.369          44.000
E36  23198046.383 8 121906569.853 8      -691.051          51.000    23198050.398 8  93408932.774 8      -529.485          51.000
> 2020 05 11 21 09 30.0000000  0 18        .000000000000
G01  21126404.195 8 111019992.362 8     -2038.699          51.000    21126403.547 8  86509091.541 8     -1588.597          51.000
G03  20321822.641 8 106791896.589 8      -163.641          50.000    20321823.852 8  83214509.152 8      -127.512          50.000
G04  21462940.438 8 112788506.785 8      2593.977          49.000    21462942.078 7  87887165.175 7      2021.280          46.000
G11  23268810.094 7 122278394.665 7     -3848.820          45.000    23268805.242 6  95281855.080 6     -2999.084          37.000
G22  21310680.719 8 111988393.590 8     -1490.906          49.000    21310676.828 7  87263712.113 7     -1161.748          43.000
R02  19206510.883 7 102489620.575 7       -46.430          46.000    19206512.477 7  79714203.208 7       -36.112          42.000
R03  21781541.703 8 116598321.412 8      3057.566          48.000    21781541.719 7  90687606.567 7      2378.107          44.000
R17  19133124.945 8 102385250.315 8      -436.602          49.000    19133128.523 8  79632949.812 8      -339.579          48.000
R24  21560673.273 7 115294612.601 7     -3885.348          45.000    21560678.555 7  89673606.813 7     -3021.937          47.000
C05                                                                  39712313.758 6 159905030.016 6       -26.070          36.000
C19  24379779.469 6 126951939.797 6      2522.441          40.000
C20  21930229.109 8 114196543.895 8       390.973          51.000
C29  22152660.453 8 115354705.838 8      -400.559          48.000
C30  23837328.742 8 124127221.162 8     -3094.664          50.000
E05  24873792.039 8 130712642.794 8      2102.891          51.000    24873795.477 8 100156478.782 8      1611.228          51.000
E09  21525974.219 8 113119840.207 8      -420.719          51.000    21525975.570 8  86676253.285 8      -322.360          51.000
E11  25398003.047 7 133467400.635 7     -2764.656          47.000    25398005.078 7 102267225.409 7     -2118.283          43.000
E36  23202029.539 8 121927499.335 8      -704.086          51.000    23202032.438 8  93424969.671 8      -539.515          51.000
> 2020 05 11 21 10  0.0000000  0 18        .000000000000
G01  21138083.695 8 111081368.051 8     -2052.344          51.000    21138083.281 8  86556916.738 8     -1599.229          51.000
G03  20322791.719 8 106796989.314 8      -175.086          50.000    20322793.141 8  83218477.515 8      -136.431          50.000
G04  21448173.844 8 112710909.025 8      2579.852          49.000    21448175.969 7  87826699.380 7      2010.274          45.000
G11  23290802.695 7 122393963.128 7     -3855.148          45.000    23290797.430 6  95371908.338 6     -3004.018          36.000
G22  21319217.484 8 112033254.424 8     -1499.141          50.000    21319213.469 7  87298668.575 7     -1168.165          44.000
R02  19206823.875 7 102491290.558 7       -64.164          45.000    19206825.648 7  79715502.089 7       -49.905          42.000
R03  21764440.992 8 116506779.860 8      3045.867          48.000    21764441.930 7  90616407.629 7      2369.011          45.000
R17  19135649.445 8 102398760.545 8      -463.434          49.000    19135653.375 8  79643457.762 8      -360.448          48.000
R24  21582510.859 7 115411382.825 7     -3898.492          46.000    21582515.414 8  89764428.098 8     -3032.161          49.000
C05                                                                  39712512.281 6 159905829.184 6       -26.774          36.000
C19  24365264.016 6 126876366.019 6      2516.402          37.000
C20  21928009.547 8 114184985.435 8       380.309          51.000
C29  22155020.062 8 115366994.634 8      -418.012          48.000
C30  23855182.703 8 124220193.644 8     -3102.660          50.000
E05  24861814.398 8 130649697.833 8      2094.102          51.000    24861816.797 8 100108248.255 8      1604.616          51.000
E09  21528409.484 8 113132637.925 8      -431.816          51.000    21528411.016 8  86686059.333 8      -330.896          51.000
E11  25413806.539 8 133550440.595 8     -2770.523          48.000    25413805.844 6 102330853.389 6     -2122.922          41.000
E36  23206087.633 8 121948821.754 8      -716.770          51.000    23206089.438 8  93441307.639 8      -549.222          51.000
> 2020 05 11 21 10 30.0000000  0 18        .000000000000
G01  21149838.844 8 111143142.586 8     -2065.328          51.000    21149839.070 8  86605052.713 8     -1609.347          51.000
G03  20323824.234 8 106802416.018 8      -186.141          51.000    20323825.500 8  83222706.114 8      -145.045          51.000
G04  21433486.789 8 112633727.339 8      2566.168          50.000    21433488.281 7  87766557.843 7      1999.611          44.000
G11  23312829.602 7 122509710.893 7     -3860.863          43.000    23312824.516 6  95462101.360 6     -3008.465          39.000
G22  21327799.047 8 112078350.111 8     -1506.605          49.000    21327795.016 7  87333808.041 7     -1173.978          44.000
R02  19207236.297 7 102493492.065 7       -81.711          46.000    19207238.102 6  79717214.397 6       -63.553          40.000
R03  21747403.047 7 116415578.558 7      3034.867          46.000    21747405.102 7  90545473.316 7      2360.452          44.000
R17  19138323.633 8 102413069.542 8      -489.848          50.000    19138327.328 7  79654586.994 7      -380.993          47.000
R24  21604418.961 7 115528534.263 7     -3910.918          45.000    21604423.828 8  89855545.883 8     -3041.825          49.000
C05                                                                  39712711.445 6 159906631.127 6       -26.348          36.000
C19  24350782.734 6 126800965.719 6      2511.227          36.000
C20  21925849.930 8 114173738.778 8       370.125          51.000
C29  22157479.070 8 115379799.170 8      -434.938          49.000
C30  23873080.438 8 124313393.575 8     -3109.992          49.000
E05  24849884.031 8 130587003.869 8      2086.098          51.000    24849885.758 8 100060210.036 8      1598.421          51.000
E09  21530906.617 8 113145760.236 8      -442.340          51.000    21530908.102 8  86696114.081 8      -338.966          51.000
E11  25429643.000 8 133633656.145 8     -2776.398          48.000    25429639.070 6 102394615.884 6     -2127.406          40.000
E36  23210216.508 8 121970516.519 8      -728.879          51.000    23210218.148 8  93457930.888 8      -558.483          51.000
> 2020 05 11 21 11  0.0000000  0 18        .000000000000
G01  21161666.242 8 111205297.937 8     -2078.438          50.000    21161666.969 8  86653485.466 8     -1619.562          50.000
G03  20324916.961 8 106808159.007 8      -197.035          51.000    20324918.008 8  83227181.168 8      -153.534          51.000
G04  21418876.125 8 112556946.364 8      2552.422          50.000    21418876.258 7  87706728.586 7      1988.903          43.000
G11  23334886.617 6 122625618.088 6     -3866.609          39.000    23334882.133 6  95552418.628 6     -3012.942          38.000
G22  21336421.867 8 112123662.981 8     -1514.316          49.000    21336417.805 7  87369116.765 7     -1179.987          45.000
R02  19207745.078 7 102496206.084 7       -99.352          47.000    19207745.961 6  79719325.276 6       -77.273          40.000
R03  21730425.672 7 116324700.898 7      3023.574          47.000    21730428.453 7  90474790.734 7      2351.672          44.000
R17  19141144.203 8 102428160.258 8      -516.398          50.000    19141147.023 7  79666324.220 7      -401.643          47.000
R24  21626393.445 7 115646046.365 7     -3923.348          44.000    21626399.406 8  89946944.203 8     -3051.493          48.000
C05                                                                  39712907.945 6 159907422.719 6       -26.421          36.000
C19  24336332.648 6 126725722.277 6      2505.496          38.000
C20  21923746.836 8 114162786.341 8       359.930          51.000
C29  22160033.867 8 115393102.266 8      -452.059          49.000
C30  23891018.312 8 124406801.848 8     -3117.402          49.000
E05  24837997.828 8 130524544.221 8      2077.824          51.000    24837999.805 8 100012351.349 8      1592.135          51.000
E09  21533461.953 8 113159188.992 8      -453.031          51.000    21533463.516 8  86706403.647 8      -347.104          51.000
E11  25445508.930 8 133717029.107 8     -2782.020          48.000    25445502.711 6 102458499.016 6     -2131.722          41.000
E36  23214412.844 8 121992566.615 8      -741.203          51.000    23214414.383 8  93474826.402 8      -567.956          51.000
> 2020 05 11 21 11 30.0000000  0 19        .000000000000
G01  21173570.023 8 111267856.704 8     -2091.691          48.000    21173571.578 8  86702232.560 8     -1629.889          48.000
G03  20326074.344 8 106814241.226 8      -208.062          51.000    20326075.492 8  83231920.563 8      -162.127          51.000
G04  21404346.508 8 112480591.225 8      2538.371          50.000    21404345.891 7  87647231.137 7      1977.955          44.000
G11  23356975.562 5 122741705.665 5     -3871.688          31.000    23356973.492 5  95642876.528 5     -3016.896          32.000
G14  24067422.758 5 126475164.694 5     -3042.227          30.000
G22  21345090.273 7 112169215.761 7     -1522.105          47.000    21345086.484 7  87404612.437 7     -1186.056          46.000
R02  19208354.117 7 102499455.236 7      -116.902          46.000    19208354.844 6  79721852.447 6       -90.921          41.000
R03  21713514.391 7 116234171.724 7      3012.324          47.000    21713516.938 7  90404379.197 7      2342.919          44.000
R17  19144115.367 8 102444056.544 8      -543.027          51.000    19144117.125 7  79678687.994 7      -422.355          46.000
R24  21648439.375 7 115763939.657 7     -3935.723          44.000    21648445.883 7  90038638.996 7     -3061.118          46.000
C05                                                                  39713106.492 6 159908222.411 6       -26.342          36.000
C19  24321918.383 7 126650659.205 7      2499.414          42.000
C20  21921704.625 8 114152150.782 8       349.586          51.000
C29  22162688.422 8 115406926.852 8      -469.066          48.000
C30  23909000.469 8 124500439.578 8     -3124.715          48.000
E05  24826160.914 8 130462342.750 8      2069.371          51.000    24826163.211 8  99964690.492 8      1585.622          51.000
E09  21536079.852 8 113172946.672 8      -463.719          51.000    21536081.719 8  86716945.252 8      -355.269          51.000
E11  25461408.938 8 133800581.844 8     -2787.500          49.000    25461402.602 7 102522519.907 7     -2135.948          42.000
E36  23218681.156 8 122014995.573 8      -753.625          51.000    23218682.156 8  93492012.220 8      -577.441          51.000
> 2020 05 11 21 12  0.0000000  0 18        .000000000000
G01  21185548.562 8 111330807.431 8     -2104.047          48.000    21185550.531 8  86751285.064 8     -1639.517          48.000
G03  20327294.219 8 106820651.520 8      -218.332          51.000    20327295.594 8  83236915.595 8      -170.129          51.000
G04  21389896.180 8 112404653.030 8      2525.215          50.000    21389895.742 7  87588058.559 7      1967.703          46.000
G11  23379093.562 5 122857972.691 5     -3877.051          34.000    23379096.250 5  95733464.968 5     -3021.079          34.000
G22  21353802.039 7 112214997.240 7     -1528.980          46.000    21353798.930 7  87440286.329 7     -1191.413          46.000
R02  19209061.172 7 102503226.693 7      -133.492          47.000    19209061.945 6  79724785.809 6      -103.827          41.000
R03  21696666.242 8 116143981.367 8      3001.711          48.000    21696669.023 7  90334231.184 7      2334.664          44.000
R17  19147234.859 8 102460747.604 8      -568.703          51.000    19147235.836 7  79691669.911 7      -442.325          45.000
R24  21670555.117 7 115882200.135 7     -3947.336          45.000    21670560.547 7  90130619.366 7     -3070.150          42.000
C05                                                                  39713304.875 6 159909021.949 6       -25.871          36.000
C19  24307537.641 7 126575766.326 7      2494.414          45.000
C20  21919720.914 8 114141821.026 8       340.117          51.000
C29  22165440.766 8 115421262.224 8      -485.469          49.000
C30  23927024.141 7 124594294.192 7     -3131.148          46.000
E05  24814371.664 8 130400389.310 8      2061.844          51.000    24814374.070 8  99917219.678 8      1579.830          51.000
E09  21538758.336 8 113187021.784 8      -473.641          51.000    21538760.258 8  86727730.066 8      -362.893          51.000
E11  25477340.828 8 133884302.821 8     -2792.789          48.000    25477335.547 7 102586669.693 7     -2139.887          43.000
E36  23223019.586 8 122037792.869 8      -765.184          51.000    23223020.180 8  93509480.287 8      -586.339          51.000
> 2020 05 11 21 12 30.0000000  0 19        .000000000000
G01  21197596.844 8 111394122.793 8     -2114.848          50.000    21197598.781 8  86800621.687 8     -1647.933          50.000
G03  20328571.445 8 106827362.854 8      -226.895          51.000    20328572.844 8  83242145.201 8      -176.801          51.000
G04  21375520.273 8 112329106.973 8      2513.566          50.000    21375520.469 7  87529191.524 7      1958.623          47.000
G11  23401241.297 6 122974366.100 6     -3880.082          37.000    23401246.359 6  95824161.202 6     -3023.437          37.000
G22  21362551.984 7 112260980.065 7     -1534.293          47.000    21362549.445 7  87476117.110 7     -1195.553          44.000
R01  22257579.914 5 118979492.890 5     -3533.164          31.000
R02  19209860.320 7 102507492.114 7      -148.605          46.000    19209861.531 6  79728103.376 6      -115.582          41.000
R03  21679876.477 7 116054103.585 7      2992.504          47.000    21679879.758 7  90264326.247 7      2327.503          44.000
R17  19150497.312 8 102478206.484 8      -592.891          50.000    19150497.531 7  79705249.040 7      -461.137          44.000
R24  21692734.352 7 116000797.409 7     -3956.980          47.000    21692735.461 6  90222861.557 6     -3077.658          38.000
