     3.04           OBSERVATION DATA    M (MIXED)           RINEX VERSION / TYPE
Convert 2.6.2       NovAtel             20200515 153253 UTC PGM / RUN BY / DATE 
Rinex Version 3.04 Observation File                         COMMENT             
                                                            MARKER NAME         
                                                            MARKER NUMBER       
                                                            MARKER TYPE         
                                                            OBSERVER / AGENCY   
                    NovAtel GPSCard                         REC # / TYPE / VERS 
                                                            ANT # / TYPE        
        0.0000        0.0000        0.0000                  APPROX POSITION XYZ 
        0.0000        0.0000        0.0000                  ANTENNA: DELTA H/E/N
G    8 C1C L1C D1C S1C C2W L2W D2W S2W                      SYS / # / OBS TYPES 
R    8 C1C L1C D1C S1C C2P L2P D2P S2P                      SYS / # / OBS TYPES 
E    8 C1C L1C D1C S1C C7Q L7Q D7Q S7Q                      SYS / # / OBS TYPES 
C    8 C2I L2I D2I S2I C7I L7I D7I S7I                      SYS / # / OBS TYPES 
DBHZ                                                        SIGNAL STRENGTH UNIT
    30.000                                                  INTERVAL            
  2020    05    09    02    00    0.0000000     GPS         TIME OF FIRST OBS   
  2020    05    09    02    59   30.0000000     GPS         TIME OF LAST OBS    
G L1C  0.00000  08 G30 G06 G02 G07 G09 G13 G28 G05          SYS / PHASE SHIFT   
G L2W  0.00000  07 G30 G02 G07 G06 G09 G28 G05              SYS / PHASE SHIFT   
R L1C  0.00000  06 R01 R12 R11 R10 R02 R08                  SYS / PHASE SHIFT   
R L2P  0.25000  05 R01 R12 R11 R08 R02                      SYS / PHASE SHIFT   
E L1C  0.50000  05 E09 E05 E31 E24 E25                      SYS / PHASE SHIFT   
E L7Q -0.25000  05 E05 E24 E09 E25 E31                      SYS / PHASE SHIFT   
C L2I  0.00000  05 C25 C05 C14 C24 C26                      SYS / PHASE SHIFT   
C L7I  0.00000  02 C05 C14                                  SYS / PHASE SHIFT   
  6 R01  1 R12 -1 R11  0 R10 -7 R02 -4 R08  6               GLONASS SLOT / FRQ #
 C1C  -71.950 C2C  -71.950 C2P  -71.950                     GLONASS COD/PHS/BIS 
     0     0     0     0GPS                                 LEAP SECONDS        
                                                            END OF HEADER       
> 2020 05 09 02 00  0.0000000  0 15      -0.000000000000
G30  20913046.445 8 109898834.753 8      1752.090          51.000    20913047.312 8  85635465.735 8      1365.265          51.000  
G06  23570041.953 5 123861421.90925     -3358.746          33.000                                                                  
G02  22878955.672 7 120229729.688 7     -1655.707          43.000    22878953.812 7  93685495.457 7     -1290.159          42.000  
G07  20817551.023 8 109396967.894 8      -448.211          51.000    20817549.359 8  85244369.842 8      -349.252          51.000  
R01  19693312.523 8 105271671.037 8      -909.434          50.000    19693316.820 7  81877944.794 7      -707.337          43.000  
R12  21557866.477 7 115157906.000 7      4057.906          45.000    21557874.570 7  89567279.190 7      3156.153          42.000  
R11  19636915.672 8 104933372.496 8       769.988          51.000    19636920.164 8  81614862.173 8       598.883          48.000  
E09  23719430.547 6 124646455.090 6     -1880.402          37.000                                                                  
E05  23461907.609 8 123293148.742 8        57.988          51.000    23461909.656 8  94471407.963 8        44.463          51.000  
E31  25853947.852 5 135863414.808 5     -1076.375          35.000                                                                  
E24  23027226.320 8 121008890.641 8      1691.680          51.000    23027238.859 8  92721145.241 8      1296.223          51.000  
C25  24036939.164 8 125166688.901 8      3034.375          51.000                                                                  
C05  39790261.180 5 207198331.466 5       -11.406          35.000    39790259.398 6 160218887.122 6        -8.301          40.000  
C14  22337203.250 8 116315660.023 8     -1607.078          51.000    22337202.469 8  89942644.656 8     -1242.774          51.000  
C24  22249044.070 8 115856693.225 8       252.629          51.000                                                                  
> 2020 05 09 02 00 30.0000000  0 14      -0.000000000000
G30  20903086.398 8 109846494.543 8      1737.535          51.000    20903087.305 8  85594681.136 8      1353.924          51.000  
G06  23589234.688 5 123962256.666 5     -3364.148          34.000    23589239.492 5  96593991.914 5     -2621.412          35.000  
G02  22888446.984 7 120279606.587 7     -1669.137          45.000    22888444.672 7  93724360.535 7     -1300.629          42.000  
G07  20820152.359 8 109410637.870 8      -462.875          51.000    20820150.859 8  85255021.792 8      -360.682          51.000  
R01  19698455.641 8 105299164.048 8      -923.211          50.000    19698459.984 7  81899328.235 7      -718.056          43.000  
R12  21535110.352 7 115036348.192 7      4046.500          46.000    21535116.852 7  89472734.273 7      3147.281          42.000  
R11  19632667.305 8 104910668.532 8       743.793          51.000    19632670.664 7  81597203.552 7       578.509          46.000  
E09  23730173.594 6 124702920.484 6     -1883.711          36.000                                                                  
E05  23461592.594 8 123291493.460 8        52.727          51.000    23461594.648 8  94470139.630 8        40.386          51.000  
E24  23017603.312 8 120958322.953 8      1679.777          51.000    23017616.766 8  92682398.582 8      1287.124          51.000  
C25  24019478.883 8 125075769.021 8      3027.160          50.000                                                                  
C05  39790322.031 5 207198648.067 5       -10.340          35.000    39790320.164 6 160219131.954 6        -7.609          40.000  
C14  22346489.641 8 116364017.222 8     -1616.320          49.000    22346488.844 8  89980037.506 8     -1249.821          51.000  
C24  22247635.484 8 115849358.221 8       236.664          51.000                                                                  
> 2020 05 09 02 01  0.0000000  0 15      -0.000000000000
G30  20893211.266 8 109794601.145 8      1722.828          51.000    20893212.375 8  85554244.717 8      1342.464          51.000  
G09  22025429.094 5 115744398.35625     -2302.840          30.000                                                                  
G06  23608456.906 5 124063246.747 5     -3368.891          32.000    23608457.102 5  96672685.482 5     -2625.116          33.000  
G02  22898016.281 7 120329891.908 7     -1682.555          45.000    22898014.250 7  93763543.870 7     -1311.085          43.000  
G07  20822839.023 8 109424755.877 8      -477.605          51.000    20822837.211 8  85266022.844 8      -372.160          51.000  
R01  19703678.203 8 105327082.817 8      -937.352          50.000    19703682.680 7  81921042.805 7      -729.051          43.000  
R12  21512421.445 8 114915145.730 8      4034.605          48.000    21512426.406 7  89378465.726 7      3138.030          44.000  
R11  19628568.633 8 104888764.434 8       717.246          51.000    19628571.117 7  81580167.064 7       557.861          46.000  
E09  23740937.078 6 124759493.168 6     -1886.961          39.000    23740941.148 5  95594927.834 5     -1445.950          31.000  
E05  23461310.273 8 123290009.880 8        47.059          51.000    23461312.438 8  94469002.857 8        36.088          51.000  
E24  23008050.461 8 120908124.922 8      1667.551          50.000    23008064.641 8  92643935.154 8      1277.773          51.000  
C25  24002061.695 8 124985077.213 8      3019.742          48.000                                                                  
C05  39790380.789 5 207198954.291 5        -9.406          35.000    39790378.961 6 160219368.779 6        -7.367          40.000  
C14  22355830.422 8 116412660.322 8     -1625.750          48.000    22355830.078 8  90017651.421 8     -1257.058          51.000  
C24  22246320.719 8 115842512.504 8       220.480          51.000                                                                  
> 2020 05 09 02 01 30.0000000  0 14      -0.000000000000
G30  20883425.336 8 109743176.725 8      1704.848          51.000    20883426.398 8  85514173.755 8      1328.453          51.000  
G02  22907666.961 7 120380604.668 7     -1698.945          45.000    22907665.703 7  93803060.317 7     -1323.854          44.000  
G07  20825614.742 8 109439342.265 8      -495.484          51.000    20825612.805 8  85277388.861 8      -386.092          51.000  
R10  22071932.367 4 117655435.27324     -3480.984          29.000                                                                  
R01  19708984.750 8 105355449.722 8      -954.621          50.000    19708989.391 7  81943105.945 7      -742.483          42.000  
R12  21489804.445 8 114794324.124 8      4019.395          49.000    21489808.438 7  89284493.392 7      3126.199          46.000  
R11  19624623.914 8 104867682.345 8       687.516          51.000    19624625.742 7  81563769.943 7       534.738          46.000  
E09  23751726.641 6 124816194.290 6     -1893.766          40.000                                                                  
E05  23461064.758 8 123288719.597 8        38.215          51.000    23461067.133 8  94468014.189 8        29.311          51.000  
E24  22998572.156 8 120858319.108 8      1652.160          50.000    22998586.883 8  92605772.260 8      1265.990          51.000  
C25  23984691.805 7 124894636.421 7      3009.000          47.000                                                                  
C05                                                                  39790439.859 6 160219613.852 6        -9.605          40.000  
C14  22365230.461 8 116461610.328 8     -1638.207          48.000    22365230.180 8  90055502.722 8     -1266.854          51.000  
C24  22245104.273 8 115836177.061 8       201.172          51.000                                                                  
> 2020 05 09 02 02  0.0000000  0 15      -0.000000000000
G30  20873723.078 8 109692191.635 8      1693.070          51.000    20873723.938 8  85474445.131 8      1319.276          51.000  
G09  22051798.438 6 115882977.498 6     -2313.918          38.000    22051800.852 6  90298436.145 6     -1803.053          38.000  
G06  23646984.195 5 124265746.755 5     -3377.895          35.000    23646981.414 5  96830448.026 5     -2632.126          33.000  
G02  22917392.641 7 120431712.477 7     -1709.293          45.000    22917391.508 7  93842884.584 7     -1331.917          44.000  
G07  20828473.578 8 109454365.492 8      -507.102          51.000    20828471.859 8  85289095.288 8      -395.144          51.000  
R01  19714369.414 8 105384234.213 8      -965.527          49.000    19714373.828 7  81965493.874 7      -750.966          42.000  
R12  21467253.656 8 114673855.964 8      4010.609          50.000    21467256.938 8  89190795.926 8      3119.360          48.000  
R11  19620826.930 8 104847391.835 8       664.066          51.000    19620828.406 7  81547988.478 7       516.496          47.000  
E09  23762534.148 5 124872993.451 5     -1893.945          35.000                                                                  
E05  23460850.258 8 123287592.374 8        35.824          51.000    23460852.852 8  94467150.468 8        27.459          51.000  
E24  22989163.391 8 120808876.272 8      1642.965          51.000    22989178.094 8  92567887.498 8      1258.920          51.000  
C25  23967365.102 8 124804418.131 8      3004.469          48.000                                                                  
C05  39790498.773 5 207199568.590 5        -8.395          35.000    39790497.031 6 160219843.774 6        -6.669          40.000  
C14  22374683.641 8 116510836.886 8     -1644.691          48.000    22374683.547 8  90093567.821 8     -1271.647          51.000  
C24  22243979.727 8 115830321.372 8       188.148          51.000                                                                  
> 2020 05 09 02 02 30.0000000  0 16      -0.000000000000
G30  20864109.672 8 109641673.565 8      1675.777          51.000    20864110.648 8  85435080.435 8      1305.801          51.000  
G09  22065036.562 5 115952549.392 5     -2322.883          34.000    22065036.094 5  90352648.016 5     -1810.039          33.000  
G06  23666293.195 6 124367212.578 6     -3385.270          36.000    23666289.484 5  96909512.230 5     -2637.873          35.000  
G02  22927198.227 7 120483239.652 7     -1724.898          45.000    22927196.391 7  93883035.621 7     -1344.077          45.000  
G07  20831420.562 8 109469851.433 8      -524.266          51.000    20831418.703 8  85301162.255 8      -408.519          51.000  
R01  19719837.398 8 105413464.011 8      -982.246          49.000    19719841.742 7  81988228.141 7      -763.969          42.000  
R12  21444774.609 8 114553772.635 8      3995.988          50.000    21444777.875 8  89097397.775 8      3107.991          49.000  
R11  19617183.195 8 104827920.434 8       634.973          50.000    19617184.898 8  81532844.063 8       493.871          48.000  
E09  23773366.094 6 124929917.533 6     -1900.086          37.000    23773373.242 5  95725515.845 5     -1455.609          33.000  
E05  23460672.070 8 123286655.430 8        27.707          51.000    23460674.750 8  94466432.547 8        21.230          51.000  
E31  25885647.430 6 136029983.616 6     -1145.492          38.000                                                                  
E24  22979829.312 8 120759824.542 8      1628.145          50.000    22979843.672 8  92530302.418 8      1247.480          51.000  
C25  23950088.055 8 124714450.700 8      2994.336          50.000                                                                  
C05  39790557.227 5 207199873.022 5       -10.438          35.000    39790555.453 6 160220079.200 6        -8.391          40.000  
C14  22384195.164 8 116560366.345 8     -1656.371          49.000    22384195.102 8  90131867.152 8     -1280.824          51.000  
C24  22242952.617 8 115824971.902 8       169.574          51.000                                                                  
> 2020 05 09 02 03  0.0000000  0 16      -0.000000000000
G30  20854583.430 8 109591613.004 8      1661.934          51.000    20854584.516 8  85396072.234 8      1295.014          51.000  
G09  22078310.719 6 116022304.651 6     -2327.270          36.000    22078306.188 5  90407005.021 5     -1813.460          35.000  
G06  23685628.188 6 124468828.121 6     -3388.844          36.000    23685625.312 6  96988693.115 6     -2640.661          36.000  
G02  22937081.242 7 120535174.118 7     -1737.090          46.000    22937078.680 7  93923504.000 7     -1353.577          45.000  
G07  20834453.367 8 109485788.688 8      -537.906          51.000    20834451.484 8  85313580.899 8      -419.148          51.000  
R01  19725387.062 8 105443129.329 8      -995.250          49.000    19725391.289 7  82011301.150 7      -774.087          42.000  
R12  21422365.969 8 114434067.382 8      3984.719          50.000    21422369.586 8  89004293.684 8      3099.226          50.000  
R11  19613690.555 8 104809258.374 8       609.547          50.000    19613692.930 8  81518329.144 8       474.092          49.000  
E09  23784220.180 5 124986955.980 5     -1902.840          33.000    23784231.258 5  95769220.541 5     -1457.740          35.000  
E05  23460528.219 8 123285898.725 8        22.957          51.000    23460530.930 8  94465852.730 8        17.519          51.000  
E31  25892219.516 5 136064534.950 5     -1157.531          35.000                                                                  
E24  22970567.516 8 120711154.767 8      1616.656          49.000    22970581.508 8  92493010.017 8      1238.761          51.000  
C25  23932858.219 8 124624725.678 8      2987.449          51.000                                                                  
C05                                                                  39790613.359 6 160220312.121 6        -7.301          39.000  
C14  22393763.227 8 116610188.361 8     -1664.742          49.000    22393762.641 8  90170392.706 8     -1287.433          51.000  
C24  22242020.648 8 115820118.177 8       154.352          51.000                                                                  
> 2020 05 09 02 03 30.0000000  0 14      -0.000000000000
G30  20845147.305 8 109542026.130 8      1645.449          51.000    20845148.477 8  85357433.111 8      1282.172          51.000  
G09  22091623.438 6 116092264.833 6     -2334.766          37.000    22091621.555 6  90461518.683 6     -1819.298          37.000  
G06  23704994.305 6 124570605.644 6     -3394.934          36.000    23704996.188 5  97068000.095 5     -2645.410          33.000  
G02  22947044.172 7 120587528.800 7     -1751.715          47.000    22947041.211 7  93964299.846 7     -1364.973          44.000  
G07  20837574.914 8 109502191.527 8      -554.039          51.000    20837573.117 8  85326362.334 8      -431.719          51.000  
R01  19731021.172 8 105473246.118 8     -1010.980          49.000    19731025.141 7  82034725.295 7      -786.318          42.000  
R12  21400031.047 8 114314759.519 8      3970.805          49.000    21400035.398 8  88911498.651 8      3088.404          50.000  
R11  19610352.469 8 104791421.774 8       581.109          49.000    19610355.375 8  81504456.196 8       451.971          50.000  
E05  23460421.594 8 123285337.848 8        15.953          51.000    23460424.328 8  94465422.957 8        12.233          51.000  
E24  22961381.672 8 120662883.530 8      1602.871          50.000    22961395.094 8  92456022.975 8      1228.258          51.000  
C25  23915678.039 8 124535259.982 8      2978.418          51.000                                                                  
C05  39790675.328 5 207200487.40025        -9.824          35.000    39790673.516 6 160220554.260 6        -7.905          40.000  
C14  22403390.312 8 116660317.914 8     -1675.715          49.000    22403388.859 8  90209156.059 8     -1295.694          51.000  
C24  22241186.352 8 115815775.096 8       136.668          51.000                                                                  
> 2020 05 09 02 04  0.0000000  0 15      -0.000000000000
G30  20835796.328 8 109492887.094 8      1630.715          51.000    20835797.562 8  85319142.971 8      1270.687          51.000  
G09  22104969.602 5 116162397.769 5     -2340.406          33.000    22104970.055 5  90516167.658 5     -1823.691          34.000  
G06  23724386.008 6 124672515.318 6     -3399.223          37.000    23724394.758 6  97147410.047 6     -2648.749          36.000  
G02  22957080.914 7 120640275.071 7     -1764.605          44.000    22957078.492 7  94005400.845 7     -1375.018          44.000  
G07  20840779.648 8 109519032.253 8      -568.434          51.000    20840777.969 8  85339484.993 8      -442.935          51.000  
R01  19736734.758 8 105503787.489 8     -1025.043          49.000    19736738.672 7  82058479.678 7      -797.256          42.000  
R02  20938662.023 6 111732314.922 6      2758.539          37.000                                                                  
R12  21377766.234 8 114195826.077 8      3958.328          50.000    21377771.039 8  88818994.844 8      3078.700          49.000  
R11  19607163.484 8 104774383.854 8       554.824          48.000    19607167.312 8  81491204.462 8       431.530          50.000  
E05  23460347.172 8 123284946.548 8        10.336          51.000    23460349.875 8  94465123.128 8         7.911          51.000  
E24  22952267.000 8 120614985.437 8      1590.488          49.000    22952279.867 8  92419321.838 8      1218.702          51.000  
C25  23898542.523 8 124446029.048 8      2970.609          50.000                                                                  
C05                                                                  39790730.883 6 160220785.254 6        -7.491          40.000  
C14  22413071.047 8 116710728.478 8     -1684.934          48.000    22413068.898 8  90248136.703 8     -1302.940          51.000  
C24  22240445.211 8 115811916.039 8       120.750          51.000                                                                  
> 2020 05 09 02 04 30.0000000  0 14      -0.000000000000
G30  20826534.430 8 109444215.294 8      1614.707          51.000    20826535.617 8  85281216.916 8      1258.217          51.000  
G09  22118352.172 6 116232723.368 6     -2347.414          37.000    22118350.789 6  90570965.974 6     -1829.154          37.000  
G06  23743805.750 5 124774572.746 5     -3404.184          35.000    23743816.836 6  97226935.324 6     -2652.611          36.000  
G02  22967195.398 7 120693429.255 7     -1778.605          46.000    22967193.688 7  94046819.685 7     -1385.924          45.000  
G07  20844070.945 8 109536328.429 8      -584.121          51.000    20844069.320 8  85352962.530 8      -455.159          51.000  
R01  19742531.367 8 105534773.262 8     -1040.184          48.000    19742535.164 7  82082579.734 7      -809.032          43.000  
R12  21355575.719 8 114077289.624 8      3944.562          50.000    21355580.328 7  88726799.837 7      3067.994          47.000  
R11  19604127.922 8 104758163.761 8       527.195          50.000    19604132.008 8  81478588.802 8       410.041          50.000  
E05  23460308.594 8 123284743.726 8         3.758          51.000    23460311.117 8  94464967.723 8         2.852          51.000  
E24  22943227.039 8 120567480.291 8      1577.105          50.000    22943240.211 8  92382921.793 8      1208.396          51.000  
C25  23881455.336 8 124357053.084 8      2961.641          50.000                                                                  
C05  39790790.859 5 207201088.875 5       -10.414          35.000    39790789.078 6 160221019.341 6        -7.796          40.000  
C14  22422809.383 8 116761438.253 8     -1695.195          49.000    22422806.344 8  90287348.713 8     -1310.806          50.000  
C24  22239800.789 8 115808559.229 8       103.594          51.000                                                                  
> 2020 05 09 02 05  0.0000000  0 14      -0.000000000000
G30  20817359.383 8 109395999.345 8      1600.008          51.000    20817360.398 8  85243646.067 8      1246.763          51.000  
G09  22131768.953 5 116303230.64625     -2352.539          32.000    22131767.180 5  90625903.63925     -1833.145          32.000  
G06  23763250.383 5 124876724.762 5     -3408.203          35.000    23763264.727 5  97306563.851 5     -2655.743          34.000  
G02  22977385.172 8 120746977.225 8     -1791.113          48.000    22977383.383 7  94088545.356 7     -1395.676          44.000  
G07  20847446.438 8 109554066.756 8      -598.238          51.000    20847444.914 8  85366784.600 8      -466.160          51.000  
R01  19748408.898 8 105566191.573 8     -1054.090          48.000    19748413.141 7  82107016.178 7      -819.848          44.000  
R12  21333457.883 8 113959141.664 8      3932.129          49.000    21333461.648 7  88634907.026 7      3058.323          46.000  
R11  19601243.523 8 104742749.544 8       500.762          51.000    19601247.539 8  81466599.963 8       389.481          50.000  
E05  23460303.695 8 123284717.592 8        -1.660          51.000    23460305.984 8  94464947.700 8        -1.329          51.000  
E24  22934259.992 8 120520357.154 8      1564.785          51.000    22934273.320 8  92346814.462 8      1198.914          51.000  
C25  23864414.914 8 124268321.815 8      2953.891          49.000                                                                  
C05  39790847.445 5 207201384.532 5        -9.262          35.000    39790845.695 6 160221247.205 6        -7.340          40.000  
C14  22432603.195 8 116812435.080 8     -1704.391          50.000    22432599.242 8  90326782.658 8     -1317.916          49.000  
C24  22239250.172 8 115805692.272 8        87.832          51.000                                                                  
> 2020 05 09 02 05 30.0000000  0 13      -0.000000000000
G30  20808273.102 8 109348250.713 8      1584.113          51.000    20808273.805 8  85206439.364 8      1234.374          51.000  
G06  23782721.430 5 124979045.825 5     -3412.625          35.000    23782737.062 5  97386301.561 5     -2659.180          35.000  
G02  22987651.969 8 120800927.320 8     -1804.637          49.000    22987649.508 7  94130584.375 7     -1406.214          42.000  
G07  20850907.758 8 109572256.820 8      -613.473          51.000    20850906.594 8  85380958.676 8      -478.031          51.000  
R01  19754369.398 8 105598053.546 8     -1069.184          48.000    19754373.477 7  82131797.714 7      -831.587          44.000  
R12  21311415.742 8 113841396.912 8      3918.402          50.000    21311418.500 7  88543327.831 7      3047.647          45.000  
R11  19598512.094 8 104728152.292 8       473.301          51.000    19598515.953 8  81455246.560 8       368.123          50.000  
E05  23460334.469 8 123284879.146 8        -8.152          51.000    23460336.609 8  94465071.480 8        -6.220          51.000  
E24  22925368.094 8 120473627.880 8      1551.395          51.000    22925380.898 8  92311008.915 8      1188.765          51.000  
C25  23847424.219 8 124179847.515 8      2945.168          49.000                                                                  
C05  39790904.531 5 207201680.77625        -9.395          35.000    39790902.758 6 160221477.052 6        -7.612          40.000  
C14  22442453.867 8 116863729.335 8     -1714.434          51.000    22442449.844 8  90366446.585 8     -1325.697          50.000  
C24  22238795.656 8 115803325.485 8        70.883          51.000                                                                  
> 2020 05 09 02 06  0.0000000  0 12      -0.000000000000
G30  20799275.484 8 109300969.378 8      1568.203          51.000    20799276.109 8  85169596.781 8      1221.977          51.000  
G02  22997994.562 8 120855276.324 8     -1818.418          48.000    22997991.398 7  94172934.216 7     -1416.949          43.000  
G07  20854454.727 8 109590896.643 8      -628.848          51.000    20854453.664 8  85395483.218 8      -490.011          51.000  
R01  19760412.586 7 105630358.763 7     -1084.258          47.000    19760416.570 7  82156924.018 7      -843.312          44.000  
R12  21289450.023 8 113724058.259 8      3904.453          50.000    21289452.305 7  88452064.454 7      3036.797          46.000  
R11  19595933.703 8 104714371.529 8       445.734          51.000    19595936.938 8  81444528.200 8       346.682          50.000  
E05  23460400.797 8 123285227.934 8       -14.875          51.000    23460402.836 8  94465338.735 8       -11.395          51.000  
E24  22916551.430 8 120427292.895 8      1537.852          51.000    22916563.844 8  92275505.493 8      1178.384          51.000  
C25  23830483.375 8 124091631.209 8      2936.090          48.000                                                                  
C05  39790961.867 5 207201979.79225        -9.770          35.000    39790960.164 6 160221708.288 6        -8.092          40.000  
C14  22452361.719 8 116915320.079 8     -1724.738          51.000    22452358.094 8  90406339.782 8     -1333.635          51.000  
C24  22238436.906 8 115801457.786 8        53.883          51.000                                                                  
> 2020 05 09 02 06 30.0000000  0 12      -0.000000000000
G30  20790363.305 8 109254138.064 8      1552.781          51.000    20790364.148 8  85133104.883 8      1209.960          51.000  
G02  23008409.023 7 120910004.077 7     -1831.281          47.000    23008405.453 7  94215579.229 7     -1426.973          44.000  
G07  20858083.758 8 109609967.200 8      -643.734          51.000    20858082.562 8  85410343.372 8      -501.614          51.000  
R01  19766535.508 8 105663089.858 8     -1098.871          48.000    19766540.008 7  82182381.535 7      -854.678          45.000  
R12  21267557.875 8 113607111.212 8      3890.992          51.000    21267559.836 7  88361105.673 7      3026.328          46.000  
R11  19593504.500 8 104701388.942 8       418.648          51.000    19593507.383 8  81434430.662 8       325.616          49.000  
E05  23460499.336 8 123285746.319 8       -20.906          51.000    23460501.258 8  94465735.941 8       -16.007          51.000  
E24  22907806.500 8 120381335.360 8      1524.938          51.000    22907818.805 8  92240291.297 8      1168.447          51.000  
C25  23813588.930 7 124003656.789 7      2927.617          47.000                                                                  
C05  39791016.250 5 207202262.77925        -9.988          35.000    39791014.523 6 160221927.067 6        -7.500          40.000  
C14  22462323.023 8 116967189.211 8     -1734.387          51.000    22462319.953 8  90446448.269 8     -1341.126          51.000  
C24  22238170.539 8 115800070.999 8        37.418          51.000                                                                  
> 2020 05 09 02 07  0.0000000  0 12      -0.000000000000
G30  20781541.578 8 109207779.673 8      1538.016          51.000    20781542.570 8  85096981.463 8      1198.454          51.000  
G02  23018899.219 8 120965130.667 8     -1843.625          49.000    23018895.812 7  94258534.989 7     -1436.591          44.000  
G07  20861798.758 8 109629489.511 8      -657.578          51.000    20861797.641 8  85425555.566 8      -512.399          51.000  
R01  19772742.305 8 105696269.368 8     -1112.781          49.000    19772747.219 7  82208187.811 7      -865.497          44.000  
R12  21245743.766 8 113490582.024 8      3877.965          51.000    21245745.594 7  88270471.876 7      3016.198          47.000  
R11  19591228.977 8 104689227.312 8       392.344          51.000    19591231.445 8  81424971.651 8       305.156          49.000  
E05  23460634.367 8 123286456.729 8       -26.250          51.000    23460636.297 8  94466280.277 8       -20.111          51.000  
E24  22899137.672 8 120335778.564 8      1512.492          51.000    22899149.906 8  92205384.168 8      1158.938          51.000  
C25  23796745.672 8 123915947.913 8      2919.754          48.000                                                                  
C05  39791071.742 5 207202551.538 5        -9.008          35.000    39791069.953 6 160222150.373 6        -6.929          40.000  
C14  22472341.750 8 117019358.484 8     -1743.352          51.000    22472339.336 8  90486788.863 8     -1348.082          51.000  
C24  22238000.742 8 115799186.688 8        21.754          51.000                                                                  
> 2020 05 09 02 07 30.0000000  0 15      -0.000000000000
G30  20772803.914 8 109161861.286 8      1518.492          51.000    20772804.875 8  85061200.906 8      1183.241          51.000  
G09  22199371.164 5 116658482.58325     -2387.445          34.000                                                                  
G02  23029458.695 8 121020620.311 8     -1860.539          50.000    23029455.320 7  94301773.629 7     -1449.774          44.000  
G07  20865593.172 8 109649428.763 8      -676.414          51.000    20865591.828 8  85441092.654 8      -527.076          51.000  
R10  22312784.617 4 118939312.92024     -3654.051          29.000                                                                  
R01  19779026.805 8 105729863.761 8     -1131.699          49.000    19779031.578 7  82234316.793 7      -880.211          44.000  
R12  21224001.789 8 113374440.509 8      3859.973          50.000    21224004.289 8  88180139.615 8      3002.205          48.000  
R11  19589100.625 8 104677852.750 8       361.117          51.000    19589102.562 8  81416124.792 8       280.869          49.000  
E05  23460799.641 8 123287325.978 8       -36.480          51.000    23460801.625 8  94466946.323 8       -27.953          51.000  
E31  25954872.000 5 136393764.003 5     -1283.590          34.000                                                                  
E24  22890538.883 8 120290590.122 8      1495.289          51.000    22890551.039 8  92170759.283 8      1145.733          51.000  
C25  23779947.531 8 123828473.039 8      2907.152          49.000                                                                  
C05  39791121.984 5 207202813.946 5       -13.414          35.000    39791120.180 6 160222352.499 6       -10.058          40.000  
C14  22482411.312 8 117071794.407 8     -1757.016          50.000    22482409.750 8  90527335.648 8     -1358.718          51.000  
C24  22237920.906 8 115798771.259 8         1.234          51.000                                                                  
> 2020 05 09 02 08  0.0000000  0 13      -0.000000000000
G30  20764164.016 8 109116457.492 8      1507.078          51.000    20764165.023 8  85025821.346 8      1174.347          51.000  
G09  22212999.039 6 116730106.515 6     -2389.246          36.000    22213003.102 5  90958510.527 5     -1861.754          35.000  
G02  23040101.047 8 121076544.447 8     -1869.066          51.000    23040097.047 7  94345350.860 7     -1456.413          42.000  
G07  20869480.844 8 109669858.039 8      -686.895          51.000    20869479.203 8  85457011.564 8      -535.243          51.000  
R01  19785403.008 8 105763948.495 8     -1141.973          49.000    19785407.805 7  82260827.137 7      -888.201          43.000  
R12  21202346.398 8 113258765.661 8      3850.445          49.000    21202350.164 8  88090170.285 8      2994.792          48.000  
R11  19587133.422 8 104667340.334 8       338.352          51.000    19587135.023 8  81407948.494 8       263.162          49.000  
E05  23461009.352 8 123288428.307 8       -38.324          51.000    23461011.359 8  94467790.965 8       -29.362          51.000  
E24  22882024.078 8 120245845.052 8      1486.461          51.000    22882036.484 8  92136474.137 8      1138.968          51.000  
C25  23763208.422 8 123741307.128 8      2902.570          48.000                                                                  
C05  39791181.078 5 207203121.192 5        -8.863          35.000    39791179.172 6 160222590.093 6        -6.736          40.000  
C14  22492545.883 8 117124570.011 8     -1762.613          49.000    22492545.242 8  90568145.119 8     -1362.910          51.000  
C24  22237945.078 8 115798897.555 8       -10.949          51.000                                                                  
> 2020 05 09 02 08 30.0000000  0 15      -0.000000000000
G30  20755606.297 8 109071484.114 8      1489.691          51.000    20755607.164 8  84990777.155 8      1160.799          51.000  
G09  22226656.289 5 116801874.955 5     -2397.082          33.000    22226663.953 5  91014433.873 5     -1867.866          33.000  
G02  23050809.180 8 121132815.887 8     -1883.762          50.000    23050804.719 7  94389198.735 7     -1467.867          43.000  
G07  20873445.195 8 109690690.868 8      -703.406          51.000    20873443.750 8  85473244.955 8      -548.109          51.000  
R01  19791854.820 8 105798437.793 8     -1158.699          49.000    19791859.594 7  82287652.129 7      -901.211          42.000  
R12  21180762.938 8 113143474.513 8      3834.324          50.000    21180767.883 8  88000499.384 8      2982.253          48.000  
R11  19585311.336 8 104657603.706 8       309.320          51.000    19585312.758 8  81400375.570 8       240.583          49.000  
E09  23905074.750 5 125622014.315 5     -1946.586          35.000                                                                  
E05  23461247.430 8 123289679.118 8       -46.375          51.000    23461249.391 8  94468749.375 8       -35.546          51.000  
E24  22873577.461 8 120201459.586 8      1471.234          51.000    22873589.984 8  92102464.506 8      1127.328          51.000  
C25  23746512.258 8 123654367.780 8      2891.977          48.000                                                                  
C05  39791232.781 6 207203390.116 6       -10.648          36.000    39791230.789 6 160222798.046 6        -8.207          40.000  
C14  22502729.273 8 117177600.945 8     -1774.223          50.000    22502729.477 8  90609152.008 8     -1371.924          51.000  
C26  24335173.242 5 126719610.065 5     -2641.473          33.000                                                                  
C24  22238057.078 8 115799481.033 8       -29.332          51.000                                                                  
> 2020 05 09 02 09  0.0000000  0 15      -0.000000000000
G30  20747141.398 8 109026999.089 8      1475.723          51.000    20747142.234 8  84956113.471 8      1149.914          51.000  
G09  22240351.984 6 116873843.810 6     -2400.797          36.000    22240357.039 6  91070513.500 6     -1870.748          36.000  
G02  23061593.727 8 121189489.672 8     -1894.758          50.000    23061589.383 7  94433360.124 7     -1476.432          44.000  
G07  20877497.070 8 109711983.648 8      -716.445          51.000    20877495.656 8  85489836.732 8      -558.269          51.000  
R01  19798393.297 8 105833390.024 8     -1171.871          48.000    19798397.922 6  82314837.171 6      -911.456          40.000  
R12  21159263.891 8 113028629.477 8      3821.629          51.000    21159268.805 8  87911175.461 8      2972.379          48.000  
R11  19583645.180 8 104648701.099 8       283.863          51.000    19583646.383 8  81393451.306 8       220.783          50.000  
E05  23461524.727 8 123291136.028 8       -51.020          51.000    23461526.672 8  94469865.706 8       -39.096          51.000  
E31  25977105.391 5 136510609.647 5     -1319.301          31.000                                                                  
E24  22865210.297 8 120157492.102 8      1459.605          51.000    22865223.141 8  92068775.157 8      1118.331          51.000  
C25  23729870.570 8 123567713.452 8      2884.793          48.000                                                                  
C05  39791287.930 5 207203677.540 5        -8.664          35.000    39791285.984 6 160223020.314 6        -6.968          40.000  
C14  22512973.000 8 117230943.660 8     -1782.262          51.000    22512973.258 8  90650399.995 8     -1378.167          51.000  
C26  24350413.742 6 126798967.051 6     -2648.957          36.000                                                                  
C24  22238267.773 8 115800578.021 8       -44.121          51.000                                                                  
> 2020 05 09 02 09 30.0000000  0 16      -0.000000000000
G30  20738761.367 8 108982962.987 8      1461.277          51.000    20738762.547 8  84921799.606 8      1138.655          51.000  
G09  22254077.461 5 116945972.554 5     -2405.617          33.000    22254079.859 5  91126717.768 5     -1874.501          33.000  
G02  23072446.578 8 121246523.547 8     -1906.391          50.000    23072442.500 7  94477802.106 7     -1485.500          44.000  
G07  20881628.555 8 109733695.135 8      -729.871          51.000    20881627.016 8  85506754.780 8      -568.731          51.000  
R10  22395574.484 5 119380548.911 5     -3702.367          33.000                                                                  
R01  19805010.875 7 105868765.040 7     -1185.484          47.000    19805015.070 6  82342351.044 6      -922.047          38.000  
R12  21137841.781 8 112914193.490 8      3808.531          51.000    21137845.648 7  87822169.708 7      2962.192          47.000  
R11  19582127.320 8 104640591.713 8       257.930          51.000    19582129.141 8  81387144.011 8       200.612          49.000  
E05  23461833.734 8 123292759.387 8       -56.031          51.000    23461835.602 8  94471109.571 8       -42.930          51.000  
E31  25984667.039 5 136550344.607 5     -1331.219          32.000                                                                  
E24  22856915.047 8 120113903.692 8      1447.555          51.000    22856928.398 8  92035376.241 8      1109.151          51.000  
C25  23713276.852 8 123481306.181 8      2876.879          49.000                                                                  
C05  39791339.148 5 207203944.786 5        -7.484          35.000    39791337.047 6 160223226.165 6        -5.963          40.000  
C14  22523269.258 8 117284558.389 8     -1790.957          51.000    22523268.859 8  90691858.299 8     -1384.764          51.000  
C26  24365699.625 6 126878563.347 6     -2656.020          36.000                                                                  
C24  22238569.320 8 115802148.481 8       -59.492          51.000                                                                  
> 2020 05 09 02 10  0.0000000  0 17      -0.000000000000
G30  20730454.070 8 108939310.349 8      1447.332          51.000    20730455.617 8  84887784.555 8      1127.792          51.000  
G09  22267820.523 6 117018194.559 6     -2410.012          36.000    22267820.297 5  91182994.591 5     -1877.926          35.000  
G02  23083355.234 8 121303849.007 8     -1916.930          51.000    23083351.461 7  94522471.284 7     -1493.712          45.000  
G07  20885826.898 8 109755757.847 8      -742.539          51.000    20885825.406 8  85523946.497 8      -578.602          51.000  
R10  22416431.062 5 119491742.321 5     -3712.941          35.000                                                                  
R01  19811695.055 8 105904495.793 8     -1198.258          48.000    19811699.117 6  82370141.589 6      -931.978          38.000  
R12  21116484.336 8 112800103.133 8      3795.883          51.000    21116487.180 7  87733432.779 7      2952.354          46.000  
R11  19580745.492 8 104633208.229 8       232.727          51.000    19580747.414 8  81381401.292 8       181.010          49.000  
E05  23462161.867 8 123294483.401 8       -60.465          51.000    23462163.711 8  94472430.567 8       -46.372          51.000  
E25  26925107.172 6 141492390.012 6      3187.445          41.000                                                                  
E31  25992329.789 5 136590614.868 5     -1342.941          32.000                                                                  
E24  22848679.648 8 120070629.289 8      1435.844          51.000    22848693.320 8  92002217.920 8      1100.190          51.000  
C25  23696718.883 8 123395082.166 8      2869.797          50.000                                                                  
C05  39791373.500 6 207204123.216 6        -5.520          36.000    39791371.523 6 160223364.931 6        -4.522          40.000  
C14  22533605.375 8 117338379.212 8     -1798.672          51.000    22533604.031 8  90733475.989 8     -1390.986          51.000  
C26  24381017.844 5 126958331.434 5     -2663.047          35.000                                                                  
C24  22238949.211 8 115804126.404 8       -74.027          50.000                                                                  
> 2020 05 09 02 10 30.0000000  0 17      -0.000000000000
G30  20722233.508 8 108896111.289 8      1426.191          51.000    20722234.883 8  84854122.934 8      1111.318          51.000  
G09  22281594.922 6 117090578.439 6     -2421.738          38.000    22281593.109 6  91239397.634 6     -1887.069          37.000  
G06  23978701.867 5 126008928.433 5     -3454.680          35.000    23978694.984 5  98188751.601 5     -2691.959          35.000  
G02  23094332.336 8 121361533.175 8     -1934.977          51.000    23094328.688 7  94567419.976 7     -1507.774          45.000  
G07  20890105.211 8 109778240.190 8      -762.684          51.000    20890103.734 8  85541465.212 8      -594.299          51.000  
R10  22437360.281 5 119603303.513 5     -3731.332          35.000                                                                  
R01  19818459.055 7 105940653.579 7     -1218.742          47.000    19818463.055 6  82398264.258 6      -947.914          39.000  
R12  21095205.219 8 112686432.563 8      3775.613          51.000    21095207.836 7  87645022.346 7      2936.589          46.000  
R11  19579512.734 8 104626621.197 8       199.953          51.000    19579514.859 8  81376278.065 8       155.522          48.000  
E05  23462522.398 8 123296377.882 8       -72.195          51.000    23462524.242 8  94473882.190 8       -55.325          51.000  
E25  26906913.930 6 141396787.738 6      3179.363          41.000    26906912.336 6 108342990.534 6      2436.161          40.000  
E24  22840517.953 8 120027739.470 8      1417.020          51.000    22840531.508 8  91969354.299 8      1085.754          51.000  
C25  23680209.781 8 123309111.944 8      2855.195          51.000                                                                  
C05  39791404.586 6 207204284.80626       -11.496          36.000    39791402.578 6 160223489.871 6        -8.630          40.000  
C14  22543994.070 8 117392474.903 8     -1813.965          51.000    22543992.172 8  90775306.175 8     -1402.631          51.000  
C26  24396382.180 5 127038338.105 5     -2676.781          33.000                                                                  
C24  22239419.953 8 115806580.151 8       -95.852          49.000                                                                  
> 2020 05 09 02 11  0.0000000  0 18      -0.000000000000
G30  20714128.953 8 108853521.698 8      1412.836          51.000    20714130.266 8  84820936.255 8      1100.915          51.000  
G09  22295429.625 6 117163279.147 6     -2425.164          37.000    22295429.555 6  91296047.507 6     -1889.742          37.000  
G06  23998423.688 6 126112569.030 6     -3455.512          36.000    23998418.523 6  98269510.566 6     -2692.598          36.000  
G02  23105406.805 8 121419729.216 8     -1945.070          51.000    23105403.062 7  94612767.547 7     -1515.640          46.000  
G07  20894492.562 8 109801296.009 8      -774.758          51.000    20894491.125 8  85559430.803 8      -603.708          51.000  
R10  22458387.508 5 119715385.801 5     -3741.336          33.000                                                                  
R01  19825333.008 8 105977396.874 8     -1231.180          48.000    19825336.883 6  82426842.371 6      -957.584          41.000  
R12  21074034.805 8 112573343.512 8      3763.199          50.000    21074037.664 7  87557064.188 7      2926.933          47.000  
R11  19578458.648 8 104620988.299 8       175.227          51.000    19578460.688 8  81371896.924 8       136.287          48.000  
E09  23960872.070 5 125915215.963 5     -1964.914          32.000    23960853.266 6  96480436.215 6     -1505.740          36.000  
E05  23462944.891 8 123298598.596 8       -76.188          51.000    23462946.844 8  94475583.766 8       -58.422          51.000  
E25  26888763.570 6 141301404.303 6      3179.336          40.000    26888762.164 6 108269904.533 6      2435.978          41.000  
E24  22832459.594 8 119985390.650 8      1405.816          51.000    22832472.883 8  91936905.219 8      1077.233          51.000  
C25  23663779.094 8 123223551.138 8      2848.488          50.000                                                                  
C05  39791461.750 5 207204582.505 5        -9.047          35.000    39791459.766 6 160223720.067 6        -6.965          40.000  
C14  22554464.875 8 117446999.019 8     -1821.312          51.000    22554462.570 8  90817467.655 8     -1408.430          51.000  
C26  24411821.398 4 127118735.272 4     -2683.281          29.000                                                                  
C24  22240011.914 8 115809663.240 8      -109.938          50.000                                                                  
> 2020 05 09 02 11 30.0000000  0 17      -0.000000000000
G30  20706139.211 8 108811535.545 8      1398.023          51.000    20706140.477 8  84788219.803 8      1089.369          51.000  
G09  22309322.852 5 117236289.377 5     -2430.184          33.000    22309320.906 5  91352938.571 5     -1893.650          31.000  
G06  24018188.742 5 126216441.041 5     -3457.465          35.000    24018183.336 5  98350449.773 5     -2694.129          34.000  
G02  23116576.742 8 121478427.959 8     -1956.328          50.000    23116573.492 7  94658506.815 7     -1524.412          47.000  
G07  20898987.750 8 109824917.904 8      -788.242          51.000    20898986.016 8  85577837.463 8      -614.215          51.000  
R10  22479509.883 5 119827978.701 5     -3753.066          33.000                                                                  
R01  19832315.094 8 106014719.122 8     -1244.980          49.000    19832319.008 7  82455870.790 7      -968.318          43.000  
R12  21052971.867 7 112460833.085 7      3749.500          47.000    21052975.750 8  87469556.049 8      2916.278          48.000  
R11  19577581.664 8 104616302.722 8       149.152          51.000    19577583.820 8  81368252.615 8       116.010          48.000  
E09  23972118.703 5 125974334.188 5     -1967.770          34.000    23972111.742 5  96525772.742 5     -1507.470          34.000  
E05  23463428.250 8 123301139.206 8       -81.434          51.000    23463430.320 8  94477530.461 8       -62.430          51.000  
E25  26870653.859 6 141206234.936 6      3177.246          39.000    26870652.453 6 108196982.552 6      2434.598          40.000  
E24  22824503.328 8 119943577.226 8      1393.441          51.000    22824516.305 8  91904866.383 8      1067.744          51.000  
C25  23647425.531 8 123138394.877 8      2840.344          50.000                                                                  
C05  39791543.859 5 207205010.620 5        -7.719          35.000    39791541.891 6 160224050.371 6        -6.168          40.000  
C14  22565016.664 8 117501944.705 8     -1830.074          50.000    22565013.953 8  90859955.133 8     -1415.091          51.000  
C24  22240723.266 8 115813368.575 8      -125.387          49.000                                                                  
> 2020 05 09 02 12  0.0000000  0 18      -0.000000000000
G30  20698205.461 8 108769843.646 8      1381.617          51.000    20698206.453 8  84755732.625 8      1076.585          51.000  
G09  22323216.062 6 117309298.696 6     -2436.902          37.000    22323213.805 6  91409828.942 6     -1898.882          37.000  
G06  24037932.836 5 126320210.65625     -3461.211          34.000                                                                  
G13  23637728.148 5 124217087.410 5      2911.820          34.000                                                                  
G02  23127782.656 8 121537317.393 8     -1969.219          48.000    23127780.391 7  94704394.688 7     -1534.460          47.000  
G07  20903531.352 8 109848794.683 8      -803.340          51.000    20903529.500 8  85596442.766 8      -625.979          51.000  
R10  22500668.602 5 119940763.796 5     -3766.062          32.000                                                                  
R01  19839346.594 8 106052305.426 8     -1260.461          49.000    19839350.641 7  82485104.578 7      -980.359          44.000  
R12  21031958.266 7 112348590.095 7      3733.781          46.000    21031963.852 8  87382255.881 8      2904.050          48.000  
R11  19576822.773 8 104612248.983 8       121.336          51.000    19576825.336 8  81365099.731 8        94.372          48.000  
E09  23983365.062 5 126033439.933 5     -1972.152          35.000                                                                  
E05  23463913.617 8 123303690.284 8       -88.422          51.000    23463915.734 8  94479485.182 8       -67.773          51.000  
E25  26852526.078 6 141110971.619 6      3173.773          37.000    26852523.688 6 108123988.581 6      2431.979          38.000  
E24  22816589.891 8 119901990.469 8      1379.180          51.000    22816602.484 8  91873001.229 8      1056.811          51.000  
C25  23631090.445 8 123053337.850 8      2830.410          49.000                                                                  
C05  39791591.797 5 207205260.281 5        -8.590          35.000    39791589.852 6 160224243.419 6        -6.546          40.000  
C14  22575590.258 8 117557004.754 8     -1840.293          49.000    22575587.609 8  90902531.054 8     -1423.165          51.000  
C24  22241495.070 8 115817388.628 8      -142.430          50.000                                                                  
> 2020 05 09 02 12 30.0000000  0 17      -0.000000000000
G30  20690349.000 8 108728558.155 8      1369.719          51.000    20690349.852 8  84723562.102 8      1067.314          51.000  
G09  22337130.047 5 117382418.021 5     -2438.438          34.000    22337128.500 5  91466805.036 5     -1900.079          34.000  
G06  24057698.023 5 126424056.90125     -3460.254          31.000                                                                  
G13  23621098.695 5 124129705.397 5      2912.324          35.000                                                                  
G02  23139045.852 8 121596506.636 8     -1977.500          49.000    23139044.250 8  94750516.166 8     -1540.910          48.000  
G07  20908144.484 8 109873036.652 8      -813.629          51.000    20908142.570 8  85615332.613 8      -633.997          51.000  
R10  22521883.109 5 120053850.128 5     -3773.953          32.000                                                                  
R01  19846448.586 8 106090269.838 8     -1271.383          48.000    19846452.812 7  82514632.468 7      -988.854          44.000  
R12  21011017.516 8 112236731.382 8      3722.613          48.000    21011023.641 7  87295254.641 7      2895.366          47.000  
R11  19576203.484 8 104608940.240 8        98.320          51.000    19576205.883 8  81362526.270 8        76.471          48.000  
E05  23464422.234 8 123306363.773 8       -90.754          50.000    23464424.523 8  94481533.697 8       -69.512          51.000  
E25  26834402.180 5 141015727.819 5      3174.703          34.000    26834398.430 6 108051009.516 6      2432.791          38.000  
E24  22808740.758 8 119860743.003 8      1369.691          51.000    22808753.352 8  91841396.051 8      1049.501          51.000  
C25  23614795.500 7 122968492.334 7      2825.148          47.000                                                                  
C05  39791626.812 5 207205443.061 5        -4.574          35.000    39791624.867 6 160224384.741 6        -3.280          40.000  
C14  22586206.586 7 117612289.430 7     -1846.156          47.000    22586204.586 8  90945280.662 8     -1427.574          51.000  
C24  22242348.906 8 115821833.497 8      -154.859          51.000                                                                  
> 2020 05 09 02 13  0.0000000  0 17      -0.000000000000
G30  20682614.188 8 108687911.824 8      1352.801          51.000    20682615.445 8  84691889.628 8      1054.131          51.000  
G09  22351108.398 5 117455879.112 5     -2445.633          32.000    22351108.820 5  91524047.452 5     -1905.685          33.000  
G13  23604515.711 6 124042531.687 6      2907.438          36.000                                                                  
G02  23150410.055 8 121656225.518 8     -1990.855          50.000    23150408.555 7  94797050.346 7     -1551.316          47.000  
G07  20912870.961 8 109897874.741 8      -829.328          51.000    20912868.742 8  85634686.981 8      -646.230          51.000  
R10  22543197.008 5 120167469.058 5     -3787.160          32.000                                                                  
R01  19853665.594 8 106128848.651 8     -1287.484          48.000    19853669.742 7  82544638.234 7     -1001.377          44.000  
R08  22840540.680 5 122309669.083 5     -3156.797          30.000                                                                  
R12  20990194.016 8 112125496.768 8      3706.000          49.000    20990200.094 7  87208738.875 7      2882.448          47.000  
R11  19575767.805 8 104606612.486 8        69.941          51.000    19575770.500 8  81360715.805 8        54.399          48.000  
E05  23464998.375 8 123309392.267 8       -98.402          50.000    23465001.023 8  94483854.230 8       -75.354          51.000  
E25  26816326.062 5 140920743.526 5      3170.871          32.000    26816322.320 6 107978224.803 6      2429.558          38.000  
E24  22801000.562 8 119820068.104 8      1354.727          51.000    22801013.508 8  91810229.583 8      1038.044          51.000  
C25  23598586.484 8 122884090.049 8      2814.477          49.000                                                                  
C05  39791693.227 5 207205788.101 5        -6.195          35.000    39791691.406 6 160224652.304 6        -4.338          40.000  
C14  22596910.273 7 117668028.598 7     -1856.926          47.000    22596908.562 8  90988381.754 8     -1435.984          51.000  
C24  22243328.297 8 115826932.708 8      -172.344          51.000                                                                  
> 2020 05 09 02 13 30.0000000  0 16      -0.000000000000
G30  20674952.438 8 108647648.709 8      1333.426          51.000    20674953.719 8  84660515.773 8      1039.033          51.000  
G09  22365103.383 4 117529424.734 4     -2454.398          29.000    22365104.695 4  91581355.787 4     -1912.522          29.000  
G02  23161825.734 8 121716215.161 8     -2006.512          51.000    23161823.797 7  94843795.510 7     -1563.513          47.000  
G07  20917661.781 8 109923051.244 8      -847.129          51.000    20917659.562 8  85654305.027 8      -660.101          51.000  
R10  22564562.180 5 120281356.226 5     -3802.777          35.000                                                                  
R01  19860948.672 8 106167781.441 8     -1306.059          48.000    19860953.125 7  82574919.309 7     -1015.824          44.000  
R08  22858260.516 4 122404545.493 4     -3167.105          28.000    22858265.484 4  95203563.650 4     -2463.305          28.000  
R12  20969439.961 8 112014629.435 8      3687.012          51.000    20969444.766 7  87122508.784 7      2867.679          46.000  
R11  19575467.023 8 104605004.420 8        39.344          51.000    19575469.688 8  81359465.105 8        30.604          48.000  
E05  23465593.320 8 123312519.647 8      -108.168          50.000    23465596.227 8  94486250.534 8       -82.834          51.000  
E25  26798250.695 5 140825756.191 5      3164.594          32.000    26798245.867 6 107905439.249 6      2424.539          38.000  
E24  22793320.164 8 119779710.297 8      1337.613          49.000    22793333.703 8  91779306.078 8      1024.988          51.000  
C25  23582415.195 8 122799878.471 8      2801.574          50.000                                                                  
