     3.02           OBSERVATION DATA    M (MIXED)           RINEX VERSION / TYPE
SAVERINEX           SC600               20200511 005930 LCL PGM / RUN BY / DATE
       G = GPS       R = GLONASS       C = COMPASS          COMMENT
       S = SBAS      J = QZSS          E = GALILEO          COMMENT
BEAN                                                        MARKER NAME
1                                                           MARKER NUMBER
GEODETIC                                                    MARKER TYPE
Unige DICCA         GTER                                    OBSERVER / AGENCY
SC60291900056       SC600               2.12(191226)        REC # / TYPE / VERS
                    HEMA45          NONE                    ANT # / TYPE
  4509407.8091   693652.4678  4442337.6214                  APPROX POSITION XYZ
        0.0000        0.0000        0.0000                  ANTENNA: DELTA H/E/N
G    8 C1C L1C D1C S1C C2Y L2Y D2Y S2Y                      SYS / # / OBS TYPES
R    8 C1C L1C D1C S1C C2P L2P D2P S2P                      SYS / # / OBS TYPES
C    8 C1I L1I D1I S1I C7I L7I D7I S7I                      SYS / # / OBS TYPES
E    8 C1C L1C D1C S1C C7Q L7Q D7Q S7Q                      SYS / # / OBS TYPES
DBHZ                                                        COMMENT
     30.000                                                 INTERVAL
  2020    05    10    22    00    0.0000000     GPS         TIME OF FIRST OBS
  2020    05    10    22    59   30.0000000     GPS         TIME OF LAST OBS
     0                                                      RCV CLOCK OFFS APPL
G L1C  0.00000                                              SYS / PHASE SHIFT
G L2Y  0.00000                                              SYS / PHASE SHIFT
R L1C  0.00000                                              SYS / PHASE SHIFT
R L2P  0.25000                                              SYS / PHASE SHIFT
C L1I  0.00000                                              SYS / PHASE SHIFT
C L7I  0.00000                                              SYS / PHASE SHIFT
E L1C  0.50000                                              SYS / PHASE SHIFT
E L7Q -0.25000                                              SYS / PHASE SHIFT
 12 R01  1 R02 -4 R07  5 R08  6 R09 -2 R10 -5 R11  0 R12 -1 GLONASS SLOT / FRQ #
    R17  4 R21  4 R22 -3 R23  3                             GLONASS SLOT / FRQ #
 C1C   71.950 C2C   71.950 C2P   71.950                     GLONASS COD/PHS/BIS
    18                                                      LEAP SECONDS
*** Above antenna height is from mark to ANTENNA BOTTOM.    COMMENT
    17     4        0.0000        ANT MEASURE TYPE/HEIGT    COMMENT
    0.0000    0.0000    0.0458    0.0405    0.0000          COMMENT
                    BASE STATION                            COMMENT
                                                            END OF HEADER
> 2020 05 10 22 00  0.0000000  0 18        .000000000000
G01  22504460.297 8 118261712.790 8     -3107.344          51.000    22504459.758 8  92152000.032 8     -2421.307          51.000
G03  20665444.578 8 108597648.409 8     -1113.031          51.000    20665446.195 8  84621586.929 8      -867.297          51.000
G04  20462412.141 8 107530707.368 8      1130.047          49.000    20462412.664 8  83790180.266 8       880.556          49.000
G09  22293441.086 7 117152910.457 7      3012.695          47.000    22293441.953 7  91287969.722 7      2347.555          47.000
G22  22270179.953 5 117030583.177 5     -2120.500          34.000
G31  23525595.117 5 123627807.952 5     -1288.500          34.000    23525592.031 5  96333392.996 5     -1004.017          32.000
R01  20076472.789 5 107320292.615 5     -2035.199          34.000    20076479.977 4  83471333.477 4     -1582.930          28.000
R02  20378730.805 5 108744790.127 5      1925.078          32.000    20378745.336 4  84579310.540 4      1497.286          28.000
R23  22666545.828 6 121250728.175 6     -4498.148          37.000
R24  20022710.836 8 107070437.787 8     -2629.438          50.000    20022713.086 8  83277008.551 8     -2045.118          48.000
C05                                                                  39728560.422 5 159970449.821 5       -24.267          34.000
C19  21760379.664 8 113312011.852 8      -914.242          51.000
C22  23052323.812 4 120039576.779 4      1696.250          26.000
E03  25157191.055 5 132201930.469 5     -2075.656          34.000    25157192.672 5 101297578.704 5     -1590.680          35.000
E07  26071253.422 8 137005397.091 8      2363.191          48.000    26071259.102 8 104978172.199 8      1810.715          50.000
E08  21415330.820 8 112538344.152 8       288.797          51.000    21415331.703 8  86230684.572 8       221.325          51.000
E13  23373588.625 8 122829048.411 8      -121.246          51.000    23373589.562 8  94115759.706 8       -92.873          51.000
E15  24998741.164 7 131369287.942 7     -2633.727          45.000    24998748.328 8 100659604.701 8     -2018.044          51.000
> 2020 05 10 22 00 30.0000000  0 17        .000000000000
G01  22522222.211 8 118355050.752 8     -3126.074          50.000    22522219.719 8  92224730.883 8     -2435.902          50.000
G03  20671822.312 8 108631163.488 8     -1131.953          51.000    20671823.930 8  84647702.571 8      -882.041          51.000
G04  20456005.578 8 107497041.661 8      1103.531          49.000    20456006.023 8  83763947.249 8       859.894          48.000
G09  22276266.805 8 117062659.405 8      2993.180          49.000    22276268.320 8  91217644.237 8      2332.348          48.000
G17  22213244.078 5 116731406.435 5     -1069.688          35.000    22213243.914 5  90959526.873 5      -833.523          35.000
G22  22282300.672 5 117094276.608 5     -2137.406          35.000
R01  20087918.812 6 107381476.276 6     -2054.621          38.000    20087927.234 5  83518920.756 5     -1598.036          30.000
R02  20367941.797 5 108687209.269 5      1902.758          32.000
R23  22691788.797 6 121385749.896 6     -4514.293          36.000
R24  20037519.133 8 107149627.497 8     -2660.910          49.000    20037521.984 7  83338600.572 7     -2069.597          47.000
C05                                                                  39728736.367 5 159971157.390 5       -31.148          34.000
C19  21765664.414 8 113339532.023 8      -931.238          51.000
E03  25169051.625 5 132264258.617 5     -2090.285          33.000    25169056.047 5 101345338.162 5     -1601.444          35.000
E07  26057775.086 8 136934566.587 8      2348.016          49.000    26057781.141 8 104923899.507 8      1799.183          50.000
E08  21413705.789 8 112529803.660 8       269.797          51.000    21413706.367 8  86224140.568 8       206.695          51.000
E13  23374315.992 8 122832869.944 8      -144.324          51.000    23374316.586 8  94118687.902 8      -110.619          51.000
E15  25013795.141 8 131448394.980 8     -2650.918          50.000    25013802.102 8 100720219.197 8     -2031.214          51.000
> 2020 05 10 22 01  0.0000000  0 17        .000000000000
G01  22540062.539 7 118448803.420 7     -3126.844          47.000    22540060.719 7  92297784.898 7     -2436.502          47.000
G03  20678279.727 8 108665097.318 8     -1133.344          51.000    20678281.242 8  84674144.502 8      -883.125          51.000
G04  20449722.398 8 107464022.692 8      1094.664          50.000    20449722.938 8  83738218.189 8       852.985          50.000
G09  22259176.242 8 116972846.915 8      2991.309          49.000    22259178.242 8  91147660.509 8      2330.893          49.000
G17  22219366.914 5 116763591.539 5     -1078.891          35.000    22219366.344 5  90984606.175 5      -840.694          35.000
G22  22294482.273 6 117158282.035 6     -2133.980          39.000    22294476.719 5  91292153.883 5     -1662.821          33.000
R01  20099446.742 6 107443094.428 6     -2056.379          36.000    20099456.008 5  83566845.994 5     -1599.406          30.000
R02  20357251.609 6 108630150.159 6      1897.824          36.000
R23  22717094.461 5 121521102.006 5     -4512.402          33.000
R24  20052476.047 8 107229609.645 8     -2674.266          49.000    20052478.914 7  83400808.909 7     -2079.984          46.000
C05                                                                  39728937.430 5 159971967.213 5       -24.521          34.000
C19  21771018.688 8 113367413.819 8      -930.652          51.000
E03                                                                  25180970.281 5 101393303.597 5     -1598.373          35.000
E07  26044354.766 8 136864040.390 8      2350.723          48.000    26044360.602 8 104869860.007 8      1801.206          50.000
E08  21412160.859 8 112521684.948 8       268.457          51.000    21412161.359 8  86217919.747 8       205.752          51.000
E13  23375146.648 8 122837233.517 8      -149.590          51.000    23375147.305 8  94122031.415 8      -114.618          51.000
E15  25028919.797 8 131527868.714 8     -2650.285          51.000    25028925.984 8 100781114.643 8     -2030.774          51.000
> 2020 05 10 22 01 30.0000000  0 16        .000000000000
G01  22557932.203 7 118542716.510 7     -3134.516          45.000    22557933.000 7  92370963.947 7     -2442.477          45.000
G03  20684768.562 8 108699196.656 8     -1140.910          51.000    20684769.867 8  84700715.418 8      -889.021          51.000
G04  20443514.461 8 107431397.921 8      1079.469          51.000    20443515.258 8  83712796.319 8       841.144          50.000
G09  22242121.617 8 116883221.819 8      2982.887          50.000    22242123.203 8  91077822.779 8      2324.327          49.000
G17  22225569.000 6 116796184.778 6     -1094.457          36.000    22225569.656 5  91010003.350 5      -852.827          35.000
G22  22306674.258 5 117222348.486 5     -2138.039          34.000    22306668.977 5  91342075.734 5     -1665.998          31.000
R01  20111006.609 6 107504888.300 6     -2063.871          37.000    20111015.156 4  83614907.917 4     -1605.233          28.000
R02  20346611.391 6 108573355.631 6      1887.254          37.000    20346622.789 4  84446009.139 4      1467.864          28.000
R24  20067533.008 8 107310124.188 8     -2694.117          50.000    20067535.406 7  83463431.323 7     -2095.424          46.000
C19  21776394.273 8 113395405.989 8      -936.352          51.000
C20  25428726.703 5 132414054.876 5     -2633.547          33.000
E03                                                                  25192886.320 5 101441280.524 5     -1600.665          34.000
E07  26030943.734 7 136793566.164 7      2346.957          47.000    26030949.555 8 104815860.328 8      1798.225          50.000
E08  21410648.109 8 112513734.670 8       260.793          51.000    21410648.445 8  86211828.001 8       199.783          51.000
E13  23376032.211 8 122841886.784 8      -161.328          51.000    23376033.430 8  94125596.898 8      -123.603          51.000
E15  25044065.859 8 131607455.115 8     -2656.227          51.000    25044071.062 8 100842096.427 8     -2035.234          51.000
> 2020 05 10 22 02  0.0000000  0 18        .000000000000
G01  22575870.602 7 118636988.490 7     -3147.746          46.000    22575873.828 7  92444422.675 7     -2452.789          46.000
G03  20691326.961 8 108733661.223 8     -1154.344          51.000    20691327.969 8  84727570.930 8      -899.489          51.000
G04  20437419.766 8 107399367.864 8      1058.352          51.000    20437420.531 8  83687837.843 8       824.690          51.000
G09  22225140.898 8 116793985.828 8      2968.695          49.000    22225141.852 8  91008288.255 8      2313.272          49.000
G17  22231886.594 6 116829384.827 6     -1116.344          36.000    22231893.359 5  91035873.406 5      -869.878          35.000
G19  22154421.594 5 116422270.909 5       -18.098          32.000
G22  22318914.445 5 117286675.735 5     -2147.727          35.000    22318908.906 5  91392200.808 5     -1673.547          35.000
R01  20122636.266 6 107567059.252 6     -2078.098          36.000    20122643.281 4  83663263.143 4     -1616.295          28.000
R02  20336057.023 5 108517029.525 5      1870.555          33.000    20336064.008 4  84402199.784 4      1454.864          29.000
R24  20082727.336 8 107391371.914 8     -2719.770          51.000    20082729.180 7  83526624.001 7     -2115.376          46.000
C05                                                                  39729308.773 5 159973462.808 5       -26.620          34.000
C19  21781829.023 8 113423706.128 8      -947.895          51.000
C20  25443919.328 5 132493175.618 5     -2638.809          35.000
E03  25204834.133 5 132452302.107 5     -2097.180          34.000    25204841.359 5 101489421.241 5     -1606.846          34.000
E07  26017580.477 7 136723344.524 7      2337.219          46.000    26017586.406 8 104762054.160 8      1790.784          50.000
E08  21409205.578 8 112506152.526 8       247.266          51.000    21409205.773 8  86206018.312 8       189.466          51.000
E13  23377010.781 8 122847030.268 8      -178.980          51.000    23377012.594 8  94129537.995 8      -137.117          51.000
E15  25059270.742 8 131687353.077 8     -2667.809          51.000    25059275.328 8 100903316.951 8     -2044.159          51.000
> 2020 05 10 22 02 30.0000000  0 17        .000000000000
G01  22593871.523 8 118731584.148 8     -3157.094          48.000    22593876.086 8  92518133.585 8     -2460.073          48.000
G03  20697948.328 8 108768456.943 8     -1163.820          51.000    20697949.344 8  84754684.477 8      -906.873          51.000
G04  20431431.688 8 107367899.084 8      1041.090          51.000    20431432.398 8  83663316.715 8       811.239          51.000
G09  22208227.727 8 116705106.833 8      2958.051          49.000    22208228.531 8  90939031.905 8      2304.975          49.000
G17  22238314.625 5 116863132.036 5     -1133.910          35.000
G22  22331198.938 6 117351229.935 6     -2154.473          38.000    22331195.172 5  91442502.715 5     -1678.810          35.000
R01  20134330.578 6 107629571.290 6     -2087.980          38.000    20134336.805 5  83711883.612 5     -1623.988          31.000
R23  22793181.633 5 121928155.072 5     -4532.926          32.000    22793193.031 4  94833040.947 4     -3525.609          25.000
R24  20098051.531 8 107473315.575 8     -2741.441          51.000    20098053.102 7  83590357.972 7     -2132.232          47.000
C19  21787316.406 8 113452280.192 8      -955.500          51.000
C20  25459129.719 5 132572374.230 5     -2639.719          31.000
C22  23004018.039 5 119787947.476 5      1658.305          33.000
E03  25216825.406 6 132515308.930 6     -2101.746          38.000    25216830.133 5 101537699.234 5     -1610.537          34.000
E07  26004259.359 7 136653342.320 7      2331.219          47.000    26004265.164 8 104708416.113 8      1786.232          51.000
E08  21407826.609 8 112498904.249 8       237.555          51.000    21407826.781 8  86200464.440 8       181.987          51.000
E13  23378076.242 8 122852630.732 8      -192.844          51.000    23378078.484 8  94133829.276 8      -147.754          51.000
E15  25074527.750 8 131767527.819 8     -2675.629          50.000    25074532.062 8 100964749.561 8     -2050.232          51.000
> 2020 05 10 22 03  0.0000000  0 16        .000000000000
G01  22611914.703 8 118826399.570 8     -3159.836          49.000    22611919.562 8  92592015.730 8     -2462.210          49.000
G03  20704613.102 8 108803480.966 8     -1167.004          50.000    20704614.422 8  84781975.924 8      -909.357          50.000
G04  20425530.938 8 107336889.459 8      1030.336          51.000    20425531.578 8  83639153.382 8       802.859          51.000
G09  22191363.039 8 116616484.093 8      2954.066          49.000    22191364.336 8  90869975.226 8      2301.870          48.000
G17  22244832.477 5 116897379.030 5     -1144.562          35.000    22244836.555 5  91088885.314 5      -891.867          34.000
G22  22343507.469 5 117415908.057 5     -2154.414          35.000    22343504.195 5  91492901.219 5     -1678.764          33.000
R01  20146068.648 6 107692317.851 6     -2090.980          38.000    20146075.562 5  83760686.552 5     -1626.315          34.000
R23  22818615.461 5 122064201.043 5     -4532.715          35.000    22818621.312 4  94938854.494 4     -3525.442          25.000
R24  20113485.516 8 107555848.104 8     -2756.469          51.000    20113487.250 7  83654549.951 7     -2143.920          47.000
C05                                                                  39729702.008 5 159975046.143 5       -21.573          34.000
C19  21792836.586 8 113481025.982 8      -956.797          51.000
E03  25228830.297 6 132578391.362 6     -2099.992          39.000    25228833.703 5 101586059.072 5     -1608.588          34.000
E07  25990961.133 8 136583457.461 8      2331.812          48.000    25990966.578 8 104654867.988 8      1786.755          51.000
E08  21406491.406 8 112491886.857 8       234.395          51.000    21406491.570 8  86195087.485 8       179.562          51.000
E13  23379209.266 8 122858586.196 8      -200.078          51.000    23379211.930 8  94138392.559 8      -153.331          51.000
E15  25089817.086 8 131847875.654 8     -2676.750          48.000    25089821.570 8 101026314.809 8     -2051.007          50.000
> 2020 05 10 22 03 30.0000000  0 18        .000000000000
G01  22630006.742 8 118921471.282 8     -3167.027          49.000    22630011.359 8  92666097.582 8     -2467.814          49.000
G03  20711328.570 8 108838771.149 8     -1174.504          51.000    20711330.250 8  84809474.774 8      -915.198          51.000
G04  20419724.648 8 107306377.591 8      1015.125          51.000    20419725.008 8  83615377.911 8       791.010          51.000
G09  22174554.461 8 116528157.339 8      2945.512          48.000    22174556.164 8  90801149.176 8      2295.204          48.000
G17  22251443.312 5 116932123.208 5     -1160.098          35.000    22251450.000 5  91115958.721 5      -903.969          35.000
G22  22355846.852 5 117480747.782 5     -2157.699          35.000    22355843.164 5  91543425.708 5     -1681.315          35.000
G31  23579815.180 5 123912749.241 5     -1415.355          32.000
R01  20157857.375 6 107755336.079 6     -2098.656          38.000    20157865.492 5  83809700.770 5     -1632.288          34.000
R02  20304820.594 5 108350412.836 5      1839.852          34.000
R23  22844078.008 5 122200406.007 5     -4536.297          35.000    22844083.258 4  95044784.755 4     -3528.231          25.000
R24  20129036.195 8 107639005.465 8     -2775.910          51.000    20129038.391 7  83719227.880 7     -2159.041          47.000
C05                                                                  39729889.711 5 159975802.131 5       -20.020          34.000
C19  21798396.711 8 113509980.690 8      -962.438          51.000
E03  25240856.156 6 132641586.509 6     -2102.297          38.000    25240858.820 5 101634481.324 5     -1610.644          32.000
E07  25977692.812 8 136513728.682 8      2327.824          48.000    25977697.742 8 104601439.469 8      1783.741          51.000
E08  21405207.289 8 112485138.109 8       226.758          51.000    21405207.398 8  86189916.376 8       173.738          51.000
E13  23380417.273 8 122864935.254 8      -211.949          51.000    23380419.984 8  94143257.424 8      -162.412          51.000
E15  25105146.578 8 131928433.685 8     -2682.504          49.000    25105150.953 8 101088041.110 8     -2055.458          49.000
> 2020 05 10 22 04  0.0000000  0 17        .000000000000
G01  22648160.461 8 119016867.730 8     -3184.629          49.000    22648164.727 8  92740432.458 8     -2481.529          49.000
G03  20718108.000 8 108874397.065 8     -1192.504          51.000    20718109.938 8  84837235.232 8      -929.224          51.000
G04  20414026.188 8 107276433.658 8       989.316          51.000    20414026.641 8  83592044.979 8       770.896          51.000
G09  22157815.930 8 116440198.204 8      2926.453          48.000    22157817.523 8  90732609.582 8      2280.353          48.000
G17  22258164.625 5 116967440.143 5     -1186.012          32.000    22258169.164 5  91143478.477 5      -924.168          31.000
G31  23587998.000 5 123955748.133 5     -1442.742          34.000    23587999.438 5  96588906.959 5     -1124.221          30.000
R01  20169709.914 6 107818695.012 6     -2116.898          38.000    20169717.547 5  83858979.991 5     -1646.477          33.000
R02  20294563.039 5 108295659.907 5      1818.238          31.000    20294583.570 4  84230054.653 4      1414.185          26.000
R23  22869582.156 5 122336837.381 5     -4550.488          34.000    22869589.008 4  95150900.052 4     -3539.266          25.000
R24  20144716.641 8 107722855.772 8     -2805.793          51.000    20144719.070 8  83784444.759 8     -2182.283          48.000
C05                                                                  39730087.242 5 159976596.803 5       -26.288          33.000
C19  21804010.305 8 113539213.005 8      -978.375          51.000
E03  25252916.055 5 132704963.212 5     -2114.871          35.000    25252918.883 5 101683039.719 5     -1620.548          30.000
E07  25964467.484 7 136444226.402 7      2313.746          47.000    25964471.422 8 104548184.532 8      1772.811          51.000
E08  21403987.547 8 112478727.491 8       208.766          51.000    21403987.555 8  86185004.350 8       159.969          51.000
E13  23381713.641 8 122871748.405 8      -234.172          51.000    23381715.969 8  94148477.896 8      -179.386          51.000
E15  25120529.688 8 132009270.733 8     -2698.512          50.000    25120533.031 8 101149981.147 8     -2067.685          49.000
> 2020 05 10 22 04 30.0000000  0 18        .000000000000
G01  22666345.836 8 119112431.037 8     -3186.699          49.000    22666349.711 8  92814897.341 8     -2483.145          50.000
G03  20724921.516 8 108910202.064 8     -1194.949          51.000    20724923.352 8  84865135.233 8      -931.129          51.000
G04  20408406.055 8 107246901.605 8       979.105          50.000    20408406.867 8  83569032.993 8       762.939          50.000
G09  22141118.461 8 116352451.938 8      2922.711          49.000    22141119.367 8  90664235.889 8      2277.437          50.000
G17  22264963.625 5 117003172.234 5     -1196.168          34.000
G31  23596266.344 5 123999217.583 5     -1454.703          32.000    23596270.375 5  96622780.626 5     -1133.532          33.000
R01  20181596.023 5 107882233.934 5     -2119.445          35.000    20181601.250 5  83908399.112 5     -1648.461          32.000
R02  20284357.062 6 108241189.047 6      1812.492          37.000    20284375.234 4  84187688.557 4      1409.713          26.000
R23  22895098.484 5 122473332.721 5     -4549.199          32.000
R24  20160496.609 8 107807237.064 8     -2819.977          51.000    20160498.898 7  83850074.630 7     -2193.315          46.000
C05                                                                  39730264.750 5 159977311.499 5       -21.573          34.000
C19  21809647.664 8 113568567.366 8      -978.996          51.000
C20  25519968.711 4 132889170.897 4     -2637.176          29.000
E03  25264979.594 4 132768363.313 4     -2112.203          29.000
E07  25951255.172 7 136374794.949 7      2314.691          47.000    25951257.727 8 104494983.816 8      1773.544          50.000
E08  21402802.125 8 112472498.147 8       206.148          51.000    21402802.133 8  86180231.228 8       157.901          51.000
E13  23383068.711 8 122878869.732 8      -241.066          51.000    23383070.727 8  94153934.502 8      -184.710          51.000
E15  25135936.227 8 132090229.350 8     -2699.180          51.000    25135938.344 8 101212014.328 8     -2068.283          50.000
> 2020 05 10 22 05  0.0000000  0 15        .000000000000
G01  22684586.336 8 119208284.170 8     -3203.891          49.000    22684589.578 8  92889588.058 8     -2496.538          49.000
G03  20731792.719 8 108946310.272 8     -1212.496          51.000    20731794.492 8  84893271.499 8      -944.802          51.000
G04  20402888.203 8 107217906.285 8       953.867          51.000    20402889.156 8  83546439.241 8       743.273          51.000
G09  22124485.922 8 116265044.646 8      2904.074          51.000    22124486.070 8  90596126.341 8      2262.915          51.000
R01  20193539.047 6 107946077.411 6     -2137.148          36.000    20193543.492 5  83958055.135 5     -1662.227          33.000
R02  20274228.250 5 108187126.235 5      1791.016          34.000    20274241.164 4  84145639.756 4      1393.021          28.000
R23  22920649.711 5 122610014.982 5     -4563.168          31.000
R24  20176398.875 8 107892273.188 8     -2849.375          51.000    20176400.641 7  83916213.814 7     -2216.181          45.000
C05                                                                  39730446.227 5 159978042.479 5       -27.412          34.000
C19  21815332.141 8 113598166.513 8      -994.473          51.000
C20  25535189.828 5 132968417.340 5     -2645.551          31.000
E07  25938079.312 7 136305559.230 7      2300.723          46.000    25938081.469 8 104441933.061 8      1762.939          50.000
E08  21401674.719 8 112466574.106 8       188.559          51.000    21401674.820 8  86175692.036 8       144.474          51.000
E13  23384506.414 8 122886424.125 8      -262.836          51.000    23384508.312 8  94159722.923 8      -201.394          51.000
E15  25151389.469 8 132171432.819 8     -2714.648          51.000    25151391.016 8 101274235.128 8     -2080.040          51.000
> 2020 05 10 22 05 30.0000000  0 16        .000000000000
G01  22702910.633 7 119304579.677 7     -3213.645          47.000    22702913.531 7  92964623.500 7     -2504.139          47.000
G03  20738750.867 8 108982875.489 8     -1222.875          51.000    20738752.680 8  84921763.872 8      -952.890          51.000
G04  20397502.047 8 107189602.030 8       935.367          51.000    20397502.953 8  83524383.989 8       728.861          51.000
G09  22107947.516 8 116178132.022 8      2892.469          50.000    22107947.500 8  90528402.254 8      2253.872          50.000
G17  22278895.109 5 117076383.821 5     -1240.211          34.000
G22  22405558.312 5 117742040.154 5     -2192.660          34.000
R01  20205567.742 6 108010380.432 6     -2147.758          37.000    20205573.797 5  84008068.637 5     -1670.478          33.000
R23  22946264.234 5 122747037.521 5     -4569.430          30.000
R24  20192451.984 8 107978117.823 8     -2871.336          51.000    20192453.219 7  83982981.859 7     -2233.261          45.000
C05                                                                  39730660.930 5 159978907.055 5       -28.297          34.000
C19  21821092.719 8 113628162.529 8     -1002.922          51.000
E03  25289226.180 5 132895779.536 5     -2129.758          33.000
E07  25924970.297 7 136236673.857 7      2293.895          46.000    25924972.648 8 104389150.776 8      1757.686          50.000
E08  21400634.734 8 112461109.010 8       178.020          51.000    21400635.047 8  86171504.497 8       136.455          51.000
E13  23386056.125 8 122894566.174 8      -277.652          51.000    23386057.656 8  94165961.628 8      -212.750          51.000
E15  25166918.195 8 132253034.144 8     -2723.129          51.000    25166920.070 8 101336760.805 8     -2086.562          51.000
> 2020 05 10 22 06  0.0000000  0 14        .000000000000
G01  22721259.594 7 119401007.148 7     -3218.730          46.000    22721262.414 7  93039761.787 7     -2508.102          46.000
G03  20745737.141 8 109019588.552 8     -1228.680          51.000    20745738.938 8  84950371.444 8      -957.410          51.000
G04  20392188.688 8 107161680.200 8       922.051          51.000    20392189.914 8  83502626.747 8       718.484          50.000
G09  22091444.633 8 116091406.938 8      2885.430          50.000    22091444.648 8  90460824.312 8      2248.390          50.000
G22  22418070.797 6 117807781.058 6     -2194.258          37.000    22418066.977 5  91798236.812 5     -1709.805          31.000
G31  23621763.227 6 124133196.614 6     -1515.965          38.000    23621765.188 6  96727170.845 6     -1181.271          38.000
R01  20217624.039 6 108074826.617 6     -2152.586          39.000    20217630.039 5  84058193.417 5     -1674.234          32.000
R24  20208596.547 8 108064453.892 8     -2888.410          50.000    20208598.141 7  84050132.143 7     -2246.541          46.000
C05                                                                  39730850.070 5 159979668.730 5       -25.231          34.000
C19  21826870.422 8 113658248.751 8     -1006.746          51.000
E07  25911870.250 7 136167830.532 7      2291.719          47.000    25911872.109 8 104336400.713 8      1756.007          50.000
E08  21399623.383 8 112455793.513 8       172.305          51.000    21399623.812 8  86167431.592 8       132.014          51.000
E13  23387658.945 8 122902987.476 8      -287.703          51.000    23387659.828 8  94172414.328 8      -220.508          51.000
E15  25182463.031 8 132334723.290 8     -2726.816          51.000    25182465.703 8 101399353.778 8     -2089.412          51.000
> 2020 05 10 22 06 30.0000000  0 16        .000000000000
G01  22739654.914 7 119497679.871 7     -3220.398          45.000    22739657.484 7  93115091.154 7     -2509.401          45.000
G03  20752773.289 8 109056563.906 8     -1230.543          51.000    20752775.172 8  84979183.402 8      -958.865          51.000
G04  20386970.102 8 107134255.974 8       912.195          51.000    20386971.516 8  83481257.244 8       710.802          50.000
G09  22074999.336 8 116004985.704 8      2881.844          50.000    22074999.281 8  90393483.129 8      2245.593          50.000
G19  22160308.625 5 116453202.464 5      -205.641          34.000
G22  22430609.656 6 117873680.111 6     -2193.457          37.000
G31  23630464.773 6 124178916.618 6     -1526.500          38.000    23630465.578 6  96762796.821 6     -1189.484          38.000
R01  20229729.234 6 108139531.133 6     -2154.621          38.000    20229733.789 5  84108519.075 5     -1675.819          31.000
R24  20224854.539 8 108151395.035 8     -2901.762          50.000    20224857.180 7  84117753.036 7     -2256.926          47.000
C05                                                                  39731035.555 5 159980415.446 5       -19.649          34.000
C19  21832687.133 8 113688538.341 8     -1006.848          51.000
C22  22928871.180 5 119396631.748 5      1608.496          32.000
E07  25898800.391 8 136099144.532 8      2293.270          48.000    25898801.594 8 104283771.200 8      1757.154          50.000
E08  21398662.148 8 112450741.962 8       170.309          51.000    21398662.625 8  86163560.924 8       130.535          51.000
E13  23389336.641 8 122911803.245 8      -294.078          51.000    23389337.375 8  94179169.265 8      -225.342          51.000
E15  25198045.844 8 132416613.984 8     -2726.672          51.000    25198049.273 8 101462101.198 8     -2089.283          51.000
> 2020 05 10 22 07  0.0000000  0 17        .000000000000
G01  22758109.375 7 119594662.054 7     -3239.453          43.000    22758111.547 7  93190661.644 7     -2524.249          43.000
G03  20759871.797 8 109093867.024 8     -1250.578          51.000    20759873.719 8  85008250.748 8      -974.476          51.000
G04  20381858.547 8 107107395.204 8       884.332          49.000    20381859.734 8  83460326.772 8       689.090          50.000
G09  22058624.031 7 115918935.830 7      2860.391          47.000    22058625.055 7  90326431.297 7      2228.876          47.000
G17  22300508.625 5 117189952.101 5     -1291.113          32.000    22300501.445 5  91316832.345 5     -1006.062          32.000
G22  22443192.508 6 117939802.627 6     -2209.707          36.000
G31  23639279.039 6 124225235.019 6     -1555.223          38.000    23639279.047 6  96798889.097 6     -1211.859          38.000
R01  20241893.773 6 108204559.025 6     -2174.559          38.000    20241898.711 5  84159096.334 5     -1691.320          32.000
R02  20234473.812 5 107975028.226 5      1739.375          33.000
R24  20241238.219 8 108239005.343 8     -2933.180          50.000    20241241.094 8  84185894.369 8     -2281.362          48.000
C05                                                                  39731229.781 5 159981197.773 5       -28.315          34.000
C19  21838555.625 8 113719095.905 8     -1024.680          51.000
C22  22919676.102 5 119348732.239 5      1590.723          33.000
E07  25885772.602 7 136030682.158 7      2276.723          47.000    25885773.992 8 104231313.077 8      1744.451          51.000
E08  21397763.344 8 112446019.655 8       150.246          51.000    21397763.836 8  86159942.545 8       115.139          51.000
E13  23391102.078 8 122921079.637 8      -318.512          51.000    23391103.180 8  94186277.152 8      -244.036          51.000
E15  25213678.883 8 132498770.772 8     -2744.602          49.000    25213683.336 8 101525052.531 8     -2102.976          51.000
> 2020 05 10 22 07 30.0000000  0 16        .000000000000
G01  22776590.664 7 119691783.197 7     -3236.020          44.000    22776593.461 7  93266340.418 7     -2521.571          44.000
G03  20767000.398 8 109131328.553 8     -1247.777          51.000    20767002.094 8  85037441.534 8      -972.294          51.000
G04  20376822.094 8 107080929.152 8       879.164          49.000    20376823.508 8  83439703.892 8       685.066          49.000
G09  22042286.977 7 115833089.796 7      2861.703          46.000    22042289.867 7  90259538.260 7      2229.899          46.000
G17  22307891.664 6 117228751.042 6     -1295.398          37.000    22307879.773 5  91347056.310 5     -1009.395          32.000
G22  22455785.969 6 118005979.234 6     -2203.117          38.000
G31  23648174.750 6 124271981.931 6     -1561.453          38.000    23648174.648 6  96835315.349 6     -1216.711          38.000
R01  20254085.938 6 108269736.384 6     -2171.730          38.000    20254091.820 5  84209789.844 5     -1689.124          33.000
R24  20257714.336 8 108327109.379 8     -2941.324          50.000    20257717.344 7  84254419.738 7     -2287.697          47.000
C05                                                                  39731400.664 5 159981886.231 5       -18.486          34.000
C19  21844443.336 8 113749753.342 8     -1019.984          51.000
C20  25611413.180 5 133365336.970 5     -2639.055          34.000
E07  25872754.914 8 135962274.895 8      2282.969          48.000    25872757.000 8 104178897.160 8      1749.315          51.000
E08  21396894.945 8 112441456.996 8       153.121          51.000    21396895.312 8  86156446.486 8       117.345          51.000
E13  23392922.984 8 122930647.953 8      -320.133          51.000    23392924.555 8  94193608.727 8      -245.282          51.000
E15  25229329.984 8 132581023.472 8     -2739.723          50.000    25229335.320 8 101588077.341 8     -2099.175          51.000
> 2020 05 10 22 08  0.0000000  0 17        .000000000000
G01  22795127.930 7 119789197.301 7     -3253.934          44.000    22795132.078 7  93342247.506 7     -2535.533          44.000
G03  20774188.766 8 109169103.818 8     -1266.367          51.000    20774190.062 8  85066876.802 8      -986.780          51.000
G04  20371890.352 8 107055013.665 8       852.707          48.000    20371892.070 8  83419510.026 8       664.447          48.000
G09  22026019.688 8 115747604.815 8      2841.523          49.000    22026022.992 8  90192926.602 8      2214.174          49.000
G17  22315374.633 6 117268073.027 6     -1321.969          36.000    22315367.617 5  91377696.738 5     -1030.102          35.000
G22  22468418.953 6 118072365.507 6     -2218.301          37.000
G31  23657181.961 6 124319312.376 6     -1589.055          38.000    23657181.227 6  96872196.256 6     -1238.224          38.000
R01  20266336.117 6 108335219.947 6     -2189.645          39.000    20266341.484 5  84260721.463 5     -1703.060          34.000
R02  20215001.367 5 107871125.587 5      1716.672          31.000    20215015.859 5  83899796.559 5      1335.186          30.000
R24  20274311.531 8 108415862.545 8     -2971.148          51.000    20274314.922 7  84323450.003 7     -2310.893          46.000
C05                                                                  39731577.875 5 159982599.261 5       -26.016          33.000
C19  21850379.531 8 113780664.331 8     -1036.512          51.000
C20  25626661.477 5 133444728.550 5     -2649.293          33.000
E07  25859777.016 7 135894078.879 7      2267.809          47.000    25859780.117 8 104126643.096 8      1737.609          51.000
E08  21396086.531 8 112437209.265 8       134.461          51.000    21396086.852 8  86153191.743 8       103.052          51.000
E13  23394828.852 8 122940664.379 8      -343.277          51.000    23394830.875 8  94201283.663 8      -262.977          51.000
E15  25245029.188 8 132663526.667 8     -2756.160          50.000    25245034.453 8 101651294.088 8     -2111.830          51.000
> 2020 05 10 22 08 30.0000000  0 14        .000000000000
G01  22813724.070 7 119886920.918 7     -3267.988          44.000    22813729.227 7  93418395.792 7     -2546.481          44.000
G03  20781440.242 8 109207210.723 8     -1281.043          51.000    20781441.375 8  85096570.484 8      -998.215          51.000
G04  20367066.836 8 107029667.068 8       830.008          49.000    20367068.180 8  83399759.425 8       646.759          49.000
G09  22009825.367 8 115662500.622 8      2825.191          50.000    22009827.977 8  90126611.709 8      2201.451          50.000
G17  22322964.086 5 117307953.063 5     -1343.961          32.000    22322959.766 5  91408772.037 5     -1047.239          33.000
G22  22481095.570 6 118138979.197 6     -2229.418          40.000    22481099.422 5  92056346.632 5     -1737.200          30.000
G31  23666303.141 6 124367242.330 6     -1613.133          36.000    23666302.062 6  96909544.301 6     -1256.987          36.000
R01  20278646.828 6 108401026.069 6     -2203.922          36.000    20278651.805 5  84311904.004 5     -1714.161          34.000
R24  20291033.242 8 108505280.581 8     -2997.078          51.000    20291036.586 7  84392997.360 7     -2331.061          44.000
C19  21856367.641 8 113811846.239 8     -1049.211          51.000
E07  25846843.266 8 135826112.847 8      2256.430          49.000    25846847.070 8 104074565.234 8      1728.962          51.000
E08  21395341.375 8 112433294.089 8       119.594          51.000    21395341.797 8  86150191.828 8        91.730          51.000
E13  23396823.500 8 122951147.390 8      -362.434          51.000    23396825.938 8  94209316.123 8      -277.745          51.000
E15  25260779.727 8 132746297.324 8     -2768.832          50.000    25260783.969 8 101714715.745 8     -2121.453          49.000
> 2020 05 10 22 09  0.0000000  0 14        .000000000000
G01  22832406.523 7 119985096.784 7     -3266.117          46.000    22832411.633 7  93494896.522 7     -2545.023          46.000
G03  20788782.227 8 109245793.122 8     -1280.172          51.000    20788783.305 8  85126634.681 8      -997.537          51.000
G04  20362379.422 8 107005033.764 8       823.133          50.000    20362380.477 8  83380564.659 8       641.402          49.000
G09  21993731.109 8 115577923.122 8      2824.293          49.000    21993731.875 8  90060707.246 8      2200.751          49.000
G22  22493842.773 6 118205964.425 6     -2224.801          36.000    22493840.883 3  92108534.835 3     -1733.614          20.000
R01  20291044.031 5 108467299.673 5     -2202.410          33.000    20291049.406 5  84363450.148 5     -1712.983          32.000
R23  23126196.180 5 123709509.460 5     -4595.227          32.000
R24  20307906.492 8 108595506.833 8     -3006.941          51.000    20307908.617 7  84463173.265 7     -2338.735          43.000
C19  21862435.062 8 113843441.383 8     -1046.324          51.000
C22  22883291.969 4 119159333.573 4      1568.992          29.000
E07  25833981.164 8 135758521.456 8      2260.613          50.000    25833985.531 8 104022774.458 8      1732.230          51.000
E08  21394686.922 8 112429855.251 8       120.543          51.000    21394687.281 8  86147556.884 8        92.391          51.000
E13  23398934.516 8 122962241.594 8      -366.133          51.000    23398937.188 8  94217816.886 8      -280.573          51.000
E15  25276608.719 8 132829478.491 8     -2765.625          50.000    25276610.820 7 101778451.928 7     -2119.154          47.000
> 2020 05 10 22 09 30.0000000  0 17        .000000000000
G01  22851091.070 7 120083281.043 7     -3282.457          47.000    22851095.891 7  93571403.777 7     -2557.756          47.000
G03  20796130.523 8 109284408.449 8     -1297.199          51.000    20796131.445 8  85156724.524 8     -1010.805          51.000
G04  20357743.586 8 106980671.589 8       798.086          50.000    20357744.344 8  83361581.171 8       621.888          49.000
G09  21977652.445 7 115493431.579 7      2805.527          47.000    21977652.320 7  89994869.701 7      2186.125          47.000
G22  22506576.773 6 118272878.324 6     -2238.520          36.000    22506570.078 4  92160641.570 4     -1744.292          29.000
R01  20303444.367 5 108533589.070 5     -2219.891          33.000    20303449.570 5  84415008.617 5     -1726.585          31.000
R02  20186389.594 5 107718464.743 5      1674.305          32.000    20186396.578 4  83781032.537 4      1302.237          26.000
R23  23151994.203 5 123847502.486 5     -4607.137          35.000
R24  20324846.188 8 108686088.101 8     -3034.898          51.000    20324847.055 7  84533625.303 7     -2360.480          43.000
C05                                                                  39732166.602 5 159984970.299 5       -28.149          33.000
C19  21868497.562 8 113875010.889 8     -1061.230          51.000
C20  25672484.125 5 133683344.696 5     -2654.141          31.000
C22  22874291.695 5 119112443.342 5      1553.617          33.000
E07  25821106.500 8 135690862.870 8      2246.902          51.000    25821111.078 8 103970932.176 8      1721.751          51.000
E08  21394038.773 8 112426449.893 8       103.594          51.000    21394039.188 8  86144947.596 8        79.350          51.000
E13  23401077.695 8 122973504.964 8      -387.723          51.000    23401080.406 8  94226447.265 8      -297.062          51.000
E15  25292431.477 8 132912626.620 8     -2780.535          48.000    25292431.812 7 101842162.783 7     -2130.468          47.000
> 2020 05 10 22 10  0.0000000  0 15        .000000000000
G01  22869834.445 7 120181774.471 7     -3281.309          46.000    22869838.922 7  93648151.887 7     -2556.864          46.000
G03  20803542.570 8 109323358.580 8     -1296.906          51.000    20803543.398 8  85187075.265 8     -1010.576          51.000
G04  20353216.789 8 106956882.885 8       790.348          49.000    20353217.016 8  83343044.543 8       615.855          48.000
G09  21961647.703 8 115409329.699 8      2804.004          48.000    21961648.961 8  89929335.781 8      2184.938          48.000
G17  22346332.195 5 117430754.833 5     -1381.871          33.000
G22  22519354.766 5 118340007.112 5     -2235.898          33.000
R01  20315905.375 5 108600199.753 5     -2218.637          35.000    20315910.031 5  84466816.959 5     -1725.606          30.000
R23  23177823.484 5 123985682.514 5     -4601.613          32.000
R24  20341908.758 8 108777328.964 8     -3045.242          51.000    20341909.461 7  84604590.391 7     -2368.522          44.000
C19  21874612.695 8 113906853.670 8     -1058.984          51.000
C20  25687761.609 5 133762894.310 5     -2646.039          31.000
E07  25808276.516 8 135623439.882 8      2250.484          51.000    25808280.945 8 103919270.416 8      1724.406          51.000
E08  21393454.195 8 112423379.736 8       103.766          51.000    21393455.164 8  86142595.153 8        79.494          51.000
E13  23403310.961 8 122985240.208 8      -392.043          51.000    23403313.500 8  94235439.214 8      -300.412          51.000
E15  25308305.109 7 132996042.865 7     -2777.895          46.000    25308305.672 8 101906079.099 8     -2128.555          48.000
> 2020 05 10 22 10 30.0000000  0 15        .000000000000
G01  22888627.352 8 120280528.997 8     -3297.270          48.000    22888631.703 8  93725103.439 8     -2569.301          48.000
G03  20811009.500 8 109362596.995 8     -1313.750          51.000    20811010.312 8  85217650.648 8     -1023.701          51.000
G04  20348790.328 8 106933621.429 8       765.449          50.000    20348790.289 8  83324918.758 8       596.454          48.000
G09  21945709.156 8 115325572.747 8      2785.062          50.000    21945711.539 8  89864070.616 8      2170.179          50.000
G22  22532167.844 5 118407335.858 5     -2249.070          35.000
R01  20328416.992 6 108667082.924 6     -2234.930          37.000    20328421.898 5  84518837.187 5     -1738.282          31.000
R23  23203674.406 5 124124004.535 5     -4613.621          32.000
R24  20359085.141 8 108869178.967 8     -3072.941          51.000    20359085.672 7  84676029.290 7     -2390.066          45.000
C19  21880771.531 8 113938923.297 8     -1073.871          51.000
C20  25703042.047 4 133842484.540 4     -2654.367          29.000
E03                                                                  25411740.039 5 102322551.568 5     -1660.503          34.000
E07  25795482.547 8 135556206.545 8      2236.848          51.000    25795486.727 8 103867753.988 8      1713.966          51.000
E08  21392924.500 8 112420598.003 8        86.828          51.000    21392926.055 8  86140463.698 8        66.549          51.000
E13  23405625.289 8 122997401.306 8      -413.531          51.000    23405627.594 8  94244757.455 8      -316.895          51.000
E15  25324220.016 7 133079679.684 7     -2792.523          44.000    25324222.555 8 101970164.490 8     -2139.798          50.000
> 2020 05 10 22 11  0.0000000  0 16        .000000000000
G01  22907469.109 8 120379539.466 8     -3303.359          48.000    22907472.750 8  93802254.441 8     -2574.046          49.000
G03  20818530.469 8 109402119.689 8     -1320.629          51.000    20818531.305 8  85248447.546 8     -1029.061          51.000
G04  20344463.508 8 106910883.773 8       750.684          50.000    20344463.500 8  83307201.122 8       584.948          49.000
G09  21929836.266 8 115242158.623 8      2776.188          49.000    21929838.719 8  89799072.580 8      2163.263          49.000
G17  22362376.500 6 117515071.572 6     -1420.371          37.000    22362377.109 6  91570188.172 6     -1106.783          36.000
G22  22545012.961 4 118474842.582 4     -2251.027          29.000
R01  20340978.688 6 108734233.246 6     -2241.680          36.000    20340984.547 5  84571065.156 5     -1743.532          30.000
R23  23229555.922 5 124262449.804 5     -4615.113          33.000
R24  20376374.086 8 108961631.059 8     -3090.324          50.000    20376374.977 7  84747936.476 7     -2403.586          46.000
C19  21886973.023 8 113971215.642 8     -1078.691          51.000
C20  25718330.844 5 133922097.869 5     -2652.832          32.000
E03                                                                  25424117.742 5 102372384.865 5     -1661.922          34.000
E07  25782724.305 8 135489159.872 8      2233.277          51.000    25782727.758 8 103816380.603 8      1711.224          51.000
E08  21392449.117 8 112418100.609 8        80.004          51.000    21392450.820 8  86138550.124 8        61.242          51.000
E13  23408019.719 8 123009984.971 8      -425.051          51.000    23408021.852 8  94254399.470 8      -325.730          51.000
E15  25340175.398 7 133163532.281 7     -2797.258          44.000    25340180.555 8 102034415.250 8     -2143.365          50.000
> 2020 05 10 22 11 30.0000000  0 16        .000000000000
G01  22926352.930 8 120478771.502 8     -3311.594          49.000    22926355.281 8  93879578.083 8     -2580.463          49.000
G03  20826099.211 8 109441893.615 8     -1330.105          51.000    20826099.953 8  85279440.206 8     -1036.446          51.000
G04  20340230.125 8 106888637.155 8       733.301          50.000    20340230.242 8  83289866.105 8       571.406          50.000
G09  21914022.766 8 115159056.105 8      2764.793          50.000    21914024.688 8  89734317.396 8      2154.384          50.000
G17  22370536.141 6 117557948.636 6     -1436.746          39.000    22370535.781 6  91603598.857 6     -1119.542          39.000
G22  22557890.227 5 118542512.954 5     -2257.707          34.000
R01  20353584.219 6 108801615.380 6     -2250.000          37.000    20353589.891 5  84623473.466 5     -1750.000          30.000
R23  23255450.367 5 124400987.155 5     -4618.922          31.000
R24  20393768.266 8 109054648.855 8     -3110.086          49.000    20393770.344 7  84820283.653 7     -2418.956          47.000
C19  21893210.734 8 114003697.561 8     -1085.965          51.000
C20  25733621.500 5 134001708.310 5     -2653.941          30.000
E03                                                                  25436513.484 5 102422290.814 5     -1665.068          34.000
E07  25769995.352 8 135422267.435 8      2227.145          51.000    25769997.836 8 103765125.404 8      1706.495          51.000
E08  21392021.570 8 112415854.246 8        70.617          51.000    21392023.305 8  86136828.890 8        54.142          51.000
E13  23410488.375 8 123022958.707 8      -439.016          51.000    23410490.242 8  94264340.365 8      -336.401          51.000
E15  25356166.672 7 133247566.765 7     -2804.262          46.000    25356172.859 8 102098805.320 8     -2148.702          50.000
> 2020 05 10 22 12  0.0000000  0 15        .000000000000
G01  22945284.297 8 120578254.301 8     -3320.145          48.000    22945284.117 8  93957097.135 8     -2587.129          48.000
G03  20833721.523 8 109481949.289 8     -1339.703          51.000    20833722.234 8  85310652.426 8     -1043.921          51.000
G04  20336096.188 8 106866912.549 8       715.777          51.000    20336096.594 8  83272937.854 8       557.749          51.000
G09  21898274.609 8 115076297.582 8      2752.969          50.000    21898276.211 8  89669830.307 8      2145.170          50.000
G17  22378790.188 6 117601324.247 6     -1454.023          40.000    22378788.492 6  91637398.023 6     -1133.005          39.000
G19  22181118.445 5 116562565.186 5      -449.465          34.000
R01  20366238.555 6 108869259.027 6     -2258.992          36.000    20366244.031 5  84676085.179 5     -1756.997          31.000
R24  20411273.914 8 109148260.529 8     -3130.051          49.000    20411276.922 8  84893092.731 8     -2434.484          48.000
C19  21899490.562 8 114036399.088 8     -1093.520          51.000
C20  25748917.070 5 134081346.137 5     -2654.895          33.000
E03                                                                  25448931.953 5 102472286.336 5     -1667.795          34.000
E07  25757301.500 8 135355560.728 8      2220.676          51.000    25757303.414 8 103714012.503 8      1701.527          51.000
E08  21391647.656 8 112413889.227 8        61.035          51.000    21391649.523 8  86135323.254 8        46.743          51.000
E13  23413037.352 8 123036353.659 8      -453.297          51.000    23413039.086 8  94274604.025 8      -347.346          51.000
E15  25372198.922 8 133331812.773 8     -2811.465          48.000    25372205.133 8 102163357.455 8     -2154.290          50.000
> 2020 05 10 22 12 30.0000000  0 17        .000000000000
G01  22964266.664 7 120678007.604 7     -3328.145          47.000    22964264.734 7  94034826.978 7     -2593.359          47.000
G03  20841401.359 8 109522307.666 8     -1348.930          51.000    20841402.234 8  85342100.510 8     -1051.114          51.000
G04  20332065.773 8 106845731.130 8       698.504          51.000    20332066.227 8  83256432.862 8       544.289          51.000
G09  21882596.148 8 114993905.779 8      2741.531          50.000    21882597.742 8  89605628.958 8      2136.258          50.000
G17  22387142.602 6 117645218.070 6     -1470.215          40.000    22387137.602 6  91671600.956 6     -1145.625          39.000
G19  22183750.742 5 116576410.722 5      -470.551          33.000
R01  20378946.969 6 108937183.956 6     -2267.262          38.000    20378951.312 5  84728915.639 5     -1763.426          30.000
R23  23307322.219 5 124678431.844 5     -4627.738          33.000
R24  20428893.898 8 109242484.297 8     -3149.625          48.000    20428898.016 8  84966377.904 8     -2449.705          48.000
C19  21905816.570 8 114069340.748 8     -1100.664          51.000
C20  25764220.648 5 134161031.867 5     -2655.582          32.000
C22  22821199.078 5 118835978.659 5      1513.555          30.000
E03                                                                  25461375.508 5 102522387.037 5     -1670.632          32.000
E07  25744646.641 8 135289061.285 8      2214.609          51.000    25744648.930 8 103663058.391 8      1696.926          51.000
E08  21391331.297 8 112412226.357 8        51.801          51.000    21391333.461 8  86134049.134 8        39.709          51.000
E13  23415670.422 8 123050191.417 8      -467.207          51.000    23415672.523 8  94285206.975 8      -358.005          51.000
E15  25388275.289 8 133416290.335 8     -2818.348          48.000    25388281.273 8 102228087.003 8     -2159.489          50.000
> 2020 05 10 22 13  0.0000000  0 18        .000000000000
G01  22983287.258 7 120777965.805 7     -3335.980          45.000    22983285.891 7  94112716.472 7     -2599.465          45.000
G03  20849126.633 8 109562904.501 8     -1357.719          51.000    20849127.805 8  85373734.419 8     -1057.963          51.000
G04  20328126.383 8 106825029.123 8       681.457          51.000    20328126.781 8  83240301.430 8       531.005          51.000
G09  21866975.336 8 114911818.294 8      2730.609          48.000    21866977.141 8  89541664.700 8      2127.748          48.000
G17  22395581.148 6 117689564.009 6     -1486.309          38.000    22395573.703 6  91706156.184 6     -1158.159          38.000
G19  22186502.969 5 116590862.347 5      -492.016          32.000
R01  20391693.977 4 109005323.436 4     -2275.684          28.000    20391697.570 5  84781913.049 5     -1769.976          30.000
R02  20122128.867 5 107375551.841 5      1588.566          33.000
R23  23333283.859 5 124817296.207 5     -4630.516          33.000
R24  20446615.148 8 109337251.858 8     -3168.605          48.000    20446620.484 7  85040086.022 7     -2464.468          47.000
C19  21912176.500 8 114102458.561 8     -1107.484          51.000
C20  25779520.367 5 134240701.904 5     -2655.793          32.000
C22  22812498.820 5 118790664.762 5      1506.418          34.000
E03                                                                  25473830.523 5 102572559.222 5     -1673.478          31.000
E07  25732019.406 8 135222705.836 8      2208.758          51.000    25732022.234 8 103612214.618 8      1692.434          51.000
E08  21391060.039 8 112410801.098 8        42.910          51.000    21391062.500 8  86132957.068 8        32.843          51.000
E13  23418375.492 8 123064408.251 8      -480.914          51.000    23418378.109 8  94296100.389 8      -368.496          51.000
E15  25404382.938 8 133500934.210 8     -2824.789          49.000    25404388.672 8 102292943.974 8     -2164.560          50.000
> 2020 05 10 22 13 30.0000000  0 17        .000000000000
G01  23002349.594 7 120878144.231 7     -3347.918          44.000    23002350.070 7  94190777.592 7     -2608.767          44.000
G03  20856900.492 8 109603756.459 8     -1371.383          50.000    20856901.938 8  85405567.118 8     -1068.610          50.000
G04  20324281.430 8 106804823.417 8       659.758          51.000    20324282.047 8  83224556.746 8       514.097          51.000
G09  21851415.789 8 114830053.619 8      2714.723          49.000    21851417.547 8  89477951.967 8      2115.368          49.000
G17  22404108.031 5 117734377.448 5     -1507.508          34.000    22404100.953 5  91741075.721 5     -1174.678          35.000
G19  22189369.250 5 116605922.429 5      -518.129          31.000
R01  20404486.680 4 109073657.254 4     -2288.645          29.000    20404488.211 5  84835085.702 5     -1780.057          31.000
R02  20113234.727 5 107328069.795 5      1571.578          35.000
R17  19774497.680 6 105817337.701 6       908.535          36.000
R23  23359258.891 5 124956244.086 5     -4638.516          32.000
R24  20464441.438 8 109432577.170 8     -3192.258          50.000    20464446.219 7  85114227.915 7     -2482.867          46.000
C19  21918573.328 8 114135768.814 8     -1118.910          51.000
C22  22803836.930 5 118745550.433 5      1495.113          34.000
E07  25719423.250 8 135156511.590 8      2198.332          51.000    25719426.180 8 103561494.391 8      1684.439          51.000
E08  21390836.898 8 112409629.946 8        29.281          51.000    21390839.477 8  86132059.696 8        22.475          51.000
E13  23421156.047 8 123079021.386 8      -499.129          51.000    23421158.938 8  94307297.457 8      -382.464          51.000
E15  25420525.133 8 133585760.263 8     -2835.910          49.000    25420530.320 8 102357940.549 8     -2173.096          49.000
> 2020 05 10 22 14  0.0000000  0 16        .000000000000
G01  23021493.688 7 120978751.878 7     -3355.418          44.000    23021496.359 7  94269173.139 7     -2614.611          44.000
G03  20864762.922 8 109645073.680 8     -1379.691          50.000    20864764.555 8  85437762.369 8     -1075.084          50.000
G04  20320570.922 8 106785324.441 8       643.527          51.000    20320571.547 8  83209362.761 8       501.453          51.000
G09  21835958.227 8 114748823.683 8      2704.055          51.000    21835959.445 8  89414655.936 8      2107.059          50.000
G17  22412764.555 6 117779866.669 6     -1522.660          39.000    22412758.438 6  91776521.924 6     -1186.488          39.000
R01  20417356.016 5 109142468.329 5     -2296.062          33.000    20417364.438 5  84888605.342 5     -1785.826          30.000
R02  20104445.133 5 107281166.922 5      1559.344          32.000    20104450.016 4  83440908.279 4      1212.826          27.000
R17  19769485.969 5 105790532.872 5       881.887          34.000
R23  23385288.539 5 125095485.553 5     -4640.637          33.000
R24  20482411.766 8 109528670.972 8     -3210.527          49.000    20482415.672 7  85188967.512 7     -2497.077          47.000
C19  21925046.898 8 114169479.430 8     -1125.105          51.000
C22  22795252.547 5 118700844.173 5      1488.738          35.000
E07  25706898.133 8 135090689.533 8      2193.227          51.000    25706900.641 8 103511059.355 8      1680.485          51.000
E08  21390702.242 8 112408922.797 8        21.129          51.000    21390704.547 8  86131517.859 8        16.214          51.000
E13  23424052.383 8 123094241.547 8      -512.141          51.000    23424055.211 8  94318959.662 8      -392.425          51.000
E15  25436742.062 8 133670977.666 8     -2841.781          49.000    25436746.258 8 102423236.987 8     -2177.427          50.000
> 2020 05 10 22 14 30.0000000  0 18        .000000000000
G01  23040639.195 7 121079363.568 7     -3352.895          45.000    23040643.164 7  94347571.831 7     -2612.648          45.000
G03  20872633.250 8 109686432.498 8     -1378.512          49.000    20872634.836 8  85469990.031 8     -1074.165          49.000
G04  20316914.352 8 106766108.829 8       636.922          51.000    20316914.625 8  83194389.567 8       496.303          51.000
