     3.02           OBSERVATION DATA    M (MIXED)           RINEX VERSION / TYPE
SAVERINEX           SC600               20200507 085931 LCL PGM / RUN BY / DATE
       G = GPS       R = GLONASS       C = COMPASS          COMMENT
       S = SBAS      J = QZSS          E = GALILEO          COMMENT
BEAN                                                        MARKER NAME
1                                                           MARKER NUMBER
GEODETIC                                                    MARKER TYPE
Unige DICCA         GTER                                    OBSERVER / AGENCY
SC60291900056       SC600               2.12(191226)        REC # / TYPE / VERS
                    HEMA45          NONE                    ANT # / TYPE
  4509407.8091   693652.4678  4442337.6214                  APPROX POSITION XYZ
        0.0000        0.0000        0.0000                  ANTENNA: DELTA H/E/N
G    8 C1C L1C D1C S1C C2Y L2Y D2Y S2Y                      SYS / # / OBS TYPES
R    8 C1C L1C D1C S1C C2P L2P D2P S2P                      SYS / # / OBS TYPES
C    8 C1I L1I D1I S1I C7I L7I D7I S7I                      SYS / # / OBS TYPES
E    8 C1C L1C D1C S1C C7Q L7Q D7Q S7Q                      SYS / # / OBS TYPES
DBHZ                                                        COMMENT
     30.000                                                 INTERVAL
  2020    05    07    06    00    0.0000000     GPS         TIME OF FIRST OBS
  2020    05    07    06    59   30.0000000     GPS         TIME OF LAST OBS
     0                                                      RCV CLOCK OFFS APPL
G L1C  0.00000                                              SYS / PHASE SHIFT
G L2Y  0.00000                                              SYS / PHASE SHIFT
R L1C  0.00000                                              SYS / PHASE SHIFT
R L2P  0.25000                                              SYS / PHASE SHIFT
C L1I  0.00000                                              SYS / PHASE SHIFT
C L7I  0.00000                                              SYS / PHASE SHIFT
E L1C  0.50000                                              SYS / PHASE SHIFT
E L7Q -0.25000                                              SYS / PHASE SHIFT
 13 R01  1 R02 -4 R06 -4 R07  5 R08  6 R09 -2 R10 -7 R11  0 GLONASS SLOT / FRQ #
    R12 -1 R19  3 R20  2 R21  4 R22 -3                      GLONASS SLOT / FRQ #
 C1C   71.950 C2C   71.950 C2P   71.950                     GLONASS COD/PHS/BIS
    18                                                      LEAP SECONDS
*** Above antenna height is from mark to ANTENNA BOTTOM.    COMMENT
    17     4        0.0000        ANT MEASURE TYPE/HEIGT    COMMENT
    0.0000    0.0000    0.0458    0.0405    0.0000          COMMENT
                    BASE STATION                            COMMENT
                                                            END OF HEADER
> 2020 05 07 06 00  0.0000000  0 16        .000000000000
G13  20534169.227 8 107907780.218 8     -1430.043          49.000    20534168.539 8  84083978.188 8     -1114.316          49.000
G15  20316994.281 8 106766516.995 8       114.773          51.000    20316992.812 8  83194693.952 8        89.434          51.000
G19  23796436.750 6 125051129.236 6      3270.262          39.000    23796432.992 6  97442409.114 6      2548.253          38.000
G24  22077461.664 5 116017819.945 5      2491.074          31.000
G28  21951979.562 7 115358408.051 7     -2310.492          44.000    21951977.562 5  89889679.644 5     -1800.387          33.000
R01  19988417.875 7 106849545.758 7     -2591.066          45.000    19988423.555 6  83105206.837 6     -2015.277          41.000
R08  22958657.922 5 122942548.948 5     -4439.309          32.000    22958658.531 4  95622007.220 4     -3452.799          28.000
R11  19469645.453 7 104039939.784 7      -921.156          43.000    19469648.023 6  80919922.986 6      -716.455          41.000
R12  20713271.695 4 110646581.852 4      2257.723          28.000    20713280.578 5  86058478.758 5      1756.007          31.000
C05  39766469.844 5 207074443.294 5        23.406          35.000    39766467.492 6 160123088.162 6        17.737          38.000
C19  22437755.922 8 116839283.463 8     -1431.145          51.000
C20  25240493.469 5 131433747.275 5     -3383.324          32.000
E01  23663979.352 8 124355045.950 8      -745.574          51.000    23663981.000 8  95285108.302 8      -571.314          51.000
E04  23726071.875 8 124681342.695 8     -1064.941          51.000    23726075.086 8  95535062.155 8      -815.958          51.000
E19  27586546.203 6 144968250.807 6     -2993.863          39.000
E31  24672151.289 8 129653031.462 8      1835.582          50.000    24672153.695 8  99344584.671 8      1406.434          51.000
> 2020 05 07 06 00 30.0000000  0 15        .000000000000
G13  20542375.742 8 107950904.664 8     -1441.316          51.000    20542375.328 8  84117581.638 8     -1123.104          50.000
G15  20316389.398 8 106763338.866 8       100.621          51.000    20316388.164 8  83192217.474 8        78.406          51.000
G19  23777783.352 6 124953106.785 6      3267.734          40.000    23777780.391 6  97366027.979 6      2546.290          39.000
G24  22063256.008 5 115943189.214 5      2489.078          33.000
G28  21965200.055 6 115427881.311 6     -2317.859          40.000    21965198.125 5  89943814.624 5     -1806.127          34.000
R01  20003020.320 8 106927601.864 8     -2609.035          48.000    20003025.617 6  83165917.135 6     -2029.250          41.000
R08  22983544.062 5 123075810.991 5     -4441.117          35.000    22983544.188 4  95725655.364 4     -3454.205          26.000
R11  19474857.930 7 104067793.018 7      -931.949          43.000    19474861.156 6  80941586.591 6      -724.849          41.000
C05  39766335.953 5 207073746.020 5        26.781          35.000    39766333.594 6 160122548.934 6        20.920          38.000
C10  39998064.836 4 208280396.310 4      -880.633          28.000    39998063.609 5 161055624.743 5      -680.798          34.000
C19  22446044.477 8 116882445.093 8     -1442.734          50.000
E01  23668262.094 8 124377551.286 8      -751.066          51.000    23668263.680 8  95302352.647 8      -575.483          51.000
E04  23732185.836 8 124713470.902 8     -1073.227          51.000    23732188.648 8  95559679.876 8      -822.354          51.000
E19  27603646.062 6 145058112.686 6     -2993.211          37.000    27603652.500 5 111148464.494 5     -2293.275          31.000
E31  24661695.312 8 129598087.421 8      1831.074          51.000    24661698.727 8  99302484.691 8      1402.989          51.000
> 2020 05 07 06 01  0.0000000  0 16        .000000000000
G13  20550679.383 8 107994539.268 8     -1467.750          51.000    20550679.156 8  84151582.608 8     -1143.701          51.000
G15  20315898.648 8 106760759.975 8        71.207          51.000    20315897.477 8  83190207.943 8        55.486          51.000
G19  23759177.094 7 124855329.737 7      3250.312          44.000    23759174.281 6  97289838.152 6      2532.711          39.000
G28  21978491.547 6 115497731.117 6     -2339.508          38.000    21978489.641 6  89998243.124 6     -1822.996          36.000
R01  20017755.781 8 107006367.435 8     -2642.148          48.000    20017760.180 7  83227179.217 7     -2055.004          42.000
R08  23008473.453 5 123209307.556 5     -4458.520          35.000
R11  19480161.281 6 104096136.579 6      -957.734          41.000    19480165.695 6  80963631.596 6      -744.905          40.000
R12  20688068.695 5 110511955.995 5      2224.746          32.000    20688076.391 6  85953766.551 6      1730.355          36.000
C05  39766212.656 5 207073104.105 5        15.812          35.000    39766210.281 6 160122052.573 6        12.091          38.000
C10  40003169.008 4 208306997.539 4      -891.566          29.000    40003170.289 5 161076183.613 5      -690.132          34.000
C19  22454432.055 8 116926125.624 8     -1469.426          49.000
C20  25279540.359 5 131637224.156 5     -3398.059          31.000
E01  23672608.812 8 124400393.131 8      -771.762          51.000    23672610.445 8  95319854.846 8      -591.353          51.000
E04  23738380.195 8 124746022.221 8     -1096.922          51.000    23738382.773 8  95584621.780 8      -840.487          51.000
E19  27620777.484 6 145148138.664 6     -3008.559          37.000    27620783.797 5 111217449.398 5     -2305.400          32.000
E31  24651298.594 8 129543453.432 8      1811.168          51.000    24651302.891 8  99260622.286 8      1387.793          51.000
> 2020 05 07 06 01 30.0000000  0 15        .000000000000
G13  20559056.281 8 108038558.886 8     -1474.449          51.000    20559055.992 8  84185883.591 8     -1148.921          50.000
G15  20315498.297 8 106758655.814 8        61.539          51.000    20315497.047 8  83188568.330 8        47.953          51.000
G19  23740595.000 7 124757676.701 7      3252.375          46.000    23740591.148 6  97213744.899 6      2534.318          39.000
G28  21991830.484 6 115567830.634 6     -2341.562          41.000    21991828.070 6  90052866.091 6     -1824.597          36.000
R01  20032599.500 8 107085712.930 8     -2655.113          48.000    20032603.695 7  83288892.345 7     -2065.088          43.000
R08  23033421.742 5 123342907.756 5     -4455.777          31.000
R11  19485532.688 6 104124841.817 6      -963.594          41.000    19485536.453 6  80985957.860 6      -749.465          38.000
R12  20675575.344 5 110445218.973 5      2219.980          35.000    20675575.977 6  85901834.123 6      1726.651          37.000
C05  39766076.195 6 207072393.749 6        23.938          36.000    39766073.820 6 160121503.276 6        18.504          38.000
C19  22462895.766 8 116970199.885 8     -1476.320          50.000
C20  25299075.773 4 131738928.922 4     -3393.262          28.000
E01  23676995.469 8 124423445.407 8      -772.602          51.000    23676997.172 8  95337518.284 8      -591.996          51.000
E04  23744631.086 8 124778871.370 8     -1100.574          51.000    23744633.539 8  95609791.874 8      -843.324          51.000
E19  27637916.586 6 145238202.513 6     -3003.551          36.000    27637924.516 5 111286467.341 5     -2301.584          31.000
E31  24640937.508 8 129489004.696 8      1811.262          51.000    24640942.078 8  99218901.832 8      1387.850          51.000
> 2020 05 07 06 02  0.0000000  0 16        .000000000000
G13  20567517.906 8 108083023.720 8     -1487.852          51.000    20567517.648 8  84220531.511 8     -1159.365          51.000
G15  20315200.008 8 106757087.999 8        44.969          51.000    20315198.961 8  83187346.646 8        35.041          51.000
G19  23722048.844 7 124660212.097 7      3247.410          47.000    23722045.328 7  97137798.477 7      2530.453          42.000
G28  22005228.398 6 115638238.575 6     -2350.633          39.000    22005226.375 5  90107729.415 5     -1831.665          34.000
R01  20047562.352 8 107165697.060 8     -2675.035          48.000    20047567.352 7  83351102.193 7     -2080.583          43.000
R10  22832498.070 5 121710062.239 5     -3513.492          30.000
R11  19490983.391 6 104153968.868 6      -976.219          41.000    19490987.180 6  81008612.184 6      -759.281          39.000
R12  20663155.688 5 110378806.190 5      2208.172          34.000    20663143.344 5  85850187.189 5      1717.467          35.000
C05  39765938.211 5 207071675.357 5        25.922          35.000    39765935.852 6 160120947.759 6        20.008          38.000
C10  40013362.953 4 208360074.021 4      -882.883          29.000    40013364.141 5 161117234.252 5      -682.719          34.000
C19  22471446.836 8 117014727.171 8     -1490.164          50.000
C20  25318630.508 5 131840776.143 5     -3394.672          34.000
E01  23681433.523 8 124446768.083 8      -780.141          51.000    23681435.070 8  95355388.898 8      -597.752          51.000
E04  23750950.492 8 124812079.117 8     -1111.086          51.000    23750952.141 8  95635236.769 8      -851.313          51.000
E19  27655074.055 6 145328363.990 6     -3005.043          36.000    27655083.617 5 111355560.097 5     -2302.485          31.000
E31  24630623.594 8 129434802.471 8      1804.430          51.000    24630627.562 8  99177370.251 8      1382.627          51.000
> 2020 05 07 06 02 30.0000000  0 16        .000000000000
G13  20576069.141 8 108127960.016 8     -1506.465          51.000    20576069.094 8  84255546.815 8     -1173.869          50.000
G15  20315008.867 8 106756083.589 8        23.465          51.000    20315008.016 8  83186563.967 8        18.281          51.000
G19  23703543.930 7 124562965.588 7      3237.133          47.000    23703541.258 7  97062021.999 7      2522.441          45.000
G28  22018689.805 6 115708978.660 6     -2364.273          39.000    22018688.766 5  90162851.559 5     -1842.288          35.000
R01  20062649.031 8 107246344.087 8     -2699.988          48.000    20062654.672 7  83413827.643 7     -2099.991          43.000
R10  22852316.102 5 121815676.421 5     -3518.223          34.000
R11  19496518.125 6 104183542.676 6      -993.980          40.000    19496522.352 6  81031614.053 6      -773.096          37.000
R12  20650781.648 4 110312771.716 4      2193.840          28.000    20650789.844 5  85798861.368 5      1706.326          33.000
C05  39765803.828 5 207070975.293 5        22.469          35.000    39765801.422 6 160120406.415 6        17.447          38.000
C10                                                                  40018468.969 5 161137774.233 5      -686.175          33.000
C19  22480089.734 8 117059732.480 8     -1508.773          50.000
C20  25338209.078 5 131942751.552 5     -3401.848          35.000
E01  23685927.945 8 124470386.614 8      -792.875          51.000    23685929.273 8  95373486.202 8      -607.528          51.000
E04  23757343.328 8 124845671.734 8     -1126.754          51.000    23757344.047 8  95660976.578 8      -863.381          51.000
E19  27672255.047 6 145418648.756 6     -3012.262          36.000    27672265.008 5 111424743.366 5     -2308.148          30.000
E31  24620361.438 8 129380873.522 8      1792.469          51.000    24620364.852 8  99136048.065 8      1373.405          51.000
> 2020 05 07 06 03  0.0000000  0 18        .000000000000
G13  20584690.836 8 108173266.773 8     -1512.250          51.000    20584690.562 8  84290850.798 8     -1178.377          49.000
G15  20314905.867 8 106755542.318 8        14.504          51.000    20314905.047 8  83186142.186 8        11.302          51.000
G19  23685061.766 7 124465839.910 7      3239.656          47.000    23685060.453 7  96986339.666 7      2524.407          47.000
G28  22032194.805 6 115779948.057 6     -2365.156          40.000    22032193.984 5  90218152.398 5     -1842.979          33.000
G30  24246518.453 5 127416313.647 5     -2937.082          32.000
R01  20077839.953 8 107327548.631 8     -2711.824          49.000    20077845.750 7  83476986.743 7     -2109.197          42.000
R10  22872098.680 5 121921125.133 5     -3509.852          34.000
R11  19502116.289 6 104213458.971 6      -998.559          39.000    19502118.898 5  81054882.289 5      -776.657          35.000
R12  20638494.883 4 110247128.045 4      2187.664          29.000    20638495.164 5  85747784.878 5      1701.516          31.000
C05  39765653.672 5 207070193.594 5        32.156          35.000    39765651.305 6 160119801.979 6        24.373          37.000
C10  40023557.430 4 208413169.226 4      -879.191          29.000    40023559.727 5 161158278.724 5      -679.318          34.000
C19  22488805.117 8 117105114.583 8     -1514.969          50.000
C20  25357792.367 5 132044744.577 5     -3396.117          35.000
E01  23690459.422 8 124494199.104 8      -792.770          51.000    23690460.797 8  95391732.138 8      -607.486          51.000
E04  23763789.969 8 124879548.187 8     -1129.773          51.000    23763790.266 8  95686933.833 8      -865.653          51.000
E19  27689439.875 6 145508954.560 6     -3006.453          37.000    27689448.648 5 111493936.754 5     -2303.951          32.000
E21  26880731.812 5 141259203.255 5     -2590.012          34.000    26880733.281 5 108237573.067 5     -1984.519          35.000
E31  24610131.750 8 129327117.201 8      1793.105          50.000    24610134.797 8  99094858.145 8      1373.962          51.000
> 2020 05 07 06 03 30.0000000  0 17        .000000000000
G13  20593406.430 8 108219066.222 8     -1536.133          51.000    20593405.594 8  84326538.686 8     -1196.987          48.000
G15  20314914.500 8 106755587.260 8       -12.527          51.000    20314913.500 8  83186177.198 8        -9.762          51.000
G19  23666626.492 7 124368960.722 7      3223.777          47.000    23666625.914 7  96910849.407 7      2512.034          47.000
G28  22045766.742 6 115851267.351 6     -2384.273          40.000    22045765.711 5  90273725.856 5     -1857.878          35.000
R01  20093157.938 8 107409432.542 8     -2741.992          49.000    20093163.523 7  83540674.227 7     -2132.664          42.000
R10  22891892.703 5 122026636.020 5     -3519.625          33.000
R11  19507801.766 6 104243840.444 6     -1021.746          40.000    19507804.922 6  81078512.336 6      -794.688          36.000
R12  20626281.836 5 110181894.163 5      2165.863          35.000    20626280.961 5  85697047.620 5      1684.563          30.000
C05  39765511.250 5 207069451.808 5        22.645          35.000    39765508.781 6 160119228.354 6        17.586          37.000
C10  40028659.500 4 208439732.067 4      -887.879          29.000    40028661.984 5 161178821.898 5      -686.274          34.000
C19  22497615.969 8 117150993.700 8     -1538.852          51.000
C20  25377403.297 6 132146874.594 6     -3407.625          37.000
E01  23695050.992 8 124518327.086 8      -810.766          51.000    23695052.508 8  95410219.826 8      -621.224          51.000
E04  23770313.805 8 124913830.788 8     -1150.828          51.000    23770313.891 8  95713202.281 8      -881.744          51.000
E19  27706651.703 6 145599402.901 6     -3018.414          36.000    27706658.891 5 111563239.316 5     -2313.029          32.000
E21  26895557.242 5 141337128.018 5     -2600.449          35.000    26895562.797 5 108297281.593 5     -1992.262          35.000
E31  24599958.477 8 129273656.262 8      1775.766          51.000    24599960.977 8  99053894.590 8      1360.682          51.000
> 2020 05 07 06 04  0.0000000  0 16        .000000000000
G13  20602217.891 8 108265368.986 8     -1549.469          51.000    20602216.484 7  84362618.724 7     -1207.381          47.000
G15  20315036.898 8 106756230.130 8       -28.969          51.000    20315035.773 8  83186678.133 8       -22.573          51.000
G19  23648240.984 8 124272342.894 8      3218.652          49.000    23648240.391 7  96835562.838 7      2508.041          47.000
G28  22059406.945 6 115922945.160 6     -2392.996          40.000    22059405.945 5  90329578.690 5     -1864.678          32.000
R01  20108604.906 8 107492004.135 8     -2761.367          49.000    20108609.875 7  83604896.555 7     -2147.733          43.000
R10  22911700.180 5 122132218.764 5     -3518.473          31.000
R11  19513576.312 6 104274696.698 6     -1034.086          40.000    19513579.680 5  81102511.638 5      -804.292          35.000
R12  20614156.133 5 110117108.462 5      2154.145          34.000    20614151.688 5  85646658.776 5      1675.443          32.000
C10  40033773.656 5 208466366.255 5      -887.258          30.000    40033776.250 5 161199415.608 5      -685.746          34.000
C19  22506524.125 8 117197379.467 8     -1552.195          51.000
C20  25397044.148 6 132249150.306 6     -3409.227          37.000
E01  23699704.422 8 124542780.560 8      -818.191          51.000    23699705.852 8  95428956.908 8      -626.917          51.000
E04  23776917.148 8 124948530.321 8     -1161.293          51.000    23776916.953 8  95739790.215 8      -889.801          51.000
E19  27723892.422 6 145690003.525 6     -3020.020          37.000    27723898.250 5 111632649.583 5     -2314.002          32.000
E21  26910403.969 6 141415155.036 6     -2600.465          37.000    26910411.227 5 108357068.500 5     -1992.429          34.000
E31  24589844.000 8 129220502.035 8      1769.059          51.000    24589845.922 8  99013166.048 8      1355.462          51.000
> 2020 05 07 06 04 30.0000000  0 16        .000000000000
G13  20611115.680 8 108312126.960 8     -1569.691          51.000    20611113.781 7  84399053.442 7     -1223.139          45.000
G15  20315264.047 8 106757423.721 8       -52.512          51.000    20315263.000 8  83187608.216 8       -40.918          51.000
G17  22883066.211 5 120251325.456 5      1686.871          30.000    22883060.625 4  93702297.708 4      1314.442          28.000
G19  23629896.844 8 124175941.912 8      3206.172          50.000    23629895.680 7  96760445.207 7      2498.316          47.000
G28  22073105.867 6 115994931.818 6     -2408.062          39.000    22073104.586 6  90385672.163 6     -1876.412          36.000
R01  20124170.961 8 107575212.139 8     -2787.602          49.000    20124175.117 7  83669613.846 7     -2168.135          42.000
R10  22931512.008 5 122237823.523 5     -3524.215          35.000
R11  19519429.969 6 104305977.345 6     -1053.328          40.000    19519433.492 6  81126841.016 6      -819.255          36.000
C10  40038890.812 5 208493016.224 5      -892.242          30.000    40038893.820 5 161220023.066 5      -689.965          34.000
C19  22515520.445 8 117244223.453 8     -1572.539          51.000
C20  25416704.125 6 132351522.532 6     -3417.016          36.000
E01  23704410.492 8 124567510.898 8      -832.414          51.000    23704411.766 8  95447906.134 8      -637.872          51.000
E04  23783590.859 8 124983598.972 8     -1178.574          51.000    23783590.453 8  95766660.987 8      -903.039          51.000
E19  27741152.766 5 145780707.711 5     -3029.102          35.000    27741157.750 5 111702150.157 5     -2320.524          33.000
E21  26925261.961 6 141493235.662 6     -2607.148          38.000    26925268.742 5 108416900.487 5     -1997.952          31.000
E31  24579778.797 8 129167607.114 8      1755.340          51.000    24579780.508 8  98972636.191 8      1344.995          51.000
> 2020 05 07 06 05  0.0000000  0 18        .000000000000
G13  20620089.773 8 108359286.466 8     -1579.801          51.000    20620087.320 7  84435801.054 7     -1231.014          45.000
G15  20315585.727 8 106759115.242 8       -65.852          51.000    20315585.062 8  83188926.270 8       -51.313          51.000
G17  22873451.062 5 120200799.432 5      1677.109          34.000    22873442.750 5  93662926.658 5      1306.842          32.000
G19  23611584.469 8 124079708.182 8      3203.801          50.000    23611582.773 7  96685457.881 7      2496.468          47.000
G28  22086852.844 6 116067171.972 6     -2413.387          37.000    22086850.859 5  90441963.193 5     -1880.564          35.000
R01  20139845.375 8 107658999.599 8     -2803.672          49.000    20139849.062 7  83734781.824 7     -2180.634          42.000
R10  22951316.930 5 122343394.727 5     -3519.883          35.000
R11  19525352.867 6 104337626.613 6     -1062.297          41.000    19525355.992 5  81151457.107 5      -826.234          35.000
R12  20590120.547 6 109988744.184 6      2127.242          37.000    20590107.781 5  85546770.247 5      1654.525          31.000
C05  39765104.695 5 207067335.409 5        25.016          35.000    39765102.172 6 160117597.358 6        18.558          38.000
C10  40044001.508 5 208519631.027 5      -887.512          32.000    40044004.438 5 161240603.287 5      -686.078          34.000
C19  22524594.484 8 117291471.701 8     -1582.793          51.000
C20  25436372.617 5 132453936.488 5     -3415.633          34.000
E01  23709158.938 8 124592463.949 8      -836.707          51.000    23709160.305 8  95467025.986 8      -641.092          51.000
E04  23790324.359 8 125018983.291 8     -1185.852          51.000    23790324.141 8  95793773.632 8      -908.705          51.000
E19  27758422.633 5 145871460.898 5     -3027.316          34.000    27758426.945 5 111771688.278 5     -2319.557          32.000
E21  26940120.133 6 141571315.715 6     -2603.996          39.000
E31  24569752.398 8 129114918.591 8      1751.605          51.000    24569754.391 8  98932264.472 8      1342.157          51.000
> 2020 05 07 06 05 30.0000000  0 17        .000000000000
G13  20629156.688 8 108406934.386 8     -1595.578          51.000    20629154.164 7  84472929.265 7     -1243.308          46.000
G15  20316018.789 8 106761392.458 8       -84.820          51.000    20316018.484 8  83190700.704 8       -66.094          51.000
G19  23593321.156 8 123983732.695 8      3195.664          50.000    23593319.406 7  96610671.780 7      2490.128          47.000
G28  22100664.008 6 116139750.265 6     -2423.973          40.000    22100661.664 5  90498517.713 5     -1888.813          30.000
R01  20155644.086 8 107743452.043 8     -2825.371          48.000    20155647.477 6  83800467.042 6     -2197.511          41.000
R10  22971131.023 5 122449019.440 5     -3521.117          35.000
R11  19531361.289 6 104369731.058 6     -1077.027          41.000    19531363.633 6  81176427.180 6      -837.685          36.000
R12  20578207.375 6 109925139.339 6      2113.641          39.000    20578203.391 5  85497299.864 5      1643.943          32.000
C05  39764970.648 5 207066637.817 5        23.102          35.000    39764968.234 6 160117057.112 6        18.000          37.000
C10  40049122.445 5 208546296.859 5      -889.398          31.000    40049124.883 5 161261223.013 5      -687.567          35.000
C19  22533762.125 8 117339209.323 8     -1598.633          51.000
C20  25456065.922 5 132556476.427 5     -3419.551          31.000
E01  23713966.117 8 124617725.795 8      -846.473          51.000    23713967.688 8  95486382.473 8      -648.623          51.000
E04  23797134.500 8 125054770.229 8     -1198.848          51.000    23797134.867 8  95821194.766 8      -918.613          51.000
E19  27775718.031 5 145962383.478 5     -3031.258          33.000    27775721.891 4 111841322.225 4     -2323.430          28.000
E21  26954994.945 6 141649481.307 6     -2606.020          38.000
E31  24559781.352 8 129062523.858 8      1742.297          50.000    24559783.797 8  98892117.866 8      1335.049          51.000
> 2020 05 07 06 06  0.0000000  0 18        .000000000000
G13  20638299.742 8 108454983.036 8     -1609.312          51.000    20638297.461 7  84510369.749 7     -1254.010          46.000
G15  20316546.844 8 106764168.492 8      -101.871          51.000    20316546.797 8  83192863.854 8       -79.380          51.000
G17  22854485.211 5 120101134.223 5      1647.680          32.000    22854476.117 5  93585257.096 5      1283.921          33.000
G19  23575090.570 8 123887931.164 8      3189.367          49.000    23575089.039 7  96536021.202 7      2485.221          47.000
G28  22114522.648 7 116212577.423 7     -2432.578          42.000    22114519.945 5  90555266.129 5     -1895.518          32.000
R01  20171549.492 7 107828477.684 7     -2844.688          47.000    20171553.617 6  83866598.099 6     -2212.535          41.000
R10  22990937.656 4 122554634.371 4     -3520.832          29.000
R11  19537437.805 6 104402200.401 6     -1089.656          40.000    19537439.273 5  81201681.167 5      -847.510          33.000
R12  20566359.961 6 109861881.367 6      2101.801          40.000    20566365.922 5  85448099.163 5      1634.734          35.000
C05  39764827.117 5 207065889.364 5        24.840          34.000    39764824.578 6 160116479.155 6        18.942          37.000
C10  40054236.672 5 208572926.992 5      -888.613          32.000    40054238.516 5 161281815.072 5      -686.821          34.000
C19  22543006.508 8 117387348.534 8     -1612.336          51.000
C20  25475768.562 4 132659004.853 4     -3420.664          29.000
E01  23718815.258 8 124643208.239 8      -854.094          51.000    23718816.727 8  95505907.992 8      -654.456          51.000
E04  23804004.961 8 125090872.253 8     -1209.730          51.000    23804005.656 8  95848857.344 8      -926.918          51.000
E19  27793022.570 6 146053318.706 6     -3033.141          36.000
E21  26969869.391 6 141727644.255 6     -2606.363          39.000
E31  24549849.312 8 129010335.918 8      1735.109          50.000    24549852.422 8  98852129.711 8      1329.520          51.000
> 2020 05 07 06 06 30.0000000  0 17        .000000000000
G13  20647542.531 8 108503554.408 8     -1624.172          51.000    20647540.594 8  84548217.566 8     -1265.588          48.000
G15  20317193.375 8 106767566.383 8      -120.098          51.000    20317193.422 8  83195511.551 8       -93.583          51.000
G19  23556916.461 7 123792429.610 7      3181.918          46.000    23556916.203 7  96461604.415 7      2479.420          46.000
G28  22128451.773 6 116285774.168 6     -2442.340          38.000    22128449.422 5  90612302.462 5     -1903.134          34.000
R01  20187584.336 7 107914198.321 7     -2865.262          47.000    20187589.695 6  83933269.730 6     -2228.537          40.000
R10  23010759.602 5 122660291.220 5     -3520.305          31.000
R11  19543605.734 6 104435157.239 6     -1103.211          41.000    19543604.461 5  81227314.204 5      -858.059          31.000
R12  20554603.125 6 109799094.587 6      2088.754          39.000    20554612.742 5  85399265.021 5      1624.586          31.000
C05  39764697.617 5 207065215.438 5        24.699          35.000    39764694.930 6 160115957.238 6        18.984          37.000
C10  40059367.422 5 208599642.331 5      -888.145          33.000    40059368.781 5 161302473.075 5      -686.585          35.000
C19  22552351.078 8 117436009.328 8     -1627.121          51.000
C20  25495505.273 4 132761768.982 4     -3423.207          28.000
E01  23723729.523 8 124669032.697 8      -862.934          51.000    23723730.680 8  95525695.560 8      -661.173          51.000
E04  23810958.469 8 125127411.536 8     -1221.641          51.000    23810959.352 8  95876854.965 8      -936.134          51.000
E19  27810359.344 6 146144422.028 6     -3035.770          37.000
E21  26984766.164 5 141805925.863 5     -2607.559          35.000
E31  24539980.516 8 128958477.404 8      1726.754          51.000    24539984.102 8  98812393.986 8      1323.043          51.000
> 2020 05 07 06 07  0.0000000  0 17        .000000000000
G13  20656857.328 8 108552502.748 8     -1639.172          51.000    20656855.820 8  84586359.126 8     -1277.277          49.000
G15  20317930.625 8 106771440.850 8      -138.430          51.000    20317930.469 8  83198530.632 8      -107.867          51.000
G17  22835854.523 5 120003221.583 5      1616.766          33.000    22835856.953 5  93509022.768 5      1259.823          32.000
G19  23538772.055 7 123697085.642 7      3174.043          45.000    23538773.367 7  96387310.425 7      2473.283          45.000
G28  22142422.617 5 116359192.145 5     -2452.387          32.000    22142421.258 5  90669511.356 5     -1910.948          31.000
R01  20203721.250 8 108000462.766 8     -2885.879          48.000    20203727.164 6  84000364.302 6     -2244.576          40.000
R11  19549836.922 6 104468451.729 6     -1117.023          37.000    19549835.328 5  81253209.912 5      -868.796          30.000
R12  20542908.523 6 109736631.441 6      2075.461          40.000    20542917.734 4  85350674.471 4      1614.241          27.000
C05  39764554.180 5 207064467.779 5        24.387          35.000    39764551.500 6 160115370.843 6        19.081          37.000
C10  40064486.688 5 208626298.366 5      -888.477          33.000    40064488.008 6 161323085.263 6      -687.338          36.000
C19  22561767.734 8 117485046.022 8     -1642.086          51.000
C20  25515236.430 5 132864532.422 5     -3426.742          32.000
E01  23728680.805 8 124695052.477 8      -871.922          51.000    23728681.945 8  95545632.802 8      -668.090          51.000
E04  23817966.984 8 125164242.184 8     -1233.887          51.000    23817968.172 8  95905075.815 8      -945.410          51.000
E19  27827700.117 6 146235546.688 6     -3039.285          38.000    27827702.688 5 112050627.028 5     -2328.908          32.000
E21                                                                  26999663.922 5 108716455.015 5     -1998.942          33.000
E31  24530147.414 8 128906802.955 8      1718.066          51.000    24530150.961 8  98772799.273 8      1316.426          51.000
> 2020 05 07 06 07 30.0000000  0 16        .000000000000
G13  20666262.500 8 108601925.731 8     -1654.547          51.000    20666261.281 8  84624870.517 8     -1289.257          50.000
G15  20318777.438 8 106775891.260 8      -157.172          51.000    20318777.297 8  83201998.480 8      -122.472          51.000
G19  23520677.234 7 123602001.818 7      3165.773          45.000    23520679.438 7  96313219.120 7      2466.836          45.000
G28  22156453.820 6 116432928.173 6     -2462.332          38.000    22156452.633 5  90726968.018 5     -1918.694          30.000
R01  20219979.117 8 108087368.739 8     -2906.625          49.000    20219984.406 6  84067957.788 6     -2260.708          39.000
R11  19556148.484 6 104502182.220 6     -1130.969          36.000    19556146.789 4  81279444.822 4      -879.642          28.000
R12  20531293.992 6 109674592.732 6      2061.887          37.000
C05  39764415.875 5 207063748.333 5        24.473          35.000    39764413.094 6 160114813.737 6        19.048          37.000
C10  40069613.508 5 208652992.941 5      -889.387          34.000    40069614.781 6 161343727.175 6      -688.105          36.000
C19  22571274.664 8 117534555.275 8     -1657.348          50.000
C20  25534986.703 5 132967382.839 5     -3429.504          35.000
E01  23733687.828 8 124721365.409 8      -881.215          51.000    23733688.992 8  95565794.665 8      -675.226          51.000
E04  23825049.766 8 125201462.722 8     -1246.324          51.000    23825050.922 8  95933595.435 8      -954.994          51.000
E19  27845063.438 6 146326790.151 6     -3043.164          38.000    27845064.906 5 112120537.709 5     -2330.931          32.000
E21                                                                  27014569.422 5 108776469.225 5     -2000.732          35.000
E31  24520368.500 8 128855411.571 8      1709.125          51.000    24520371.656 8  98733421.468 8      1309.571          51.000
> 2020 05 07 06 08  0.0000000  0 16        .000000000000
G13  20675751.875 8 108651791.807 8     -1669.965          51.000    20675750.695 8  84663727.185 8     -1301.271          50.000
G15  20319728.258 8 106780886.648 8      -175.930          51.000    20319728.039 8  83205890.979 8      -137.088          51.000
G19  23502626.938 7 123507150.139 7      3157.457          46.000    23502629.344 7  96239308.721 7      2460.356          44.000
G28  22170539.383 6 116506948.780 6     -2472.297          40.000    22170537.242 4  90784646.362 4     -1926.471          26.000
R01  20236350.594 8 108174880.891 8     -2927.523          49.000    20236354.742 6  84136022.738 6     -2276.966          38.000
R11  19562536.719 6 104536315.590 6     -1144.945          38.000    19562535.336 5  81305993.037 5      -890.507          32.000
R12  20519752.969 5 109612946.898 5      2047.875          34.000
C05  39764276.641 5 207063023.216 5        24.031          34.000    39764273.875 6 160114253.039 6        18.513          37.000
C10  40074741.805 5 208679694.458 5      -889.988          33.000    40074743.000 6 161364374.481 6      -688.775          36.000
C19  22580866.312 8 117584504.589 8     -1672.547          50.000
C20  25554751.312 6 133070306.161 6     -3432.086          36.000
E01  23738744.680 8 124747939.123 8      -890.383          51.000    23738745.750 8  95586156.340 8      -682.277          51.000
E04  23832200.828 8 125239041.507 8     -1258.902          51.000    23832201.766 8  95962389.572 8      -964.605          51.000
E19  27862443.242 6 146418119.712 6     -3046.094          37.000    27862443.828 5 112190515.479 5     -2333.900          32.000
E21  27029473.961 5 142040841.606 5     -2612.848          34.000    27029481.680 6 108836512.209 6     -2001.959          36.000
E31  24510637.453 8 128804272.129 8      1700.129          51.000    24510639.875 8  98694236.715 8      1302.732          51.000
> 2020 05 07 06 08 30.0000000  0 16        .000000000000
G13  20685327.648 8 108702112.602 8     -1683.621          51.000    20685326.617 8  84702938.185 8     -1311.913          50.000
G15  20320785.109 8 106786438.791 8      -193.109          51.000    20320784.727 8  83210217.321 8      -150.475          51.000
G19  23484624.266 7 123412545.670 7      3150.699          46.000    23484625.977 7  96165590.979 7      2455.093          43.000
G28  22184680.977 6 116581263.298 6     -2480.660          39.000    22184677.969 4  90842553.835 4     -1932.967          28.000
R01  20252837.336 8 108263008.346 8     -2946.551          50.000    20252840.492 6  84204566.264 6     -2291.762          39.000
R11  19569001.039 6 104570861.491 6     -1157.188          38.000    19569003.414 5  81332862.208 5      -900.029          32.000
R12  20508287.242 6 109551705.917 6      2036.066          37.000    20508304.844 4  85206868.573 4      1583.601          28.000
C05  39764138.797 5 207062305.133 5        24.945          34.000    39764135.977 6 160113697.722 6        19.736          37.000
C10  40079873.781 5 208706414.613 5      -889.766          33.000    40079874.578 6 161385036.123 6      -687.721          37.000
C19  22590544.859 8 117634904.319 8     -1686.234          50.000
C20  25574530.711 5 133173312.061 5     -3432.738          35.000
E01  23743853.281 8 124774784.367 8      -897.949          51.000    23743854.406 8  95606726.064 8      -688.042          51.000
E04  23839421.883 8 125276990.019 8     -1269.680          51.000    23839422.828 8  95991467.002 8      -972.880          51.000
E19  27879841.406 6 146509546.426 6     -3047.762          36.000    27879841.211 5 112260568.641 5     -2335.406          34.000
E21  27044395.023 5 142119254.192 5     -2613.121          35.000    27044402.906 6 108896592.264 6     -2001.953          36.000
E31  24500956.711 8 128753396.620 8      1692.879          51.000    24500958.352 8  98655254.189 8      1297.126          51.000
> 2020 05 07 06 09  0.0000000  0 16        .000000000000
G13  20694987.797 8 108752877.602 8     -1688.195          51.000    20694987.242 8  84742495.328 8     -1315.474          49.000
G15  20321946.125 8 106792539.043 8      -201.117          51.000    20321945.445 8  83214970.760 8      -156.715          51.000
G19  23466667.617 7 123318182.456 7      3152.703          46.000    23466667.812 6  96092061.277 6      2456.655          41.000
G28  22198876.336 6 116655860.202 6     -2480.082          39.000    22198873.883 4  90900676.148 4     -1932.538          28.000
R01  20269436.867 8 108351738.363 8     -2956.133          49.000    20269439.125 6  84273578.469 6     -2299.214          39.000
R11  19575540.734 6 104605808.457 6     -1159.938          36.000    19575543.203 5  81360043.089 5      -902.183          30.000
R12  20496898.383 6 109490860.613 6      2033.199          37.000    20496919.641 5  85159544.404 5      1581.377          31.000
C05  39764000.461 5 207061584.484 5        35.957          35.000    39763997.547 6 160113140.508 6        27.535          36.000
C10  40085007.289 5 208733143.506 5      -880.004          32.000    40085007.859 6 161405704.597 6      -680.185          37.000
C19  22600308.578 8 117685743.481 8     -1690.625          51.000
C20  25594323.039 6 133276389.007 6     -3425.898          36.000
E01  23749011.344 8 124801890.507 8      -896.383          51.000    23749012.547 8  95627495.698 8      -686.815          51.000
E04  23846710.805 8 125315298.353 8     -1271.445          51.000    23846712.406 8  96020820.121 8      -974.215          51.000
E19  27897256.031 6 146601059.325 6     -3040.320          38.000    27897255.477 5 112330688.836 5     -2329.836          34.000
E21  27059323.836 5 142197705.528 5     -2603.594          32.000    27059331.219 5 108956701.315 5     -1995.404          35.000
E31  24491324.414 8 128702775.625 8      1694.598          51.000    24491325.539 8  98616466.672 8      1298.515          51.000
> 2020 05 07 06 09 30.0000000  0 16        .000000000000
G13  20704710.227 8 108803971.314 8     -1715.156          51.000    20704710.125 8  84782308.610 8     -1336.485          49.000
G15  20323189.555 8 106799072.448 8      -231.586          51.000    20323188.664 8  83220061.721 8      -180.457          51.000
G19  23448735.688 7 123223948.900 7      3132.395          46.000    23448733.727 6  96018632.571 6      2440.827          41.000
G28  22213103.016 6 116730622.085 6     -2501.402          40.000    22213102.359 4  90958932.279 4     -1949.126          29.000
R01  20286126.047 8 108440950.711 8     -2988.480          48.000    20286128.422 6  84342965.826 6     -2324.374          39.000
R11  19582131.555 5 104641037.676 5     -1185.652          34.000    19582136.906 5  81387443.567 5      -922.168          33.000
R12  20485562.703 6 109430293.922 6      2007.582          40.000    20485577.812 4  85112437.037 4      1561.453          26.000
C05  39763839.852 5 207060748.599 5        23.145          35.000    39763836.727 6 160112493.337 6        18.172          37.000
C10  40090120.312 5 208759766.924 5      -892.164          32.000    40090120.867 6 161426291.483 6      -689.763          37.000
C19  22610134.695 8 117736906.772 8     -1717.391          51.000
C20  25614108.586 6 133379420.763 6     -3440.090          38.000
E01  23754197.016 8 124829141.532 8      -917.402          51.000    23754198.000 8  95648376.362 8      -702.933          51.000
E04  23854046.586 8 125353851.189 8     -1295.758          51.000    23854048.531 8  96050360.598 8      -992.826          51.000
E19  27914664.844 6 146692541.993 6     -3055.516          37.000    27914663.984 5 112400785.891 5     -2341.182          34.000
E21                                                                  27074244.469 5 109016750.431 5     -2005.524          35.000
E31  24481718.438 8 128652294.338 8      1673.738          51.000    24481719.430 8  98577786.191 8      1282.550          51.000
> 2020 05 07 06 10  0.0000000  0 17        .000000000000
G13  20714546.945 8 108855665.498 8     -1728.285          51.000    20714547.219 8  84822589.792 8     -1346.716          49.000
G15  20324567.203 8 106806311.547 8      -248.191          51.000    20324566.500 8  83225702.566 8      -193.396          51.000
G17  22782013.336 6 119720315.871 6      1526.777          37.000    22782010.625 5  93288524.177 5      1189.709          35.000
G19  23430880.922 7 123130120.583 7      3125.812          46.000    23430878.836 7  95945519.649 7      2435.698          43.000
G28  22227412.711 6 116805819.100 6     -2509.109          39.000    22227412.625 5  91017527.221 5     -1955.135          31.000
R01  20302955.820 7 108530919.063 7     -3006.645          46.000    20302959.180 6  84412941.168 6     -2338.501          40.000
R11  19588828.055 6 104676824.309 6     -1197.402          38.000    19588832.359 4  81415277.564 4      -931.319          29.000
R12  20474330.273 6 109370282.828 6      1996.219          37.000
C05  39763708.609 5 207060064.993 5        25.363          35.000    39763705.602 6 160111964.749 6        19.612          37.000
C10  40095264.703 5 208786554.211 5      -890.793          31.000    40095265.469 6 161447005.108 6      -688.655          37.000
C19  22620074.195 8 117788662.373 8     -1730.133          51.000
C20  25633937.602 6 133482674.932 6     -3440.582          36.000
E01  23759461.977 8 124856808.529 8      -924.238          51.000    23759462.898 8  95669575.743 8      -708.177          51.000
E04  23861481.062 8 125392920.240 8     -1305.941          51.000    23861482.922 8  96080296.630 8     -1000.629          51.000
E19  27932119.609 5 146784265.740 5     -3056.414          34.000    27932118.883 5 112471066.682 5     -2341.859          33.000
E21                                                                  27089194.484 5 109076947.398 5     -2004.952          34.000
E31  24472190.492 8 128602225.027 8      1667.031          51.000    24472191.898 8  98539421.387 8      1277.342          51.000
> 2020 05 07 06 10 30.0000000  0 17        .000000000000
G13  20724460.836 8 108907763.484 8     -1744.793          51.000    20724461.219 8  84863185.635 8     -1359.579          49.000
G15  20326041.758 8 106814060.448 8      -268.223          51.000    20326041.258 8  83231740.648 8      -209.005          51.000
G17  22773347.297 5 119674780.278 5      1509.301          33.000    22773347.711 5  93253042.081 5      1176.091          30.000
G19  23413066.734 7 123036504.849 7      3115.430          47.000    23413065.102 7  95872572.343 7      2427.608          44.000
G28  22241767.367 5 116881253.179 5     -2519.852          35.000    22241766.023 5  91076314.959 5     -1963.518          34.000
R01  20319889.570 7 108621441.090 7     -3028.105          46.000    20319893.609 7  84483347.156 7     -2355.193          42.000
R11  19595592.164 6 104712966.757 6     -1212.047          36.000    19595594.562 5  81443388.316 5      -942.700          31.000
R12  20463162.172 5 109310628.590 5      1981.020          35.000
C05                                                                  39763566.484 6 160111404.609 6        18.108          37.000
C10  40100403.234 5 208813310.935 5      -893.344          31.000    40100404.070 6 161467695.087 6      -690.422          37.000
C19  22630089.633 8 117840814.601 8     -1746.398          51.000
C20  25653770.188 5 133585955.352 5     -3444.941          34.000
E01  23764768.469 8 124884694.419 8      -934.637          51.000    23764769.734 8  95690942.861 8      -716.153          51.000
E04  23868976.531 8 125432309.210 8     -1319.820          51.000    23868978.328 8  96110477.775 8     -1011.195          51.000
E19  27949582.594 5 146876047.064 5     -3060.938          33.000    27949582.500 5 112541381.853 5     -2345.262          33.000
E21                                                                  27104143.406 5 109137141.369 5     -2007.898          33.000
E31  24462703.461 8 128552371.902 8      1656.684          51.000    24462705.727 8  98501222.229 8      1269.413          51.000
> 2020 05 07 06 11  0.0000000  0 16        .000000000000
G13  20734455.961 8 108960287.745 8     -1757.332          51.000    20734456.078 8  84904113.621 8     -1369.347          49.000
G15  20327617.883 8 106822342.661 8      -284.305          51.000    20327617.148 8  83238194.311 8      -221.536          51.000
G19  23395298.344 8 122943128.342 8      3109.039          48.000    23395296.742 7  95799811.429 7      2422.628          43.000
G28  22256170.562 6 116956944.827 6     -2526.711          37.000
R01  20336930.648 7 108712536.413 7     -3045.574          46.000    20336935.078 7  84554199.056 7     -2368.780          42.000
R11  19602426.625 6 104749486.888 6     -1222.801          38.000    19602429.523 5  81471792.932 5      -951.064          32.000
R12  20452065.852 6 109251354.746 6      1970.453          36.000
C05  39763426.859 5 207058597.430 5        26.043          35.000    39763423.984 6 160110830.713 6        19.779          36.000
C10  40105540.211 5 208840059.633 5      -890.883          30.000    40105541.219 6 161488378.891 6      -689.014          37.000
C19  22640184.781 8 117893384.883 8     -1758.684          50.000
C20  25673612.148 6 133689282.628 6     -3444.512          37.000
E01  23770120.703 8 124912821.296 8      -941.047          51.000    23770122.125 8  95712494.642 8      -721.056          51.000
E04  23876537.305 8 125472040.837 8     -1329.594          51.000    23876539.000 8  96140921.474 8     -1018.762          51.000
E19  27967058.102 5 146967882.160 5     -3061.746          34.000    27967058.664 5 112611755.453 5     -2345.705          32.000
E21  27119093.133 5 142511785.722 5     -2618.434          31.000    27119095.398 5 109197349.176 5     -2006.670          34.000
E31  24453262.023 8 128502758.237 8      1650.320          51.000    24453264.891 8  98463206.577 8      1264.549          51.000
> 2020 05 07 06 11 30.0000000  0 15        .000000000000
G13  20744540.953 8 109013283.765 8     -1773.098          51.000    20744540.648 8  84945409.236 8     -1381.635          49.000
G15  20329304.195 8 106831203.957 8      -303.801          51.000    20329303.375 8  83245099.209 8      -236.728          51.000
G19  23377585.039 8 122850040.248 8      3099.215          49.000    23377582.781 7  95727275.258 7      2414.973          44.000
G28  22270631.406 6 117032937.956 6     -2536.789          40.000
R01  20354086.664 7 108804248.785 7     -3065.898          45.000    20354091.977 7  84625530.933 7     -2384.588          43.000
R11  19609339.344 6 104786429.398 6     -1237.230          37.000    19609342.180 5  81500526.014 5      -962.290          31.000
R12  20441051.391 5 109192507.759 5      1955.527          35.000    20441063.594 5  84927463.633 5      1520.966          31.000
C10  40110684.289 4 208866845.638 4      -892.562          29.000    40110685.422 6 161509091.463 6      -689.811          37.000
C19  22650367.703 7 117946417.090 7     -1774.164          47.000
C20  25693471.820 6 133792700.063 6     -3447.391          36.000
E01  23775527.438 8 124941233.825 8      -950.562          51.000    23775528.680 8  95734265.273 8      -728.332          51.000
E04  23884172.164 8 125512160.421 8     -1342.457          51.000    23884173.664 8  96171662.450 8     -1028.669          51.000
E19  27984554.422 5 147059825.251 5     -3064.957          33.000    27984555.258 5 112682207.316 5     -2348.734          31.000
E21                                                                  27134059.656 6 109257605.170 6     -2008.403          36.000
E31  24443875.047 8 128453429.868 8      1640.809          51.000    24443877.930 8  98425409.539 8      1257.243          51.000
> 2020 05 07 06 12  0.0000000  0 16        .000000000000
G13  20754704.484 8 109066692.163 8     -1787.820          51.000    20754703.711 8  84987026.158 8     -1393.107          49.000
G15  20331089.523 8 106840586.430 8      -322.105          51.000    20331088.828 8  83252410.209 8      -250.991          51.000
G17  22747881.562 5 119540938.135 5      1463.191          33.000
G19  23359915.992 8 122757185.175 8      3090.531          49.000    23359912.562 7  95654920.685 7      2408.206          43.000
G28  22285138.164 6 117109171.632 6     -2545.898          39.000
R01  20371346.398 7 108896515.592 7     -3085.293          45.000    20371352.859 7  84697294.022 7     -2399.672          43.000
R11  19616320.984 6 104823732.958 6     -1250.066          37.000    19616322.852 5  81529539.794 5      -972.277          32.000
R12  20430103.992 5 109134028.111 5      1942.309          33.000    20430115.586 4  84881979.487 4      1510.681          27.000
C10  40115824.289 4 208893623.444 4      -892.137          28.000    40115825.375 6 161529787.723 6      -690.171          36.000
C19  22660627.836 7 117999851.708 7     -1788.570          45.000
C20  25713337.219 5 133896147.535 5     -3449.430          33.000
E01  23780977.203 8 124969872.457 8      -959.102          51.000    23780978.562 8  95756209.150 8      -734.884          51.000
E04  23891869.508 8 125552609.060 8     -1354.395          51.000    23891870.930 8  96202655.555 8     -1037.840          51.000
E19  28002060.570 5 147151820.756 5     -3067.926          32.000
E21                                                                  27149024.641 6 109317863.700 6     -2009.056          38.000
E31  24434531.328 8 128404328.433 8      1632.191          51.000    24434534.039 8  98387786.372 8      1250.673          51.000
> 2020 05 07 06 12 30.0000000  0 15        .000000000000
G13  20764954.703 8 109120555.714 8     -1801.688          51.000    20764953.297 8  85028997.757 8     -1403.912          48.000
G15  20332982.242 8 106850533.525 8      -339.590          51.000    20332981.625 8  83260161.168 8      -264.615          51.000
G19  23342299.969 8 122664610.189 8      3082.562          49.000    23342295.289 6  95582784.379 6      2402.000          40.000
G28  22299698.828 6 117185686.980 6     -2553.961          36.000    22299698.859 5  91313537.974 5     -1990.099          33.000
R01  20388718.297 7 108989377.565 7     -3103.863          47.000    20388725.039 7  84769519.995 7     -2414.116          44.000
R11  19623377.906 5 104861439.585 5     -1261.758          35.000    19623378.422 5  81558867.154 5      -981.364          30.000
R12  20419234.195 5 109075960.498 5      1930.684          34.000    20419244.812 4  84836815.668 4      1501.643          26.000
C10                                                                  40120969.484 6 161550500.537 6      -689.772          36.000
C19  22670973.336 7 118053730.172 7     -1802.016          45.000
C20  25733215.867 5 133999665.937 5     -3450.727          32.000
E01  23786477.898 8 124998779.396 8      -966.609          51.000    23786479.594 8  95778358.611 8      -740.631          51.000
E04  23899637.625 8 125593429.634 8     -1365.414          51.000    23899638.898 8  96233933.647 8     -1046.238          51.000
E19  28019584.641 5 147243910.791 5     -3070.246          33.000
E21                                                                  27163998.383 6 109378157.305 6     -2009.265          39.000
E31  24425239.234 8 128355497.363 8      1624.641          51.000    24425242.227 8  98350370.365 8      1244.825          51.000
> 2020 05 07 06 13  0.0000000  0 15        .000000000000
G13  20775285.352 8 109174842.286 8     -1816.902          51.000    20775283.555 7  85071298.963 7     -1415.768          47.000
G15  20334976.586 8 106861013.915 8      -358.559          51.000    20334975.680 8  83268327.708 8      -279.396          51.000
G19  23324731.797 8 122572287.394 8      3072.891          49.000    23324726.547 6  95510844.570 6      2394.460          41.000
G28  22314306.656 5 117262472.286 5     -2563.605          32.000
R01  20406195.109 7 109082799.565 7     -3123.711          47.000    20406201.742 7  84842181.524 7     -2429.553          43.000
R11  19630502.984 6 104899515.523 6     -1275.305          40.000    19630502.156 4  81588463.693 4      -991.907          29.000
R12  20408436.477 6 109018273.096 6      1916.586          36.000
C10                                                                  40126111.617 5 161571205.765 5      -690.126          35.000
C19  22681399.312 7 118108019.885 7     -1816.754          46.000
C20  25753101.727 5 134103222.063 5     -3452.605          33.000
E01  23792023.430 8 125027922.281 8      -975.594          51.000    23792025.344 8  95800688.874 8      -747.542          51.000
E04  23907470.633 8 125634590.397 8     -1377.984          51.000    23907471.805 8  96265472.406 8     -1055.825          51.000
E19  28037118.883 5 147336054.569 5     -3072.562          34.000
E21                                                                  27178974.828 6 109438461.203 6     -2010.505          39.000
E31  24415992.727 8 128306905.464 8      1615.438          51.000    24415996.594 8  98313137.615 8      1237.827          51.000
> 2020 05 07 06 13 30.0000000  0 15        .000000000000
G13  20785702.352 8 109229583.211 8     -1831.684          51.000    20785700.633 7  85113954.151 7     -1427.289          46.000
G15  20337078.469 8 106872059.620 8      -377.035          51.000    20337077.469 8  83276934.747 8      -293.794          51.000
G19  23307217.969 8 122480251.734 8      3063.527          49.000    23307213.242 7  95439128.518 7      2387.167          43.000
G28  22328967.133 5 117339513.536 5     -2572.156          35.000
R01  20423782.148 8 109176810.486 8     -3142.895          48.000    20423788.312 7  84915301.103 7     -2444.477          42.000
R11  19637704.273 5 104937991.403 5     -1288.363          35.000    19637703.555 4  81618389.324 4     -1002.060          28.000
R12  20397714.992 6 108960998.284 6      1902.949          36.000
C10                                                                  40131257.789 5 161591927.741 5      -690.817          34.000
C19  22691911.055 8 118162750.923 8     -1831.160          50.000
C20  25773002.336 5 134206845.331 5     -3454.520          33.000
E01  23797619.859 8 125057331.938 8      -984.219          51.000    23797621.898 8  95823223.538 8      -754.160          51.000
E04  23915374.266 8 125676122.808 8     -1390.195          51.000    23915375.438 8  96297295.932 8     -1065.116          51.000
E19  28054669.578 5 147428283.843 5     -3075.781          34.000
E21                                                                  27193959.586 6 109498799.105 6     -2011.307          39.000
E31  24406797.672 8 128258584.738 8      1606.711          51.000    24406802.531 8  98276112.653 8      1231.161          51.000
> 2020 05 07 06 14  0.0000000  0 14        .000000000000
G13  20796202.055 8 109284759.549 8     -1846.336          51.000    20796200.258 7  85156948.620 7     -1438.706          46.000
G15  20339284.453 8 106883652.426 8      -395.371          51.000    20339283.406 8  83285968.088 8      -308.081          51.000
G19  23289755.648 8 122388488.528 8      3054.336          49.000    23289752.141 7  95367624.761 7      2380.002          44.000
G28  22343676.719 5 117416812.098 5     -2580.820          33.000
R01  20441475.406 8 109271388.411 8     -3161.812          48.000    20441481.000 7  84988861.681 7     -2459.188          42.000
R11  19644974.289 6 104976846.581 6     -1301.328          36.000    19644974.453 4  81648610.122 4     -1012.144          28.000
R12  20387067.820 6 108904117.458 6      1889.855          38.000    20387084.312 4  84703211.483 4      1469.885          28.000
C10                                                                  40136404.781 5 161612651.942 5      -690.521          35.000
C19  22702504.297 8 118217903.391 8     -1845.293          51.000
E01  23803263.383 8 125086988.826 8      -992.477          51.000    23803265.586 8  95845947.641 8      -760.475          51.000
E04  23923344.711 8 125718007.953 8     -1401.836          51.000    23923345.969 8  96329389.748 8     -1074.149          51.000
E19  28072234.352 5 147520591.120 5     -3077.836          35.000    28072240.695 5 113035281.986 5     -2358.081          31.000
E21  27208943.211 5 142983963.871 5     -2625.512          33.000    27208948.938 6 109559156.159 6     -2012.127          38.000
E31  24397650.461 8 128210516.849 8      1598.238          51.000    24397655.812 8  98239281.419 8      1224.612          51.000
> 2020 05 07 06 14 30.0000000  0 15        .000000000000
G13  20806786.109 8 109340380.032 8     -1861.168          51.000    20806784.477 7  85200289.217 7     -1450.264          47.000
G15  20341596.328 8 106895801.988 8      -414.047          51.000    20341595.219 8  83295435.281 8      -322.634          51.000
G19  23272347.391 7 122297010.451 7      3044.723          47.000    23272345.203 7  95296343.170 7      2372.511          46.000
G28  22358435.695 4 117494375.172 4     -2589.012          29.000
R01  20459275.609 7 109366539.745 7     -3180.902          47.000    20459280.898 7  85062868.266 7     -2474.035          42.000
R10  23327838.328 4 124350505.638 4     -3520.312          28.000
