     3.02           OBSERVATION DATA    M (MIXED)           RINEX VERSION / TYPE
SAVERINEX           SC600               20200509 035930 LCL PGM / RUN BY / DATE
       G = GPS       R = GLONASS       C = COMPASS          COMMENT
       S = SBAS      J = QZSS          E = GALILEO          COMMENT
BEAN                                                        MARKER NAME
1                                                           MARKER NUMBER
GEODETIC                                                    MARKER TYPE
Unige DICCA         GTER                                    OBSERVER / AGENCY
SC60291900056       SC600               2.12(191226)        REC # / TYPE / VERS
                    HEMA45          NONE                    ANT # / TYPE
  4509407.8091   693652.4678  4442337.6214                  APPROX POSITION XYZ
        0.0000        0.0000        0.0000                  ANTENNA: DELTA H/E/N
G    8 C1C L1C D1C S1C C2Y L2Y D2Y S2Y                      SYS / # / OBS TYPES
R    8 C1C L1C D1C S1C C2P L2P D2P S2P                      SYS / # / OBS TYPES
C    8 C1I L1I D1I S1I C7I L7I D7I S7I                      SYS / # / OBS TYPES
E    8 C1C L1C D1C S1C C7Q L7Q D7Q S7Q                      SYS / # / OBS TYPES
DBHZ                                                        COMMENT
     30.000                                                 INTERVAL
  2020    05    09    01    00    0.0000000     GPS         TIME OF FIRST OBS
  2020    05    09    01    59   30.0000000     GPS         TIME OF LAST OBS
     0                                                      RCV CLOCK OFFS APPL
G L1C  0.00000                                              SYS / PHASE SHIFT
G L2Y  0.00000                                              SYS / PHASE SHIFT
R L1C  0.00000                                              SYS / PHASE SHIFT
R L2P  0.25000                                              SYS / PHASE SHIFT
C L1I  0.00000                                              SYS / PHASE SHIFT
C L7I  0.00000                                              SYS / PHASE SHIFT
E L1C  0.50000                                              SYS / PHASE SHIFT
E L7Q -0.25000                                              SYS / PHASE SHIFT
 12 R01  1 R06 -4 R07  5 R08  6 R09 -2 R10 -7 R11  0 R12 -1 GLONASS SLOT / FRQ #
    R16 -1 R21  4 R22 -3 R23  3                             GLONASS SLOT / FRQ #
 C1C   71.950 C2C   71.950 C2P   71.950                     GLONASS COD/PHS/BIS
    18                                                      LEAP SECONDS
*** Above antenna height is from mark to ANTENNA BOTTOM.    COMMENT
    17     4        0.0000        ANT MEASURE TYPE/HEIGT    COMMENT
    0.0000    0.0000    0.0458    0.0405    0.0000          COMMENT
                    BASE STATION                            COMMENT
                                                            END OF HEADER
> 2020 05 09 01 00  0.0000000  0 18        .000000000000
G04  22972892.422 5 120723359.825 5     -2788.320          31.000
G06  21663130.727 8 113840514.806 8     -1981.938          51.000    21663132.289 8  88706893.313 8     -1544.367          51.000
G07  21167626.898 8 111236627.609 8      1474.969          50.000    21167627.055 8  86677870.238 8      1149.326          50.000
G09  20732004.766 8 108947534.806 8     -1343.844          51.000    20732005.320 8  84894162.847 8     -1047.151          51.000
G30  22664150.172 8 119100946.514 8      3226.445          48.000    22664152.805 8  92805941.462 8      2514.110          48.000
R08  20756508.359 5 111150164.680 5     -1901.062          31.000    20756510.156 5  86450123.352 5     -1478.601          35.000
R10  20524920.047 4 109409372.562 4      -728.645          27.000
R11  21145569.602 8 112995527.338 8      3482.316          48.000    21145570.070 7  87885426.205 7      2708.471          45.000
R24  21917719.047 6 117203877.330 6     -2939.836          40.000    21917719.539 5  91158582.144 5     -2286.542          35.000
C05                                                                  39779962.836 6 160177425.276 6       -15.976          38.000
C14  21630880.688 8 112637664.809 8      -452.496          50.000    21630879.844 8  87098586.342 8      -349.932          51.000
C24  23090858.227 8 120240234.566 8      2110.559          51.000
C26  22880492.078 7 119144735.288 7      -866.859          42.000
C28  25344658.727 5 131976373.478 5     -2347.652          35.000
E05  23733915.398 6 124722555.221 6       719.625          37.000    23733910.734 6  95566654.577 6       551.365          39.000
E09  22589964.484 7 118711131.306 7     -1415.617          45.000    22589965.188 7  90960491.571 7     -1084.661          46.000
E24  24615927.695 8 129357627.126 8      2801.195          51.000    24615935.852 8  99118193.467 8      2146.388          49.000
E36  26815483.836 5 140916317.194 5     -3132.957          33.000
> 2020 05 09 01 00 30.0000000  0 18        .000000000000
G06  21674488.242 8 113900198.507 8     -1996.875          51.000    21674490.266 8  88753400.065 8     -1556.006          51.000
G07  21159246.648 8 111192588.785 8      1461.160          49.000    21159246.633 8  86643554.255 8      1138.566          49.000
G09  20739699.852 8 108987973.171 8     -1351.859          51.000    20739700.445 8  84925673.238 8     -1053.397          51.000
G30  22645751.570 8 119004261.508 8      3219.465          49.000    22645754.266 8  92730602.492 8      2508.674          49.000
R08  20767186.992 4 111207342.647 4     -1909.652          29.000    20767185.172 6  86494592.430 6     -1485.285          36.000
R09  22775659.289 5 121620748.670 5     -3215.457          33.000
R10  20529096.766 5 109431651.389 5      -754.387          33.000
R11  21126059.117 8 112891275.086 8      3468.105          48.000    21126061.594 7  87804341.123 7      2697.415          46.000
R24  21934256.062 7 117292303.161 7     -2955.098          42.000    21934256.500 5  91227357.820 5     -2298.409          35.000
C05  39780080.492 6 207145317.174 6       -18.754          36.000    39780077.359 6 160177886.282 6       -14.568          38.000
C14  21633509.664 8 112651355.411 8      -459.953          50.000    21633509.023 8  87109172.761 8      -355.565          51.000
C24  23078732.555 8 120177094.002 8      2099.105          51.000
C26  22885530.117 7 119170967.274 7      -881.641          44.000
C28  25358199.352 6 132046894.426 6     -2353.918          36.000
E05  23729818.648 5 124701028.371 5       716.020          35.000    23729817.258 6  95550160.003 6       548.668          40.000
E09  22598053.328 7 118753638.741 7     -1417.969          43.000    22598053.500 7  90993062.184 7     -1086.430          46.000
E24  24599947.922 8 129273651.723 8      2797.500          51.000    24599955.531 8  99053848.701 8      2143.506          48.000
E36  26833369.336 5 141010306.373 5     -3132.719          34.000
> 2020 05 09 01 01  0.0000000  0 17        .000000000000
G06  21685938.422 8 113960368.425 8     -2012.680          51.000    21685940.625 8  88800285.695 8     -1568.322          51.000
G07  21150952.109 8 111149000.701 8      1446.555          49.000    21150951.914 8  86609589.518 8      1127.185          49.000
G09  20747446.898 8 109028684.621 8     -1360.531          51.000    20747447.656 8  84957396.434 8     -1060.154          51.000
G30  22627399.656 8 118907821.184 8      3211.715          50.000    22627401.672 8  92655454.200 8      2502.638          51.000
R09  22793793.758 5 121717549.742 5     -3231.012          34.000    22793793.875 5  94669225.696 5     -2513.012          31.000
R10  20533419.492 5 109454679.860 5      -780.859          30.000
R11  21106635.836 7 112787489.663 7      3452.820          47.000    21106639.930 7  87723619.085 7      2685.527          46.000
R24  21950886.539 7 117381229.591 7     -2971.391          44.000    21950886.812 5  91296522.743 5     -2311.085          32.000
C05  39780191.523 6 207145895.509 6       -17.508          36.000    39780188.469 6 160178333.469 6       -13.762          38.000
C14  21636188.227 8 112665303.981 8      -468.086          49.000    21636187.688 8  87119958.672 8      -361.860          51.000
C24  23066679.430 8 120114332.826 8      2086.805          50.000
C26  22890658.820 6 119197674.194 6      -896.922          41.000
C28  25371781.828 5 132117636.243 5     -2360.703          33.000
E05  23725747.383 5 124679647.974 5       711.961          32.000    23725749.250 6  95533773.821 6       545.472          40.000
E09  22606161.945 7 118796250.895 7     -1420.961          44.000    22606161.953 7  91025713.012 7     -1088.642          46.000
E24  24583996.031 8 129189826.066 8      2792.953          50.000    24584003.141 7  98989618.635 7      2140.076          47.000
E36  26851261.844 5 141104333.442 5     -3133.547          33.000
> 2020 05 09 01 01 30.0000000  0 18        .000000000000
G02  22397655.172 5 117700471.615 5       291.512          33.000
G06  21697482.594 8 114021033.073 8     -2028.254          51.000    21697484.898 8  88847556.877 8     -1580.455          51.000
G07  21142745.719 8 111105875.617 8      1431.965          49.000    21142745.211 8  86575985.554 8      1115.814          49.000
G09  20755247.828 8 109069678.906 8     -1369.070          51.000    20755248.719 8  84989340.023 8     -1066.808          51.000
G30  22609097.000 8 118811638.437 8      3203.934          51.000    22609098.148 8  92580506.629 8      2496.572          51.000
R08  20788685.828 5 111322476.173 5     -1925.648          32.000    20788682.383 6  86584115.980 6     -1497.724          36.000
R09  22811999.867 5 121814771.627 5     -3247.277          33.000    22812000.914 5  94744842.711 5     -2525.660          32.000
R11  21087302.797 8 112684185.791 8      3437.594          48.000    21087307.969 7  87643271.633 7      2673.681          46.000
R24  21967612.102 7 117470663.239 7     -2987.383          43.000    21967609.852 5  91366082.189 5     -2323.523          33.000
C05  39780301.203 5 207146466.612 5       -16.434          35.000    39780298.180 6 160178775.067 6       -12.563          38.000
C14  21638918.469 8 112679521.593 8      -476.227          49.000    21638917.914 8  87130952.641 8      -368.249          51.000
C24  23054701.125 8 120051963.433 8      2074.477          49.000
C26  22895880.789 7 119224865.613 7      -912.477          43.000
C28  25385409.219 5 132188607.103 5     -2366.875          35.000
E05  23721704.516 5 124658396.044 5       707.223          32.000    23721708.977 6  95517504.317 6       541.787          38.000
E09  22614292.609 7 118838978.336 7     -1424.047          45.000    22614292.594 7  91058452.216 7     -1091.180          46.000
E24  24568074.539 8 129106162.932 8      2788.254          49.000    24568081.914 7  98925513.111 7      2136.445          46.000
E36  26869162.656 5 141198403.054 5     -3133.988          35.000
> 2020 05 09 01 02  0.0000000  0 18        .000000000000
G06  21709120.102 8 114082189.392 8     -2046.688          51.000    21709122.469 8  88895211.192 8     -1594.818          51.000
G07  21134627.234 8 111063213.030 8      1414.445          50.000    21134626.492 8  86542741.978 8      1102.165          50.000
G09  20763102.281 8 109110954.185 8     -1380.469          51.000    20763103.219 8  85021502.579 8     -1075.690          51.000
G30  22590843.648 8 118715714.484 8      3193.078          51.000    22590844.039 8  92505760.732 8      2488.116          51.000
R08  20799508.820 5 111380437.297 5     -1937.016          31.000    20799508.562 6  86629196.330 6     -1506.577          38.000
R09  22830297.641 5 121912480.755 5     -3264.750          31.000    22830298.305 5  94820838.734 5     -2539.250          32.000
R10  20542533.758 5 109503253.121 5      -836.773          31.000
R11  21068061.484 8 112581366.901 8      3419.199          48.000    21068066.875 7  87563301.363 7      2659.374          46.000
R24  21984430.719 6 117560598.951 6     -3006.082          41.000    21984428.984 6  91436032.125 6     -2338.061          36.000
C05  39780409.242 6 207147029.680 6       -18.684          36.000    39780406.359 6 160179210.467 6       -14.212          38.000
C14  21641700.398 8 112694007.706 8      -487.312          49.000    21641699.750 8  87142154.209 8      -376.854          51.000
C24  23042798.852 8 119989986.685 8      2059.320          50.000
C26  22901195.688 7 119252539.843 7      -930.598          42.000
C28  25399081.406 6 132259803.609 6     -2376.609          36.000
E05                                                                  23717698.109 6  95501350.782 6       536.636          38.000
E09  22622444.953 7 118881820.002 7     -1429.879          46.000    22622445.438 7  91091278.963 7     -1095.729          46.000
E24  24552184.164 8 129022663.475 8      2780.695          49.000    24552192.578 7  98861533.005 7      2130.600          47.000
E36  26887071.930 5 141292516.421 5     -3137.965          33.000
> 2020 05 09 01 02 30.0000000  0 17        .000000000000
G06  21720852.758 8 114143845.725 8     -2063.895          51.000    21720855.094 8  88943255.092 8     -1608.226          51.000
G07  21126599.008 8 111021024.699 8      1398.047          51.000    21126598.070 8  86509867.972 8      1089.387          51.000
G09  20771012.094 8 109152520.014 8     -1390.750          51.000    20771012.898 8  85053891.523 8     -1083.701          51.000
G30  22572641.742 8 118620061.993 8      3183.562          50.000    22572641.602 8  92431226.371 8      2480.698          50.000
R08  20810387.367 5 111438676.272 5     -1946.727          35.000    20810385.164 6  86674493.328 6     -1514.121          37.000
R10  20547318.008 5 109528776.985 5      -865.109          34.000
R11  21048913.633 8 112479047.953 8      3402.035          49.000    21048919.172 7  87483719.949 7      2646.027          46.000
R24  22001343.055 6 117651042.872 6     -3023.293          40.000    22001343.656 6  91506377.409 6     -2351.450          39.000
C05  39780517.859 6 207147593.994 6       -19.375          36.000    39780514.977 6 160179647.640 6       -15.154          38.000
C14  21644536.062 8 112708773.143 8      -497.055          49.000    21644535.172 8  87153571.771 8      -384.375          51.000
C24  23030974.477 8 119928414.615 8      2045.277          51.000
C26  22906603.766 6 119280706.083 6      -947.102          38.000
C28  25412798.320 5 132331233.705 5     -2385.008          33.000
E05                                                                  23713719.141 6  95485321.446 6       531.982          39.000
E09  22630621.203 7 118924786.348 7     -1434.539          43.000    22630622.305 7  91124201.192 7     -1099.237          47.000
E24  24536328.008 8 128939340.284 8      2774.262          49.000    24536338.391 8  98797687.965 8      2125.688          49.000
E36  26904990.594 5 141386679.015 5     -3140.297          32.000
> 2020 05 09 01 03  0.0000000  0 18        .000000000000
G06  21732674.406 8 114205969.646 8     -2081.621          49.000    21732676.336 8  88991663.354 8     -1622.039          49.000
G07  21118655.648 8 110979281.358 8      1380.945          51.000    21118654.242 8  86477340.711 8      1076.061          51.000
G09  20778971.195 8 109194345.275 8     -1401.625          51.000    20778971.914 8  85086482.640 8     -1092.175          51.000
G30  22554485.648 7 118524653.029 7      3172.957          47.000    22554485.500 7  92356881.729 7      2472.431          47.000
R08  20821309.664 5 111497163.211 5     -1957.016          35.000    20821304.828 5  86719983.099 5     -1522.123          34.000
R09  22867149.602 4 122109302.348 4     -3300.316          29.000
R10  20552255.562 5 109555096.704 5      -893.883          35.000
R11  21029855.477 8 112377202.276 8      3383.668          50.000    21029860.375 8  87404506.618 8      2631.742          48.000
R24  22018344.828 7 117741960.214 7     -3041.645          43.000    22018346.750 6  91577090.914 6     -2365.720          39.000
C05                                                                  39780618.266 6 160180063.509 6       -15.973          38.000
C14  21647419.852 8 112723788.378 8      -507.816          49.000    21647418.383 8  87165182.518 8      -392.658          51.000
C24  23019222.781 8 119867219.144 8      2030.418          51.000
C26  22912102.633 7 119309333.631 7      -964.992          42.000
C28  25426553.773 5 132402865.069 5     -2393.922          33.000
E05  23709758.914 6 124595619.808 6       687.414          37.000    23709763.820 6  95469393.221 6       527.076          37.000
E09  22638815.805 7 118967847.024 7     -1440.035          45.000    22638816.914 7  91157195.709 7     -1103.410          47.000
E24  24520500.547 8 128856165.269 8      2766.828          49.000    24520513.391 8  98733956.471 8      2120.106          50.000
E36  26922913.570 5 141480864.534 5     -3142.621          32.000
> 2020 05 09 01 03 30.0000000  0 17        .000000000000
G06  21744592.250 8 114268600.077 8     -2094.383          48.000    21744594.391 8  89040466.297 8     -1631.987          48.000
G07  21110804.969 8 110938024.657 8      1368.836          51.000    21110802.828 8  86445192.663 8      1066.625          51.000
G09  20786987.289 8 109236470.178 8     -1407.410          51.000    20786988.094 8  85119307.237 8     -1096.683          51.000
G30  22536383.000 7 118429530.903 7      3167.746          44.000    22536384.133 7  92282760.546 7      2468.374          45.000
R08  20832286.195 6 111555939.329 6     -1962.430          37.000    20832280.281 5  86765697.943 5     -1526.334          35.000
R09  22885733.336 5 122208462.354 5     -3311.816          34.000
R10  20557350.328 5 109582253.086 5      -917.156          35.000
R11  21010894.898 8 112275875.669 8      3370.621          51.000    21010898.773 8  87325697.065 8      2621.597          48.000
R24  22035442.531 6 117833388.361 6     -3054.469          41.000    22035444.688 6  91648201.705 6     -2375.698          40.000
C05  39780726.930 6 207148682.909 6       -16.746          36.000    39780724.094 6 160180489.625 6       -12.964          38.000
C14  21650359.578 8 112739094.587 8      -513.371          50.000    21650357.570 8  87177018.239 8      -396.896          51.000
C24  23007551.875 8 119806442.782 8      2020.527          51.000
C26  22917696.867 6 119338462.269 6      -977.887          39.000
C28  25440355.656 5 132474735.756 5     -2397.965          33.000
E05  23705836.234 6 124575005.187 6       686.000          37.000    23705840.383 6  95453597.716 6       525.499          36.000
E09  22647035.734 7 119011043.041 7     -1440.355          45.000    22647037.312 7  91190293.936 7     -1103.604          46.000
E24  24504709.250 7 128773181.610 7      2764.664          46.000    24504724.469 8  98670371.606 8      2118.355          51.000
> 2020 05 09 01 04  0.0000000  0 17        .000000000000
G06  21756609.750 8 114331753.110 8     -2114.586          49.000    21756611.875 8  89089676.441 8     -1647.729          49.000
G07  21103050.578 8 110897273.820 8      1349.180          51.000    21103048.008 8  86413438.794 8      1051.312          51.000
G09  20795063.695 8 109278912.059 8     -1420.793          51.000    20795064.742 8  85152378.843 8     -1107.108          51.000
G30  22518339.484 7 118334715.922 7      3154.660          46.000    22518341.242 7  92208878.737 7      2458.180          46.000
R08  20843318.031 5 111615023.456 5     -1975.023          32.000    20843316.945 5  86811652.139 5     -1536.138          35.000
R09  22904399.422 5 122308134.894 5     -3331.656          33.000    22904388.188 4  95128565.799 4     -2591.294          26.000
R10  20562604.867 6 109610262.702 6      -948.738          37.000
R11  20992035.328 8 112175090.727 8      3349.645          51.000    20992038.289 8  87247308.797 8      2605.282          48.000
R24  22052637.414 6 117925341.712 6     -3074.402          37.000    22052639.789 6  91719720.965 6     -2391.202          38.000
C05  39780838.758 6 207149265.342 6       -20.777          36.000    39780835.961 6 160180940.001 6       -15.740          38.000
C14  21653358.828 8 112754710.262 8      -526.348          50.000    21653356.336 8  87189093.283 8      -406.984          51.000
C24  22995965.102 8 119746105.261 8      2003.195          51.000
C26  22923389.062 6 119368108.887 6      -998.156          36.000
C28  25454206.844 5 132546861.492 5     -2408.715          32.000
E05  23701947.688 5 124554574.987 5       677.402          32.000    23701953.797 5  95437948.843 5       518.779          35.000
E09  22655284.719 7 119054392.601 7     -1448.234          44.000    22655287.031 7  91223509.829 7     -1109.677          47.000
E24  24488955.906 6 128690409.736 6      2754.832          40.000    24488974.766 8  98606948.993 8      2110.866          51.000
> 2020 05 09 01 04 30.0000000  0 16        .000000000000
G06  21768712.398 8 114395351.251 8     -2124.484          51.000    21768713.914 8  89139233.403 8     -1655.442          51.000
G07  21095378.242 8 110856954.584 8      1339.590          51.000    21095375.773 8  86382021.241 8      1043.839          51.000
G09  20803185.977 8 109321594.815 8     -1423.871          51.000    20803187.273 8  85185638.135 8     -1109.510          51.000
G30  22500341.531 7 118240135.088 7      3151.543          47.000    22500343.031 7  92135179.394 7      2455.748          47.000
R09  22923145.875 5 122408270.451 5     -3340.672          33.000    22923139.789 5  95206411.872 5     -2598.303          30.000
R10  20568005.188 5 109639048.374 5      -969.633          34.000
R11  20973263.109 8 112074775.448 8      3338.965          51.000    20973265.492 7  87169285.815 7      2596.973          47.000
R24  22069914.977 6 118017739.473 6     -3084.344          40.000    22069917.367 6  91791585.817 6     -2398.937          39.000
C05  39780942.359 6 207149804.716 6       -14.539          36.000    39780939.555 6 160181357.075 6       -11.058          38.000
C14  21656403.234 8 112770561.334 8      -529.480          49.000    21656400.391 8  87201350.348 8      -409.434          51.000
C24  22984448.531 8 119686133.815 8      1995.820          51.000
C26  22929167.984 6 119398198.194 6     -1007.840          36.000
C28  25468093.055 5 132619165.212 5     -2409.965          34.000
E05  23698081.727 5 124534261.139 5       677.742          33.000    23698086.977 5  95422389.059 5       519.390          35.000
E09  22663548.047 6 119097820.435 6     -1446.141          39.000    22663551.289 7  91256785.699 7     -1108.004          47.000
E24                                                                  24473250.289 8  98543632.584 8      2110.944          51.000
> 2020 05 09 01 05  0.0000000  0 16        .000000000000
G06  21780909.992 8 114459447.578 8     -2145.168          51.000    21780910.539 8  89189178.575 8     -1671.559          51.000
G07  21087798.453 8 110817122.916 8      1319.242          51.000    21087796.258 8  86350983.592 8      1027.981          51.000
G09  20811364.531 8 109364572.889 8     -1437.816          51.000    20811365.891 8  85219127.555 8     -1120.376          51.000
G30  22482399.344 7 118145845.855 7      3137.883          47.000    22482400.555 7  92061707.300 7      2445.103          47.000
R09  22941980.000 5 122508827.499 5     -3361.355          30.000    22941979.359 5  95284680.726 5     -2614.385          32.000
R10  20573561.555 6 109668664.374 6     -1001.289          38.000
R11  20954589.891 8 111974989.915 8      3317.020          51.000    20954591.367 7  87091674.849 7      2579.904          46.000
R24  22087286.297 6 118110633.439 6     -3104.980          39.000    22087288.148 6  91863836.648 6     -2414.985          39.000
C05  39781048.203 6 207150356.854 6       -19.102          36.000    39781045.422 6 160181783.260 6       -14.586          38.000
C14  21659503.172 8 112786703.051 8      -543.168          49.000    21659500.305 8  87213832.134 8      -420.012          51.000
C24  22973013.406 8 119626585.008 8      1977.613          51.000
C26  22935040.680 5 119428783.777 5     -1028.379          32.000
C28  25482023.078 4 132691580.902 4     -2421.586          29.000
E05  23694250.289 5 124514124.277 5       667.840          34.000    23694253.367 6  95406960.933 6       511.859          37.000
E09  22671836.422 6 119141381.856 6     -1454.641          39.000    22671840.344 7  91290163.865 7     -1114.538          47.000
E24  24457539.328 6 128525226.349 6      2744.461          40.000    24457562.211 8  98480466.393 8      2102.767          51.000
> 2020 05 09 01 05 30.0000000  0 16        .000000000000
G02  22387674.312 5 117648003.865 5       144.320          31.000
G06  21793203.367 8 114524047.952 8     -2163.012          51.000    21793203.578 8  89239516.499 8     -1685.464          51.000
G07  21080313.203 8 110777787.867 8      1301.629          51.000    21080311.141 8  86320332.890 8      1014.256          51.000
G09  20819600.641 8 109407853.456 8     -1448.980          51.000    20819601.938 8  85252852.676 8     -1129.073          51.000
G30  22464514.469 7 118051858.522 7      3126.703          46.000    22464515.547 7  91988470.451 7      2436.395          46.000
R10  20579274.062 4 109699117.337 4     -1029.965          29.000
R11  20936017.938 8 111875746.483 8      3297.707          51.000    20936018.383 7  87014485.547 7      2564.883          45.000
R24  22104750.992 6 118204027.534 6     -3122.582          40.000    22104753.094 6  91936476.515 6     -2428.675          40.000
C05  39781157.883 5 207150927.888 5       -20.910          35.000    39781155.102 6 160182224.799 6       -15.888          38.000
C14  21662660.359 8 112803143.841 8      -554.293          49.000    21662657.641 8  87226545.197 8      -428.642          51.000
C24  22961661.031 8 119567468.507 8      1962.098          51.000
C26  22941012.008 5 119459864.728 5     -1046.074          34.000
C28  25495998.477 5 132764349.613 5     -2430.176          30.000
E05  23690454.281 5 124494169.488 5       661.281          34.000    23690456.797 6  95391670.858 6       506.376          39.000
E09  22680152.617 6 119185084.738 6     -1460.590          39.000    22680156.664 7  91323650.478 7     -1119.040          47.000
E24  24441893.438 7 128442995.372 7      2736.289          47.000    24441912.633 8  98417458.222 8      2096.595          50.000
> 2020 05 09 01 06  0.0000000  0 15        .000000000000
G02  22386892.336 5 117643888.716 5       131.828          31.000
G06  21805581.594 8 114589095.820 8     -2174.211          51.000    21805581.680 8  89290203.138 8     -1694.190          51.000
G07  21072912.484 8 110738895.993 8      1290.367          51.000    21072910.461 8  86290027.510 8      1005.478          51.000
G09  20827883.836 8 109451381.412 8     -1453.754          51.000    20827884.883 8  85286770.565 8     -1132.795          51.000
G30  22446676.742 7 117958121.013 7      3121.812          46.000    22446678.156 7  91915428.255 7      2432.581          46.000
R10  20585133.648 5 109730343.029 5     -1052.965          35.000
R11  20917538.133 8 111776994.024 8      3284.898          51.000    20917538.055 7  86937678.136 7      2554.924          47.000
R24  22122297.211 6 118297862.155 6     -3133.625          41.000    22122301.664 6  92009459.003 6     -2437.264          41.000
C05  39781260.914 5 207151464.076 5       -16.051          35.000    39781258.281 6 160182640.198 6       -12.285          38.000
C14  21665864.562 8 112819830.389 8      -558.953          49.000    21665862.117 8  87239448.289 8      -432.357          51.000
C24  22950381.094 8 119508732.260 8      1952.852          51.000
C26  22947069.938 5 119491402.330 5     -1056.953          35.000
E05  23686682.172 5 124474354.600 5       660.195          31.000    23686685.062 6  95376477.330 6       505.699          39.000
E09  22688485.922 6 119228874.877 6     -1459.969          41.000    22688489.695 7  91357203.938 7     -1118.695          47.000
E24  24426276.820 8 128360918.494 8      2734.562          50.000    24426292.062 8  98354568.153 8      2095.332          49.000
> 2020 05 09 01 06 30.0000000  0 15        .000000000000
G06  21818054.094 8 114654640.317 8     -2192.762          50.000    21818054.602 8  89341276.770 8     -1708.645          50.000
G07  21065605.953 8 110700499.561 8      1271.840          51.000    21065604.211 8  86260108.206 8       991.044          51.000
G09  20836223.688 8 109495207.241 8     -1465.555          51.000    20836224.406 8  85320920.547 8     -1141.991          51.000
G30  22428896.492 7 117864686.911 7      3109.648          46.000    22428898.570 7  91842622.465 7      2423.103          45.000
R01  19583688.500 5 104686042.742 5       489.496          33.000    19583696.734 4  81422503.732 4       380.722          26.000
R10  20591148.883 5 109762408.066 5     -1081.520          33.000
R11  20899160.867 8 111678789.033 8      3264.633          51.000    20899161.000 8  86861296.529 8      2539.162          48.000
R24  22139935.242 6 118392185.212 6     -3151.742          41.000    22139941.148 7  92082821.370 7     -2451.355          42.000
C05  39781367.297 6 207152018.463 6       -18.277          36.000    39781364.734 6 160183068.901 6       -14.308          38.000
C14  21669126.016 8 112836814.012 8      -570.879          49.000    21669123.539 8  87252581.110 8      -441.443          51.000
C24  22939184.289 8 119450428.922 8      1936.426          51.000
C26  22953221.250 5 119523438.281 5     -1075.871          35.000
E05                                                                  23682946.102 6  95361419.777 6       499.800          39.000
E09  22696845.188 6 119272803.509 6     -1466.426          41.000    22696849.258 7  91390863.567 7     -1123.550          47.000
E24  24410699.430 8 128279049.214 8      2725.766          51.000    24410711.273 7  98291837.176 7      2088.577          47.000
> 2020 05 09 01 07  0.0000000  0 16        .000000000000
G04  23197473.148 5 121903544.012 5     -2832.949          32.000
G06  21830614.508 8 114720647.132 8     -2208.797          50.000    21830615.680 8  89392710.645 8     -1721.140          50.000
G07  21058387.766 8 110662567.250 8      1255.785          51.000    21058386.070 8  86230550.569 8       978.534          51.000
G09  20844613.875 8 109539298.058 8     -1474.855          51.000    20844614.438 8  85355277.012 8     -1149.238          51.000
G30  22411168.688 7 117771526.297 7      3099.938          47.000    22411171.023 7  91770029.770 7      2415.536          47.000
R01  19580971.547 5 104671522.521 5       477.660          31.000    19580979.461 4  81411210.211 4       371.510          26.000
R10  20597313.758 5 109795270.579 5     -1109.824          32.000
R11  20880880.312 8 111581102.926 8      3246.688          51.000    20880881.141 8  86785318.471 8      2525.201          48.000
R24  22157658.594 7 118486959.859 7     -3167.359          43.000    22157664.984 7  92156534.995 7     -2463.502          42.000
C05  39781471.031 5 207152558.348 5       -18.746          35.000    39781468.445 6 160183486.363 6       -14.411          38.000
C14  21672438.633 8 112854063.422 8      -580.191          50.000    21672435.961 8  87265919.454 8      -448.668          51.000
C24  22928064.586 8 119392528.382 8      1922.461          51.000
C26  22959463.070 6 119555939.879 6     -1092.004          39.000
E05  23679232.922 5 124435204.259 5       647.391          35.000    23679233.070 6  95346473.738 6       495.508          37.000
E09  22705224.164 6 119316838.641 6     -1470.434          40.000    22705229.172 7  91424604.793 7     -1126.708          47.000
E24  24395155.438 8 128197357.624 8      2719.266          51.000    24395164.414 7  98229242.371 7      2083.587          46.000
> 2020 05 09 01 07 30.0000000  0 15        .000000000000
G04  23213671.672 5 121988664.553 5     -2827.473          33.000
G06  21843264.047 8 114787122.684 8     -2216.086          49.000    21843265.844 8  89444509.783 8     -1726.820          49.000
G07  21051259.922 8 110625108.562 8      1248.234          51.000    21051257.906 8  86201361.985 8       972.650          51.000
G09  20853055.953 8 109583661.722 8     -1475.727          50.000    20853056.477 8  85389846.085 8     -1149.917          51.000
G30  22393495.578 8 117678650.060 8      3098.680          49.000    22393497.438 8  91697658.686 8      2414.559          49.000
R10  20603629.711 5 109828937.325 5     -1127.770          33.000
R11  20862698.477 8 111483948.590 8      3237.246          48.000    20862700.680 8  86709753.969 8      2517.855          48.000
R24  22175468.430 7 118582190.724 7     -3174.164          44.000    22175473.938 7  92230603.445 7     -2468.794          44.000
C05  39781573.633 6 207153092.400 6       -10.086          36.000    39781571.133 6 160183899.343 6        -7.944          38.000
C14  21675804.078 8 112871587.704 8      -581.262          50.000    21675801.242 8  87279470.352 8      -449.444          51.000
C24  22917023.891 8 119335040.963 8      1916.832          51.000
C26  22965795.250 6 119588914.762 6     -1099.438          37.000
E05  23675550.477 5 124415857.023 5       649.801          35.000    23675548.242 6  95331645.994 6       498.315          38.000
E09  22713624.836 6 119360989.081 6     -1466.191          36.000    22713630.414 7  91458434.288 7     -1123.347          46.000
E24  24379646.594 8 128115854.549 8      2721.160          51.000    24379654.555 7  98166792.023 7      2084.976          47.000
> 2020 05 09 01 08  0.0000000  0 14        .000000000000
G06  21856000.508 8 114854055.663 8     -2237.918          48.000    21856003.234 8  89496665.357 8     -1743.832          49.000
G07  21044220.312 8 110588115.070 8      1226.066          51.000    21044218.078 8  86172535.917 8       955.379          51.000
G09  20861548.109 8 109628288.361 8     -1491.207          50.000    20861548.672 8  85424620.077 8     -1161.980          50.000
G30  22375875.523 8 117586051.354 8      3082.645          51.000    22375876.555 8  91625503.865 8      2402.064          51.000
R09  23056812.117 6 123122062.254 6     -3450.176          36.000    23056813.961 4  95761620.237 4     -2683.467          28.000
R11  20844614.688 7 111387320.856 7      3212.914          46.000    20844618.078 7  86634599.028 7      2498.933          47.000
R24  22193361.953 7 118677864.075 7     -3195.734          44.000    22193366.000 7  92305016.043 7     -2485.571          44.000
C05  39781673.438 6 207153611.914 6       -16.723          36.000    39781670.914 6 160184301.015 6       -12.599          38.000
C14  21679220.602 8 112889378.390 8      -596.672          50.000    21679218.000 8  87293227.227 8      -461.388          51.000
C24  22906061.375 8 119277959.458 8      1896.664          50.000
C26  22972215.727 6 119622352.623 6     -1121.805          38.000
E05  23671897.156 6 124396651.343 6       638.301          37.000    23671893.422 6  95316929.915 6       489.228          40.000
E09  22722046.234 6 119405245.555 6     -1475.918          39.000    22722051.945 7  91492345.116 7     -1131.087          46.000
E24  24364171.750 8 128034533.111 8      2708.383          50.000    24364180.992 8  98104480.827 8      2075.290          48.000
> 2020 05 09 01 08 30.0000000  0 15        .000000000000
G02  22384446.859 5 117631051.457 5        44.234          34.000
G06  21868824.008 8 114921444.267 8     -2251.449          49.000    21868826.867 8  89549175.961 8     -1754.376          49.000
G07  21037269.367 8 110551588.273 8      1212.246          51.000    21037267.352 8  86144073.504 8       944.610          51.000
G09  20870090.234 8 109673177.623 8     -1498.105          49.000    20870090.969 8  85459598.709 8     -1167.355          49.000
G30  22358308.734 8 117493732.867 8      3075.094          51.000    22358308.961 8  91553567.401 8      2396.180          51.000
R09  23076239.539 6 123225823.484 6     -3462.582          36.000    23076239.570 5  95842307.722 5     -2693.116          31.000
R11  20826630.117 7 111291224.316 7      3196.727          47.000    20826634.766 8  86559857.295 8      2486.343          48.000
R24  22211336.945 7 118773976.154 7     -3208.691          44.000    22211339.969 7  92379769.882 7     -2495.649          44.000
C05  39781770.469 6 207154117.331 6       -14.020          36.000    39781768.078 6 160184691.839 6       -10.823          38.000
C14  21682688.242 8 112907436.433 8      -603.914          50.000    21682686.172 8  87307190.834 8      -466.967          51.000
C24  22895177.531 8 119221285.991 8      1884.734          51.000
C26  22978727.531 7 119656253.333 7     -1135.371          43.000
E05  23668270.961 5 124377602.864 5       635.512          35.000    23668267.836 6  95302325.945 6       486.974          40.000
E09  22730488.898 6 119449608.711 6     -1478.066          41.000    22730494.305 7  91526337.641 7     -1132.434          46.000
E24  24348731.422 8 127953395.882 8      2703.984          50.000    24348742.609 8  98042310.770 8      2071.905          48.000
> 2020 05 09 01 09  0.0000000  0 16        .000000000000
G02  22384262.875 5 117630096.526 5        17.574          30.000
G06  21881737.250 8 114989301.868 8     -2275.320          51.000    21881739.719 8  89602052.000 8     -1772.977          51.000
G07  21030410.391 8 110515544.729 8      1187.840          51.000    21030408.883 8  86115987.643 8       925.589          51.000
G09  20878685.141 8 109718344.473 8     -1515.574          49.000    20878686.141 8  85494793.665 8     -1180.967          49.000
G30  22340798.352 8 117401712.474 8      3056.895          51.000    22340798.023 8  91481863.207 8      2381.996          51.000
R01  19570739.094 5 104616836.971 5       427.395          33.000    19570745.438 4  81368658.990 4       332.421          26.000
R11  20808749.328 8 111195678.931 8      3170.082          48.000    20808754.227 7  86485544.200 7      2465.616          47.000
R24  22229394.719 7 118870538.658 7     -3231.867          42.000    22229398.023 7  92454874.036 7     -2513.671          44.000
C05  39781867.766 5 207154624.464 5       -22.965          35.000    39781865.531 6 160185083.967 6       -17.401          39.000
C14  21686210.492 8 112925777.825 8      -621.500          50.000    21686208.664 8  87321373.548 8      -480.610          51.000
C24  22884375.172 8 119165037.756 8      1862.395          50.000
C26  22985329.828 6 119690631.120 6     -1159.328          40.000
C28  25594909.859 4 133279411.238 4     -2479.512          28.000
E05  23664674.992 6 124358705.651 6       621.867          38.000    23664672.836 6  95287846.302 6       476.259          40.000
E09  22738955.180 7 119494094.141 7     -1490.293          42.000    22738959.875 7  91560423.925 7     -1142.015          46.000
E24  24333329.609 8 127872460.777 8      2688.930          49.000    24333341.930 8  97980295.553 8      2060.364          49.000
> 2020 05 09 01 09 30.0000000  0 18        .000000000000
G02  22384190.445 5 117629718.864 5         2.688          33.000
G06  21894750.359 8 115057683.733 8     -2287.930          51.000    21894752.367 8  89655336.548 8     -1782.805          51.000
G07  21023654.320 8 110480042.720 8      1174.605          51.000    21023653.023 8  86088323.753 8       915.277          51.000
G09  20887343.617 8 109763845.508 8     -1522.051          49.000    20887344.875 8  85530249.039 8     -1186.011          49.000
G30  22323355.625 8 117310049.917 8      3049.570          51.000    22323355.430 8  91410437.836 8      2376.286          51.000
R01  19568354.766 5 104604088.612 5       418.414          32.000    19568362.062 4  81358742.644 4       325.433          27.000
R08  20967984.906 5 112282617.652 5     -2076.195          31.000    20967988.938 5  87330922.091 5     -1614.819          33.000
R10  20630404.625 5 109971717.049 5     -1244.949          34.000
R11  20790984.242 8 111100747.445 8      3154.297          49.000    20790988.609 7  86411708.532 7      2453.342          47.000
R24  22247545.398 7 118967605.730 7     -3243.738          43.000    22247549.938 7  92530370.656 7     -2522.908          44.000
C05  39781976.375 6 207155190.347 6       -19.938          36.000    39781974.117 6 160185521.552 6       -15.163          38.000
C14  21689798.281 8 112944460.115 8      -628.305          49.000    21689796.523 8  87335819.855 8      -485.724          51.000
C24  22873666.148 8 119109273.548 8      1850.906          49.000
C26  22992033.078 6 119725541.871 6     -1172.391          38.000
C28  25609215.367 5 133353821.688 5     -2483.500          34.000
E05  23661119.922 6 124340028.444 6       619.359          36.000    23661119.336 6  95273535.223 6       474.356          39.000
E09  22747455.305 6 119538759.584 6     -1491.512          39.000    22747459.461 7  91594648.090 7     -1142.889          45.000
E24  24317977.633 8 127791787.522 8      2685.023          50.000    24317990.938 8  97918480.950 8      2057.317          49.000
> 2020 05 09 01 10  0.0000000  0 17        .000000000000
G04  23294823.219 5 122415116.234 5     -2857.875          35.000
G06  21907848.047 8 115126510.318 8     -2308.227          51.000    21907849.297 8  89708967.635 8     -1798.618          51.000
G07  21016986.867 8 110445005.620 8      1153.598          51.000    21016985.336 8  86061022.105 8       898.907          51.000
G09  20896050.898 8 109809602.765 8     -1536.059          49.000    20896052.289 8  85565904.058 8     -1196.929          49.000
G30  22305966.359 8 117218670.159 8      3034.645          50.000    22305966.469 8  91339232.828 8      2364.658          50.000
R01  19566032.430 5 104591673.946 5       401.289          32.000    19566040.125 4  81349086.837 4       312.114          27.000
R08  20979624.188 5 112344968.500 5     -2089.090          32.000    20979632.750 5  87379417.107 5     -1624.854          34.000
R11  20773320.836 8 111006355.093 8      3130.660          50.000    20773324.227 7  86338292.230 7      2434.958          46.000
R24  22265776.047 7 119065094.404 7     -3263.262          44.000    22265780.773 7  92606195.200 7     -2538.092          44.000
C05  39782081.680 5 207155737.738 5       -24.602          35.000    39782079.352 6 160185945.600 6       -18.875          39.000
C14  21693436.766 8 112963407.197 8      -642.539          49.000    21693435.188 8  87350470.931 8      -496.840          51.000
C24  22863035.734 8 119053918.424 8      1831.738          49.000
C26  22998823.914 6 119760908.127 6     -1193.398          37.000
C28  25623546.695 5 133428400.230 5     -2495.324          33.000
E05  23657591.242 5 124321482.172 5       608.730          33.000    23657592.797 6  95259333.697 6       466.496          39.000
E09  22755974.562 6 119583527.837 6     -1500.605          37.000    22755978.219 7  91628950.989 7     -1149.874          44.000
E24  24302661.156 8 127711301.055 8      2673.156          50.000    24302675.922 8  97856809.448 8      2048.272          49.000
> 2020 05 09 01 10 30.0000000  0 16        .000000000000
G06  21921034.711 8 115195804.434 8     -2315.148          51.000    21921035.312 8  89762963.053 8     -1804.015          51.000
G07  21010412.883 8 110410459.322 8      1145.715          51.000    21010411.391 8  86034102.911 8       892.765          51.000
G09  20904811.680 8 109855640.642 8     -1536.949          49.000    20904812.969 8  85601777.743 8     -1197.623          49.000
G30  22288636.039 8 117127600.546 8      3032.973          50.000    22288636.156 8  91268269.501 8      2363.355          50.000
R01  19563779.008 5 104579619.799 5       398.570          30.000    19563784.867 4  81339711.349 4       309.999          26.000
R10  20644699.430 5 110047886.194 5     -1294.824          31.000
R11  20755763.727 8 110912531.720 8      3120.426          51.000    20755765.750 7  86265318.522 7      2426.998          43.000
R24  22284089.758 7 119163025.902 7     -3269.281          46.000    22284094.453 7  92682364.156 7     -2542.774          44.000
C05  39782188.438 5 207156293.590 5       -16.094          35.000    39782186.117 6 160186375.436 6       -12.828          39.000
C14  21697130.688 8 112982644.556 8      -643.766          49.000    21697129.422 8  87365346.450 8      -497.761          51.000
C24  22852488.820 8 118998998.950 8      1825.781          50.000
C26  23005707.547 6 119796753.648 6     -1200.555          39.000
C28  25637910.484 4 133503176.920 4     -2493.605          28.000
E05  23654095.781 6 124303116.328 6       611.492          36.000    23654098.211 6  95245261.156 6       468.672          39.000
E09  22764519.023 6 119628424.004 6     -1496.395          40.000    22764521.695 7  91663351.911 7     -1146.465          43.000
E24  24287385.391 8 127631028.628 8      2674.488          51.000    24287401.281 7  97795301.993 7      2049.295          47.000
> 2020 05 09 01 11  0.0000000  0 17        .000000000000
G02  22384565.516 5 117631678.192 5       -47.691          34.000
G06  21934299.336 8 115265508.123 8     -2331.016          51.000    21934299.484 8  89817277.593 8     -1816.376          51.000
G07  21003921.891 8 110376349.072 8      1129.035          51.000    21003920.414 8  86007523.503 8       879.771          51.000
G09  20913615.133 8 109901902.703 8     -1546.512          49.000    20913616.266 8  85637826.104 8     -1205.074          49.000
G30  22271354.344 8 117036787.603 8      3022.043          49.000    22271354.461 8  91197506.165 8      2354.839          49.000
R01  19561580.016 4 104567871.026 4       385.312          29.000
R08  21003068.258 5 112470451.710 5     -2099.824          34.000    21003064.336 5  87477021.086 5     -1633.194          35.000
R10  20652062.281 5 110087148.138 5     -1320.969          32.000
R11  20738302.789 8 110819224.525 8      3100.832          51.000    20738304.109 7  86192746.364 7      2411.764          43.000
R24  22302474.523 7 119261339.355 7     -3284.121          45.000    22302479.219 7  92758830.156 7     -2554.316          44.000
C05  39782286.195 6 207156802.977 6       -16.707          36.000    39782283.797 6 160186768.557 6       -13.028          39.000
C14  21700869.969 8 113002117.485 8      -653.750          49.000    21700868.992 8  87380404.146 8      -505.539          51.000
C24  22842016.008 8 118944461.689 8      1810.762          51.000
C26  23012673.141 6 119833022.292 6     -1216.781          41.000
E05                                                                  23650625.055 6  95231275.173 6       464.248          39.000
E09  22773077.164 7 119673392.433 7     -1500.887          42.000    22773079.203 7  91697808.246 7     -1150.066          42.000
E24  24272140.711 8 127550916.749 8      2666.898          51.000    24272154.414 7  97733917.627 7      2043.471          42.000
> 2020 05 09 01 11 30.0000000  0 17        .000000000000
G02  22384894.945 5 117633403.103 5       -65.691          34.000
G06  21947653.469 8 115335684.100 8     -2346.434          51.000    21947653.539 8  89871960.163 8     -1828.390          51.000
G07  20997526.375 8 110342740.657 8      1112.473          51.000    20997524.602 8  85981335.122 8       866.862          51.000
G09  20922473.500 8 109948453.201 8     -1555.980          49.000    20922474.547 8  85674099.225 8     -1212.452          49.000
G30  22254133.992 8 116946298.589 8      3011.523          48.000    22254135.023 8  91126995.213 8      2346.642          48.000
R01  19559449.609 5 104556493.558 5       373.156          31.000
R08  21014857.992 5 112533602.483 5     -2109.461          30.000    21014855.758 5  87526138.384 5     -1640.695          35.000
R10  20659580.328 5 110127222.986 5     -1348.246          34.000
R11  20720951.305 8 110726503.899 8      3081.473          50.000    20720951.695 7  86120630.418 7      2396.701          42.000
R24  22320942.453 7 119360096.484 7     -3298.508          45.000    22320946.422 7  92835641.238 7     -2565.506          42.000
C05  39782387.031 5 207157328.506 5       -17.086          35.000    39782384.773 6 160187174.906 6       -13.339          38.000
C14  21704667.242 8 113021890.912 8      -663.590          49.000    21704666.383 8  87395694.197 8      -513.118          51.000
C24  22831629.805 8 118890372.736 8      1796.070          51.000
C26  23019730.992 6 119869777.283 6     -1232.547          38.000
E05                                                                  23647185.688 6  95217425.834 6       459.746          39.000
E09  22781661.312 6 119718498.296 6     -1505.301          41.000    22781662.672 6  91732369.932 6     -1153.520          40.000
E24  24256939.555 8 127471032.643 8      2659.535          51.000    24256947.719 7  97672707.863 7      2037.891          44.000
> 2020 05 09 01 12  0.0000000  0 16        .000000000000
G06  21961098.898 7 115406344.467 7     -2361.512          47.000    21961100.117 7  89927020.215 7     -1840.139          47.000
G07  20991229.328 8 110309648.798 8      1096.168          51.000    20991227.445 8  85955549.246 8       854.157          51.000
G09  20931389.344 8 109995305.922 8     -1565.004          50.000    20931390.117 8  85710607.831 8     -1219.484          50.000
G30  22236978.953 8 116856150.180 8      3001.047          49.000    22236980.703 8  91056749.679 8      2338.478          49.000
R01  19557397.234 5 104545504.701 5       361.359          33.000
R08  21026704.797 5 112597059.945 5     -2119.012          31.000    21026707.828 6  87575494.304 6     -1648.117          37.000
R10  20667253.445 5 110168123.376 5     -1375.477          35.000
R11  20703712.977 8 110634388.455 8      3062.199          49.000    20703713.734 7  86048985.088 7      2381.711          44.000
R24  22339495.773 7 119459307.794 7     -3312.695          47.000    22339498.594 7  92912805.600 7     -2576.544          43.000
C05  39782494.086 6 207157885.665 6       -17.113          36.000    39782491.766 6 160187605.756 6       -13.366          38.000
C14  21708525.148 8 113041979.808 8      -673.180          48.000    21708524.383 8  87411228.202 8      -520.461          51.000
C24  22821332.641 8 118836748.055 8      1781.543          51.000
C26  23026884.523 6 119907031.910 6     -1248.266          37.000
E05  23643776.812 5 124248885.301 5       594.637          34.000    23643782.453 6  95203724.430 6       455.667          39.000
E09  22790273.516 6 119763756.258 6     -1509.551          37.000    22790274.125 6  91767048.136 6     -1156.534          37.000
E24  24241785.094 8 127391393.024 8      2652.383          51.000    24241793.883 8  97611685.365 8      2032.363          49.000
> 2020 05 09 01 12 30.0000000  0 17        .000000000000
G04  23376370.570 4 122843656.155 4     -2864.301          29.000
G06  21974623.961 7 115477424.449 7     -2377.020          47.000    21974626.836 7  89982407.212 7     -1852.223          47.000
G07  20985018.812 8 110277011.961 8      1079.707          51.000    20985017.227 8  85930117.963 8       841.330          51.000
G09  20940350.625 8 110042397.562 8     -1574.133          49.000    20940351.055 8  85747302.605 8     -1226.597          48.000
G30  22219878.039 8 116766282.004 8      2990.305          51.000    22219879.500 8  90986722.536 8      2330.108          51.000
R01  19555404.156 5 104534841.296 5       349.660          35.000    19555412.562 4  81304904.790 4       271.958          27.000
R08  21038600.133 5 112660732.734 5     -2127.789          30.000    21038603.664 5  87625027.267 5     -1654.950          34.000
R10  20675068.969 5 110209783.887 5     -1402.273          35.000
R11  20686576.727 8 110542818.577 8      3042.582          50.000    20686578.156 7  85977764.019 7      2366.453          46.000
R24  22358121.992 8 119558905.394 8     -3326.824          48.000    22358123.883 7  92990270.368 7     -2587.533          43.000
C05  39782595.258 5 207158412.244 5       -17.367          35.000    39782593.047 6 160188013.318 6       -13.713          38.000
C14  21712431.820 8 113062322.604 8      -682.934          48.000    21712431.180 8  87426958.534 8      -528.051          51.000
C24  22811112.961 8 118783527.385 8      1766.660          51.000
C26  23034122.289 5 119944723.156 5     -1263.520          34.000
E05  23640400.547 5 124231138.628 5       589.102          35.000    23640403.930 6  95190123.239 6       451.390          39.000
E09  22798902.805 6 119809103.888 6     -1513.797          38.000    22798903.625 6  91801795.004 6     -1160.003          38.000
E24  24226665.578 8 127311937.514 8      2644.871          51.000    24226677.219 8  97550803.913 8      2026.560          51.000
> 2020 05 09 01 13  0.0000000  0 19        .000000000000
G02  22386488.102 5 117641781.875 5      -120.328          35.000
G04  23392753.750 5 122929722.736 5     -2868.094          33.000
G06  21988227.773 8 115548913.097 8     -2391.785          50.000    21988231.281 8  90038112.648 8     -1863.729          50.000
G07  20978893.305 8 110244822.642 8      1063.363          51.000    20978891.898 8  85905035.408 8       828.595          51.000
G09  20949355.453 8 110089718.879 8     -1583.262          48.000    20949355.750 8  85784176.335 8     -1233.710          48.000
G30  22202829.445 8 116676687.699 8      2979.684          51.000    22202830.398 8  90916908.825 8      2321.831          51.000
R01  19553469.188 5 104524496.025 5       336.973          33.000    19553478.891 4  81296864.561 4       262.090          26.000
R08  21050540.367 5 112724668.034 5     -2137.121          32.000    21050541.328 5  87674754.716 5     -1662.208          32.000
R10  20683024.906 5 110252194.138 5     -1428.520          35.000
R11  20669541.938 8 110451789.694 8      3022.930          51.000    20669544.141 8  85906963.762 8      2351.168          48.000
R24  22376817.891 7 119658875.937 7     -3340.719          47.000    22376819.305 7  93068025.229 7     -2598.337          43.000
C05  39782689.180 5 207158901.435 5       -17.352          35.000    39782686.938 6 160188391.210 6       -13.710          38.000
C14  21716385.648 8 113082911.449 8      -692.574          48.000    21716385.109 8  87442879.127 8      -535.473          51.000
C24  22800969.453 8 118730703.890 8      1752.016          51.000
C26  23041440.797 5 119982828.306 5     -1280.012          31.000
C28  25710201.016 5 133879690.763 5     -2524.871          32.000
E05  23637046.773 5 124213510.553 5       583.445          35.000    23637048.867 6  95176615.956 6       447.142          38.000
E09  22807548.039 6 119854532.500 6     -1517.504          40.000    22807550.594 6  91836603.993 6     -1163.077          39.000
E24  24211579.797 8 127232659.759 8      2637.504          51.000    24211593.898 8  97490058.644 8      2020.903          51.000
> 2020 05 09 01 13 30.0000000  0 19        .000000000000
G02  22387223.117 6 117645628.643 6      -137.203          36.000
G04  23409128.617 5 123015769.480 5     -2868.570          33.000
G06  22001920.133 8 115620865.014 8     -2405.590          51.000    22001923.336 8  90094179.061 8     -1874.489          51.000
G07  20972863.789 8 110213138.111 8      1048.371          51.000    20972862.375 8  85880346.167 8       816.913          51.000
G09  20958414.656 7 110137326.021 7     -1591.023          47.000    20958414.922 7  85821272.801 7     -1239.759          47.000
G30  22185844.219 8 116587426.390 8      2970.441          51.000    22185844.680 8  90847354.594 8      2314.630          51.000
R01  19551603.883 5 104514527.896 5       326.352          35.000    19551612.281 4  81289115.583 4       253.835          26.000
R08  21062538.578 5 112788896.055 5     -2144.902          33.000    21062534.766 4  87724709.840 4     -1668.254          28.000
R10  20691132.562 6 110295410.145 6     -1453.410          37.000
R11  20652619.891 8 110361363.335 8      3004.785          51.000    20652623.016 8  85836632.173 8      2337.055          48.000
R24  22395593.031 7 119759273.153 7     -3352.984          45.000    22395594.445 7  93146111.926 7     -2607.877          43.000
C05  39782786.539 5 207159408.314 5       -16.441          35.000    39782784.250 6 160188783.167 6       -13.142          38.000
C14  21720397.766 8 113103803.197 8      -700.863          49.000    21720396.859 8  87459033.963 8      -541.928          51.000
C24  22790912.992 8 118678335.553 8      1738.629          51.000
C26  23048855.008 5 120021428.913 5     -1294.402          34.000
C28  25724748.328 5 133955509.216 5     -2530.121          35.000
E05  23633727.781 5 124196062.254 5       579.285          35.000    23633727.719 6  95163246.419 6       443.718          37.000
E09  22816219.570 6 119900099.336 6     -1520.695          38.000    22816222.203 6  91871518.850 6     -1165.040          37.000
E24  24196538.930 8 127153618.866 8      2631.305          51.000    24196554.531 8  97429494.864 8      2016.195          51.000
> 2020 05 09 01 14  0.0000000  0 16        .000000000000
G02  22388054.148 5 117649986.338 5      -156.004          33.000
G06  22015692.266 8 115693235.926 8     -2421.504          51.000    22015694.672 8  90150571.953 8     -1886.886          51.000
G07  20966922.414 8 110181917.317 8      1030.828          50.000    20966921.359 8  85856018.286 8       803.243          50.000
G09  20967520.188 7 110185176.439 7     -1601.188          46.000    20967520.453 7  85858558.837 7     -1247.682          46.000
G30  22168914.680 8 116498458.455 8      2958.480          51.000    22168914.836 8  90778028.972 8      2305.312          51.000
R01  19549800.109 5 104504895.523 5       312.719          32.000    19549809.648 4  81281623.654 4       243.226          27.000
R10  20699381.477 5 110339386.993 5     -1480.430          32.000
R11  20635803.367 8 110271501.050 8      2983.789          51.000    20635807.062 8  85766739.282 8      2320.725          49.000
R24  22414438.906 7 119860050.239 7     -3367.613          46.000    22414440.117 7  93224494.092 7     -2619.255          42.000
C05  39782879.555 5 207159893.141 5       -17.781          35.000    39782877.203 6 160189157.264 6       -13.765          39.000
C14  21724460.164 8 113124956.940 8      -711.633          49.000    21724458.711 8  87475391.391 8      -550.231          51.000
C24  22780935.875 8 118626382.551 8      1722.703          51.000
C28  25739322.078 6 134031477.349 6     -2536.379          37.000
E05                                                                  23630432.500 6  95149982.783 6       438.657          37.000
E09  22824908.414 6 119945762.605 6     -1526.016          37.000    22824909.984 6  91906507.635 6     -1169.237          39.000
E24  24181535.562 8 127074775.187 8      2622.684          51.000    24181551.336 8  97369082.193 8      2009.601          51.000
> 2020 05 09 01 14 30.0000000  0 16        .000000000000
G06  22029559.656 8 115766108.531 8     -2435.719          51.000    22029561.742 8  90207355.782 8     -1897.963          51.000
G07  20961085.609 8 110151246.074 8      1014.848          50.000    20961085.070 8  85832118.600 8       790.790          49.000
G09  20976688.242 7 110233354.525 7     -1609.809          46.000    20976688.586 7  85896100.195 7     -1254.396          46.000
G30  22152057.062 8 116409871.153 8      2948.285          49.000    22152057.078 8  90708999.932 8      2297.365          49.000
R01  19548075.914 6 104495686.408 6       301.629          36.000    19548084.539 4  81274460.985 4       234.600          26.000
R08  21086672.797 4 112918226.029 4     -2164.816          29.000    21086698.320 4  87825291.762 4     -1683.749          28.000
R10  20707790.000 6 110384209.240 6     -1506.691          36.000
