     3.02           OBSERVATION DATA    M (MIXED)           RINEX VERSION / TYPE
SAVERINEX           SC600               20200512 075931 LCL PGM / RUN BY / DATE
       G = GPS       R = GLONASS       C = COMPASS          COMMENT
       S = SBAS      J = QZSS          E = GALILEO          COMMENT
BEAN                                                        MARKER NAME
1                                                           MARKER NUMBER
GEODETIC                                                    MARKER TYPE
Unige DICCA         GTER                                    OBSERVER / AGENCY
SC60291900056       SC600               2.12(191226)        REC # / TYPE / VERS
                    HEMA45          NONE                    ANT # / TYPE
  4509407.8091   693652.4678  4442337.6214                  APPROX POSITION XYZ
        0.0000        0.0000        0.0000                  ANTENNA: DELTA H/E/N
G    8 C1C L1C D1C S1C C2Y L2Y D2Y S2Y                      SYS / # / OBS TYPES
R    8 C1C L1C D1C S1C C2P L2P D2P S2P                      SYS / # / OBS TYPES
C    8 C1I L1I D1I S1I C7I L7I D7I S7I                      SYS / # / OBS TYPES
E    8 C1C L1C D1C S1C C7Q L7Q D7Q S7Q                      SYS / # / OBS TYPES
DBHZ                                                        COMMENT
     30.000                                                 INTERVAL
  2020    05    12    05    00    0.0000000     GPS         TIME OF FIRST OBS
  2020    05    12    05    59   30.0000000     GPS         TIME OF LAST OBS
     0                                                      RCV CLOCK OFFS APPL
G L1C  0.00000                                              SYS / PHASE SHIFT
G L2Y  0.00000                                              SYS / PHASE SHIFT
R L1C  0.00000                                              SYS / PHASE SHIFT
R L2P  0.25000                                              SYS / PHASE SHIFT
C L1I  0.00000                                              SYS / PHASE SHIFT
C L7I  0.00000                                              SYS / PHASE SHIFT
E L1C  0.50000                                              SYS / PHASE SHIFT
E L7Q -0.25000                                              SYS / PHASE SHIFT
 12 R03  5 R04  6 R05  1 R06 -4 R09 -2 R10 -5 R14 -7 R15  0 GLONASS SLOT / FRQ #
    R16 -1 R17  4 R18 -3 R19  3                             GLONASS SLOT / FRQ #
 C1C   71.950 C2C   71.950 C2P   71.950                     GLONASS COD/PHS/BIS
    18                                                      LEAP SECONDS
*** Above antenna height is from mark to ANTENNA BOTTOM.    COMMENT
    17     4        0.0000        ANT MEASURE TYPE/HEIGT    COMMENT
    0.0000    0.0000    0.0458    0.0405    0.0000          COMMENT
                    BASE STATION                            COMMENT
                                                            END OF HEADER
> 2020 05 12 05 00  0.0000000  0 18        .000000000000
G05  23518211.125 6 123589022.965 6     -3541.078          39.000    23518204.797 6  96303116.352 6     -2759.285          39.000
G13  20159262.383 8 105937633.051 8      -246.242          51.000    20159260.656 8  82548792.674 8      -191.877          50.000
G17  24002835.133 5 126135756.977 5      2638.363          35.000    24002838.172 5  98287568.227 5      2055.867          35.000
G28  21134225.297 7 111061120.025 7     -1247.891          47.000    21134223.016 6  86541201.059 6      -972.379          36.000
R05  21201400.922 8 113333625.591 8     -3701.508          51.000    21201403.453 7  88148371.637 7     -2878.951          47.000
R06  19274563.727 6 102852772.270 6       511.355          41.000
R09  23022710.156 7 122939971.473 7      3539.086          45.000    23022709.852 7  95620003.852 7      2752.625          42.000
R15  21124342.656 5 112882053.618 5     -3164.973          33.000
R16  19259989.992 7 102883440.224 7       295.258          44.000    19259992.305 6  80020443.932 6       229.648          40.000
C05  39786957.234 6 207181126.051 6        11.594          36.000    39786954.820 6 160205565.663 6         9.240          39.000
C21  22272842.266 8 115980550.143 8     -1082.480          51.000
C22  24886321.258 6 129589577.044 6     -3312.383          38.000
C26  23439323.852 6 122054733.925 6      2281.695          41.000
E02  23210970.289 8 121974469.699 8        99.938          51.000    23210971.688 8  93461019.226 8        76.599          51.000
E03  25467725.906 8 133833805.168 8     -2453.496          49.000    25467729.688 8 102547950.076 8     -1880.017          51.000
E08  21457830.438 8 112761653.841 8       -73.145          51.000    21457830.242 8  86401775.630 8       -56.073          51.000
E25  25674592.508 5 134920826.642 5     -2316.867          35.000
E30  24257474.492 8 127473859.557 8      2443.965          51.000    24257478.156 8  97674769.752 8      1872.633          51.000
> 2020 05 12 05 00 30.0000000  0 17        .000000000000
G05  23538432.922 6 123695295.324 6     -3538.293          36.000    23538429.562 6  96385925.936 6     -2757.111          36.000
G13  20160704.641 8 105945211.653 8      -253.523          51.000    20160702.820 8  82554698.065 8      -197.554          50.000
G17  23987786.352 5 126056676.029 5      2639.164          35.000    23987790.234 5  98225946.711 5      2056.491          33.000
G28  21141390.562 7 111098773.411 7     -1256.520          45.000    21141388.195 6  86570541.368 6      -979.106          36.000
R05  21222210.312 8 113444859.181 8     -3708.355          51.000    21222211.398 7  88234886.641 7     -2884.276          44.000
R06  19271755.055 7 102837785.118 7       493.082          42.000
R09  23002844.578 7 122833892.076 7      3538.789          43.000    23002842.750 6  95537497.694 6      2752.395          40.000
R16  19258378.820 7 102874834.003 7       284.312          44.000    19258380.633 6  80013750.211 6       221.135          39.000
C05  39786882.633 6 207180737.012 6        19.418          36.000    39786880.109 6 160205264.835 6        15.221          38.000
C21  22279119.641 8 116013239.343 8     -1091.215          51.000
C22  24905415.586 6 129689002.674 6     -3310.074          39.000
C26  23426193.703 7 121986359.783 7      2281.922          43.000
E02  23210427.898 8 121971618.729 8        95.699          51.000    23210428.914 8  93458834.715 8        73.352          51.000
E03  25481747.695 8 133907491.981 8     -2453.230          49.000    25481751.055 8 102604411.392 8     -1879.811          50.000
E08  21458276.445 8 112763997.179 8       -77.473          51.000    21458276.328 8  86403571.163 8       -59.353          51.000
E25  25687827.438 5 134990444.153 5     -2314.340          34.000
E30  24243537.797 8 127400623.158 8      2444.125          49.000    24243542.234 8  97618653.525 8      1872.783          51.000
> 2020 05 12 05 01  0.0000000  0 18        .000000000000
G05  23558631.391 5 123801453.148 5     -3542.117          30.000    23558631.352 5  96468646.304 5     -2760.088          31.000
G13  20162184.039 8 105952985.534 8      -267.914          51.000    20162182.172 8  82560755.614 8      -208.764          50.000
G17  23972730.125 6 125977552.240 6      2632.141          36.000    23972733.438 5  98164291.773 5      2051.016          35.000
G28  21148600.484 7 111136662.586 7     -1272.438          44.000    21148598.562 6  86600065.449 6      -991.510          37.000
R05  21243052.164 8 113556270.368 8     -3722.254          49.000    21243051.758 6  88321539.708 6     -2895.089          39.000
R06  19269043.320 6 102823315.414 6       468.082          41.000
R09  22982974.055 6 122727792.719 6      3531.426          38.000    22982972.062 6  95454975.985 6      2746.664          40.000
R15  21159898.133 5 113072074.884 5     -3171.391          30.000
R16  19256826.086 7 102866540.921 7       265.551          43.000    19256828.039 6  80007300.034 6       206.536          40.000
C05  39786760.875 5 207180102.750 5        20.125          35.000    39786758.266 6 160204774.376 6        15.483          39.000
C21  22285442.758 8 116046164.808 8     -1106.941          51.000
C22  24924493.078 6 129788338.024 6     -3314.844          39.000
C26  23413058.859 7 121917956.955 7      2275.090          43.000
E02  23209905.250 8 121968871.552 8        84.371          51.000    23209906.078 8  93456729.743 8        64.594          51.000
E03  25495763.438 8 133981145.891 8     -2460.109          51.000    25495765.656 8 102660847.450 8     -1884.926          49.000
E08  21458743.078 8 112766448.671 8       -89.020          51.000    21458742.844 8  86405449.581 8       -68.192          51.000
E25  25701044.664 5 135059900.914 5     -2319.164          32.000
E30  24229595.656 8 127327359.614 8      2437.043          48.000    24229600.305 8  97562516.496 8      1867.363          51.000
> 2020 05 12 05 01 30.0000000  0 18        .000000000000
G05  23578875.562 5 123907828.090 5     -3551.992          30.000    23578880.305 4  96551569.828 4     -2767.783          29.000
G13  20163769.477 8 105961317.295 8      -287.957          51.000    20163767.742 8  82567247.878 8      -224.385          49.000
G17  23957734.969 6 125898750.202 6      2620.254          36.000    23957737.219 5  98102887.565 5      2041.756          35.000
G28  21155923.844 7 111175147.312 7     -1293.734          44.000    21155921.672 6  86630053.519 6     -1008.108          37.000
G30  22924167.820 5 120467314.008 5     -2697.609          33.000
R05  21263995.086 8 113668223.937 8     -3741.754          48.000    21263992.508 6  88408614.611 6     -2910.256          39.000
R06  19266497.641 7 102809731.888 7       437.191          43.000
R09  22963169.367 6 122622042.753 6      3518.211          39.000    22963168.664 6  95372725.946 6      2736.386          41.000
R15  21177743.062 5 113167425.433 5     -3183.695          32.000
R16  19255400.906 7 102858927.436 7       241.473          43.000    19255402.781 6  80001378.422 6       187.812          40.000
C05  39786660.773 5 207179581.871 5        14.641          35.000    39786658.227 6 160204371.570 6        11.400          38.000
C21  22291880.172 8 116079684.477 8     -1128.148          51.000
C22  24943622.031 6 129887939.679 6     -3325.254          39.000
C26  23399987.016 6 121849884.493 6      2262.672          41.000
E02  23209470.875 8 121966589.442 8        67.508          51.000    23209471.914 8  93454981.125 8        51.709          51.000
E03  25509842.102 8 134055127.969 8     -2472.297          51.000    25509842.453 7 102717534.972 7     -1894.357          47.000
E08  21459299.266 8 112769370.827 8      -106.059          51.000    21459298.938 8  86407688.636 8       -81.284          51.000
E30  24215717.875 8 127254431.528 8      2424.531          50.000    24215721.648 8  97506636.520 8      1857.752          51.000
> 2020 05 12 05 02  0.0000000  0 17        .000000000000
G13  20165429.102 8 105970038.725 8      -294.184          51.000    20165427.305 8  82574043.773 8      -229.237          49.000
G17  23942769.570 5 125820103.926 5      2621.855          33.000    23942770.148 5  98041604.829 5      2043.007          34.000
G28  21163328.062 7 111214056.921 7     -1301.180          42.000    21163325.500 6  86660372.723 6     -1013.906          40.000
R05  21285006.398 8 113780545.078 8     -3747.035          48.000    21285004.789 7  88495975.404 7     -2914.364          42.000
R06  19264086.453 7 102796864.577 7       419.902          43.000
R09  22943400.547 7 122516471.642 7      3519.215          44.000    22943399.688 6  95290615.108 6      2737.170          41.000
R15  21195613.367 5 113262913.833 5     -3182.355          32.000    21195606.734 4  88093381.683 4     -2475.178          25.000
R16  19254070.641 7 102851820.908 7       231.629          43.000    19254072.500 6  79995851.131 6       180.156          40.000
C05  39786550.461 6 207179007.033 6        23.207          36.000    39786547.914 6 160203927.087 6        17.646          38.000
C21  22298399.406 8 116113630.293 8     -1135.688          51.000
C22  24962769.891 6 129987638.261 6     -3321.883          39.000
C26  23386944.930 6 121781975.389 6      2263.688          40.000
E02  23209092.828 8 121964602.888 8        64.156          51.000    23209093.828 8  93453458.956 8        49.180          51.000
E03  25523950.961 8 134129268.557 8     -2471.199          51.000    25523949.938 7 102774343.953 7     -1893.453          47.000
E08  21459912.742 8 112772595.302 8      -109.727          51.000    21459912.773 8  86410159.340 8       -84.061          51.000
E25  25727602.453 5 135199463.164 5     -2326.957          33.000
E30  24201872.305 8 127181670.766 8      2425.418          50.000    24201874.688 8  97450884.775 8      1858.428          51.000
> 2020 05 12 05 02 30.0000000  0 16        .000000000000
G13  20167166.969 8 105979171.507 8      -313.926          51.000    20167165.000 8  82581160.214 8      -244.617          48.000
G28  21170816.961 7 111253411.010 7     -1321.938          43.000    21170814.516 6  86691038.232 6     -1030.081          39.000
R05  21306090.047 7 113893252.276 7     -3766.070          47.000    21306090.320 7  88583636.551 7     -2929.166          45.000
R06  19261813.422 7 102784735.867 7       389.168          43.000
R09  22923669.797 7 122411102.668 7      3506.059          47.000    22923668.789 6  95208661.515 6      2726.934          41.000
R15  21213516.195 6 113358579.057 6     -3194.848          38.000
R16  19252838.844 7 102845241.729 7       207.801          43.000    19252841.094 6  79990733.987 6       161.620          40.000
C05  39786433.680 6 207178399.271 6        18.164          36.000    39786431.234 6 160203457.091 6        14.040          38.000
C21  22305004.398 8 116148022.507 8     -1156.504          51.000
C22  24981939.742 6 130087452.847 6     -3332.074          38.000
C26  23373938.445 7 121714250.947 7      2251.641          42.000
E02  23208774.922 8 121962932.417 8        47.664          51.000    23208775.812 8  93452178.987 8        36.537          51.000
E03  25538093.930 8 134203587.986 8     -2483.051          51.000    25538092.688 7 102831289.950 7     -1902.570          47.000
E08  21460587.719 8 112776143.850 8      -126.469          51.000    21460588.297 8  86412878.349 8       -96.887          51.000
E25  25740913.312 5 135269413.054 5     -2336.602          33.000
E30  24188062.023 8 127109099.191 8      2413.156          49.000    24188063.633 8  97395278.013 8      1849.036          50.000
> 2020 05 12 05 03  0.0000000  0 17        .000000000000
G05  23639749.461 5 124227707.067 5     -3563.164          31.000
G13  20169019.641 8 105988907.443 8      -332.035          51.000    20169017.445 8  82588746.652 8      -258.729          48.000
G17  23912977.195 5 125663542.517 5      2599.199          30.000    23912977.852 5  97919612.143 5      2025.347          30.000
G28  21178426.266 6 111293398.881 6     -1341.316          40.000    21178424.406 6  86722197.607 6     -1045.182          39.000
R05  21327280.844 7 114006536.948 7     -3783.266          45.000    21327283.953 7  88671746.906 7     -2942.537          47.000
R06  19259715.555 7 102773541.933 7       360.078          43.000
R09  22904012.922 7 122306131.174 7      3494.906          47.000    22904012.227 6  95127017.048 6      2718.260          41.000
R15  21231487.836 5 113454612.688 5     -3204.547          31.000
R16  19251742.227 7 102839383.082 7       186.000          44.000    19251744.844 6  79986177.278 6       144.667          41.000
C05  39786347.039 6 207177948.062 6        14.977          36.000    39786344.594 6 160203122.186 6        11.366          39.000
C21  22311731.203 8 116183049.879 8     -1175.656          51.000
C22  25001166.930 6 130187570.924 6     -3339.910          37.000
C26  23361005.398 7 121646901.016 7      2241.414          43.000
E02  23208553.406 8 121961768.596 8        32.910          51.000    23208554.406 8  93451287.232 8        25.208          51.000
E03  25552307.203 8 134278276.676 8     -2493.195          51.000    25552306.047 7 102888518.886 7     -1910.427          47.000
E08  21461360.891 8 112780208.209 8      -141.570          51.000    21461361.781 8  86415992.598 8      -108.461          51.000
E30  24174323.656 8 127036908.795 8      2402.562          48.000    24174325.055 8  97339963.304 8      1840.913          49.000
> 2020 05 12 05 03 30.0000000  0 17        .000000000000
G05  23660060.555 5 124334465.296 5     -3559.727          33.000
G13  20170909.555 8 105998839.272 8      -338.840          50.000    20170907.336 8  82596485.738 8      -264.031          49.000
G28  21186078.352 6 111333611.139 6     -1348.723          41.000    21186076.805 6  86753531.824 6     -1050.956          40.000
G30  22985856.953 6 120791487.288 6     -2705.777          37.000    22985860.703 6  94123239.117 6     -2108.401          37.000
R05  21348502.742 8 114119981.072 8     -3788.754          50.000    21348507.352 8  88759981.236 8     -2946.809          48.000
R06  19257715.664 7 102762869.750 7       342.395          44.000
R09  22884352.289 7 122201144.492 7      3495.203          46.000    22884352.664 6  95045360.727 6      2718.491          40.000
R15  21249435.352 5 113550507.699 5     -3203.430          33.000
R16  19250702.719 7 102833829.190 7       175.430          43.000    19250705.312 6  79981857.611 6       136.445          40.000
C05  39786212.898 6 207177249.371 6        22.719          36.000    39786210.469 6 160202581.885 6        17.604          38.000
C21  22318502.078 8 116218307.618 8     -1183.570          51.000
C22  25020374.219 6 130287586.475 6     -3336.863          37.000
C26  23348067.523 7 121579521.962 7      2241.965          44.000
E02  23208350.742 8 121960703.061 8        29.418          51.000    23208351.781 8  93450470.785 8        22.565          51.000
E03  25566513.227 8 134352926.064 8     -2492.113          51.000    25566512.398 8 102945717.706 8     -1909.541          48.000
E08  21462154.867 8 112784381.184 8      -145.477          51.000    21462155.867 8  86419190.069 8      -111.433          51.000
E30  24160580.625 8 126964692.604 8      2403.223          48.000    24160582.352 8  97284628.816 8      1841.347          49.000
> 2020 05 12 05 04  0.0000000  0 16        .000000000000
G05  23680436.312 5 124441553.117 5     -3562.773          35.000    23680440.438 5  96967433.730 5     -2776.187          35.000
G13  20172933.492 8 106009475.149 8      -353.426          50.000    20172931.438 8  82604773.430 8      -275.397          49.000
G28  21193869.219 6 111374553.793 6     -1363.914          40.000    21193868.164 6  86785435.122 6     -1062.793          38.000
R05  21369851.633 8 114234098.079 8     -3801.984          51.000    21369855.812 8  88848738.886 8     -2957.102          48.000
R06  19255910.578 7 102753236.369 7       316.859          45.000
R09  22864784.586 7 122096659.754 7      3487.762          46.000    22864785.859 6  94964094.783 6      2712.704          39.000
R15  21267480.820 5 113646956.023 5     -3209.441          31.000
R16  19249816.469 7 102829094.545 7       157.387          42.000    19249818.992 6  79978175.103 6       122.412          40.000
C05  39786127.766 6 207176806.065 6        23.277          36.000    39786125.375 6 160202239.066 6        18.075          39.000
C21  22325413.617 8 116254297.841 8     -1199.141          51.000
C22  25039658.156 6 130388000.404 6     -3341.262          38.000
C26  23335220.547 6 121512617.015 6      2234.918          41.000
E02  23208263.172 8 121960242.630 8        18.215          51.000    23208264.133 8  93450117.993 8        13.954          51.000
E03  25580807.992 8 134428042.839 8     -2498.824          51.000    25580808.047 8 103003274.647 8     -1914.585          49.000
E08  21463066.289 8 112789170.790 8      -157.039          51.000    21463067.195 8  86422860.040 8      -120.308          51.000
E30  24146930.203 8 126892958.725 8      2396.016          50.000    24146932.719 8  97229663.919 8      1835.818          50.000
> 2020 05 12 05 04 30.0000000  0 18        .000000000000
G05  23700789.531 6 124548503.992 6     -3576.625          36.000    23700792.891 6  97050772.014 6     -2786.981          37.000
G13  20174995.000 8 106020307.711 8      -378.230          51.000    20174993.070 8  82613214.382 8      -294.725          49.000
G17  23868569.734 5 125430177.831 5      2575.258          33.000    23868563.352 5  97737766.043 5      2006.700          32.000
G28  21201701.953 6 111415716.955 6     -1389.449          39.000    21201701.141 6  86817510.316 6     -1082.688          39.000
R05  21391229.203 8 114348368.096 8     -3825.551          51.000    21391232.469 7  88937615.519 7     -2975.428          47.000
R06  19254203.609 7 102744127.175 7       280.754          45.000
R09  22845214.633 8 121992162.018 8      3469.348          48.000    22845215.977 6  94882818.769 6      2698.382          40.000
R15  21285537.031 5 113743350.993 5     -3226.648          33.000
R16  19248986.539 7 102824662.063 7       128.539          42.000    19248989.492 6  79974727.611 6        99.975          39.000
C05  39785995.031 6 207176115.022 6        13.508          36.000    39785992.609 6 160201704.698 6        10.397          39.000
C21  22332368.867 8 116290516.522 8     -1224.828          51.000
C22  25058921.695 6 130488307.542 6     -3355.332          39.000
C26  23322366.727 6 121445683.390 6      2218.070          40.000
E02  23208194.016 8 121959878.821 8        -3.309          51.000    23208194.734 8  93449839.223 8        -2.526          51.000
E03  25595094.523 8 134503118.316 8     -2515.594          51.000    25595095.789 8 103060799.959 8     -1927.584          50.000
E08  21463998.352 8 112794069.769 8      -178.969          51.000    21463999.250 8  86426613.805 8      -137.138          51.000
E25  25794489.211 5 135550954.935 5     -2361.453          33.000
E30  24133275.648 8 126821200.058 8      2378.516          51.000    24133279.188 8  97174680.024 8      1822.499          50.000
> 2020 05 12 05 05  0.0000000  0 17        .000000000000
G05  23721202.266 5 124655772.785 5     -3574.035          35.000    23721204.117 5  97134357.943 5     -2784.966          35.000
G13  20177181.133 8 106031795.391 8      -386.953          51.000    20177179.203 8  82622165.818 8      -301.522          50.000
G17  23853873.094 5 125352947.200 5      2573.801          35.000    23853866.922 5  97677586.301 5      2005.556          33.000
G28  21209663.734 6 111457556.837 6     -1399.504          38.000    21209662.836 6  86850112.839 6     -1090.523          38.000
R05  21412721.469 8 114463253.743 8     -3832.797          51.000    21412724.203 7  89026970.986 7     -2981.064          46.000
R06  19252682.453 7 102736008.693 7       261.160          45.000
R09  22825730.078 7 121888118.016 7      3467.527          47.000    22825731.859 7  94801895.680 7      2696.966          42.000
R16  19248300.477 6 102820996.082 6       116.547          41.000    19248302.484 6  79971876.278 6        90.648          37.000
C05  39785902.000 6 207175630.955 6        19.551          36.000    39785899.445 6 160201329.620 6        15.057          38.000
C21  22339454.539 8 116327416.699 8     -1234.535          51.000
C22  25078251.477 6 130588959.759 6     -3353.883          38.000
C26  23309592.633 6 121379175.136 6      2216.691          41.000
E02  23208230.156 8 121960068.929 8        -8.641          51.000    23208230.906 8  93449984.887 8        -6.621          51.000
E03  25609459.703 8 134578609.651 8     -2516.363          50.000    25609462.125 8 103118643.928 8     -1928.149          51.000
E08  21465038.266 8 112799536.596 8      -184.816          51.000    21465039.461 8  86430802.665 8      -141.613          51.000
E25  25807969.961 5 135621796.041 5     -2362.180          32.000
E30  24119703.922 8 126749875.325 8      2377.113          51.000    24119708.188 8  97120028.610 8      1821.407          51.000
> 2020 05 12 05 05 30.0000000  0 17        .000000000000
G05  23741610.672 5 124763016.218 5     -3574.344          34.000    23741610.852 5  97217924.226 5     -2785.206          30.000
G13  20179427.250 8 106043598.316 8      -398.477          51.000    20179425.047 8  82631362.899 8      -310.504          50.000
G15  20589638.664 5 108199279.276 5      1270.230          35.000    20589637.172 5  84311135.658 5       989.787          31.000
G28  21217689.148 6 111499731.234 6     -1410.953          41.000    21217688.766 6  86882975.976 6     -1099.444          40.000
R05  21434262.914 8 114578405.318 8     -3842.566          50.000    21434265.273 7  89116533.320 7     -2988.663          44.000
R06  19251282.305 7 102728535.696 7       238.543          45.000
R09  22806266.086 7 121784182.956 7      3462.949          47.000    22806269.008 7  94721057.324 7      2693.405          43.000
R15  21321776.781 5 113937001.104 5     -3229.734          35.000
R16  19247692.242 6 102817748.795 6       101.453          41.000    19247694.203 6  79969350.608 6        78.908          38.000
C05  39785783.719 6 207175014.484 6        22.859          36.000    39785780.992 6 160200852.869 6        17.848          39.000
C21  22346606.125 8 116364659.996 8     -1246.918          51.000
C22  25097582.055 6 130689617.566 6     -3355.035          37.000
C26  23296836.258 7 121312755.039 7      2212.785          42.000
E02  23208306.750 8 121960471.670 8       -16.633          51.000    23208307.711 8  93450293.476 8       -12.781          51.000
E03  25623838.258 7 134654175.391 7     -2519.918          47.000    25623842.445 8 103176544.926 8     -1930.804          51.000
E08  21466121.719 8 112805231.133 8      -193.262          51.000    21466123.023 8  86435166.011 8      -148.161          51.000
E30  24106150.055 8 126678644.571 8      2373.082          51.000    24106154.656 8  97065449.186 8      1818.315          51.000
> 2020 05 12 05 06  0.0000000  0 18        .000000000000
G05  23762052.664 5 124870436.386 5     -3581.168          32.000    23762050.734 5  97301628.176 5     -2790.520          31.000
G13  20181772.383 8 106055921.877 8      -417.285          51.000    20181770.016 8  82640965.666 8      -325.157          51.000
G15  20582461.352 5 108161563.738 5      1250.371          33.000    20582460.078 5  84281746.961 5       974.315          33.000
G17  23824575.969 5 125198995.427 5      2557.629          32.000    23824568.742 5  97557619.199 5      1992.961          30.000
G28  21225817.031 7 111542443.328 7     -1430.656          42.000    21225816.523 6  86916258.123 6     -1114.797          38.000
R05  21455892.570 8 114694028.025 8     -3859.809          51.000    21455893.695 6  89206462.064 6     -3002.076          41.000
R06  19250042.242 7 102721917.763 7       208.484          46.000
R09  22786862.250 7 121680566.678 7      3450.582          47.000    22786865.828 7  94640466.884 7      2683.786          44.000
R15  21339952.141 5 114034130.104 5     -3239.031          34.000
R16  19247201.602 6 102815127.056 6        79.312          41.000    19247203.312 6  79967311.485 6        61.687          38.000
C05  39785679.109 6 207174469.514 6        19.273          36.000    39785676.273 6 160200431.464 6        14.858          38.000
C21  22353862.781 8 116402448.586 8     -1266.520          51.000
C22  25116951.383 5 130790481.936 5     -3363.609          35.000
C26  23284136.383 6 121246626.524 6      2201.684          39.000
E02  23208462.641 8 121961291.204 8       -32.066          51.000    23208463.758 8  93450921.417 8       -24.612          51.000
E03  25638268.836 7 134730019.483 7     -2530.594          44.000    25638275.656 8 103234659.242 8     -1939.083          51.000
E08  21467287.703 8 112811358.753 8      -209.312          51.000    21467288.734 8  86439861.193 8      -160.394          51.000
E30  24092653.172 8 126607713.377 8      2361.539          51.000    24092657.852 8  97011099.285 8      1809.524          51.000
> 2020 05 12 05 06 30.0000000  0 17        .000000000000
G05  23782503.766 4 124977899.919 4     -3582.234          29.000    23782501.539 5  97385367.269 5     -2791.351          30.000
G13  20184192.398 8 106068639.053 8      -429.125          51.000    20184190.031 8  82650875.143 8      -334.383          51.000
G15  20575363.297 5 108124260.909 5      1237.895          34.000    20575364.258 5  84252679.828 5       964.602          35.000
G17  23809988.938 6 125122343.537 6      2552.625          36.000    23809985.648 5  97497896.712 5      1989.058          34.000
G28  21234022.719 6 111585563.530 6     -1442.723          41.000    21234021.484 6  86949858.298 6     -1124.196          39.000
R05  21477585.727 8 114809989.250 8     -3869.711          51.000    21477583.750 6  89296653.994 6     -3009.781          37.000
R06  19248938.516 7 102716026.592 7       185.535          47.000
R09  22767494.500 8 121577140.524 8      3445.609          48.000    22767497.875 7  94560024.342 7      2679.918          44.000
R16  19246803.297 6 102813000.302 6        63.941          40.000    19246805.055 6  79965657.339 6        49.732          37.000
C05  39785564.008 6 207173869.911 6        22.469          36.000    39785561.102 6 160199967.815 6        17.000          39.000
C21  22361200.086 8 116440655.325 8     -1279.219          51.000
C22  25136335.688 5 130891424.596 5     -3365.168          34.000
C26  23271468.602 6 121180663.741 6      2197.352          39.000
E02  23208673.414 8 121962399.434 8       -40.469          51.000    23208674.547 8  93451770.566 8       -30.994          51.000
E03  25652728.336 7 134806013.749 7     -2534.316          45.000    25652736.992 8 103292888.629 8     -1941.855          51.000
E08  21468511.898 8 112817792.541 8      -218.254          51.000    21468512.742 8  86444790.968 8      -167.207          51.000
E30  24079188.992 8 126536954.984 8      2357.035          51.000    24079193.258 8  96956881.811 8      1805.998          51.000
> 2020 05 12 05 07  0.0000000  0 18        .000000000000
G05  23802985.477 5 125085532.781 5     -3586.926          34.000
G13  20186708.273 8 106081859.947 8      -446.699          51.000    20186705.922 8  82661177.127 8      -348.077          51.000
G15  20568364.789 6 108087481.601 6      1220.051          36.000    20568364.945 5  84224020.629 5       950.689          35.000
G17  23795458.008 5 125045993.976 5      2543.609          35.000    23795457.648 5  97438403.474 5      1982.030          33.000
G28  21242326.727 7 111629199.841 7     -1460.715          44.000    21242325.203 6  86983860.634 6     -1138.219          36.000
R05  21499362.523 8 114926397.332 8     -3885.344          51.000    21499359.797 6  89387193.485 6     -3021.937          41.000
R06  19247991.891 7 102710974.492 7       156.926          47.000
R09  22748183.617 8 121474017.568 8      3434.723          50.000    22748186.602 7  94479817.629 7      2671.454          44.000
R15  21376377.359 5 114228878.022 5     -3251.566          31.000
R16  19246518.133 6 102811478.671 6        43.094          40.000    19246520.148 6  79964473.840 6        33.517          37.000
C05  39785459.234 6 207173324.153 6        19.742          36.000    39785456.258 6 160199545.750 6        15.335          39.000
C21  22368638.555 8 116479387.927 8     -1297.414          51.000
C22  25155756.500 6 130992552.150 6     -3371.898          38.000
C26  23258853.711 6 121114975.404 6      2187.590          40.000
E02  23208959.992 8 121963905.189 8       -54.426          51.000    23208960.938 8  93452924.315 8       -41.727          51.000
E03  25667238.711 7 134882266.867 7     -2543.762          47.000    25667247.453 8 103351316.350 8     -1949.098          51.000
E08  21469815.289 8 112824642.521 8      -232.988          51.000    21469816.195 8  86450039.634 8      -178.455          51.000
E30  24065778.070 8 126466479.573 8      2346.828          51.000    24065781.352 8  96902881.175 8      1798.210          51.000
> 2020 05 12 05 07 30.0000000  0 17        .000000000000
G05  23823478.789 5 125193225.311 5     -3591.414          35.000    23823475.641 5  97553154.698 5     -2798.504          35.000
G13  20189305.695 8 106095509.463 8      -462.504          51.000    20189303.367 8  82671813.107 8      -360.393          51.000
G15  20561451.828 6 108051152.071 6      1203.199          37.000    20561452.195 6  84195711.876 6       937.555          37.000
G17  23780968.695 5 124969865.960 5      2533.914          34.000    23780972.672 5  97379082.814 5      1974.478          34.000
G28  21250714.211 7 111673274.642 7     -1476.770          42.000    21250711.992 6  87018204.573 6     -1150.730          39.000
R05  21521207.672 8 115043171.958 8     -3898.961          51.000    21521207.266 7  89478018.150 7     -3032.525          46.000
R06  19247188.195 7 102706686.034 7       129.809          46.000
R09  22728914.883 8 121371122.061 8      3425.723          48.000    22728917.758 7  94399787.810 7      2664.451          44.000
R16  19246331.750 6 102810483.739 6        24.102          40.000    19246333.805 6  79963700.016 6        18.746          37.000
C05  39785350.305 6 207172758.255 6        19.012          36.000    39785347.383 6 160199107.378 6        14.674          38.000
C21  22376163.656 8 116518570.497 8     -1313.934          51.000
C22  25175198.492 6 131093787.578 6     -3376.898          40.000
C26  23246276.602 6 121049486.884 6      2179.426          37.000
E02  23209307.812 8 121965732.048 8       -66.531          51.000    23209308.594 8  93454324.092 8       -50.937          51.000
E03  25681784.797 8 134958702.274 8     -2551.176          49.000    25681792.461 8 103409883.722 8     -1954.824          51.000
E08  21471183.617 8 112831833.423 8      -245.723          51.000    21471184.445 8  86455549.533 8      -188.233          51.000
E30  24052406.133 8 126396212.161 8      2338.523          51.000    24052408.844 8  96849039.911 8      1791.880          51.000
> 2020 05 12 05 08  0.0000000  0 17        .000000000000
G05  23843988.820 5 125301008.290 5     -3594.496          35.000    23843987.047 5  97637141.411 5     -2800.903          34.000
G13  20191987.938 8 106109605.138 8      -477.336          51.000    20191985.750 8  82682796.734 8      -371.950          51.000
G15  20554627.750 6 108015290.800 6      1187.328          37.000    20554628.742 6  84167768.077 6       925.191          36.000
G17  23766526.109 5 124893980.184 5      2525.215          34.000    23766533.102 5  97319951.093 5      1967.709          31.000
G28  21259187.922 6 111717803.120 6     -1491.973          41.000    21259185.570 6  87052902.123 6     -1162.573          37.000
R05  21543124.133 8 115160327.679 8     -3911.594          50.000    21543125.844 8  89569139.264 8     -3042.351          50.000
R06  19246530.867 7 102703179.330 7       103.812          46.000
R09  22709691.406 7 121268472.605 7      3417.531          46.000    22709695.109 7  94319949.331 7      2658.080          45.000
R16  19246247.195 6 102810031.698 6         6.215          39.000    19246249.266 6  79963348.430 6         4.834          37.000
C05  39785240.703 6 207172187.368 6        18.738          36.000    39785237.766 6 160198665.888 6        14.656          38.000
C21  22383778.695 8 116558219.221 8     -1329.422          51.000
C22  25194663.867 6 131195146.026 6     -3380.594          40.000
C26  23233741.625 6 120984215.706 6      2172.414          38.000
E02  23209719.812 8 121967896.581 8       -77.906          51.000    23209720.508 8  93455982.632 8       -59.682          51.000
E03  25696368.852 8 135035336.395 8     -2557.887          50.000    25696375.062 8 103468603.339 8     -1959.960          48.000
E08  21472620.289 8 112839383.041 8      -257.711          51.000    21472620.703 8  86461334.298 8      -197.479          51.000
E30  24039076.500 8 126326170.724 8      2330.793          49.000    24039079.391 8  96795371.801 8      1785.977          50.000
> 2020 05 12 05 08 30.0000000  0 17        .000000000000
G05  23864513.047 6 125408866.651 6     -3597.312          36.000    23864513.555 6  97721186.873 6     -2803.098          36.000
G13  20194753.070 8 106124136.366 8      -492.348          51.000    20194750.812 8  82694119.769 8      -383.648          51.000
G15  20547890.375 6 107979888.514 6      1171.461          37.000    20547892.141 6  84140181.836 6       912.830          38.000
G17  23752129.875 5 124818291.116 5      2516.375          33.000
G28  21267745.453 7 111762772.732 7     -1507.199          43.000    21267743.453 6  87087943.357 6     -1174.441          39.000
R05  21565108.703 8 115277849.714 8     -3924.180          48.000    21565112.188 8  89660545.302 8     -3052.140          51.000
R06  19246017.898 7 102700444.159 7        77.703          47.000
R09  22690512.188 7 121166059.541 7      3409.074          45.000    22690516.656 7  94240294.734 7      2651.502          46.000
R16  19246261.789 6 102810110.064 6       -12.336          39.000    19246264.297 6  79963409.380 6        -9.598          37.000
C05  39785128.273 6 207171601.518 6        19.203          36.000    39785125.297 6 160198212.888 6        14.532          38.000
C21  22391480.992 8 116598322.279 8     -1345.004          51.000
C22  25214149.727 6 131296614.675 6     -3384.645          40.000
C26  23221247.828 6 120919151.216 6      2164.867          41.000
E02  23210193.969 8 121970387.060 8       -89.172          51.000    23210194.258 8  93457890.919 8       -68.344          51.000
E03  25710988.414 8 135112157.310 8     -2564.508          50.000    25710992.109 7 103527466.040 7     -1964.884          44.000
E08  21474123.336 8 112847280.764 8      -269.734          51.000    21474123.305 8  86467385.798 8      -206.683          51.000
E30  24025787.867 8 126256344.861 8      2323.152          50.000    24025789.859 8  96741868.865 8      1780.150          49.000
> 2020 05 12 05 09  0.0000000  0 17        .000000000000
G13  20197588.781 8 106139038.530 8      -503.270          51.000    20197586.469 8  82705731.841 8      -392.161          51.000
G15  20541228.562 6 107944881.067 6      1160.066          36.000    20541229.719 5  84112903.301 5       903.948          35.000
G28  21276374.062 7 111808116.250 7     -1518.152          43.000    21276371.875 6  87123275.958 6     -1182.973          38.000
G30  23157391.734 6 121692913.908 6     -2748.711          36.000    23157396.703 5  94825677.862 5     -2141.850          35.000
R05  21587148.289 7 115395668.633 7     -3932.602          46.000    21587153.383 8  89752182.265 8     -3058.690          51.000
R06  19245637.555 7 102698415.038 7        55.504          47.000
R09  22671365.539 7 121063817.963 7      3404.863          45.000    22671369.836 7  94160773.535 7      2648.227          46.000
R16  19246363.273 6 102810651.328 6       -26.281          38.000    19246365.789 6  79963830.363 6       -20.441          37.000
C05  39785000.609 6 207170936.191 6        23.688          36.000    39784997.594 6 160197698.375 6        18.172          38.000
C21  22399257.406 8 116638814.127 8     -1356.555          51.000
C22  25233644.086 6 131398126.768 6     -3385.016          41.000
C26  23208782.750 7 120854228.967 7      2161.285          42.000
E02  23210717.656 8 121973137.496 8       -96.289          51.000    23210717.578 8  93459998.385 8       -73.756          51.000
E03  25725630.438 8 135189098.869 8     -2567.074          49.000    25725628.867 6 103586421.168 6     -1966.892          41.000
E08  21475680.273 8 112855461.839 8      -277.719          51.000    21475680.117 8  86473654.401 8      -212.759          51.000
E25  25916619.492 5 136192754.046 5     -2395.020          31.000
E30  24012528.914 8 126186669.970 8      2319.703          51.000    24012528.625 8  96688481.615 8      1777.390          49.000
> 2020 05 12 05 09 30.0000000  0 16        .000000000000
G13  20200543.008 8 106154563.401 8      -521.738          51.000    20200540.695 8  82717829.147 8      -406.549          50.000
G15  20534690.250 5 107910521.584 5      1140.793          35.000    20534690.906 5  84086129.648 5       888.927          35.000
G28  21285121.070 7 111854083.210 7     -1536.402          43.000    21285119.414 6  87159094.384 6     -1197.197          37.000
G30  23173133.977 5 121775629.459 5     -2754.906          33.000    23173126.383 5  94890131.554 5     -2146.674          34.000
R05  21609290.023 7 115514036.749 7     -3948.602          44.000    21609296.953 8  89844246.428 8     -3071.132          51.000
R06  19245437.562 7 102697348.493 7        25.820          47.000
R09  22652298.961 7 120962004.397 7      3392.797          45.000    22652302.492 7  94081585.258 7      2638.845          45.000
R16  19246598.570 6 102811909.502 6       -47.289          37.000    19246601.484 6  79964808.934 6       -36.780          36.000
C05  39784905.398 6 207170440.344 6        19.621          36.000    39784902.430 6 160197314.912 6        15.366          38.000
C21  22407155.367 8 116679942.756 8     -1375.469          51.000
C22  25253194.141 6 131499929.318 6     -3392.113          41.000
C26  23196393.203 6 120789698.324 6      2150.648          41.000
E02  23211338.273 8 121976398.418 8      -111.027          51.000    23211338.281 8  93462497.028 8       -85.058          51.000
E03  25740342.039 8 135266411.512 8     -2576.988          48.000    25740338.195 7 103645660.647 7     -1974.563          43.000
E08  21477338.914 8 112864177.974 8      -293.309          51.000    21477338.766 8  86480332.991 8      -224.737          51.000
E30  23999347.125 8 126117397.966 8      2308.535          51.000    23999345.375 8  96635403.081 8      1768.860          49.000
> 2020 05 12 05 10  0.0000000  0 16        .000000000000
G13  20203553.297 8 106170382.790 8      -535.895          51.000    20203550.969 8  82730155.931 8      -417.580          51.000
G15  20528213.094 5 107876483.028 5      1125.387          33.000    20528212.609 5  84059606.145 5       876.925          33.000
G17  23709224.094 5 124592825.892 5      2492.844          35.000    23709222.164 5  97085291.067 5      1942.479          34.000
G28  21293924.086 7 111900343.333 7     -1550.594          43.000    21293922.430 6  87195141.234 6     -1208.255          37.000
R05  21631471.250 7 115632616.551 7     -3959.922          46.000    21631479.492 8  89936475.187 8     -3079.939          48.000
R06  19245355.492 7 102696911.368 7          .414          47.000
R09  22633250.273 7 120860286.026 7      3385.312          45.000    22633252.984 7  94002470.970 7      2633.021          46.000
R16  19246905.414 6 102813548.861 6       -64.531          37.000    19246908.609 6  79966083.992 6       -50.188          36.000
C05  39784780.258 6 207169788.259 6        20.766          36.000    39784777.258 6 160196810.673 6        16.057          38.000
C21  22415112.242 8 116721381.525 8     -1390.090          51.000
C22  25272736.961 7 131601694.689 7     -3395.121          42.000
C26  23184016.164 6 120725234.007 6      2144.129          38.000
E02  23211993.250 8 121979840.474 8      -121.348          51.000    23211993.281 8  93465134.452 8       -92.960          51.000
E03  25755061.500 7 135343765.699 7     -2582.770          47.000    25755059.797 7 103704931.996 7     -1979.071          46.000
E08  21479036.914 8 112873100.927 8      -304.477          51.000    21479036.656 8  86487170.047 8      -233.336          51.000
E30  23986179.766 8 126048200.845 8      2301.695          51.000    23986178.078 8  96582381.939 8      1763.655          51.000
> 2020 05 12 05 10 30.0000000  0 16        .000000000000
G13  20206659.039 8 106186703.801 8      -550.652          51.000    20206656.711 8  82742873.588 8      -429.080          50.000
G15  20521844.844 6 107843027.202 6      1109.863          36.000    20521838.742 6  84033515.515 6       864.829          37.000
G17  23695019.875 5 124518180.715 5      2484.598          35.000    23695016.914 6  97027125.956 6      1936.047          36.000
G28  21302821.641 7 111947101.102 7     -1565.109          44.000    21302819.727 5  87231575.849 5     -1219.566          35.000
R05  21653733.047 8 115751615.278 8     -3971.812          50.000    21653739.008 7  90029029.683 7     -3089.194          42.000
R06  19245431.086 8 102697314.670 8       -25.711          48.000
R09  22614259.281 7 120758874.515 7      3377.074          45.000    22614261.805 7  93923595.358 7      2626.613          46.000
R16  19247322.805 6 102815778.161 6       -82.266          38.000    19247326.367 6  79967817.895 6       -63.984          36.000
C05  39784664.398 6 207169185.956 6        21.062          36.000    39784661.453 6 160196344.149 6        16.308          38.000
C21  22423167.297 8 116763334.472 8     -1405.297          50.000
C22  25292311.633 6 131703625.870 6     -3398.656          41.000
C26  23171689.695 6 120661041.355 6      2137.203          36.000
E02  23212721.867 8 121983669.737 8      -132.375          51.000    23212721.609 8  93468068.563 8      -101.376          51.000
E03  25769828.461 8 135421367.354 8     -2589.266          48.000    25769829.141 8 103764392.990 8     -1983.878          48.000
E08  21480813.805 8 112882437.960 8      -316.391          51.000    21480813.125 8  86494324.387 8      -242.402          51.000
E30  23973066.141 8 125979286.097 8      2294.160          51.000    23973065.141 8  96529577.159 8      1757.875          51.000
> 2020 05 12 05 11  0.0000000  0 15        .000000000000
G13  20209856.414 8 106203506.017 8      -567.992          51.000    20209853.906 8  82755966.218 8      -442.591          50.000
G17  23680869.898 6 124443827.408 6      2474.008          37.000    23680868.375 6  96969188.316 6      1927.801          36.000
G28  21311809.578 7 111994333.725 7     -1582.207          44.000    21311807.422 5  87268380.528 5     -1232.889          35.000
R05  21676069.070 8 115871008.700 8     -3986.246          50.000    21676072.195 7  90121891.063 7     -3100.417          43.000
R06  19245660.391 7 102698538.026 7       -54.277          47.000
R09  22595322.453 7 120657749.770 7      3366.168          45.000    22595324.852 7  93844942.780 7      2618.131          46.000
R16  19247846.414 6 102818575.188 6      -102.934          39.000    19247849.812 5  79969993.355 5       -80.062          35.000
C05  39784553.922 6 207168610.917 6        19.070          36.000    39784551.211 6 160195899.465 6        14.598          38.000
C21  22431317.312 8 116805779.957 8     -1423.008          50.000
C22  25311913.727 6 131805700.306 6     -3404.504          39.000
C26  23159407.484 6 120597100.045 6      2127.285          38.000
E02  23213520.016 8 121987864.695 8      -145.719          51.000    23213519.578 8  93471282.889 8      -111.643          51.000
E03  25784638.422 8 135499194.878 8     -2597.746          48.000    25784640.352 8 103824027.081 8     -1990.529          49.000
E08  21482665.688 8 112892168.721 8      -330.730          51.000    21482664.500 8  86501780.426 8      -253.414          51.000
E30  23960002.242 8 125910633.567 8      2284.234          51.000    23960002.117 8  96476973.294 8      1750.290          51.000
> 2020 05 12 05 11 30.0000000  0 15        .000000000000
G13  20213137.641 8 106220748.441 8      -582.148          51.000    20213134.930 8  82769401.853 8      -453.622          49.000
G17  23666769.156 6 124369727.662 6      2466.047          36.000    23666766.781 6  96911448.268 6      1921.601          37.000
G28  21320879.797 7 112041998.203 7     -1595.836          44.000    21320877.539 6  87305521.682 6     -1243.505          36.000
R05  21698470.094 8 115990751.090 8     -3997.188          49.000    21698473.789 7  90215023.981 7     -3108.924          47.000
R06  19246035.711 7 102700540.489 7       -79.723          47.000
R09  22576431.336 7 120556871.301 7      3358.496          44.000    22576433.766 7  93766481.761 7      2612.164          46.000
R16  19248468.367 6 102821896.442 6      -119.480          38.000    19248470.836 5  79972576.530 5       -92.929          35.000
C05  39784441.203 6 207168023.244 6        19.980          36.000    39784438.352 6 160195445.013 6        15.495          38.000
C21  22439554.742 8 116848676.111 8     -1437.406          51.000
C22  25331535.305 6 131907875.122 6     -3407.566          38.000
C26  23147166.055 6 120533369.346 6      2120.898          37.000
E02  23214379.602 8 121992383.312 8      -155.961          51.000    23214379.336 8  93474745.224 8      -119.526          51.000
E03  25799483.656 8 135577206.088 8     -2603.453          48.000    25799485.781 8 103883801.930 8     -1994.785          50.000
E08  21484584.570 8 112902252.374 8      -341.953          51.000    21484583.234 8  86509506.860 8      -262.055          51.000
E30  23946980.422 8 125842202.636 8      2277.430          51.000    23946981.555 8  96424539.222 8      1745.026          51.000
> 2020 05 12 05 12  0.0000000  0 15        .000000000000
G13  20216506.305 8 106238450.225 8      -597.578          51.000    20216503.516 8  82783195.433 8      -465.645          49.000
G17  23652720.984 6 124295902.786 6      2456.523          38.000    23652714.734 5  96853922.297 5      1914.165          35.000
G28  21330035.297 7 112090110.937 7     -1611.309          44.000    21330033.492 5  87343012.146 5     -1255.565          33.000
R05  21720938.758 8 116110858.068 8     -4009.570          49.000    21720943.617 8  90308440.528 8     -3118.555          48.000
R06  19246560.586 7 102703341.201 7      -106.469          47.000
R09  22557589.039 7 120456258.774 7      3349.281          42.000    22557591.844 7  93688227.577 7      2605.000          44.000
R16  19249191.961 6 102825758.915 6      -137.438          40.000    19249194.000 5  79975580.702 5      -106.893          35.000
C05                                                                  39784326.547 6 160194994.775 6        15.109          38.000
C21  22447882.797 8 116892040.000 8     -1453.180          51.000
C22  25351179.883 6 132010166.345 6     -3411.250          38.000
C26  23134968.125 5 120469867.763 5      2112.684          34.000
E02  23215304.352 8 121997243.068 8      -167.594          51.000    23215304.055 8  93478468.935 8      -128.362          51.000
E03  25814367.305 8 135655418.310 8     -2610.246          49.000    25814369.836 8 103943730.771 8     -2000.068          51.000
E08  21486574.078 8 112912707.529 8      -354.531          51.000    21486572.953 8  86517517.939 8      -271.651          51.000
E30  23934004.094 8 125774012.164 8      2269.184          50.000    23934006.836 8  96372289.396 8      1738.686          51.000
> 2020 05 12 05 12 30.0000000  0 16        .000000000000
G13  20219958.812 8 106256592.927 8      -611.879          51.000    20219955.969 8  82797332.584 8      -476.789          49.000
G15  20497260.859 6 107713826.946 6      1044.344          36.000    20497263.102 6  83932856.636 6       813.777          36.000
G17  23638721.891 6 124222337.268 6      2448.039          37.000    23638714.117 5  96796598.526 5      1907.551          32.000
G28  21339272.406 7 112138651.543 7     -1624.875          45.000    21339270.648 5  87380836.020 5     -1266.136          35.000
R05  21743471.805 8 116231307.458 8     -4020.398          49.000    21743476.930 8  90402123.388 8     -3126.977          49.000
R06  19247231.508 7 102706921.723 7      -132.047          46.000
R09  22538792.789 7 120355894.660 7      3341.594          42.000    22538795.578 7  93610166.619 7      2599.020          43.000
R16  19250012.789 6 102830142.483 6      -154.145          37.000    19250014.102 5  79978990.195 5      -119.887          35.000
C05  39784215.234 6 207166846.970 6        20.500          36.000    39784212.188 6 160194534.608 6        15.813          38.000
C21  22456297.578 8 116935852.246 8     -1467.609          51.000
C22  25370843.227 6 132112553.741 6     -3414.348          36.000
C26  23122812.898 6 120406577.195 6      2106.309          38.000
E02  23216290.273 8 122002424.712 8      -177.805          51.000    23216290.008 8  93482439.291 8      -136.228          51.000
E03  25829285.906 8 135733812.154 8     -2615.973          51.000    25829288.977 8 104003798.770 8     -2004.378          51.000
E08  21488630.945 8 112923516.116 8      -365.918          51.000    21488630.023 8  86525799.829 8      -280.361          51.000
E30  23921069.555 8 125706044.287 8      2262.172          50.000    23921074.047 8  96320210.116 8      1733.329          51.000
> 2020 05 12 05 13  0.0000000  0 15        .000000000000
G13  20223497.078 8 106275186.346 8      -627.621          51.000    20223494.320 8  82811820.932 8      -489.058          49.000
G15  20491345.047 5 107682743.191 5      1027.926          33.000    20491346.898 5  83908635.530 5       800.984          33.000
G17  23624773.719 6 124149042.812 6      2438.547          37.000    23624767.023 4  96739470.052 4      1900.151          29.000
G28  21348592.227 7 112187627.137 7     -1640.066          44.000    21348590.773 5  87418998.847 5     -1277.974          35.000
R05  21766069.875 8 116352105.367 8     -4032.637          49.000    21766074.898 8  90496077.307 8     -3136.495          48.000
R06  19248050.555 7 102711292.155 7      -159.191          46.000
R09  22520046.133 7 120255789.605 7      3332.191          45.000    22520047.453 7  93532307.139 7      2591.704          42.000
R16  19250932.547 6 102835054.942 6      -172.777          40.000    19250932.906 5  79982810.962 5      -134.385          35.000
C05  39784100.297 6 207166249.144 6        19.770          36.000    39784097.164 6 160194071.540 6        15.260          38.000
C21  22464800.078 8 116980120.839 8     -1483.551          51.000
C26  23110701.578 6 120343507.021 6      2098.559          37.000
E02  23217338.812 8 122007936.611 8      -189.562          51.000    23217338.766 8  93486662.698 8      -145.240          51.000
E03  25844240.883 8 135812395.829 8     -2622.859          51.000    25844244.312 8 104064012.213 8     -2009.723          51.000
E08  21490756.945 8 112934687.623 8      -378.746          51.000    21490755.820 8  86534359.819 8      -290.223          51.000
E30  23908179.234 8 125638308.756 8      2253.691          50.000    23908184.641 8  96268308.835 8      1726.816          51.000
> 2020 05 12 05 13 30.0000000  0 19        .000000000000
G05  24070561.508 5 126491663.566 5     -3619.895          30.000
G13  20227115.844 8 106294202.831 8      -641.098          51.000    20227113.281 8  82826638.956 8      -499.557          49.000
G15  20485516.328 5 107652116.808 5      1013.359          32.000    20485518.992 5  83884773.724 5       789.631          32.000
G17  23610870.828 5 124075994.894 5      2431.133          32.000    23610871.203 5  96682571.708 5      1894.389          30.000
G19  24803789.727 7 130344795.794 7      3441.902          46.000    24803783.852 6 101567353.650 6      2682.002          38.000
G28  21357989.516 7 112237008.379 7     -1653.020          42.000    21357987.797 6  87457477.761 6     -1288.064          37.000
R05  21788727.070 8 116473220.531 8     -4042.426          48.000    21788731.805 7  90590277.974 7     -3144.109          46.000
R06  19249012.766 7 102716425.485 7      -184.000          46.000
R09  22501343.812 7 120155916.472 7      3325.086          47.000    22501343.711 7  93454628.030 7      2586.178          42.000
R15  21616448.312 5 115511657.246 5     -3322.289          30.000
R16  19251945.836 6 102840466.788 6      -189.098          39.000    19251946.656 5  79987020.203 5      -147.073          35.000
C05                                                                  39783976.211 6 160193584.453 6        16.450          38.000
C21  22473384.633 8 117024817.401 8     -1497.188          51.000
C22  25410219.281 5 132317689.842 5     -3419.988          33.000
C26  23098626.969 5 120280630.184 5      2092.234          35.000
E02  23218445.047 8 122013750.404 8      -198.891          51.000    23218445.117 8  93491117.413 8      -152.397          51.000
E03  25859226.469 8 135891140.875 8     -2627.520          51.000    25859230.148 8 104124349.309 8     -2013.309          51.000
E08  21492946.828 8 112946194.870 8      -389.262          51.000    21492945.508 8  86543177.072 8      -298.245          51.000
E30  23895328.570 8 125570778.558 8      2247.531          51.000    23895333.586 8  96216564.907 8      1722.116          51.000
> 2020 05 12 05 14  0.0000000  0 18        .000000000000
G13  20230829.977 8 106313720.667 8      -658.117          51.000    20230827.570 8  82841847.653 8      -512.819          49.000
G15  20479791.742 5 107622018.677 5       994.543          32.000
G17  23597030.312 5 124003274.361 5      2419.203          30.000    23597030.664 5  96625906.319 5      1885.090          31.000
G19  24784152.859 7 130241602.809 7      3439.516          47.000    24784147.203 6 101486943.532 6      2680.142          37.000
G28  21367478.023 7 112286870.881 7     -1669.391          44.000    21367476.539 5  87496331.718 5     -1300.824          34.000
R05  21811457.633 8 116594728.639 8     -4055.871          49.000    21811461.867 7  90684784.254 7     -3154.569          43.000
R06  19250132.719 7 102722400.800 7      -212.570          46.000
R09  22482700.062 7 120056356.083 7      3314.258          46.000    22482699.438 7  93377192.171 7      2577.756          43.000
R15  21635120.969 5 115611468.605 5     -3329.750          31.000
R16  19253067.273 6 102846455.715 6      -208.270          39.000    19253068.383 6  79991678.247 6      -161.990          36.000
C05  39783867.297 6 207165035.417 6        19.414          36.000    39783864.078 6 160193132.974 6        15.148          38.000
C21  22482065.555 8 117070017.978 8     -1514.324          51.000
C22  25429943.867 5 132420403.264 5     -3425.180          34.000
C26  23086604.359 6 120218024.104 6      2082.879          38.000
E02  23219623.445 8 122019943.130 8      -212.008          51.000    23219623.922 8  93495862.479 8      -162.436          51.000
E03  25874257.375 8 135970124.197 8     -2636.086          51.000    25874261.344 8 104184868.964 8     -2019.801          51.000
E08  21495215.594 8 112958116.054 8      -403.500          51.000    21495214.594 8  86552311.482 8      -309.169          51.000
E30  23882532.609 8 125503532.135 8      2237.555          51.000    23882536.555 8  96165038.423 8      1714.502          51.000
> 2020 05 12 05 14 30.0000000  0 16        .000000000000
G13  20234633.859 8 106333710.711 8      -672.438          51.000    20234631.922 8  82857424.305 8      -523.977          50.000
G15  20474161.289 5 107592436.604 5       979.270          32.000    20474163.352 5  83838275.923 5       763.070          33.000
G19  24764522.914 7 130138445.578 7      3439.777          47.000    24764519.211 6 101406561.267 6      2680.346          40.000
G28  21377052.328 7 112337183.193 7     -1682.730          42.000    21377050.312 6  87535536.120 6     -1311.216          36.000
R05  21834255.617 8 116716596.179 8     -4066.254          49.000    21834259.070 6  90779570.076 6     -3162.642          40.000
R06  19251404.953 7 102729188.561 7      -237.980          47.000
R09  22464108.695 7 119957078.992 7      3306.438          46.000    22464108.430 7  93299976.681 7      2571.674          43.000
R16  19254290.570 6 102852989.893 6      -224.684          37.000    19254291.906 6  79996760.364 6      -174.757          36.000
C05  39783758.438 6 207164468.372 6        20.891          36.000    39783755.164 6 160192694.509 6        15.668          38.000
