     3.02           OBSERVATION DATA    M (MIXED)           RINEX VERSION / TYPE
SAVERINEX           SC600               20200517 015932 LCL PGM / RUN BY / DATE
       G = GPS       R = GLONASS       C = COMPASS          COMMENT
       S = SBAS      J = QZSS          E = GALILEO          COMMENT
BEAN                                                        MARKER NAME
1                                                           MARKER NUMBER
GEODETIC                                                    MARKER TYPE
Unige DICCA         GTER                                    OBSERVER / AGENCY
SC60291900056       SC600               2.12(191202)        REC # / TYPE / VERS
                    HEMA45          NONE                    ANT # / TYPE
  4509407.8091   693652.4678  4442337.6214                  APPROX POSITION XYZ
        0.0000        0.0000        0.0000                  ANTENNA: DELTA H/E/N
G    8 C1C L1C D1C S1C C2Y L2Y D2Y S2Y                      SYS / # / OBS TYPES
R    8 C1C L1C D1C S1C C2P L2P D2P S2P                      SYS / # / OBS TYPES
C    8 C1I L1I D1I S1I C7I L7I D7I S7I                      SYS / # / OBS TYPES
E    8 C1C L1C D1C S1C C7Q L7Q D7Q S7Q                      SYS / # / OBS TYPES
DBHZ                                                        COMMENT
     30.000                                                 INTERVAL
  2020    05    16    23    00    0.0000000     GPS         TIME OF FIRST OBS
  2020    05    16    23    59   30.0000000     GPS         TIME OF LAST OBS
     0                                                      RCV CLOCK OFFS APPL
G L1C  0.00000                                              SYS / PHASE SHIFT
G L2Y  0.00000                                              SYS / PHASE SHIFT
R L1C  0.00000                                              SYS / PHASE SHIFT
R L2P  0.25000                                              SYS / PHASE SHIFT
C L1I  0.00000                                              SYS / PHASE SHIFT
C L7I  0.00000                                              SYS / PHASE SHIFT
E L1C  0.50000                                              SYS / PHASE SHIFT
E L7Q -0.25000                                              SYS / PHASE SHIFT
 13 R01  1 R06 -4 R07  5 R08  6 R09 -2 R10 -7 R11  0 R15  0 GLONASS SLOT / FRQ #
    R16 -1 R20  2 R21  4 R22 -3 R23  3                      GLONASS SLOT / FRQ #
 C1C   71.950 C2C   71.950 C2P   71.950                     GLONASS COD/PHS/BIS
    18                                                      LEAP SECONDS
*** Above antenna height is from mark to ANTENNA BOTTOM.    COMMENT
    17     4        0.0000        ANT MEASURE TYPE/HEIGT    COMMENT
    0.0000    0.0000    0.0458    0.0405    0.0000          COMMENT
                    BASE STATION                            COMMENT
                                                            END OF HEADER
> 2020 05 16 23 00  0.0000000  0 16        .000000000000
G03  22483439.031 6 118151271.571 6     -2534.320          37.000
G04  20714560.492 8 108855778.725 8     -1491.504          51.000    20714560.641 8  84822723.696 8     -1162.208          51.000
G07  23735226.500 6 124729494.847 6      3345.242          36.000    23735225.250 6  97191777.671 6      2606.682          36.000
G09  20401620.594 8 107211282.657 8       818.883          51.000    20401620.516 8  83541271.724 8       638.091          51.000
G19  23666624.852 7 124368956.732 7     -2845.816          44.000    23666621.609 7  96910860.152 7     -2217.519          44.000
R07  21717760.406 6 116256872.547 6     -2657.082          36.000
R08  19700479.945 6 105495138.643 6      -211.855          36.000    19700471.016 4  82051759.890 4      -164.773          29.000
R10  22058456.320 6 117583988.631 6      3424.789          37.000
R22  23549992.164 5 125711462.886 5     -4565.668          32.000
R23  20260638.789 8 108380745.431 8     -1878.484          49.000    20260642.188 6  84296142.821 6     -1461.043          36.000
C12  24756023.438 5 128911094.097 5     -3146.273          31.000    24756012.922 5  99682188.768 5     -2432.971          32.000
C21  21828484.930 8 113666633.072 8        65.641          50.000
C22  24070551.367 5 125341668.664 5     -2161.672          31.000
E07  25626819.555 5 134669845.019 5     -2063.848          33.000    25626813.852 5 103188558.482 5     -1581.964          33.000
E26  25514449.688 5 134079369.124 5     -3135.762          35.000    25514454.320 5 102736134.485 5     -2402.673          35.000
E33  24293555.164 8 127663511.075 8     -1297.934          51.000    24293556.109 8  97820093.033 8      -994.550          51.000
> 2020 05 16 23 00 30.0000000  0 14        .000000000000
G03  22497948.844 5 118227533.321 5     -2546.211          33.000    22497951.734 5  92125343.130 5     -1984.060          33.000
G04  20723131.781 8 108900821.053 8     -1508.551          51.000    20723131.969 8  84857821.622 8     -1175.491          51.000
G07  23716164.625 5 124629322.755 5      3335.781          35.000    23716164.797 5  97113721.489 5      2599.310          35.000
G09  20397008.500 8 107187046.864 8       799.461          51.000    20397008.617 8  83522386.694 8       622.957          51.000
G19  23682920.766 7 124454591.828 7     -2860.465          44.000    23682917.578 7  96977588.806 7     -2228.934          43.000
R08  19701719.086 5 105501777.714 5      -227.754          34.000    19701713.125 4  82056923.606 4      -177.139          29.000
R10  22039243.844 5 117481570.812 5      3405.328          34.000
R23  20271266.789 8 108437619.436 8     -1909.395          48.000    20271270.461 5  84340380.738 5     -1485.085          35.000
C12  24774187.352 5 129005675.310 5     -3156.203          32.000    24774177.648 5  99755324.883 5     -2440.737          33.000
C21  21828151.508 8 113664894.993 8        52.879          51.000
C22  24083020.523 5 125406666.924 5     -2169.938          35.000
E07  25638626.539 5 134731901.489 5     -2071.371          34.000    25638625.266 5 103236119.689 5     -1586.825          33.000
E26  25532380.703 6 134173612.684 6     -3144.703          38.000    25532387.156 5 102808347.020 5     -2409.356          34.000
E33  24301025.945 8 127702771.268 8     -1316.711          51.000    24301027.406 8  97850175.515 8     -1008.908          51.000
> 2020 05 16 23 01  0.0000000  0 12        .000000000000
G04  20731769.258 8 108946211.130 8     -1519.797          51.000    20731769.273 8  84893190.522 8     -1184.257          51.000
G07  23697126.164 6 124529273.690 6      3331.766          36.000    23697126.969 6  97035761.195 6      2596.181          36.000
G09  20392475.336 8 107163226.001 8       786.027          51.000    20392475.531 8  83503824.983 8       612.489          51.000
G19  23699268.828 7 124540502.146 7     -2869.320          42.000    23699266.094 7  97044531.885 7     -2235.834          42.000
R08  19703014.312 5 105508724.994 5      -237.879          33.000    19703012.203 5  82062327.024 5      -185.017          31.000
R23  20282036.398 7 108495233.776 7     -1934.090          47.000    20282037.555 5  84385191.888 5     -1504.292          33.000
C12  24792374.578 5 129100383.962 5     -3159.500          30.000    24792366.461 5  99828559.555 5     -2443.863          34.000
C21  21827860.312 8 113663376.737 8        46.043          51.000
C22  24095511.992 6 125471774.686 6     -2172.906          36.000
E07  25650445.477 6 134794031.912 6     -2073.031          36.000    25650447.328 5 103283726.151 5     -1588.274          34.000
E26  25550333.852 6 134267958.750 6     -3147.539          38.000    25550338.883 6 102880638.132 6     -2411.547          36.000
E33  24308573.500 8 127742432.221 8     -1329.594          51.000    24308574.898 8  97880565.090 8     -1018.786          51.000
> 2020 05 16 23 01 30.0000000  0 13        .000000000000
G04  20740474.688 8 108991958.489 8     -1529.957          51.000    20740474.320 8  84928837.804 8     -1192.174          51.000
G07  23678113.500 6 124429361.301 6      3328.633          38.000    23678114.844 6  96957907.348 6      2593.734          37.000
G09  20388023.453 8 107139830.981 8       773.605          51.000    20388023.695 8  83485595.109 8       602.809          51.000
G19  23715670.664 7 124626695.550 7     -2876.758          42.000    23715668.469 7  97111695.561 7     -2241.629          43.000
R07  21762608.805 6 116496924.524 6     -2672.902          36.000
R08  19704371.539 5 105515991.301 5      -246.488          33.000    19704370.500 5  82067978.566 5      -191.716          32.000
R23  20292946.148 7 108553612.822 7     -1957.578          42.000    20292950.828 5  84430597.839 5     -1522.558          35.000
C12                                                                  24810581.148 5  99901899.436 5     -2446.083          35.000
C21  21827613.320 8 113662089.405 8        39.863          51.000
C22  24108029.008 5 125537002.602 5     -2176.129          33.000
E07  25662280.828 5 134856231.800 5     -2073.594          34.000    25662284.156 5 103331385.974 5     -1589.256          34.000
E26  25568308.906 6 134362416.840 6     -3149.621          39.000    25568312.172 6 102953015.063 6     -2413.214          37.000
E33  24316199.477 8 127782504.256 8     -1341.828          51.000    24316200.414 8  97911269.640 8     -1028.157          51.000
> 2020 05 16 23 02  0.0000000  0 12        .000000000000
G04  20749248.273 8 109038064.061 8     -1540.707          51.000    20749247.766 8  84964764.214 8     -1200.551          51.000
G07  23659127.484 6 124329591.048 6      3325.422          38.000    23659128.852 6  96880164.247 6      2591.235          39.000
G09  20383653.086 8 107116864.229 8       760.465          51.000    20383653.430 8  83467698.946 8       592.570          51.000
G19  23732126.305 7 124713171.590 7     -2884.918          43.000    23732124.992 7  97179079.500 7     -2247.985          43.000
R08  19705788.625 5 105523578.464 5      -255.578          31.000    19705786.586 5  82073879.757 5      -198.777          30.000
R23  20304005.953 8 108612732.648 8     -1982.102          48.000    20304009.609 5  84476582.624 5     -1541.632          35.000
C12                                                                  24828821.055 6  99975344.467 6     -2448.010          36.000
C21  21827411.078 8 113661035.631 8        33.328          51.000
E07                                                                  25674135.328 6 103379100.609 6     -1589.755          36.000
E26  25586305.617 6 134456987.703 6     -3152.113          37.000    25586307.539 6 103025478.443 6     -2414.992          38.000
E30  25898439.562 5 136097218.074 5      1053.660          34.000
E33  24323904.008 8 127822989.147 8     -1354.184          51.000    24323903.742 8  97942290.517 8     -1037.657          51.000
> 2020 05 16 23 02 30.0000000  0 15        .000000000000
G04  20758072.078 8 109084433.855 8     -1555.418          51.000    20758071.742 8  85000896.509 8     -1212.014          50.000
G07  23640151.539 6 124229872.804 6      3317.398          40.000    23640152.750 6  96802461.735 6      2584.986          39.000
G09  20379346.547 8 107094233.162 8       743.414          51.000    20379346.945 8  83450064.361 8       579.287          51.000
G19  23748617.664 7 124799834.276 7     -2897.246          44.000    23748616.727 6  97246608.886 6     -2257.594          41.000
R01  21012270.672 4 112322628.328 4      2182.938          29.000
R07  21792590.383 5 116657488.213 5     -2683.168          32.000    21792607.875 4  90733631.543 4     -2086.921          27.000
R08  19707246.969 5 105531392.132 5      -270.082          33.000    19707245.250 4  82079957.006 4      -210.064          29.000
R10  21963179.523 5 117076163.820 5      3348.266          30.000
R23  20315189.250 8 108672544.122 8     -2010.352          48.000    20315190.750 6  84523102.671 6     -1563.607          36.000
C12                                                                  24847068.500 5 100048821.907 5     -2453.734          35.000
C21  21827236.102 8 113660124.011 8        22.605          51.000
E07                                                                  25685982.836 6 103426798.928 6     -1593.536          36.000
E26  25604305.953 5 134551577.423 5     -3158.484          33.000    25604307.695 6 103097956.271 6     -2420.164          40.000
E30  25892462.734 5 136065794.083 5      1037.348          35.000    25892466.898 5 104258232.249 5       794.411          33.000
E33  24331669.141 8 127863793.730 8     -1370.824          51.000    24331667.523 8  97973556.348 8     -1050.366          51.000
> 2020 05 16 23 03  0.0000000  0 14        .000000000000
G04  20766983.680 8 109131265.110 8     -1565.816          51.000    20766983.461 8  85037388.387 8     -1220.117          50.000
G07  23621223.789 6 124130407.607 6      3314.168          41.000    23621224.172 7  96724956.367 7      2582.469          42.000
G09  20375141.914 8 107072136.425 8       730.484          51.000    20375142.266 8  83432846.131 8       569.209          51.000
G19  23765181.945 7 124886878.992 7     -2904.992          44.000    23765180.336 6  97314435.947 6     -2263.630          40.000
R08  19708785.102 4 105539634.166 4      -278.477          28.000    19708785.984 4  82086367.570 4      -216.584          28.000
R10  21944375.031 5 116975932.435 5      3334.809          33.000
R23  20326531.445 8 108733222.962 8     -2034.133          48.000    20326533.555 5  84570297.323 5     -1582.103          35.000
C12                                                                  24865360.883 5 100122482.199 5     -2456.126          34.000
C21  21827126.141 8 113659551.711 8        16.312          51.000
C22  24145766.148 5 125733376.045 5     -2188.344          30.000
E07                                                                  25697862.984 5 103474632.870 5     -1594.146          35.000
E26                                                                  25622349.352 6 103170599.564 6     -2421.972          41.000
E30                                                                  25886580.688 5 104234539.829 5       785.324          35.000
E33  24339532.477 8 127905115.993 8     -1383.117          51.000    24339529.992 8  98005218.864 8     -1059.776          51.000
> 2020 05 16 23 03 30.0000000  0 14        .000000000000
G04  20775951.133 8 109178389.841 8     -1575.895          51.000    20775950.930 8  85074108.957 8     -1227.970          51.000
G07  23602312.961 7 124031032.033 7      3310.723          42.000    23602312.961 7  96647520.828 7      2579.784          43.000
G09  20371007.258 8 107050407.454 8       717.918          51.000    20371007.508 8  83415914.471 8       559.420          51.000
G19  23781786.898 7 124974136.464 7     -2912.270          46.000    23781783.781 6  97382428.785 6     -2269.304          41.000
R08  19710371.641 5 105548135.588 5      -288.113          32.000    19710374.422 4  82092979.793 4      -224.085          29.000
R10  21925645.516 5 116876092.187 5      3321.500          33.000
R23  20338003.273 8 108794596.729 8     -2057.574          48.000    20338006.414 5  84618032.501 5     -1600.336          35.000
C12                                                                  24883666.883 4 100196195.947 4     -2458.153          29.000
C21  21827049.523 8 113659154.004 8        10.176          51.000
C22  24158368.953 4 125799047.361 4     -2190.719          28.000
E07                                                                  25709742.008 5 103522481.707 5     -1595.044          32.000
E26                                                                  25640399.484 6 103243279.580 6     -2423.541          40.000
E30                                                                  25880760.727 6 104211106.477 6       776.551          39.000
E33  24347462.383 8 127946788.771 8     -1395.035          51.000    24347459.992 8  98037149.959 8     -1068.908          51.000
> 2020 05 16 23 04  0.0000000  0 14        .000000000000
G04  20785005.641 8 109225971.616 8     -1586.480          51.000    20785005.398 8  85111185.674 8     -1236.219          50.000
G07  23583451.211 7 123931914.073 7      3306.844          42.000    23583450.945 7  96570286.071 7      2576.761          43.000
G09  20366973.883 8 107029211.253 8       704.883          51.000    20366974.047 8  83399397.966 8       549.259          51.000
G19  23798463.133 7 125061768.163 7     -2920.035          47.000    23798458.031 6  97450713.219 6     -2275.352          41.000
R07  21837803.250 5 116899512.731 5     -2691.453          33.000    21837808.586 4  90921821.976 4     -2093.355          24.000
R08  19712038.453 5 105557063.270 5      -297.449          33.000    19712041.570 4  82099923.511 4      -231.352          28.000
R10  21907022.484 5 116776814.710 5      3306.297          33.000
R23  20349637.117 8 108856830.886 8     -2081.461          49.000    20349641.016 6  84666436.838 6     -1618.914          36.000
C21  21827038.000 8 113659094.746 8         3.527          51.000
C22  24171015.383 5 125864793.418 5     -2192.906          31.000
E07                                                                  25721652.352 5 103570438.501 5     -1595.754          31.000
E26  25658491.992 5 134836287.970 5     -3164.520          34.000    25658489.508 6 103316121.571 6     -2425.166          40.000
E30  25875036.188 6 135974227.163 6      1001.328          36.000    25875037.945 6 104188059.785 6       767.500          38.000
E33  24355490.320 8 127988976.398 8     -1407.551          51.000    24355488.641 8  98069475.556 8     -1078.498          51.000
> 2020 05 16 23 04 30.0000000  0 15        .000000000000
G04  20794089.938 8 109273709.749 8     -1600.812          51.000    20794089.625 8  85148384.214 8     -1247.386          50.000
G07  23564581.898 6 123832756.842 6      3298.801          41.000    23564581.031 6  96493020.650 6      2570.494          41.000
G09  20362984.930 8 107008248.483 8       687.902          51.000    20362985.141 8  83383063.360 8       536.028          51.000
G19  23815152.883 7 125149472.085 7     -2931.586          45.000    23815146.258 6  97519053.920 6     -2284.353          40.000
R01  20963566.961 4 112062303.279 4      2153.227          29.000
R07  21852892.523 5 116980291.919 5     -2698.461          33.000    21852888.570 4  90984650.266 4     -2098.803          26.000
R08  19713729.164 5 105566112.251 5      -310.520          32.000    19713730.500 4  82106961.539 4      -241.512          28.000
R10  21888447.898 5 116677801.654 5      3288.793          34.000
R23  20361374.859 8 108919617.892 8     -2109.180          50.000    20361378.430 5  84715271.143 5     -1640.473          35.000
C21  21827034.594 8 113659077.667 8        -7.035          51.000
C22  24183667.000 5 125930620.240 5     -2200.625          33.000
E07                                                                  25733543.852 5 103618313.775 5     -1599.995          31.000
E26  25676564.406 5 134931257.651 5     -3171.312          33.000    25676562.508 6 103388895.131 6     -2430.071          39.000
E30  25869352.133 6 135944355.904 6       985.070          37.000    25869353.180 6 104165171.518 6       755.141          37.000
E33  24363559.094 8 128031378.938 8     -1423.867          51.000    24363558.367 8  98101965.829 8     -1091.048          51.000
> 2020 05 16 23 05  0.0000000  0 13        .000000000000
G03  22630308.008 5 118923070.735 5     -2607.098          34.000    22630305.961 5  92667319.092 5     -2031.505          35.000
G04  20803271.070 8 109321957.084 8     -1611.918          51.000    20803270.836 8  85185979.546 8     -1256.040          51.000
G07  23545772.789 6 123733917.095 6      3294.113          40.000    23545772.906 6  96416002.645 6      2566.842          40.000
G09  20359107.672 8 106987873.376 8       674.270          51.000    20359108.109 8  83367186.662 8       525.405          51.000
G19  23831922.930 7 125237599.094 7     -2939.738          45.000    23831916.227 6  97587724.312 6     -2290.705          39.000
R07  21868034.062 5 117061360.400 5     -2702.309          32.000    21868034.203 4  91047670.549 4     -2101.796          26.000
R08  19715511.219 4 105575643.257 4      -320.914          28.000    19715508.883 4  82114397.091 4      -249.594          28.000
R23  20373283.062 8 108983315.792 8     -2133.543          51.000    20373285.719 6  84764813.930 6     -1659.422          37.000
C21  21827106.852 8 113659454.148 8       -14.250          51.000
E07                                                                  25745480.648 5 103666369.619 5     -1600.773          32.000
E26  25694686.289 5 135026487.692 5     -3173.566          32.000    25694685.453 6 103461870.521 6     -2432.110          38.000
E30  25863773.766 5 135915047.871 5       972.449          31.000    25863775.766 6 104142714.149 6       745.111          37.000
E33  24371735.844 8 128074350.010 8     -1436.938          51.000    24371736.312 8  98134891.711 8     -1101.030          51.000
> 2020 05 16 23 05 30.0000000  0 16        .000000000000
G03  22645209.578 5 119001388.266 5     -2613.051          33.000    22645214.898 5  92728345.607 5     -2036.153          32.000
G04  20812505.914 8 109370486.613 8     -1621.883          51.000    20812505.781 8  85223794.775 8     -1263.805          51.000
G07  23526981.734 6 123635172.166 6      3290.340          41.000    23526983.641 6  96339058.541 6      2563.901          41.000
G09  20355299.211 8 106967860.328 8       661.672          51.000    20355299.945 8  83351592.079 8       515.588          51.000
G19  23848729.672 7 125325920.470 7     -2946.582          44.000    23848724.125 6  97656546.148 6     -2296.038          40.000
R07  21883192.602 5 117142487.695 5     -2704.793          33.000    21883189.711 4  91110777.102 4     -2103.725          25.000
R08  19717339.367 5 105585426.163 5      -329.820          33.000    19717336.523 5  82122005.603 5      -256.524          31.000
R09  21487489.984 5 114742000.579 5       713.676          35.000    21487492.383 4  89243782.126 4       555.081          28.000
R23  20385317.875 8 109047691.612 8     -2156.602          51.000    20385320.320 6  84814883.985 6     -1677.360          37.000
C21  21827211.914 8 113660001.015 8       -20.516          51.000
C22  24209058.375 4 126062920.698 4     -2205.375          28.000
E07                                                                  25757415.086 5 103714436.065 5     -1601.464          31.000
E19  25726631.953 5 135194363.262 5      1759.320          33.000
E26                                                                  25712815.367 6 103534873.757 6     -2433.385          37.000
E30                                                                  25858262.680 6 104120515.807 6       735.932          36.000
E33  24379977.594 8 128117663.336 8     -1448.902          51.000    24379979.188 8  98168079.823 8     -1110.177          51.000
> 2020 05 16 23 06  0.0000000  0 13        .000000000000
G04  20821818.961 8 109419426.817 8     -1635.445          51.000    20821818.945 8  85261930.009 8     -1274.373          50.000
G07  23508234.391 7 123536654.856 7      3282.516          43.000    23508238.688 6  96262291.768 6      2557.801          36.000
G09  20351584.445 8 106948339.131 8       645.227          51.000    20351585.156 8  83336380.770 8       502.774          51.000
G19  23865597.508 7 125414563.032 7     -2957.168          44.000    23865592.953 6  97725618.302 6     -2304.287          41.000
R07  21898380.125 5 117223733.092 5     -2711.492          32.000    21898385.695 5  91174015.103 5     -2108.947          30.000
R10  21833333.031 5 116383933.052 5      3241.465          33.000
R23  20397503.008 8 109112874.992 8     -2183.484          50.000    20397505.914 6  84865582.162 6     -1698.266          38.000
C21  21827374.555 8 113660847.246 8       -30.508          51.000
C22  24221792.273 5 126129234.728 5     -2211.535          31.000
E07                                                                  25769372.594 5 103762585.366 5     -1604.942          30.000
E26                                                                  25730976.141 5 103608003.218 5     -2437.701          34.000
E30                                                                  25852838.883 6 104098677.154 6       724.061          36.000
E33  24388309.203 8 128161448.089 8     -1464.645          51.000    24388311.430 8  98201629.159 8     -1122.263          51.000
> 2020 05 16 23 06 30.0000000  0 12        .000000000000
G04  20831176.148 8 109468598.946 8     -1643.582          51.000    20831176.297 8  85300245.964 8     -1280.713          51.000
G07  23489497.242 7 123438190.407 7      3280.676          45.000    23489508.242 5  96185566.105 5      2556.368          34.000
G09  20347929.445 8 106929132.413 8       634.371          51.000    20347929.977 8  83321414.512 8       494.315          51.000
G19  23882492.188 7 125503346.317 7     -2962.410          44.000    23882487.719 6  97794800.081 6     -2308.372          40.000
R07  21913580.469 5 117305061.001 5     -2711.672          32.000    21913592.070 4  91237269.938 4     -2109.087          29.000
R10  21815121.234 5 116286858.541 5      3228.941          30.000
R23  20409804.828 8 109178682.598 8     -2204.578          50.000    20409808.172 6  84916765.853 6     -1714.672          38.000
C21  21827561.133 8 113661817.490 8       -35.113          51.000
C22  24234541.711 5 126195594.407 5     -2212.965          32.000
E07  25781362.273 5 135481974.666 5     -2092.977          33.000
E26                                                                  25749134.266 5 103681121.898 5     -2437.764          32.000
E33  24396697.156 8 128205526.241 8     -1474.777          51.000    24396699.500 8  98235403.302 8     -1130.033          51.000
> 2020 05 16 23 07  0.0000000  0 13        .000000000000
G03  22690160.664 5 119237627.097 5     -2636.008          34.000
G04  20840605.805 8 109518152.101 8     -1658.980          51.000    20840606.102 8  85338858.826 8     -1292.709          50.000
G07  23470799.539 7 123339931.764 7      3271.094          46.000    23470817.398 5  96109000.833 5      2548.904          34.000
G09  20344362.883 8 106910390.644 8       616.164          51.000    20344363.195 8  83306810.547 8       480.131          51.000
G19  23899441.836 7 125592417.822 7     -2974.812          44.000    23899436.797 6  97864206.401 6     -2318.039          39.000
R07  21928811.336 5 117386592.715 5     -2719.867          35.000    21928824.211 4  91300754.283 4     -2115.455          29.000
R23  20422251.734 8 109245264.843 8     -2233.148          50.000    20422254.867 6  84968552.044 6     -1736.893          37.000
C12  25012495.180 4 130246598.932 4     -3208.090          29.000
C21  21827800.266 8 113663061.223 8       -46.805          51.000
C22  24247306.703 5 126262113.945 5     -2221.086          34.000
E19  25696675.945 5 135036936.982 5      1740.574          32.000
E26                                                                  25767318.094 4 103754311.946 4     -2442.768          29.000
E33  24405169.938 8 128250047.640 8     -1492.266          51.000    24405171.891 8  98269517.098 8     -1143.433          51.000
> 2020 05 16 23 07 30.0000000  0  9        .000000000000
G04  20850108.781 8 109568090.123 8     -1668.359          51.000    20850108.977 8  85377771.572 8     -1300.020          51.000
G07  23452142.555 7 123241887.190 7      3267.180          46.000    23452166.266 5  96032602.421 5      2545.854          33.000
G09  20340885.750 8 106892118.981 8       603.766          51.000    20340886.094 8  83292572.897 8       470.470          51.000
G19  23916446.812 7 125681779.718 7     -2980.930          44.000    23916441.227 6  97933838.990 6     -2322.802          38.000
R10  21778988.914 4 116094261.328 4      3194.191          29.000
R23  20434843.445 8 109312630.884 8     -2255.516          51.000    20434846.055 6  85020938.413 6     -1754.290          37.000
C21  21828092.859 8 113664584.027 8       -52.805          51.000
C22  24260115.008 6 126328797.596 6     -2222.988          36.000
E33  24413728.039 8 128295016.772 8     -1503.781          51.000    24413729.508 8  98303973.979 8     -1152.275          51.000
> 2020 05 16 23 08  0.0000000  0  9        .000000000000
G03  22720322.555 5 119396083.955 5     -2648.426          30.000
G04  20859659.398 8 109618278.409 8     -1679.820          51.000    20859659.414 8  85416879.323 8     -1308.951          50.000
G07  23433501.492 7 123143926.126 7      3261.246          46.000    23433527.219 5  95956269.083 5      2541.231          33.000
G09  20337472.695 8 106874184.176 8       589.453          51.000    20337473.500 8  83278597.727 8       459.317          51.000
G19  23933481.094 7 125771295.557 7     -2989.055          44.000    23933476.328 6  98003591.554 6     -2329.134          37.000
R10  21761054.320 5 115998645.403 5      3177.523          31.000
R23  20447554.094 8 109380628.004 8     -2279.941          50.000    20447558.531 6  85073825.062 6     -1773.288          39.000
C21  21828413.594 8 113666254.281 8       -60.863          51.000
E33  24422345.625 8 128340299.749 8     -1517.336          51.000    24422347.258 8  98338671.331 8     -1162.619          51.000
> 2020 05 16 23 08 30.0000000  0 10        .000000000000
G03  22735460.578 5 119475653.867 5     -2651.934          35.000
G04  20869281.078 8 109668840.561 8     -1687.801          51.000    20869281.016 8  85456278.397 8     -1315.169          50.000
G07  23414900.586 7 123046176.300 7      3258.602          46.000    23414931.664 5  95880100.509 5      2539.173          30.000
G09  20334147.469 8 106856711.145 8       578.629          51.000    20334148.875 8  83264982.385 8       450.880          51.000
G19  23950567.852 7 125861087.234 7     -2993.820          45.000    23950565.172 6  98073559.089 6     -2332.847          37.000
R10  21743216.805 6 115903563.687 6      3164.465          38.000
R23  20460407.391 8 109449387.717 8     -2300.715          50.000    20460412.891 6  85127304.810 6     -1789.448          39.000
C21  21828786.500 8 113668196.239 8       -65.473          51.000
C22  24285773.695 5 126462378.349 5     -2228.668          32.000
E33  24431046.227 8 128386020.824 8     -1527.477          51.000    24431048.219 8  98373704.376 8     -1170.401          51.000
> 2020 05 16 23 09  0.0000000  0 13        .000000000000
G03  22750624.523 6 119555350.868 6     -2661.789          37.000    22750623.547 6  93159973.599 6     -2074.127          37.000
G04  20878954.703 8 109719675.896 8     -1701.953          51.000    20878954.648 8  85495890.322 8     -1326.197          50.000
G07  23396321.445 7 122948541.223 7      3249.648          44.000
G09  20330891.375 8 106839600.554 8       561.398          51.000    20330892.727 8  83251649.446 8       437.453          51.000
G19  23967687.766 7 125951052.420 7     -3004.422          46.000    23967686.914 6  98143661.865 6     -2341.105          38.000
R08  19731762.266 4 105662690.165 4      -404.426          28.000
R10  21725461.289 6 115808920.374 6      3144.520          39.000
R23  20473384.273 8 109518805.917 8     -2327.723          50.000    20473388.539 6  85181296.715 6     -1810.451          37.000
C21  21829192.789 8 113670311.863 8       -76.199          51.000
C22  24298646.258 5 126529308.392 5     -2234.926          32.000
E07  25841319.664 5 135797041.811 5     -2106.410          34.000
E26  25840222.672 5 135791291.891 5     -3198.258          34.000
E33  24439810.625 8 128432079.996 8     -1543.672          51.000    24439812.953 8  98408996.463 8     -1182.763          51.000
> 2020 05 16 23 09 30.0000000  0 13        .000000000000
G03  22765840.500 6 119635312.283 6     -2670.117          37.000    22765840.727 6  93222281.159 6     -2080.611          37.000
G04  20888702.992 8 109770903.488 8     -1714.648          51.000    20888703.008 8  85535807.899 8     -1336.093          51.000
G07  23377787.523 7 122851143.811 7      3241.934          42.000    23377786.016 6  95728123.686 6      2526.179          41.000
G09  20327727.250 8 106822972.737 8       545.551          51.000    20327728.125 8  83238692.707 8       425.105          51.000
G19  23984863.211 7 126041308.817 7     -3014.008          45.000    23984862.859 6  98213991.527 6     -2348.578          38.000
R07  22005253.547 5 117795805.013 5     -2740.379          34.000    22005246.828 4  91618954.568 4     -2131.412          27.000
R10  21707811.125 6 115714842.214 6      3126.219          36.000
R23  20486506.672 8 109589002.135 8     -2353.402          50.000    20486509.391 6  85235893.761 6     -1830.424          37.000
C12  25105105.977 5 130728886.053 5     -3225.773          31.000    25105102.586 6 101087852.657 6     -2493.917          39.000
C21  21829655.406 8 113672720.872 8       -85.719          51.000
E07  25853350.383 6 135860270.495 6     -2110.293          37.000    25853360.852 6 104100775.030 6     -1616.960          36.000
E26  25858491.070 5 135887296.149 5     -3202.664          34.000
E33  24448662.000 8 128478596.972 8     -1558.699          51.000    24448664.062 8  98444639.350 8     -1194.307          51.000
> 2020 05 16 23 10  0.0000000  0 15        .000000000000
G03  22781078.164 6 119715391.038 6     -2676.145          36.000    22781079.445 5  93284680.077 5     -2085.314          34.000
G04  20898497.656 8 109822374.952 8     -1724.645          51.000    20898497.672 8  85575915.530 8     -1343.879          51.000
G07  23359271.562 6 122753840.189 6      3237.074          39.000    23359270.352 6  95652302.648 6      2522.392          39.000
G09  20324627.133 8 106806680.623 8       532.621          51.000    20324627.594 8  83225997.587 8       415.032          51.000
G19  24002065.570 7 126131706.217 7     -3020.477          46.000    24002064.172 6  98284431.025 6     -2353.621          39.000
R07  22020593.469 5 117877919.671 5     -2742.645          35.000
R10  21690239.539 5 115621184.896 5      3110.391          32.000
R23  20499746.352 8 109659823.522 8     -2376.098          51.000    20499749.453 6  85290977.052 6     -1848.076          40.000
C12  25123669.859 5 130825544.715 5     -3227.508          30.000    25123668.086 6 101162604.501 6     -2495.418          40.000
C21  21830146.422 8 113675278.045 8       -92.516          51.000
C22  24324422.062 5 126663622.004 5     -2244.047          32.000
E07  25865379.812 6 135923474.574 6     -2111.566          38.000    25865379.438 6 104149204.056 6     -1617.870          36.000
E26  25876758.938 5 135983287.917 5     -3204.859          34.000
E30  25812086.156 5 135643427.863 5       836.602          33.000    25812090.180 6 103934587.866 6       640.975          38.000
E33  24457572.406 8 128525424.036 8     -1570.891          51.000    24457573.734 8  98480519.822 8     -1203.660          51.000
> 2020 05 16 23 10 30.0000000  0 14        .000000000000
G03  22796379.555 5 119795782.625 5     -2681.414          32.000    22796379.430 5  93347333.907 5     -2089.411          32.000
G04  20908378.320 8 109874298.353 8     -1734.137          51.000    20908378.289 8  85616375.312 8     -1351.275          50.000
G07  23340811.664 5 122656842.531 5      3232.301          32.000    23340815.344 5  95576719.891 5      2518.670          32.000
G09  20321630.820 8 106790933.558 8       519.926          51.000    20321630.922 8  83213727.155 8       405.137          51.000
G19  24019333.867 7 126222450.462 7     -3026.434          46.000    24019331.117 6  98355140.788 6     -2358.260          40.000
R10  21672788.336 5 115528165.203 5      3094.516          35.000
R23  20513142.344 8 109731480.406 8     -2398.238          51.000    20513146.516 6  85346710.162 6     -1865.296          41.000
C12  25142275.531 5 130922428.744 5     -3229.391          30.000    25142274.688 6 101237521.409 6     -2496.686          39.000
C21  21830705.812 8 113678191.259 8       -98.930          51.000
E07  25877445.758 6 135986863.204 6     -2112.031          36.000    25877432.586 5 104197774.595 5     -1617.843          32.000
E19  25627788.938 5 134674933.759 5      1705.480          32.000
E26  25895064.203 5 136079480.989 5     -3205.758          33.000    25895062.383 5 104268679.679 5     -2456.611          33.000
E30  25807352.602 5 135618555.557 5       823.902          34.000    25807355.625 5 103915534.470 5       631.428          35.000
E33  24466581.711 8 128572769.830 8     -1582.699          51.000    24466582.445 8  98516797.760 8     -1212.670          51.000
> 2020 05 16 23 11  0.0000000  0 15        .000000000000
G03  22811705.875 5 119876323.343 5     -2687.480          32.000    22811708.648 5  93410119.281 5     -2094.128          34.000
G04  20918303.789 8 109926457.210 8     -1744.523          51.000    20918303.789 8  85657018.571 8     -1359.369          51.000
G07  23322363.648 5 122559847.860 5      3226.977          32.000    23322355.164 5  95501156.697 5      2514.527          33.000
G09  20318697.195 8 106775516.318 8       506.406          51.000    20318697.102 8  83201713.723 8       394.602          51.000
G19  24036626.398 7 126313323.540 7     -3033.191          46.000    24036623.562 6  98425950.951 6     -2363.526          40.000
R07  22051346.008 5 118042575.773 5     -2747.762          30.000
R10  21655417.469 6 115435570.088 6      3077.352          36.000
R23  20526653.312 8 109803750.371 8     -2421.320          51.000    20526657.578 6  85402920.135 6     -1883.249          41.000
C12  25160880.328 4 131019307.888 4     -3231.289          29.000    25160880.516 6 101312436.844 6     -2498.677          39.000
C21  21831292.633 8 113681247.785 8      -106.203          51.000
C22  24350307.867 4 126798432.282 4     -2248.125          28.000
E19  25618069.695 5 134623861.154 5      1701.062          34.000
E26  25913367.539 5 136175664.943 5     -3208.676          31.000    25913369.305 5 104342388.256 5     -2458.395          34.000
E30  25802681.289 5 135594007.403 5       811.051          34.000    25802681.836 5 103896727.323 5       621.317          34.000
E33  24475648.844 8 128620418.476 8     -1595.277          51.000    24475649.078 8  98553307.760 8     -1222.418          51.000
> 2020 05 16 23 11 30.0000000  0 15        .000000000000
G03  22827076.586 5 119957078.372 5     -2694.047          33.000    22827073.312 5  93473045.446 5     -2099.251          31.000
G04  20928298.195 8 109978978.260 8     -1755.090          51.000    20928298.289 8  85697944.068 8     -1367.602          51.000
G07  23303966.953 5 122463167.244 5      3220.840          35.000    23303956.617 5  95425821.099 5      2509.745          35.000
G09  20315850.547 8 106760556.984 8       492.637          51.000    20315850.781 8  83190057.098 8       383.873          51.000
G19  24053967.008 7 126404450.566 7     -3039.949          45.000    24053965.273 7  98496959.059 7     -2368.792          42.000
R07  22066768.898 5 118125109.659 5     -2752.398          30.000
R09  21450002.758 6 114541814.265 6       400.480          37.000    21449997.586 5  89088058.166 5       311.485          31.000
R10  21638151.984 5 115343533.737 5      3060.352          35.000
R23  20540302.133 8 109876761.006 8     -2444.383          50.000    20540306.250 6  85459706.182 6     -1901.187          41.000
C12  25179511.977 4 131116306.763 4     -3233.758          29.000    25179510.133 6 101387447.187 6     -2500.622          40.000
C21  21831931.469 8 113684574.999 8      -113.766          51.000
E19  25608384.727 5 134572962.184 5      1696.258          34.000    25608378.617 5 103114335.462 5      1299.544          33.000
E26                                                                  25931696.516 5 104416196.372 5     -2460.389          33.000
E30                                                                  25798097.664 5 103878265.490 5       610.787          35.000
E33  24484797.930 8 128668497.393 8     -1608.148          51.000    24484797.883 8  98590147.438 8     -1232.221          51.000
> 2020 05 16 23 12  0.0000000  0 12        .000000000000
G04  20938349.859 8 110031800.470 8     -1763.660          51.000    20938350.148 8  85739104.240 8     -1374.281          51.000
G07  23285602.312 6 122366654.538 6      3216.598          40.000    23285593.258 6  95350616.487 6      2506.440          37.000
G09  20313079.688 8 106745995.748 8       480.820          51.000    20313080.023 8  83178710.684 8       374.665          51.000
G19  24071344.117 7 126495768.900 7     -3045.027          46.000    24071343.617 6  98568116.265 6     -2372.746          40.000
R07  22082231.633 6 118207840.640 6     -2753.793          36.000
R10  21620981.195 5 115252000.732 5      3044.570          34.000
R23  20554076.703 8 109950448.174 8     -2465.355          50.000    20554080.984 7  85517018.405 7     -1917.499          42.000
C12                                                                  25198151.594 6 101462505.020 6     -2501.054          38.000
C21  21832611.125 8 113688114.171 8      -119.453          51.000
E26                                                                  25950034.227 5 104490035.190 5     -2460.541          33.000
E30                                                                  25793586.914 5 103860104.268 5       602.161          34.000
E33  24494017.453 8 128716946.095 8     -1619.012          51.000    24494017.422 8  98627270.461 8     -1240.544          51.000
> 2020 05 16 23 12 30.0000000  0 14        .000000000000
G04  20948463.078 8 110084946.193 8     -1778.242          51.000    20948463.602 8  85780516.506 8     -1385.640          51.000
G07  23267274.133 6 122270335.750 6      3205.762          41.000    23267267.719 6  95275562.897 6      2497.996          38.000
G09  20310389.070 8 106731856.174 8       462.867          51.000    20310389.227 8  83167692.838 8       360.676          51.000
G19  24088761.883 7 126587299.302 7     -3055.883          47.000    24088761.906 6  98639438.706 6     -2381.204          40.000
R07  22097685.773 5 118290582.518 5     -2761.969          32.000    22097683.953 5  92003844.403 5     -2148.192          31.000
R08  19749009.133 5 105755063.968 5      -478.109          30.000
R09  21445811.750 5 114519440.413 5       345.789          34.000    21445783.297 4  89070595.975 4       268.947          28.000
R10  21603909.508 6 115160999.507 6      3022.660          37.000
R23  20567981.891 8 110024833.097 8     -2492.641          50.000    20567986.625 7  85574873.352 7     -1938.720          42.000
C12                                                                  25216808.508 6 101537626.781 6     -2506.219          39.000
C21  21833336.039 8 113691889.233 8      -131.164          51.000
E26                                                                  25968386.609 5 104563930.766 5     -2465.193          32.000
E30                                                                  25789156.016 6 103842262.827 6       588.411          36.000
E33  24503311.891 8 128765787.485 8     -1635.938          51.000    24503311.992 8  98664694.388 8     -1253.484          51.000
> 2020 05 16 23 13  0.0000000  0 13        .000000000000
G04  20958646.555 8 110138460.939 8     -1788.629          51.000    20958647.078 8  85822216.314 8     -1393.737          51.000
G07  23248992.117 6 122174260.325 6      3199.691          41.000    23248986.570 6  95200698.930 6      2493.266          40.000
G09  20307787.523 8 106718185.043 8       449.172          51.000    20307787.812 8  83157040.007 8       350.004          51.000
G19  24106228.383 7 126679085.486 7     -3062.492          47.000    24106228.273 6  98710960.450 6     -2386.355          38.000
R07  22113178.695 4 118373508.112 4     -2764.023          29.000    22113170.625 4  92068293.183 4     -2149.796          28.000
R10  21586947.562 6 115070582.593 6      3005.387          41.000
R23  20582025.844 8 110099959.521 8     -2515.184          50.000    20582030.805 6  85633305.033 6     -1956.254          41.000
C12                                                                  25235489.930 6 101612846.650 6     -2507.814          39.000
C21  21834115.312 8 113695946.979 8      -138.660          51.000
C22  24402315.445 4 127069335.835 4     -2266.266          29.000
E26                                                                  25986761.492 5 104637920.915 5     -2466.653          31.000
E30                                                                  25784814.070 5 103824777.937 5       578.084          35.000
E33  24512689.852 8 128815067.614 8     -1648.555          51.000    24512690.195 8  98702454.490 8     -1263.151          51.000
> 2020 05 16 23 13 30.0000000  0 11        .000000000000
G04  20968878.250 8 110192228.823 8     -1799.895          51.000    20968878.664 8  85864113.364 8     -1402.515          50.000
G07  23230734.531 6 122078316.451 6      3192.660          39.000    23230728.547 6  95125937.530 6      2487.787          39.000
G09  20305253.297 8 106704867.708 8       434.602          51.000    20305253.773 8  83146662.861 8       338.651          51.000
G19  24123721.172 7 126771010.123 7     -3069.902          46.000    24123720.453 6  98782590.047 6     -2392.132          39.000
R07  22128660.438 4 118456490.162 4     -2769.555          28.000
R10  21570074.289 6 114980638.080 6      2986.961          39.000
R23  20596186.055 8 110175708.321 8     -2538.707          51.000    20596190.750 6  85692220.764 6     -1974.550          41.000
C12                                                                  25254173.141 6 101688075.241 6     -2510.505          39.000
C21  21834927.266 8 113700174.417 8      -147.102          51.000
E30  25780543.555 5 135477682.195 5       739.109          32.000    25780538.227 5 103807563.006 5       566.570          34.000
E33  24522129.438 8 128864671.203 8     -1662.211          51.000    24522130.062 8  98740462.435 8     -1273.675          51.000
> 2020 05 16 23 14  0.0000000  0 11        .000000000000
G04  20979177.633 8 110246352.173 8     -1808.785          51.000    20979177.984 8  85906287.409 8     -1409.443          50.000
G07  23212521.969 6 121982610.822 6      3187.406          39.000    23212516.461 6  95051361.724 6      2483.693          39.000
G09  20302806.156 8 106692007.682 8       422.270          51.000    20302806.477 8  83136642.061 8       329.041          51.000
G19  24141259.148 7 126863173.153 7     -3074.730          43.000    24141257.461 6  98854405.397 6     -2395.894          41.000
R10  21553310.141 6 114891275.787 6      2970.559          38.000
R23  20610481.766 8 110252181.628 8     -2559.914          51.000    20610486.055 6  85751700.003 6     -1991.044          41.000
C12                                                                  25272877.508 6 101763390.187 6     -2510.735          38.000
C21  21835791.555 8 113704674.689 8      -153.305          51.000
E19  25560369.828 5 134320649.408 5      1669.656          31.000    25560371.875 5 102921024.145 5      1278.991          34.000
E30                                                                  25776349.500 6 103790698.230 6       557.232          38.000
E33  24531650.102 8 128914701.098 8     -1673.469          51.000    24531650.977 8  98778797.012 8     -1282.253          51.000
> 2020 05 16 23 14 30.0000000  0 14        .000000000000
G03  22920058.109 5 120445711.181 5     -2734.148          34.000    22920058.484 5  93853806.171 5     -2130.508          34.000
G04  20989531.344 8 110300761.014 8     -1818.348          51.000    20989531.508 8  85948683.917 8     -1416.894          48.000
G07  23194342.398 7 121887077.299 7      3181.758          42.000    23194338.375 7  94976920.021 7      2479.292          42.000
G09  20300432.930 8 106679536.246 8       409.277          51.000    20300433.242 8  83126924.069 8       318.917          51.000
G19  24158828.641 7 126955503.336 7     -3080.301          42.000    24158825.742 6  98926351.000 6     -2400.234          41.000
R07  22159724.008 5 118622717.266 5     -2773.723          31.000
R10  21536643.156 6 114802430.892 6      2952.879          39.000
R23  20624899.641 8 110329306.007 8     -2581.656          51.000    20624903.961 7  85811685.633 7     -2007.955          42.000
C12  25291584.352 4 131699913.623 4     -3248.785          28.000    25291590.133 6 101838737.228 6     -2512.043          36.000
C21  21836695.203 8 113709380.211 8      -160.223          51.000
C22  24441562.148 5 127273627.078 5     -2275.980          30.000
E19                                                                  25550851.711 5 102882708.070 5      1275.309          32.000
E30                                                                  25772236.391 6 103774131.939 6       547.100          38.000
E33  24541238.555 8 128965087.856 8     -1685.512          51.000    24541239.625 8  98817405.038 8     -1291.484          51.000
> 2020 05 16 23 15  0.0000000  0 16        .000000000000
G03  22935685.625 5 120527826.465 5     -2740.840          31.000    22935686.391 5  93917792.136 5     -2135.719          31.000
G04  20999942.922 8 110355474.085 8     -1829.273          51.000    20999942.781 7  85991317.469 7     -1425.408          47.000
G07  23176200.547 7 121791738.906 7      3174.059          45.000    23176197.469 7  94902630.350 7      2473.292          44.000
G09  20298137.297 8 106667473.338 8       394.895          51.000    20298137.930 8  83117524.414 8       307.710          51.000
G19  24176433.484 7 127048017.612 7     -3087.312          43.000    24176429.383 7  98998440.040 7     -2405.701          42.000
R07  22175282.281 5 118706005.501 5     -2778.527          33.000
R08  19763053.367 4 105830291.866 4      -526.445          28.000    19763066.117 4  82312471.166 4      -409.457          29.000
R10  21520077.992 6 114714128.156 6      2934.195          37.000
R23  20639442.125 8 110407098.855 8     -2604.699          50.000    20639446.773 7  85872191.178 7     -2025.877          42.000
C12  25310308.539 5 131797413.174 5     -3252.160          30.000    25310313.398 5 101914130.117 5     -2514.251          32.000
C21  21837642.141 8 113714311.404 8      -168.602          51.000
C22  24454680.984 5 127341939.933 5     -2279.234          30.000
E19                                                                  25541360.195 5 102844473.438 5      1271.400          31.000
E26  26060358.148 5 136948104.993 5     -3226.980          35.000
E30                                                                  25768201.008 5 103757880.564 5       536.447          35.000
E33  24550898.281 8 129015850.768 8     -1698.723          51.000    24550899.734 8  98856301.287 8     -1301.592          51.000
> 2020 05 16 23 15 30.0000000  0 14        .000000000000
G04  21010416.609 8 110410513.654 8     -1839.824          51.000    21010416.352 7  86034205.430 7     -1433.629          46.000
G07  23158100.977 7 121696621.771 7      3167.156          46.000    23158098.500 7  94828513.106 7      2467.914          46.000
G09  20295923.867 8 106655842.438 8       380.801          51.000    20295924.711 8  83108461.385 8       296.728          51.000
G19  24194077.547 7 127140736.544 7     -3093.773          45.000    24194072.680 7  99070688.535 7     -2410.733          42.000
R07  22190866.430 5 118789420.089 5     -2782.074          31.000
R08  19766048.148 5 105846258.678 5      -536.758          35.000    19766047.227 4  82324883.442 4      -417.475          28.000
R10  21503619.641 5 114626396.755 5      2915.121          35.000
R23  20654112.219 8 110485580.497 8     -2627.059          49.000    20654117.703 7  85933232.469 7     -2043.265          42.000
C12  25329047.211 5 131894998.172 5     -3253.859          31.000    25329052.164 5 101989585.058 5     -2515.813          30.000
C21  21838637.008 8 113719491.990 8      -176.555          51.000
C22  24467827.547 5 127410400.244 5     -2283.742          30.000
E26  26078790.703 6 137044958.876 6     -3229.340          36.000
E30                                                                  25764246.594 5 103741963.080 5       525.178          34.000
E33  24560633.562 8 129067012.574 8     -1711.730          51.000    24560635.648 8  98895503.183 8     -1311.553          51.000
> 2020 05 16 23 16  0.0000000  0 13        .000000000000
G04  21020944.492 8 110465838.223 8     -1849.727          50.000    21020944.328 7  86077315.484 7     -1441.345          47.000
G07  23140036.297 7 121601688.547 7      3160.379          47.000    23140034.242 7  94754539.163 7      2462.633          47.000
G09  20293785.109 8 106644603.203 8       367.324          51.000    20293785.875 8  83099703.544 8       286.227          51.000
G19  24211752.406 7 127233617.030 7     -3099.414          46.000    24211747.211 7  99143062.916 7     -2415.128          43.000
R08  19769082.797 5 105862503.427 5      -547.023          32.000    19769076.930 4  82337518.149 4      -425.472          29.000
R10  21487261.328 5 114539199.663 5      2896.754          32.000
R23  20668903.508 8 110564706.973 8     -2649.098          51.000    20668909.523 7  85994775.258 7     -2060.412          43.000
C12  25347794.109 5 131992616.661 5     -3256.125          31.000
C21  21839672.242 8 113724882.722 8      -184.031          51.000
E07  26010721.266 6 136687249.561 6     -2132.367          37.000
E26  26097228.883 6 137141850.432 6     -3231.133          36.000
E30                                                                  25760367.648 5 103726349.570 5       514.649          35.000
E33  24570436.734 8 129118532.298 8     -1724.168          51.000    24570439.258 8  98934979.333 8     -1321.107          51.000
> 2020 05 16 23 16 30.0000000  0 15        .000000000000
G04  21031531.836 8 110521475.188 8     -1859.430          51.000    21031531.695 7  86120668.971 7     -1448.906          46.000
G07  23122012.430 8 121506970.949 8      3153.961          48.000    23122010.711 8  94680733.246 8      2457.632          48.000
G09  20291726.320 8 106633784.221 8       354.062          51.000    20291727.117 8  83091273.182 8       275.893          51.000
G19  24229462.852 7 127326684.740 7     -3104.699          45.000    24229457.734 7  99215583.177 7     -2419.246          42.000
R07  22222086.180 5 118956560.139 5     -2788.859          32.000
R08  19772174.898 6 105879058.428 6      -556.918          36.000    19772170.164 5  82350394.235 5      -433.158          31.000
R10  21471009.578 5 114452571.071 5      2878.496          34.000
R23  20683821.594 8 110644504.035 8     -2670.672          51.000    20683828.000 7  86056839.614 7     -2077.189          44.000
C12  25366553.266 5 132090299.689 5     -3256.383          30.000
C21  21840753.383 8 113730512.462 8      -191.242          51.000
C22  24494190.617 5 127547677.849 5     -2289.887          32.000
E07  26022899.312 5 136751258.079 5     -2133.457          32.000
E26  26115678.586 6 137238807.025 6     -3232.715          36.000
E30                                                                  25756571.227 5 103711062.987 5       504.568          31.000
E33  24580313.500 8 129170437.787 8     -1736.191          51.000    24580316.047 8  98974751.059 8     -1330.305          51.000
> 2020 05 16 23 17  0.0000000  0 13        .000000000000
G04  21042182.711 8 110577446.167 8     -1870.008          50.000    21042182.742 7  86164282.722 7     -1457.149          46.000
G07  23104034.219 8 121412494.487 8      3146.523          48.000    23104032.961 8  94607115.222 8      2451.836          48.000
G09  20289751.836 8 106623408.272 8       339.723          51.000    20289752.656 8  83083188.039 8       264.719          51.000
G19  24247212.531 7 127419959.610 7     -3111.227          44.000    24247207.430 7  99288264.868 7     -2424.335          44.000
R08  19775328.625 6 105895946.475 6      -567.238          36.000    19775325.578 5  82363529.436 5      -441.185          32.000
R10  21454870.617 5 114366538.603 5      2859.258          34.000
R23  20698868.414 8 110724991.907 8     -2693.180          50.000    20698875.422 7  86119441.323 7     -2094.692          43.000
C12  25385328.367 4 132188067.129 4     -3259.332          27.000
C21  21841884.969 8 113736404.410 8      -199.512          51.000
C22  24507393.516 4 127616430.883 4     -2295.242          29.000
E26  26134145.508 6 137335850.009 6     -3234.801          37.000
E30  25752861.445 6 135332196.892 6       643.277          37.000
E33  24590268.383 8 129222751.116 8     -1749.344          51.000    24590270.203 8  99014835.296 8     -1340.421          51.000
> 2020 05 16 23 17 30.0000000  0 12        .000000000000
G03  23014377.984 5 120941373.796 5     -2774.523          32.000
G04  21052887.523 8 110633700.534 8     -1881.957          50.000    21052887.797 7  86208117.301 7     -1466.460          45.000
G07  23086092.562 7 121318212.569 7      3137.578          47.000    23086092.117 7  94533648.782 7      2444.866          47.000
G09  20287852.242 8 106613425.891 8       324.094          51.000    20287852.875 8  83075409.568 8       252.541          51.000
G19  24264991.445 7 127513389.727 7     -3118.871          43.000    24264986.273 7  99361067.589 7     -2430.289          42.000
R08  19778534.047 6 105913117.853 6      -579.168          37.000    19778534.422 5  82376884.926 5      -450.464          33.000
R23  20714033.766 8 110806116.515 8     -2716.812          51.000    20714040.867 6  86182538.239 6     -2113.079          41.000
C21  21843057.633 8 113742510.185 8      -209.062          51.000
C22  24520623.812 4 127685321.805 4     -2300.102          28.000
E26  26152619.055 6 137432928.828 6     -3238.574          37.000
E30  25749227.289 5 135313101.897 5       627.594          34.000
E33  24600291.617 8 129275422.113 8     -1763.707          51.000    24600292.812 8  99055193.593 8     -1351.403          51.000
> 2020 05 16 23 18  0.0000000  0 10        .000000000000
G04  21063655.391 8 110690286.382 8     -1891.430          49.000    21063655.695 7  86252210.179 7     -1473.841          46.000
G07  23068197.664 7 121224177.368 7      3130.754          47.000    23068197.961 7  94460374.572 7      2439.548          46.000
G09  20286036.812 8 106603886.328 8       310.930          51.000    20286037.391 8  83067976.155 8       242.283          51.000
G19  24282808.477 7 127607020.585 7     -3124.012          43.000    24282802.977 6  99434026.705 6     -2434.295          41.000
R08  19781801.477 5 105930622.520 5      -588.410          35.000    19781803.836 5  82390499.711 5      -457.652          31.000
R23  20729327.391 8 110887924.772 8     -2737.953          51.000    20729332.609 6  86246166.832 6     -2129.522          41.000
R24  20855131.469 6 111521750.168 6       458.094          37.000
C21  21844280.742 8 113748879.203 8      -216.324          51.000
E26  26171108.617 6 137530091.398 6     -3239.828          37.000
E33  24610391.906 8 129328499.321 8     -1775.555          51.000    24610393.242 8  99095863.146 8     -1360.505          51.000
> 2020 05 16 23 18 30.0000000  0 12        .000000000000
G04  21074465.508 8 110747093.969 8     -1900.219          49.000    21074465.492 7  86296475.832 7     -1480.690          46.000
G07  23050329.969 8 121130283.153 8      3124.465          48.000    23050330.391 8  94387210.234 8      2434.648          48.000
G09  20284285.086 8 106594680.956 8       298.305          51.000    20284285.672 8  83060803.146 8       232.445          51.000
