     3.02           OBSERVATION DATA    M (MIXED)           RINEX VERSION / TYPE
SAVERINEX           SC600               20200503 195930 LCL PGM / RUN BY / DATE
       G = GPS       R = GLONASS       C = COMPASS          COMMENT
       S = SBAS      J = QZSS          E = GALILEO          COMMENT
BEAN                                                        MARKER NAME
1                                                           MARKER NUMBER
GEODETIC                                                    MARKER TYPE
Unige DICCA         GTER                                    OBSERVER / AGENCY
SC60291900056       SC600               2.12(191226)        REC # / TYPE / VERS
                    HEMA45          NONE                    ANT # / TYPE
  4509407.8091   693652.4678  4442337.6214                  APPROX POSITION XYZ
        0.0000        0.0000        0.0000                  ANTENNA: DELTA H/E/N
G    8 C1C L1C D1C S1C C2Y L2Y D2Y S2Y                      SYS / # / OBS TYPES
R    8 C1C L1C D1C S1C C2P L2P D2P S2P                      SYS / # / OBS TYPES
C    8 C1I L1I D1I S1I C7I L7I D7I S7I                      SYS / # / OBS TYPES
E    8 C1C L1C D1C S1C C7Q L7Q D7Q S7Q                      SYS / # / OBS TYPES
DBHZ                                                        COMMENT
     30.000                                                 INTERVAL
  2020    05    03    17    00    0.0000000     GPS         TIME OF FIRST OBS
  2020    05    03    17    59   30.0000000     GPS         TIME OF LAST OBS
     0                                                      RCV CLOCK OFFS APPL
G L1C  0.00000                                              SYS / PHASE SHIFT
G L2Y  0.00000                                              SYS / PHASE SHIFT
R L1C  0.00000                                              SYS / PHASE SHIFT
R L2P  0.25000                                              SYS / PHASE SHIFT
C L1I  0.00000                                              SYS / PHASE SHIFT
C L7I  0.00000                                              SYS / PHASE SHIFT
E L1C  0.50000                                              SYS / PHASE SHIFT
E L7Q -0.25000                                              SYS / PHASE SHIFT
 14 R01  1 R05  1 R06 -4 R07  5 R08  6 R09 -2 R10 -5 R11  0 GLONASS SLOT / FRQ #
    R12 -1 R13 -2 R20  2 R21  4 R22 -3 R23  3               GLONASS SLOT / FRQ #
 C1C   71.950 C2C   71.950 C2P   71.950                     GLONASS COD/PHS/BIS
    18                                                      LEAP SECONDS
*** Above antenna height is from mark to ANTENNA BOTTOM.    COMMENT
    17     4        0.0000        ANT MEASURE TYPE/HEIGT    COMMENT
    0.0000    0.0000    0.0458    0.0405    0.0000          COMMENT
                    BASE STATION                            COMMENT
                                                            END OF HEADER
> 2020 05 03 17 00  0.0000000  0 13        .000000000000
G10  20919648.234 8 109933576.906 8       127.770          51.000    20919650.703 8  85662539.382 8        99.561          51.000
G16  21985589.516 7 115535083.909 7     -2930.918          46.000    21985589.680 7  90027287.691 7     -2283.832          45.000
G21  24741776.156 5 130018901.095 5     -2605.652          32.000
G27  20279227.781 8 106568058.928 8        75.656          51.000    20279228.367 8  83040054.923 8        58.953          51.000
R07  20567989.703 6 110102031.587 6       813.527          38.000    20567991.008 6  85634989.628 6       632.743          38.000
R08  21896671.047 8 117255704.869 8      3939.738          49.000    21896671.805 6  91198880.515 6      3064.241          40.000
R22  20288355.117 8 108300605.673 8     -1432.008          51.000    20288357.453 6  84233801.552 6     -1113.784          41.000
C05  39616127.414 6 206291571.151 6       -12.332          36.000    39616128.594 5 159517732.723 5        -9.370          35.000
C27  23751601.039 5 123680821.749 5     -2202.125          31.000
C30  21552423.453 8 112229124.217 8       172.027          51.000
E03  26753264.047 7 140589384.572 7      2761.379          47.000    26753269.805 8 107724293.896 8      2115.775          50.000
E15                                                                  23368011.000 5  94093313.205 5       471.273          33.000
E30  25366318.383 6 133300957.153 6     -3081.684          40.000    25366319.586 6 102139670.801 6     -2361.491          39.000
> 2020 05 03 17 00 30.0000000  0 15        .000000000000
G10  20918975.070 8 109930038.253 8       107.078          51.000    20918977.141 8  85659782.004 8        83.438          51.000
G16  22002355.438 7 115623192.577 7     -2944.234          47.000    22002356.562 7  90095943.804 7     -2294.209          46.000
G21  24756653.836 5 130097088.233 5     -2607.016          31.000
G27  20278838.047 8 106566010.788 8        59.957          51.000    20278838.430 8  83038458.962 8        46.720          51.000
R07  20563509.203 6 110078039.333 6       784.988          40.000    20563508.031 6  85616329.047 6       610.546          39.000
R08  21874632.836 8 117137693.002 8      3926.707          48.000    21874634.156 6  91107093.522 6      3054.105          41.000
R12  23383152.914 5 124908573.955 5     -4241.355          31.000    23383155.227 4  97151136.942 4     -3298.838          27.000
R22  20296430.805 8 108343713.412 8     -1442.715          49.000    20296432.273 6  84267329.775 6     -1122.112          41.000
R23  20646049.844 4 110442447.677 4      2046.980          28.000
C05  39616200.078 5 206291949.997 5       -14.188          35.000    39616201.461 5 159518026.670 5       -10.856          35.000
C27  23764304.039 4 123746966.934 4     -2209.957          27.000
C30  21551459.219 8 112224104.213 8       161.691          51.000
E03  26737513.836 7 140506616.778 7      2755.727          47.000    26737519.438 8 107660874.508 8      2111.468          49.000
E15                                                                  23364517.297 6  94079244.272 6       466.053          36.000
E30  25383923.414 6 133393470.959 6     -3086.547          39.000    25383924.312 6 102210557.907 6     -2365.058          39.000
> 2020 05 03 17 01  0.0000000  0 13        .000000000000
G10  20918414.242 8 109927090.252 8        89.793          51.000    20918415.992 8  85657484.866 8        69.969          51.000
G16  22019194.633 8 115711681.593 8     -2954.742          48.000    22019195.562 7  90164896.246 7     -2302.400          45.000
G21  24771533.211 5 130175284.203 5     -2605.324          33.000
G27  20278531.984 8 106564402.719 8        47.672          51.000    20278532.062 8  83037205.934 8        37.147          51.000
R07  20559181.961 6 110054874.715 6       759.410          40.000    20559181.398 5  85598312.244 5       590.655          35.000
R08  21852661.227 8 117020039.600 8      3917.094          48.000    21852664.016 7  91015585.382 7      3046.628          43.000
R12  23406970.883 4 125035828.595 4     -4240.594          29.000
R22  20304560.531 8 108387109.780 8     -1449.961          48.000    20304562.391 6  84301082.516 6     -1127.747          41.000
C05  39616276.656 6 206292347.356 6       -12.336          36.000    39616277.977 6 159518334.704 6        -9.509          36.000
C30  21550548.383 8 112219361.470 8       154.742          51.000
E03  26721789.555 7 140423986.305 7      2753.199          46.000    26721795.203 8 107597560.313 8      2109.657          49.000
E15                                                                  23361058.859 6  94065309.069 6       463.278          38.000
E30  25401550.180 6 133486098.547 6     -3088.398          38.000    25401550.617 6 102281532.190 6     -2366.390          38.000
> 2020 05 03 17 01 30.0000000  0 13        .000000000000
G10  20917954.227 8 109924672.400 8        70.488          51.000    20917955.695 8  85655600.843 8        54.926          51.000
G16  22036094.602 8 115800488.146 8     -2966.766          50.000    22036094.789 7  90234096.100 7     -2311.765          44.000
G21  24786402.938 5 130253427.991 5     -2605.758          32.000
G26  24164539.914 5 126985529.292 5     -3695.211          30.000    24164539.852 4  98949759.574 4     -2879.391          29.000
G27  20278298.227 8 106563175.330 8        33.203          51.000    20278298.180 8  83036249.526 8        25.873          51.000
R07  20554996.688 6 110032477.990 6       732.488          41.000    20554997.320 5  85580892.609 5       569.716          32.000
R08  21830746.750 8 116902687.585 8      3905.359          50.000    21830750.031 7  90924311.675 7      3037.505          44.000
R22  20312732.844 7 108430733.891 7     -1459.316          47.000    20312734.797 6  84335012.360 6     -1135.021          41.000
C05  39616345.500 5 206292706.576 5       -12.707          35.000    39616346.797 6 159518611.675 6        -9.409          36.000
C30  21549679.688 8 112214836.850 8       145.895          51.000
E03  26706079.664 7 140341434.961 7      2749.145          44.000    26706086.180 8 107534306.711 8      2106.517          49.000
E15                                                                  23357621.484 6  94051461.381 6       458.920          37.000
E30  25419186.914 6 133578777.658 6     -3091.309          37.000    25419187.172 6 102352545.939 6     -2368.521          36.000
> 2020 05 03 17 02  0.0000000  0 15        .000000000000
G10  20917605.094 8 109922837.232 8        52.168          51.000    20917606.258 8  85654170.843 8        40.650          51.000
G16  22053064.547 8 115889662.850 8     -2977.969          49.000    22053063.844 7  90303582.820 7     -2320.498          45.000
G21  24801273.328 5 130331571.772 5     -2604.180          35.000
G26  24185635.430 4 127096371.410 4     -3696.090          29.000    24185637.492 5  99036142.060 5     -2880.076          30.000
G27  20278147.000 8 106562382.107 8        19.789          51.000    20278147.133 8  83035631.432 8        15.420          51.000
R07  20550966.352 6 110010904.068 6       706.082          40.000
R08  21808900.125 8 116785695.113 8      3894.305          51.000    21808902.664 7  90833317.614 7      3028.907          45.000
R22  20320957.727 7 108474638.942 7     -1467.613          46.000    20320960.383 6  84369160.763 6     -1141.477          41.000
C05  39616416.641 6 206293076.869 6       -11.719          36.000    39616417.781 5 159518898.046 5        -9.034          35.000
C20  25518757.758 5 132882876.725 5      3439.691          34.000
C27  23802594.711 5 123946326.602 5     -2222.047          32.000
C30  21548863.133 8 112210583.180 8       137.926          51.000
E03  26690394.219 7 140259017.499 7      2745.551          42.000    26690402.797 8 107471155.722 8      2103.770          50.000
E15  23354207.820 5 122727192.112 5       594.801          35.000    23354213.703 5  94037741.473 5       455.559          35.000
E30  25436843.523 6 133671559.264 6     -3093.941          37.000    25436843.445 5 102423638.232 5     -2370.655          33.000
> 2020 05 03 17 02 30.0000000  0 16        .000000000000
G10  20917367.492 8 109921588.415 8        32.031          51.000    20917368.859 8  85653197.754 8        24.959          51.000
G16  22070104.469 8 115979206.314 8     -2990.703          49.000    22070103.188 7  90373356.906 7     -2330.418          44.000
G20  21797036.219 6 114544197.885 6     -2201.828          38.000
G21  24816144.734 5 130409719.482 5     -2604.328          33.000
G26  24206746.039 5 127207309.250 5     -3698.730          30.000    24206748.453 5  99122585.460 5     -2882.128          30.000
G27  20278079.336 8 106562027.795 8         4.742          51.000    20278079.734 8  83035355.331 8         3.695          51.000
R07  20547088.859 7 109990157.554 7       678.008          42.000    20547094.680 5  85547932.428 5       527.339          32.000
R08  21787122.211 8 116669070.927 8      3881.555          51.000    21787124.078 7  90742610.031 7      3018.990          46.000
R22  20329236.133 7 108518828.855 7     -1477.344          43.000    20329239.000 6  84403530.693 6     -1149.048          41.000
C05  39616490.859 5 206293463.305 5       -12.875          35.000    39616491.977 6 159519196.849 6        -9.947          36.000
C20  25498956.164 5 132779767.908 5      3435.203          35.000
C27  23815418.000 4 124013132.788 4     -2228.039          29.000
C30  21548099.422 8 112206604.913 8       128.289          51.000
E03  26674735.820 7 140176739.925 7      2740.438          43.000    26674746.109 8 107408111.923 8      2099.750          50.000
E15  23350834.945 5 122709457.188 5       588.562          32.000
E30  25454520.281 6 133764445.251 6     -3097.852          36.000    25454518.180 5 102494797.474 5     -2373.921          30.000
> 2020 05 03 17 03  0.0000000  0 16        .000000000000
G10  20917236.312 8 109920899.264 8        13.711          51.000    20917237.742 8  85652660.759 8        10.684          51.000
G16  22087208.992 8 116069089.875 8     -3001.672          50.000    22087207.617 7  90443396.022 7     -2338.965          44.000
G20  21809639.586 5 114610438.472 5     -2214.871          35.000
G21  24831011.836 5 130487844.634 5     -2603.520          31.000
G26  24227862.672 5 127318278.959 5     -3698.754          32.000    24227866.477 5  99209055.202 5     -2882.146          30.000
G27  20278090.359 8 106562086.662 8        -8.746          51.000    20278091.062 8  83035401.194 8        -6.815          51.000
R07  20543362.727 5 109970213.495 5       651.656          33.000    20543366.789 5  85532420.458 5       506.859          35.000
R08  21765408.680 8 116552792.711 8      3870.203          49.000    21765410.164 7  90652171.539 7      3010.164          45.000
R22  20337562.742 7 108563276.913 7     -1485.918          44.000    20337566.219 6  84438101.424 6     -1155.711          40.000
C05  39616563.055 5 206293839.623 5       -12.211          35.000    39616564.297 6 159519487.863 6        -9.702          36.000
C20  25479168.180 6 132676722.210 6      3433.719          37.000
C27  23828266.930 5 124080046.090 5     -2232.770          33.000
C30  21547383.461 8 112202876.462 8       120.258          51.000
E03  26659100.484 7 140094577.879 7      2736.938          45.000    26659111.336 8 107345156.620 8      2097.158          50.000
E15  23347489.914 5 122691886.377 5       584.211          32.000    23347484.750 5  94010653.676 5       447.729          35.000
E30  25472211.695 5 133857407.401 5     -3100.039          35.000
> 2020 05 03 17 03 30.0000000  0 17        .000000000000
G10  20917215.391 8 109920789.624 8        -6.586          51.000    20917216.781 8  85652575.346 8        -5.132          51.000
G16  22104381.539 8 116159331.466 8     -3014.723          51.000    22104380.156 7  90513714.121 7     -2349.135          45.000
G21  24845878.320 5 130565966.579 5     -2604.656          31.000
G26  24248989.883 5 127429300.279 5     -3701.594          32.000    24248992.117 4  99295565.131 4     -2884.359          29.000
G27  20278184.047 8 106562579.753 8       -24.473          51.000    20278185.031 8  83035785.402 8       -19.073          51.000
R07  20539789.398 5 109951093.233 5       622.902          35.000    20539793.289 5  85517549.149 5       484.480          35.000
R08  21743764.039 7 116436884.750 7      3856.629          46.000    21743765.203 7  90562020.976 7      2999.600          45.000
R22  20345941.750 7 108608003.247 7     -1496.527          43.000    20345944.766 6  84472888.589 6     -1163.963          39.000
R23  20577839.367 4 110077591.075 4      2005.672          29.000
C05  39616637.203 5 206294225.950 5       -13.641          35.000    39616638.609 5 159519786.573 5       -10.696          35.000
C20  25459395.367 6 132573761.973 6      3430.035          37.000
C27  23841150.445 5 124147133.016 5     -2239.406          34.000
C30  21546719.242 8 112199418.385 8       110.047          51.000
E03  26643492.242 7 140012553.611 7      2731.094          47.000    26643502.852 8 107282306.870 8      2092.626          51.000
E15                                                                  23344169.695 6  93997301.082 6       442.416          38.000
E27  24896144.250 6 130830119.181 6     -1267.930          41.000    24896146.562 5 100246464.958 5      -971.288          31.000
E30  25489920.664 5 133950463.797 5     -3103.812          34.000
> 2020 05 03 17 04  0.0000000  0 16        .000000000000
G10  20917303.258 8 109921251.369 8       -22.836          51.000    20917304.391 8  85652935.171 8       -17.794          51.000
G16  22121620.203 8 116249920.603 8     -3023.270          51.000    22121618.695 7  90584303.029 7     -2355.797          45.000
G21  24860742.922 5 130644077.452 5     -2601.516          33.000
G27  20278359.078 8 106563499.864 8       -35.695          51.000    20278360.164 8  83036502.356 8       -27.815          51.000
R07  20536367.953 5 109932789.641 5       598.469          35.000    20536373.359 6  85503313.187 6       465.476          36.000
R08  21722186.125 6 116321344.244 6      3847.434          41.000    21722188.758 7  90472156.158 7      2992.448          44.000
R22  20354371.461 7 108652999.915 7     -1502.086          43.000    20354373.789 6  84507886.031 6     -1168.286          38.000
R23  20566619.531 5 110017552.866 5      2001.098          31.000
C05  39616711.836 5 206294614.476 5       -10.570          35.000    39616713.203 5 159520087.020 5        -8.470          35.000
C20  25439637.266 6 132470881.591 6      3430.523          38.000
C27  23854062.898 6 124214377.986 6     -2242.035          36.000
C30  21546105.555 8 112196223.404 8       104.203          51.000
E03  26627909.594 8 139930661.232 8      2729.488          48.000    26627919.438 8 107219558.188 8      2091.516          51.000
E15                                                                  23340885.031 6  93984068.333 6       440.522          38.000
E27  24903416.195 6 130868333.201 6     -1278.488          40.000
E30  25507646.195 5 134043582.779 5     -3103.504          32.000    25507643.109 5 102708706.687 5     -2378.021          32.000
> 2020 05 03 17 04 30.0000000  0 17        .000000000000
G10  20917501.539 8 109922293.375 8       -45.051          51.000    20917502.266 8  85653747.148 8       -35.105          51.000
G16  22138926.078 8 116340863.697 8     -3038.125          51.000    22138924.750 7  90655167.746 7     -2367.370          47.000
G20  21847932.367 5 114811665.971 5     -2257.316          34.000
G21  24875607.031 5 130722186.231 5     -2604.191          34.000
G26  24291272.484 4 127651489.234 4     -3705.195          28.000
G27  20278617.320 8 106564857.098 8       -53.184          51.000    20278618.508 8  83037559.929 8       -41.445          51.000
R07  20533102.172 6 109915313.783 6       568.098          38.000    20533108.648 6  85489720.905 6       441.854          36.000
R08  21700679.492 7 116206184.805 7      3831.559          46.000    21700683.586 7  90382587.670 7      2980.101          44.000
R22  20362852.859 7 108698276.346 7     -1514.629          43.000    20362855.961 6  84543101.037 6     -1178.045          38.000
C05  39616788.688 5 206295014.410 5       -14.234          35.000    39616790.039 5 159520396.249 5       -10.838          35.000
C20  25419897.391 6 132368092.590 6      3423.938          38.000
C27  23867008.898 6 124281789.754 6     -2250.430          39.000
C30  21545544.289 8 112193301.321 8        92.172          51.000
E03  26612354.406 8 139848912.073 8      2721.941          49.000    26612363.250 8 107156919.262 8      2085.587          51.000
E15                                                                  23337630.664 6  93970962.480 6       434.188          37.000
E27  24910767.719 6 130906963.549 6     -1295.160          39.000
E30                                                                  25525385.703 5 102780144.860 5     -2383.340          34.000
> 2020 05 03 17 05  0.0000000  0 14        .000000000000
G10  20917802.086 8 109923872.762 8       -62.980          51.000    20917802.680 8  85654977.869 8       -49.076          51.000
G16  22156290.703 8 116432115.746 8     -3048.242          51.000    22156289.727 7  90726273.210 7     -2375.254          47.000
G21  24890462.164 5 130800249.636 5     -2602.664          33.000
G27  20278950.812 8 106566609.567 8       -66.281          51.000    20278952.070 8  83038925.469 8       -51.648          51.000
R08  21679238.523 8 116091367.307 8      3820.129          49.000    21679242.680 7  90293285.214 7      2971.214          45.000
R22  20371378.930 7 108743789.164 7     -1522.336          43.000    20371381.109 5  84578499.885 5     -1184.036          34.000
C05  39616859.609 5 206295383.668 5       -13.324          35.000    39616860.812 5 159520681.786 5       -10.016          35.000
C20  25400167.375 6 132265354.999 6      3422.312          38.000
C27  23879979.945 5 124349326.076 5     -2254.523          32.000
C30  21545027.406 8 112190610.539 8        84.457          51.000
E03  26596818.555 8 139767265.677 8      2718.461          48.000    26596826.672 8 107094359.080 8      2082.959          51.000
E15  23334397.664 6 122623083.921 6       562.441          36.000    23334397.922 6  93957950.877 6       431.027          36.000
E27  24918187.477 5 130945966.482 5     -1307.730          35.000    24918193.023 5 100335224.800 5     -1002.054          34.000
E30                                                                  25543137.461 6 102851619.346 6     -2383.921          36.000
> 2020 05 03 17 05 30.0000000  0 15        .000000000000
G10  20918212.438 8 109926029.818 8       -79.145          51.000    20918213.516 8  85656658.718 8       -61.668          51.000
G16  22173721.469 8 116523714.873 8     -3056.590          51.000    22173720.875 7  90797649.124 7     -2381.758          46.000
G20  21873880.859 5 114948019.746 5     -2280.602          30.000
G21  24905316.375 5 130878320.709 5     -2600.137          30.000
G27  20279367.414 8 106568798.718 8       -77.891          51.000    20279368.867 8  83040631.283 8       -60.694          51.000
R07  20527018.828 4 109882740.095 4       517.402          29.000    20527026.344 5  85464379.718 5       402.424          35.000
R08  21657870.125 8 115976937.453 8      3810.441          49.000    21657874.344 7  90204284.279 7      2963.680          46.000
R22  20379957.211 6 108789579.673 6     -1528.508          41.000    20379958.750 5  84614114.724 5     -1188.836          32.000
C05  39616932.250 5 206295762.606 5       -10.676          35.000    39616933.555 5 159520974.783 5        -8.304          35.000
C20  25380454.766 6 132162711.387 6      3422.398          36.000
C30  21544562.828 8 112188191.916 8        78.465          51.000
E03  26581309.828 8 139685764.758 8      2716.641          48.000    26581317.461 8 107031910.378 8      2081.579          51.000
E15  23331197.859 6 122606266.499 6       559.996          37.000    23331197.031 6  93945064.745 6       429.270          37.000
E27  24925683.703 6 130985381.719 6     -1318.512          36.000    24925694.320 6 100365426.150 6     -1010.195          36.000
E30                                                                  25560905.438 6 102923159.938 6     -2384.053          37.000
> 2020 05 03 17 06  0.0000000  0 13        .000000000000
G10  20918708.961 8 109928639.923 8       -90.648          51.000    20918710.375 8  85658692.566 8       -70.632          51.000
G16  22191194.258 8 116615534.597 8     -3060.473          51.000    22191193.945 7  90869196.932 7     -2384.784          47.000
G20  21886933.766 5 115016608.454 5     -2287.605          32.000
G27  20279843.820 8 106571301.044 8       -84.777          51.000    20279845.195 8  83042581.133 8       -66.060          51.000
R08  21636550.719 8 115862773.526 8      3804.930          49.000    21636555.492 7  90115490.158 7      2959.393          45.000
R22  20388563.844 6 108835521.518 6     -1530.016          41.000    20388567.266 5  84649847.251 5     -1190.015          34.000
C05  39616983.195 5 206296027.052 5        -3.184          35.000    39616984.398 5 159521179.076 5        -2.347          35.000
C20  25360736.703 6 132060040.890 6      3426.582          36.000
C30  21544127.000 8 112185922.938 8        76.910          51.000
E03  26565805.055 7 139604287.165 7      2719.473          47.000    26565812.609 8 106969479.513 8      2083.701          49.000
E15  23328005.578 5 122589494.417 5       562.371          32.000    23328005.859 6  93932208.913 6       430.845          37.000
E27  24933237.492 6 131025084.086 6     -1324.570          37.000    24933250.250 6 100395847.398 6     -1014.706          37.000
E30                                                                  25578665.492 6 102994669.920 6     -2380.168          37.000
> 2020 05 03 17 06 30.0000000  0 12        .000000000000
G10  20919367.219 8 109932100.523 8      -136.957          51.000    20919369.039 8  85661389.136 8      -106.720          51.000
G16  22208784.180 8 116707970.070 8     -3098.695          50.000    22208784.086 7  90941224.534 7     -2414.571          46.000
G27  20280455.680 8 106574515.150 8      -126.480          51.000    20280456.805 8  83045085.636 8       -98.556          51.000
R08  21615357.398 8 115749284.768 8      3764.098          49.000    21615362.336 7  90027221.169 7      2927.632          44.000
R22  20397274.266 6 108882018.774 6     -1566.422          41.000    20397278.703 5  84686011.697 5     -1218.328          32.000
C05  39617088.078 5 206296573.421 5       -30.391          35.000    39617089.352 5 159521601.535 5       -23.207          35.000
C20  25341090.578 6 131957740.113 6      3396.863          36.000
C30  21543795.820 8 112184198.419 8        41.023          51.000
E03  26550380.641 7 139523232.818 7      2687.238          46.000    26550387.930 8 106907372.980 8      2059.107          48.000
E15                                                                  23324897.852 6  93919688.170 6       406.254          37.000
E27  24940922.672 6 131065470.258 6     -1365.188          39.000    24940935.352 5 100426792.595 5     -1045.903          35.000
E30                                                                  25596493.102 6 103066452.715 6     -2403.026          37.000
> 2020 05 03 17 07  0.0000000  0 14        .000000000000
G10  20920103.516 8 109935970.682 8      -133.973          51.000    20920106.086 8  85664404.846 8      -104.394          51.000
G16  22226406.641 8 116800577.415 8     -3087.832          49.000    22226406.594 7  91013386.067 7     -2406.103          46.000
G21  24949874.789 5 131112464.957 5     -2596.555          31.000
G27  20281119.227 8 106578001.229 8      -118.863          51.000    20281120.398 8  83047802.049 8       -92.621          51.000
R07  20519065.414 5 109840219.969 5       437.125          32.000    20519066.336 5  85431258.618 5       339.983          31.000
R08  21594207.164 8 115636027.224 8      3773.242          48.000    21594211.828 7  89939132.011 7      2934.744          42.000
R22  20406004.414 6 108928624.160 6     -1553.379          39.000    20406009.312 5  84722260.300 5     -1208.184          33.000
C05  39617163.094 5 206296964.342 5        -9.395          35.000    39617164.461 5 159521903.782 5        -6.727          35.000
C20  25321430.852 5 131855374.797 5      3414.539          32.000
C27  23932173.203 4 124621111.240 4     -2270.672          28.000
C30  21543485.672 8 112182582.476 8        53.875          51.000
E03  26534953.211 7 139442163.278 7      2704.430          47.000    26534959.648 7 106845254.822 7      2072.207          46.000
E15                                                                  23321788.586 5  93907164.995 5       418.941          34.000
E27  24948655.453 6 131106098.613 6     -1356.156          40.000    24948667.195 5 100457923.405 5     -1039.076          35.000
> 2020 05 03 17 07 30.0000000  0 15        .000000000000
G10  20920948.938 8 109940412.950 8      -157.656          51.000    20920951.602 8  85667866.355 8      -122.849          51.000
G16  22244092.422 8 116893517.739 8     -3103.395          49.000    22244092.195 7  91085807.051 7     -2418.230          44.000
G21  24964719.766 5 131190465.916 5     -2600.500          34.000
G27  20281865.625 8 106581922.972 8      -137.910          51.000    20281866.992 8  83050857.946 8      -107.462          51.000
R07  20516715.625 4 109827652.896 4       405.352          29.000    20516724.930 5  85421484.181 5       315.280          35.000
R08  21573131.875 8 115523171.609 8      3755.141          48.000    21573135.836 6  89851355.506 6      2920.671          40.000
R22  20414786.266 6 108975502.924 6     -1567.023          41.000    20414792.844 5  84758721.508 5     -1218.802          33.000
R23  20489099.695 5 109602866.898 5      1949.746          30.000
C05  39617239.320 5 206297361.149 5       -13.426          35.000    39617240.625 5 159522210.654 5       -10.412          35.000
C20  25301789.203 4 131753108.649 4      3407.195          29.000
C27  23945298.375 5 124689448.373 5     -2280.555          31.000
C30  21543227.461 8 112181237.167 8        40.336          51.000
E03  26519554.672 7 139361243.573 7      2694.895          47.000    26519558.945 7 106783251.526 7      2064.955          45.000
E15                                                                  23318707.773 5  93894764.140 5       411.285          32.000
E27  24956465.281 6 131147131.023 6     -1374.348          40.000    24956475.938 5 100489363.823 5     -1052.856          35.000
> 2020 05 03 17 08  0.0000000  0 14        .000000000000
G10  20921903.523 8 109945428.686 8      -175.902          51.000    20921905.977 8  85671774.725 8      -137.067          51.000
G16  22261841.531 8 116986790.554 8     -3113.805          48.000    22261841.047 7  91158487.107 7     -2426.341          44.000
G21  24979564.750 5 131268473.797 5     -2599.418          33.000
G27  20282695.375 8 106586283.019 8      -151.875          51.000    20282696.898 8  83054255.368 8      -118.344          51.000
R07  20514519.352 6 109815915.308 6       378.066          38.000    20514526.906 5  85412354.879 5       294.043          35.000
R08  21552132.898 8 115410723.830 8      3742.137          48.000    21552134.641 6  89763896.247 6      2910.554          36.000
R22  20423620.516 7 109022657.184 7     -1575.637          43.000    20423626.383 5  84795397.026 5     -1225.495          31.000
R23  20478189.609 5 109544499.869 5      1943.000          31.000
C05  39617317.047 5 206297765.945 5       -12.879          35.000    39617318.461 5 159522523.670 5       -10.288          35.000
C27  23958453.664 5 124757947.380 5     -2284.648          34.000
C30  21543021.656 8 112180164.956 8        31.930          51.000
E03  26504185.727 8 139280477.706 8      2690.320          49.000    26504187.430 7 106721366.120 7      2061.474          46.000
E15  23315654.125 5 122524588.204 5       532.074          34.000    23315656.891 5  93882490.081 5       407.747          34.000
E27  24964351.703 6 131188568.373 6     -1387.219          39.000    24964360.258 5 100521114.557 5     -1063.060          34.000
> 2020 05 03 17 08 30.0000000  0 14        .000000000000
G10  20922963.367 8 109950997.156 8      -195.469          51.000    20922965.883 8  85676113.797 8      -152.313          51.000
G16  22279649.391 7 117080372.708 7     -3125.047          47.000    22279648.883 7  91231408.210 7     -2435.101          45.000
G21  24994403.680 5 131346453.096 5     -2599.512          33.000
G27  20283604.805 8 106591061.681 8      -166.883          51.000    20283606.211 8  83057978.994 8      -130.039          51.000
R07  20512478.953 5 109804987.262 5       350.266          32.000    20512488.953 6  85403855.369 6       272.441          37.000
R08  21531207.250 8 115298667.765 8      3727.977          48.000    21531205.711 6  89676741.652 6      2899.540          36.000
R22  20432502.062 7 109070066.150 7     -1585.008          42.000    20432503.781 5  84832270.634 5     -1232.784          30.000
C05  39617392.484 5 206298158.600 5       -13.355          35.000    39617393.914 6 159522827.276 6       -10.566          36.000
C20  25262571.320 5 131548830.704 5      3400.418          33.000
C27  23971636.586 5 124826588.074 5     -2290.625          31.000
C30  21542864.523 8 112179346.298 8        22.445          51.000
E03  26488842.844 8 139199847.385 8      2684.777          50.000    26488843.945 8 106659584.550 8      2057.176          49.000
E15  23312633.492 5 122508706.956 5       527.039          34.000    23312635.305 6  93870321.363 6       403.171          37.000
E27  24972310.906 6 131230389.146 6     -1400.918          40.000    24972316.875 5 100553159.000 5     -1073.697          34.000
> 2020 05 03 17 09  0.0000000  0 14        .000000000000
G10  20924137.672 8 109957167.720 8      -213.863          51.000    20924140.266 8  85680922.050 8      -166.644          51.000
G16  22297524.781 7 117174311.340 7     -3135.246          47.000    22297524.945 7  91304607.110 7     -2443.052          44.000
G21  25009246.836 4 131424478.565 4     -2598.312          29.000
G27  20284603.500 8 106596309.622 8      -180.941          51.000    20284604.570 8  83062068.307 8      -140.990          51.000
R07  20510597.758 6 109794920.448 6       323.262          37.000    20510605.406 6  85396025.454 6       251.420          37.000
R08  21510365.188 8 115187058.361 8      3714.598          48.000    21510363.320 6  89589934.413 6      2889.135          40.000
R22  20441440.781 6 109117780.345 6     -1593.754          41.000    20441443.094 5  84869381.605 5     -1239.595          34.000
C05  39617475.133 5 206298588.695 5       -13.047          35.000    39617476.445 5 159523160.844 5       -10.161          35.000
C20  25242999.812 6 131446890.711 6      3397.250          37.000
C30  21542765.625 8 112178831.251 8        13.816          51.000
E03  26473535.641 8 139119404.619 8      2680.164          50.000    26473537.695 8 106597946.662 8      2053.617          51.000
E15  23309648.078 5 122493025.902 5       521.777          33.000    23309651.367 6  93858299.143 6       399.726          36.000
E27  24980352.734 6 131272642.084 6     -1413.773          39.000    24980352.305 5 100585534.546 5     -1083.413          34.000
E30  25685684.836 5 134979193.382 5     -3130.105          33.000    25685691.492 6 103425632.373 6     -2398.141          40.000
> 2020 05 03 17 09 30.0000000  0 14        .000000000000
G10  20925433.680 8 109963978.138 8      -229.156          51.000    20925436.148 8  85686228.873 8      -178.563          51.000
G16  22315474.625 7 117268642.390 7     -3142.473          46.000    22315475.977 7  91378111.820 7     -2448.680          44.000
G21  25024102.867 5 131502556.860 5     -2594.359          31.000
G27  20285698.852 8 106602065.733 8      -191.914          51.000    20285699.656 8  83066553.594 8      -149.543          51.000
R07  20508886.289 5 109785753.809 5       298.949          34.000    20508895.031 6  85388895.976 6       232.522          39.000
R08  21489614.312 8 115075939.413 8      3704.176          50.000    21489614.867 7  89503508.650 7      2881.029          44.000
R22  20450444.102 7 109165838.908 7     -1599.098          44.000    20450445.742 5  84906760.410 5     -1243.740          34.000
C05  39617572.195 5 206299094.087 5        -9.781          35.000    39617573.383 6 159523551.641 6        -7.772          36.000
C20  25223457.594 6 131345128.141 6      3397.262          38.000
C30  21542732.500 8 112178658.268 8         8.309          51.000
E03  26458271.594 8 139039189.692 8      2678.305          50.000    26458275.023 8 106536483.330 8      2052.187          51.000
E15  23306705.555 5 122477565.415 5       519.539          32.000    23306710.305 5  93846452.757 5       398.504          34.000
E27  24988481.406 5 131315364.232 5     -1423.090          35.000    24988478.820 6 100618269.702 6     -1090.779          37.000
E30  25703578.867 5 135073219.265 5     -3128.973          32.000    25703587.211 6 103497685.747 6     -2397.162          40.000
> 2020 05 03 17 10  0.0000000  0 12        .000000000000
G10  20926826.867 8 109971299.254 8      -254.605          51.000    20926829.188 8  85691933.659 8      -198.391          51.000
G16  22333474.578 7 117363234.574 7     -3159.406          46.000    22333476.672 7  91451820.005 7     -2461.875          45.000
G27  20286866.492 8 106608202.116 8      -212.977          51.000    20286867.500 8  83071335.194 8      -165.956          51.000
R07  20507319.133 5 109777357.811 5       265.203          35.000    20507325.383 6  85382365.583 6       206.260          39.000
R08  21468931.398 8 114965183.962 8      3683.656          49.000    21468933.711 7  89417365.576 7      2865.069          46.000
R22  20459487.672 6 109214111.119 6     -1614.895          38.000    20459488.758 5  84944305.451 5     -1256.032          35.000
C05  39617659.234 6 206299547.469 6       -16.367          36.000    39617660.305 6 159523901.199 6       -12.472          36.000
C20  25203923.867 6 131243417.776 6      3387.344          40.000
C30  21542740.750 8 112178700.561 8        -6.984          51.000
E03  26443026.500 8 138959076.058 8      2666.711          49.000    26443031.172 8 106475097.629 8      2043.312          51.000
E27  24996673.828 6 131358413.937 6     -1442.727          37.000    24996673.148 6 100651265.111 6     -1105.750          39.000
E30                                                                  25721483.438 6 103569744.049 6     -2403.466          40.000
> 2020 05 03 17 10 30.0000000  0 13        .000000000000
G10  20928308.625 8 109979086.275 8      -271.312          51.000    20928310.883 8  85698001.478 8      -211.409          51.000
G16  22351515.812 7 117458041.071 7     -3167.648          47.000    22351518.047 7  91525695.166 7     -2468.297          44.000
G20  22008034.234 5 115653000.251 5     -2415.844          31.000
G27  20288098.094 8 106614675.232 8      -225.371          51.000    20288099.422 8  83076379.170 8      -175.614          51.000
R07  20505900.797 5 109769704.669 5       239.281          32.000    20505892.539 6  85376399.229 6       186.108          41.000
R08  21448308.945 8 114854751.518 8      3671.543          49.000    21448312.531 8  89331473.737 8      2855.645          48.000
R22  20468561.688 6 109262551.924 6     -1621.637          39.000    20468564.375 5  84981981.564 5     -1261.270          35.000
C05  39617728.023 5 206299905.080 5       -14.105          35.000    39617728.969 6 159524176.719 6       -11.031          36.000
C20  25184392.977 6 131141718.235 6      3385.555          40.000
C30  21542782.023 8 112178914.875 8       -13.945          51.000
E03  26427792.750 8 138879021.602 8      2663.496          49.000    26427797.586 8 106413757.255 8      2040.828          51.000
E27  25004924.625 6 131401769.914 6     -1453.805          37.000    25004925.711 6 100684485.927 6     -1114.209          41.000
E30                                                                  25739371.844 6 103641771.980 6     -2403.577          40.000
> 2020 05 03 17 11  0.0000000  0 11        .000000000000
G10  20929922.336 8 109987566.530 8      -284.891          51.000    20929924.203 8  85704609.468 8      -221.990          51.000
G16  22369641.172 8 117553287.281 8     -3172.719          48.000    22369642.977 7  91599912.941 7     -2472.248          43.000
G27  20289437.336 8 106621713.623 8      -234.715          51.000    20289438.664 8  83081863.627 8      -182.892          51.000
R08  21427791.008 7 114744879.028 7      3662.562          46.000    21427795.148 7  89246017.351 7      2848.657          47.000
R22  20477711.148 6 109311392.691 6     -1625.211          40.000    20477715.438 5  85019968.744 5     -1264.056          35.000
C05  39617821.648 6 206300392.803 6        -9.070          36.000    39617822.703 6 159524553.864 6        -6.977          36.000
C20  25164908.086 6 131040257.566 6      3387.398          38.000
C30  21542899.531 8 112179527.644 8       -17.727          51.000
E03  26412613.734 7 138799256.293 7      2663.320          47.000    26412618.406 8 106352638.419 8      2040.807          51.000
E27  25013274.219 6 131445646.861 6     -1461.934          37.000    25013277.172 7 100718105.902 7     -1120.090          42.000
E30  25757290.578 5 135355473.171 5     -3133.117          30.000    25757295.852 6 103713942.666 6     -2400.706          39.000
> 2020 05 03 17 11 30.0000000  0 15        .000000000000
G10  20931602.273 8 109996395.359 8      -281.586          51.000    20931604.133 8  85711489.093 8      -219.418          51.000
G16  22387784.438 8 117648626.346 8     -3160.977          49.000    22387785.656 7  91674203.078 7     -2463.099          43.000
G20  22035761.023 5 115798680.860 5     -2413.312          32.000
G27  20290818.852 8 106628973.898 8      -227.094          51.000    20290819.859 8  83087520.994 8      -176.956          51.000
R07  20503489.195 5 109756787.019 5       212.227          34.000    20503497.328 7  85366414.748 7       165.071          42.000
R08  21407312.438 7 114635219.677 7      3670.695          47.000    21407316.586 7  89160726.700 7      2854.982          47.000
R22  20486869.305 6 109360284.204 6     -1611.695          36.000    20486872.469 4  85057995.427 4     -1253.541          29.000
C05  39617874.883 5 206300669.917 5        12.273          35.000    39617876.031 6 159524769.109 6         9.986          36.000
C20  25145404.070 5 130938697.131 5      3405.527          35.000
C27  24051394.562 5 125241924.539 5     -2295.102          33.000
C30  21543027.969 8 112180198.567 8        -4.934          51.000
E03  26397423.680 7 138719438.124 7      2680.191          44.000    26397428.789 8 106291479.051 8      2053.665          50.000
E15  23295146.945 5 122416822.817 5       522.559          34.000    23295145.953 6  93799899.362 6       400.022          37.000
E27  25021656.625 6 131489699.472 6     -1452.688          36.000    25021661.797 6 100751860.502 6     -1113.098          41.000
E30  25775183.445 5 135449502.647 5     -3113.215          31.000    25775190.133 6 103785991.159 6     -2385.226          37.000
> 2020 05 03 17 12  0.0000000  0 15        .000000000000
G10  20933402.117 8 110005853.922 8      -347.930          51.000    20933403.930 8  85718859.415 8      -271.114          51.000
G16  22405998.484 8 117744337.826 8     -3218.664          50.000    22405999.578 7  91748783.408 7     -2508.053          44.000
G27  20292296.359 8 106636738.485 8      -289.371          51.000    20292297.141 8  83093571.321 8      -225.484          51.000
G32  24670211.945 6 129642846.575 6      2989.098          40.000    24670217.383 6 101020416.308 6      2329.170          40.000
R07  20502523.641 6 109751579.070 6       135.996          36.000    20502523.930 6  85362364.003 6       105.769          41.000
R08  21386929.148 8 114526065.297 8      3607.402          50.000    21386932.242 7  89075828.873 7      2805.757          45.000
R22  20496091.312 6 109409512.432 6     -1669.324          39.000    20496094.758 5  85096308.101 5     -1298.363          31.000
C05  39617941.211 6 206301015.556 6       -34.582          36.000    39617942.352 5 159525036.391 5       -26.656          35.000
C20  25125935.297 5 130837318.506 5      3353.781          34.000
C27  24064772.562 4 125311588.120 4     -2348.734          29.000
C30  21543221.469 8 112181207.421 8       -61.289          50.000
E03  26382276.109 6 138639851.058 6      2626.832          41.000    26382283.883 8 106230496.764 8      2012.779          50.000
E15  23292323.047 5 122401976.503 5       469.098          34.000    23292319.125 6  93788516.623 6       359.579          37.000
E27  25030125.844 5 131534208.301 5     -1513.812          34.000    25030132.367 6 100785964.687 6     -1159.758          41.000
E30  25793098.875 5 135543651.521 5     -3162.793          34.000    25793107.883 5 103858131.854 5     -2423.175          35.000
> 2020 05 03 17 12 30.0000000  0 15        .000000000000
G10  20935380.445 8 110016250.476 8      -344.859          51.000    20935382.234 8  85726960.631 8      -268.722          51.000
G16  22424341.438 8 117840727.603 8     -3206.957          50.000    22424342.625 7  91823892.268 7     -2498.928          44.000
G20  22063768.188 5 115945883.449 5     -2464.223          30.000
G27  20293928.711 8 106645316.943 8      -282.172          51.000    20293929.594 8  83100255.820 8      -219.874          51.000
G32  24653088.680 5 129552867.125 5      3010.000          35.000    24653092.984 5 100950302.553 5      2345.458          35.000
R08  21366699.805 8 114417734.926 8      3614.859          51.000    21366701.609 7  88991571.986 7      2811.557          44.000
R22  20505434.383 5 109459391.338 5     -1655.684          34.000    20505439.656 5  85135102.631 5     -1287.763          30.000
C05  39618079.578 5 206301736.012 5       -13.070          35.000    39618080.703 6 159525593.491 6       -10.116          36.000
C20  25106561.297 5 130736429.975 5      3371.344          32.000
C27  24078243.258 4 125381728.800 4     -2330.586          29.000
C30  21543538.859 8 112182860.933 8       -48.691          50.000
E03  26367232.383 7 138560806.031 7      2643.039          42.000    26367242.555 8 106169929.791 8      2025.165          51.000
E15                                                                  23289591.906 6  93777541.008 6       372.273          36.000
E27  25038742.812 5 131579479.092 5     -1504.434          32.000    25038747.109 6 100820654.259 6     -1153.011          40.000
E30  25811096.328 5 135638228.678 5     -3142.379          35.000    25811105.406 5 103930600.066 5     -2407.614          33.000
> 2020 05 03 17 13  0.0000000  0 16        .000000000000
G10  20937390.719 8 110026814.445 8      -365.559          51.000    20937392.727 8  85735192.311 8      -284.851          51.000
G16  22442666.305 8 117937023.185 8     -3218.887          50.000    22442667.234 7  91898927.744 7     -2508.223          44.000
G26  24651361.789 5 129543780.078 5     -3713.922          30.000
G27  20295569.648 8 106653939.989 8      -298.852          51.000    20295570.961 8  83106975.059 8      -232.871          51.000
G32  24635899.953 6 129462535.498 6      3006.363          39.000    24635902.016 6 100879914.424 6      2342.624          41.000
R07  20501108.984 6 109744037.406 6       100.980          37.000    20501110.914 6  85356495.994 6        78.531          40.000
R08  21346478.375 8 114309448.080 8      3597.887          50.000    21346478.852 7  88907348.963 7      2798.359          43.000
R22  20514753.578 6 109509138.803 6     -1667.047          38.000    20514758.086 5  85173795.132 5     -1296.595          31.000
R23  20371346.883 4 108973030.378 4      1865.949          29.000
C05  39618143.531 5 206302069.366 5       -15.258          35.000    39618144.656 5 159525850.497 5       -11.889          35.000
C20  25087134.914 5 130635270.952 5      3365.781          31.000
C30  21543833.664 8 112184396.762 8       -59.715          49.000
E03  26352147.578 7 138481535.037 7      2635.641          45.000    26352158.297 8 106109189.759 8      2019.388          51.000
E15  23286817.266 5 122373053.550 5       478.875          33.000    23286818.297 5  93766382.639 5       366.846          34.000
E27  25047358.102 5 131624748.764 5     -1519.316          34.000    25047359.758 6 100855338.269 6     -1164.011          40.000
E30  25829028.188 5 135732461.482 5     -3146.051          34.000    25829037.570 5 104002830.353 5     -2410.946          30.000
> 2020 05 03 17 13 30.0000000  0 14        .000000000000
G10  20939531.648 8 110038064.711 8      -380.895          51.000    20939533.656 8  85743958.768 8      -296.798          51.000
G16  22461071.297 8 118033741.525 8     -3225.449          49.000    22461072.023 7  91974292.658 7     -2513.337          44.000
G27  20297318.172 8 106663127.762 8      -310.227          51.000    20297319.508 8  83114134.346 8      -241.738          51.000
G32  24618743.602 7 129372374.187 7      3008.082          43.000    24618745.227 7 100809659.053 7      2343.966          43.000
R08  21326363.969 8 114201738.767 8      3586.336          48.000    21326364.422 7  88823575.119 7      2789.375          43.000
R22  20524146.602 6 109559282.718 6     -1672.699          36.000    20524153.062 5  85212795.835 5     -1300.991          33.000
C05  39618231.539 5 206302528.571 5       -11.828          35.000    39618232.906 5 159526206.567 5        -9.125          35.000
C20  25067755.695 4 130534358.692 4      3365.301          28.000
C27  24105174.062 5 125521979.320 5     -2339.746          31.000
C30  21544204.992 8 112186330.348 8       -65.562          49.000
E03  26337120.250 8 138402559.834 8      2633.039          49.000    26337129.625 8 106048676.351 8      2017.535          49.000
E15  23284098.062 6 122358771.916 6       476.977          36.000    23284098.508 5  93755439.573 5       365.057          33.000
E27  25056066.469 5 131670516.688 5     -1528.684          33.000    25056068.078 6 100890413.998 6     -1171.592          39.000
E30  25846992.969 5 135826864.653 5     -3144.242          33.000
> 2020 05 03 17 14  0.0000000  0 12        .000000000000
G10  20941773.797 8 110049846.765 8      -400.391          51.000    20941775.797 8  85753139.602 8      -311.993          51.000
G16  22479526.836 8 118130726.322 8     -3235.980          50.000    22479527.297 7  92049865.196 7     -2521.543          43.000
G27  20299144.930 8 106672727.121 8      -325.660          51.000    20299146.109 8  83121614.336 8      -253.761          51.000
G32  24601590.969 7 129282232.557 7      3005.480          44.000    24601593.422 7 100739418.966 7      2341.936          45.000
R07  20500283.773 5 109739590.647 5        48.031          33.000    20500282.789 5  85353028.009 5        37.349          35.000
R08  21306327.656 7 114094454.895 7      3570.336          46.000    21306330.055 7  88740132.108 7      2776.928          44.000
R22  20533585.312 6 109609666.554 6     -1682.129          38.000    20533591.211 5  85251983.128 5     -1308.326          33.000
C05  39618314.742 5 206302961.199 5       -12.441          35.000    39618316.266 5 159526541.916 5       -10.197          35.000
C30  21544623.602 8 112188509.861 8       -75.539          49.000
E03  26322120.484 8 138323728.657 8      2626.383          50.000    26322127.914 8 105988273.326 8      2012.489          48.000
E15  23281404.070 5 122344617.637 5       471.023          35.000    23281403.508 5  93744594.041 5       360.651          33.000
E27  25064843.914 6 131716649.723 6     -1542.512          37.000    25064845.172 6 100925762.589 6     -1181.919          40.000
> 2020 05 03 17 14 30.0000000  0 11        .000000000000
G10  20944117.867 8 110062164.080 8      -421.141          51.000    20944119.844 8  85762737.522 8      -328.162          51.000
G16  22498033.242 8 118227979.037 8     -3247.793          49.000    22498033.453 7  92125646.471 7     -2530.751          43.000
G27  20301050.906 8 106682742.808 8      -342.391          51.000    20301051.883 8  83129418.746 8      -266.798          51.000
G32  24584442.938 7 129192117.690 7      3001.777          43.000    24584446.781 7 100669199.720 7      2339.053          43.000
R08  21286373.852 7 113987604.877 7      3552.770          47.000    21286377.156 7  88657026.548 7      2763.268          45.000
R22  20543070.500 6 109660294.792 6     -1693.492          36.000    20543072.086 5  85291360.741 5     -1317.158          33.000
C05  39618393.852 5 206303373.681 5       -15.105          35.000    39618395.367 6 159526860.826 6       -11.270          36.000
C30  21545090.469 8 112190940.077 8       -86.766          49.000
E03  26307149.250 8 138245047.764 8      2618.559          51.000    26307154.797 7 105927985.487 7      2006.434          47.000
E15  23278735.828 5 122330594.788 5       463.488          35.000    23278735.086 5  93733849.296 5       355.290          35.000
E27  25073691.844 6 131763141.761 6     -1557.742          39.000    25073691.352 6 100961386.383 6     -1193.451          41.000
> 2020 05 03 17 15  0.0000000  0 13        .000000000000
G10  20946570.922 8 110075054.295 8      -438.520          51.000    20946572.961 8  85772781.849 8      -341.704          51.000
G16  22516597.234 8 118325535.393 8     -3256.156          48.000    22516597.156 7  92201664.368 7     -2537.268          43.000
G20  22135017.477 5 116320301.642 5     -2525.965          31.000
G27  20303043.547 8 106693213.815 8      -355.914          51.000    20303044.070 8  83137577.952 8      -277.336          51.000
G32  24567307.555 7 129102071.112 7      3001.043          42.000    24567312.523 7 100599033.638 7      2338.478          43.000
R07  20500062.188 6 109738418.197 6        -7.938          38.000    20500065.734 6  85352116.742 6        -6.177          37.000
R08  21266510.117 8 113881232.142 8      3538.457          50.000    21266513.242 7  88574292.260 7      2752.136          45.000
R22  20552608.719 6 109711206.270 6     -1700.918          40.000    20552610.094 5  85330958.509 5     -1322.933          35.000
C05  39618476.312 6 206303802.960 6       -13.500          36.000    39618477.758 6 159527192.815 6       -10.669          36.000
C30  21545613.047 8 112193659.608 8       -94.785          49.000
E03  26292214.070 8 138166557.590 8      2613.914          50.000    26292218.641 8 105867843.765 8      2002.761          48.000
E15  23276100.797 6 122316730.908 6       459.234          36.000    23276100.523 6  93723234.738 6       352.318          36.000
E27  25082615.969 7 131810029.986 7     -1568.812          43.000    25082614.695 6 100997313.721 6     -1201.930          41.000
> 2020 05 03 17 15 30.0000000  0 13        .000000000000
G10  20949129.445 8 110088499.105 8      -457.680          51.000    20949131.406 8  85783258.335 8      -356.634          51.000
G16  22535214.867 7 118423375.129 7     -3266.340          47.000    22535214.672 7  92277903.085 7     -2545.200          43.000
G27  20305119.609 8 106704123.192 8      -371.105          51.000    20305119.883 8  83146078.757 8      -289.173          51.000
G32  24550181.836 6 129012078.266 6      2998.539          41.000    24550188.039 6 100528909.424 6      2336.527          41.000
R07  20500192.094 6 109739078.450 6       -36.012          36.000    20500185.953 6  85352630.175 6       -28.012          37.000
R08  21246733.086 8 113775322.974 8      3522.254          51.000    21246735.914 7  88491918.546 7      2739.534          46.000
R22  20562195.828 6 109762383.498 6     -1710.758          37.000    20562199.039 6  85370762.902 6     -1330.589          37.000
R23  20319490.961 4 108695574.241 4      1829.133          28.000
C05  39618558.742 6 206304230.832 6       -14.219          36.000    39618560.180 5 159527524.444 5       -11.249          35.000
C30  21546187.859 8 112196651.678 8      -104.461          49.000
E03  26277311.672 8 138088242.640 8      2607.246          49.000    26277316.281 8 105807836.258 8      1997.808          49.000
E15  23273494.969 6 122303030.436 6       453.707          38.000    23273495.484 6  93712737.009 6       347.972          37.000
E27  25091612.656 7 131857295.684 7     -1582.004          44.000    25091610.094 7 101033530.258 7     -1212.017          42.000
> 2020 05 03 17 16  0.0000000  0 13        .000000000000
G10  20951787.297 8 110102466.176 8      -473.363          51.000    20951789.188 8  85794141.765 8      -368.855          51.000
G16  22553880.047 8 118521464.346 8     -3273.008          48.000    22553879.820 7  92354336.187 7     -2550.399          42.000
G27  20307273.203 8 106715439.941 8      -383.262          51.000    20307273.734 8  83154896.980 8      -298.645          51.000
G32  24533061.195 7 128922110.562 7      2999.180          42.000    24533067.633 7 100458804.818 7      2337.026          42.000
R07  20500458.641 6 109740532.227 6       -60.805          37.000    20500459.766 6  85353760.992 6       -47.293          38.000
R08  21227037.570 8 113669850.011 8      3509.293          51.000    21227039.977 7  88409884.086 7      2729.453          46.000
R22  20571827.453 6 109813793.911 6     -1716.824          40.000    20571830.492 6  85410748.795 6     -1335.305          37.000
R23  20309256.828 5 108640759.343 5      1825.219          32.000
C05  39618635.086 5 206304629.033 5       -11.832          35.000    39618636.312 6 159527831.585 6        -9.216          36.000
C30  21546809.102 8 112199885.597 8      -110.953          50.000
E03  26262436.172 8 138010073.387 8      2604.117          48.000    26262441.320 8 105747940.386 8      1995.374          50.000
E15  23270911.172 6 122289450.957 6       451.035          36.000    23270912.391 6  93702331.944 6       345.990          37.000
E27  25100674.609 7 131904905.985 7     -1591.750          44.000    25100671.125 7 101070010.823 7     -1219.677          42.000
> 2020 05 03 17 16 30.0000000  0 12        .000000000000
G10  20954564.953 8 110117063.264 8      -495.680          51.000    20954566.883 8  85805516.128 8      -386.244          51.000
G16  22572613.500 8 118619908.847 8     -3286.082          50.000    22572612.992 7  92431046.138 7     -2560.583          43.000
G27  20309525.133 8 106727273.175 8      -401.664          51.000    20309525.836 8  83164117.655 8      -312.985          51.000
G32  24515966.867 7 128832279.598 7      2993.309          42.000    24515973.156 7 100388806.770 7      2332.451          42.000
R07  20500900.094 6 109742890.451 6       -92.246          37.000    20500897.930 6  85355595.130 6       -71.747          38.000
R08  21207444.797 8 113564927.786 8      3489.648          51.000    21207446.648 7  88328277.960 7      2714.171          45.000
R22  20581522.859 5 109865548.228 5     -1729.570          34.000    20581525.062 6  85451002.149 6     -1345.227          37.000
C05  39618725.984 5 206305102.182 5       -15.684          35.000    39618727.227 6 159528196.433 6       -11.895          36.000
C30  21547497.375 8 112203469.538 8      -123.898          50.000
E03  26247609.516 8 137932160.492 8      2594.184          49.000    26247615.008 8 105688240.926 8      1987.736          51.000
E15  23268369.461 5 122276107.916 5       442.539          33.000    23268372.242 6  93692102.738 6       339.211          37.000
E27  25109821.750 7 131952968.129 7     -1608.293          43.000    25109818.141 7 101106837.587 7     -1232.307          43.000
> 2020 05 03 17 17  0.0000000  0 13        .000000000000
G10  20957442.109 8 110132183.112 8      -512.914          51.000    20957443.719 8  85817297.824 8      -399.673          51.000
G16  22591394.203 8 118718599.335 8     -3293.957          51.000    22591393.039 7  92507947.760 7     -2566.723          44.000
G27  20311855.234 8 106739516.987 8      -415.195          51.000    20311855.922 8  83173658.274 8      -323.529          51.000
G32  24498879.039 7 128742482.019 7      2992.176          44.000    24498884.602 7 100318834.750 7      2331.569          44.000
R07  20501489.617 5 109746044.614 5      -118.445          35.000    20501488.367 6  85358048.457 6       -92.118          39.000
R08  21187934.922 8 113460452.298 8      3474.785          50.000    21187936.195 7  88247019.320 7      2702.611          44.000
R22  20591261.570 6 109917538.205 6     -1737.238          38.000    20591265.531 6  85491438.759 6     -1351.185          37.000
