     3.02           OBSERVATION DATA    M (MIXED)           RINEX VERSION / TYPE
SAVERINEX           SC600               20200507 035930 LCL PGM / RUN BY / DATE
       G = GPS       R = GLONASS       C = COMPASS          COMMENT
       S = SBAS      J = QZSS          E = GALILEO          COMMENT
BEAN                                                        MARKER NAME
1                                                           MARKER NUMBER
GEODETIC                                                    MARKER TYPE
Unige DICCA         GTER                                    OBSERVER / AGENCY
SC60291900056       SC600               2.12(191226)        REC # / TYPE / VERS
                    HEMA45          NONE                    ANT # / TYPE
  4509407.8091   693652.4678  4442337.6214                  APPROX POSITION XYZ
        0.0000        0.0000        0.0000                  ANTENNA: DELTA H/E/N
G    8 C1C L1C D1C S1C C2Y L2Y D2Y S2Y                      SYS / # / OBS TYPES
R    8 C1C L1C D1C S1C C2P L2P D2P S2P                      SYS / # / OBS TYPES
C    8 C1I L1I D1I S1I C7I L7I D7I S7I                      SYS / # / OBS TYPES
E    8 C1C L1C D1C S1C C7Q L7Q D7Q S7Q                      SYS / # / OBS TYPES
DBHZ                                                        COMMENT
     30.000                                                 INTERVAL
  2020    05    07    01    00    0.0000000     GPS         TIME OF FIRST OBS
  2020    05    07    01    59   30.0000000     GPS         TIME OF LAST OBS
     0                                                      RCV CLOCK OFFS APPL
G L1C  0.00000                                              SYS / PHASE SHIFT
G L2Y  0.00000                                              SYS / PHASE SHIFT
R L1C  0.00000                                              SYS / PHASE SHIFT
R L2P  0.25000                                              SYS / PHASE SHIFT
C L1I  0.00000                                              SYS / PHASE SHIFT
C L7I  0.00000                                              SYS / PHASE SHIFT
E L1C  0.50000                                              SYS / PHASE SHIFT
E L7Q -0.25000                                              SYS / PHASE SHIFT
 13 R04  6 R05  1 R06 -4 R07  5 R09 -2 R10 -7 R14 -7 R15  0 GLONASS SLOT / FRQ #
    R16 -1 R19  3 R20  2 R21  4 R22 -3                      GLONASS SLOT / FRQ #
 C1C   71.950 C2C   71.950 C2P   71.950                     GLONASS COD/PHS/BIS
    18                                                      LEAP SECONDS
*** Above antenna height is from mark to ANTENNA BOTTOM.    COMMENT
    17     4        0.0000        ANT MEASURE TYPE/HEIGT    COMMENT
    0.0000    0.0000    0.0458    0.0405    0.0000          COMMENT
                    BASE STATION                            COMMENT
                                                            END OF HEADER
> 2020 05 07 01 00  0.0000000  0 16        .000000000000
G04  22716199.703 5 119374441.053 5     -2722.879          33.000
G06  21489371.141 8 112927410.141 8     -1686.422          51.000    21489371.875 8  87995368.946 8     -1314.095          51.000
G07  21316229.836 8 112017528.759 8      1728.176          51.000    21316229.523 8  87286384.508 8      1346.630          51.000
G09  20615987.617 8 108337855.824 8     -1181.203          51.000    20615988.664 8  84419063.365 8      -920.418          51.000
G30  22972529.281 7 120721466.601 7      3361.680          44.000    22972536.117 7  94068693.568 7      2619.491          44.000
R06  20203610.891 4 107810354.298 4     -1523.824          28.000
R09  21965654.750 8 117295355.858 8      4061.559          48.000    21965656.516 8  91229723.247 8      3158.990          51.000
R16  20363515.094 5 108778221.758 5       -83.320          32.000    20363518.578 5  84605306.114 5       -64.802          33.000
R22  21662417.883 5 115635476.762 5     -2521.660          32.000
C05  39774838.453 6 207118020.051 6       -17.871          36.000    39774835.430 6 160156776.762 6       -13.759          38.000
C23  22966022.422 8 119590075.099 8      1598.703          49.000
C25  23937215.922 6 124647349.497 6     -1461.352          36.000
C30  25595292.180 6 133281441.320 6     -2637.219          40.000
E21  27226765.891 6 143077622.030 6      3059.742          40.000    27226767.273 6 109630910.503 6      2344.436          41.000
E30  25932800.391 6 136277793.070 6     -1163.391          37.000    25932797.352 6 104420626.625 6      -891.411          40.000
E33  26307143.633 6 138245048.757 6     -2898.770          39.000    26307147.781 6 105927973.018 6     -2220.848          38.000
> 2020 05 07 01 00 30.0000000  0 16        .000000000000
G06  21499066.594 8 112978357.260 8     -1707.422          51.000    21499067.336 8  88035067.974 8     -1330.459          51.000
G07  21306423.828 8 111965997.486 8      1709.875          51.000    21306423.469 8  87246230.276 8      1332.370          51.000
G09  20622776.922 8 108373533.612 8     -1194.586          51.000    20622777.977 8  84446864.247 8      -930.846          51.000
G30  22953376.102 7 120620814.882 7      3351.000          47.000    22953382.445 7  93990263.640 7      2611.169          46.000
R06  20212220.867 4 107856271.657 4     -1537.176          29.000
R07  20080950.719 5 107494878.491 5      1449.652          32.000
R09  21942881.094 7 117173746.500 7      4048.445          47.000    21942883.508 8  91135138.169 8      3148.791          51.000
R16  20364076.172 5 108781230.659 5      -114.941          35.000    20364078.250 5  84607646.342 5       -89.399          33.000
R22  21676678.438 6 115711533.880 6     -2545.711          40.000
C05  39774957.602 6 207118640.461 6       -20.770          36.000    39774954.531 6 160157256.498 6       -15.982          38.000
C23  22956871.203 8 119542423.123 8      1580.645          50.000
C25  23945705.062 5 124691510.029 5     -1480.078          31.000
C30  25610515.445 6 133360714.609 6     -2645.574          39.000
E21  27209319.797 6 142985942.556 6      3054.895          41.000    27209321.461 7 109560662.560 7      2340.802          42.000
E30  25939496.516 6 136312987.084 6     -1180.047          37.000    25939495.469 6 104447593.505 6      -904.425          40.000
E33  26323725.523 6 138332179.503 6     -2907.172          39.000    26323726.844 6 105994735.536 6     -2227.349          37.000
> 2020 05 07 01 01  0.0000000  0 15        .000000000000
G04  22747360.711 5 119538155.835 5     -2729.727          32.000
G06  21508852.648 8 113029782.147 8     -1719.734          51.000    21508853.664 8  88075139.320 8     -1340.053          51.000
G07  21296692.641 8 111914858.970 8      1700.383          51.000    21296691.875 8  87206382.074 8      1324.974          51.000
G09  20629613.172 8 108409457.902 8     -1199.305          51.000    20629614.203 8  84474857.198 8      -934.523          51.000
G30  22934255.016 8 120520329.569 8      3348.941          48.000    22934260.180 8  93911963.428 8      2609.565          48.000
R06  20220880.930 5 107902471.630 5     -1541.125          31.000
R09  21920151.625 7 117052375.824 7      4044.129          46.000    21920154.805 8  91040738.688 8      3145.431          51.000
R16  20364787.602 5 108785026.820 5      -137.387          33.000    20364789.508 6  84610598.811 6      -106.856          36.000
R22  21691030.336 6 115788145.353 6     -2560.551          41.000    21691034.242 5  90057483.673 5     -1991.543          31.000
C05  39775065.164 6 207119201.172 6       -14.973          36.000    39775062.242 6 160157690.089 6       -12.055          38.000
C23  22947795.266 8 119495160.537 8      1571.145          50.000
C30  25625756.266 6 133440079.284 6     -2644.809          39.000
E21  27191873.398 7 142894259.135 7      3058.414          42.000    27191874.969 7 109490411.635 7      2343.472          43.000
E30  25946258.641 6 136348531.010 6     -1188.395          38.000    25946259.344 6 104474828.423 6      -910.393          39.000
E33  26340327.102 6 138419409.179 6     -2906.953          40.000    26340322.594 6 106061573.837 6     -2227.463          36.000
> 2020 05 07 01 01 30.0000000  0 15        .000000000000
G06  21518749.594 8 113081792.144 8     -1747.523          50.000    21518750.812 8  88115666.611 8     -1361.704          50.000
G07  21287056.930 8 111864223.024 8      1675.441          51.000    21287055.883 8  87166925.510 8      1305.539          51.000
G09  20636516.938 8 108445736.914 8     -1219.180          51.000    20636517.891 8  84503126.540 8      -950.010          51.000
G30  22915186.945 8 120420122.086 8      3331.574          48.000    22915188.406 7  93833879.760 7      2596.035          43.000
R06  20229606.273 4 107949030.331 4     -1561.926          29.000
R09  21897488.117 7 116931358.916 7      4024.105          46.000    21897492.164 8  90946614.384 8      3129.860          49.000
R16  20365666.297 5 108789720.710 5      -175.637          34.000    20365668.648 5  84614249.695 5      -136.609          35.000
R22  21705504.711 7 115865417.439 7     -2590.867          42.000    21705504.398 5  90117584.016 5     -2015.128          32.000
C05  39775182.055 6 207119810.340 6       -25.078          36.000    39775179.188 6 160158161.129 6       -19.416          38.000
C23  22938814.852 8 119448396.819 8      1546.422          50.000
C25  23962873.422 4 124780968.382 4     -1513.934          28.000
C30  25641034.922 6 133519641.016 6     -2659.199          39.000
E21  27174447.445 7 142802682.993 7      3046.684          42.000    27174449.211 7 109420242.913 7      2334.400          44.000
E30  25953108.188 6 136384532.955 6     -1211.703          39.000    25953109.562 6 104502414.290 6      -928.457          38.000
E33  26356968.391 6 138506844.982 6     -2922.320          40.000    26356956.172 5 106128570.040 5     -2239.348          34.000
> 2020 05 07 01 02  0.0000000  0 14        .000000000000
G06  21528745.352 8 113134320.711 8     -1754.211          50.000    21528746.789 8  88156597.976 8     -1366.918          50.000
G07  21277504.703 8 111814025.740 8      1671.258          51.000    21277503.539 8  87127810.757 8      1302.279          51.000
G09  20643475.695 8 108482304.989 8     -1218.387          51.000    20643476.500 8  84531621.136 8      -949.392          51.000
G30  22896159.695 7 120320130.056 7      3334.750          45.000    22896155.164 7  93755964.021 7      2598.510          44.000
R06  20238381.539 5 107995907.146 5     -1559.887          31.000
R09  21874880.016 7 116810634.127 7      4024.672          47.000    21874883.516 7  90852717.363 7      3130.300          44.000
R16  20366700.789 5 108795246.498 5      -193.586          31.000    20366701.945 5  84618547.580 5      -150.564          35.000
R22  21720089.828 7 115943280.382 7     -2599.852          43.000    21720087.914 5  90178143.990 5     -2022.107          32.000
C05  39775296.047 6 207120402.923 6       -14.102          36.000    39775293.203 6 160158620.120 6       -10.768          38.000
C23  22929918.258 8 119402069.315 8      1542.242          51.000
C30  25656338.930 6 133599333.094 6     -2653.238          39.000
E21  27157030.008 7 142711151.509 7      3055.785          42.000    27157032.250 7 109350108.407 7      2341.341          44.000
E30  25960033.008 6 136420927.335 6     -1214.469          39.000    25960034.703 6 104530300.833 6      -930.492          37.000
E33  26373636.219 6 138594420.135 6     -2916.070          40.000    26373617.234 5 106195629.049 5     -2234.802          32.000
> 2020 05 07 01 02 30.0000000  0 15        .000000000000
G06  21538832.359 8 113187327.705 8     -1777.031          50.000    21538834.156 8  88197902.125 8     -1384.700          51.000
G07  21268028.930 8 111764229.976 8      1651.043          51.000    21268027.859 8  87089008.873 8      1286.527          51.000
G09  20650481.898 8 108519122.904 8     -1233.539          51.000    20650482.641 8  84560310.409 8      -961.199          51.000
G30  22877165.742 6 120220317.452 6      3321.902          40.000    22877160.391 6  93678188.002 6      2588.495          40.000
R06  20247211.812 5 108042987.328 5     -1576.762          32.000
R09  21852320.734 7 116690167.194 7      4009.047          46.000    21852320.766 6  90759021.034 6      3118.154          41.000
R16  20367883.930 5 108801564.719 5      -226.016          34.000    20367884.688 6  84623461.744 6      -175.793          36.000
R22  21734777.477 7 116021691.707 7     -2625.145          42.000    21734777.234 5  90239130.473 5     -2041.785          30.000
C05  39775399.750 6 207120943.022 6       -19.066          36.000    39775396.922 6 160159037.774 6       -14.879          38.000
C23  22921098.828 8 119356141.543 8      1522.129          51.000
C25  23980424.359 5 124872349.084 5     -1537.398          31.000
C30  25671660.781 6 133679115.070 6     -2662.812          41.000
E21  27139613.922 6 142619628.469 6      3048.496          41.000    27139616.938 7 109279980.358 7      2335.789          44.000
E30  25967025.500 6 136457674.866 6     -1232.699          38.000    25967027.938 6 104558458.019 6      -944.886          37.000
E33  26390322.188 6 138682094.415 6     -2926.031          40.000    26390299.117 5 106262802.943 5     -2241.952          32.000
> 2020 05 07 01 03  0.0000000  0 16        .000000000000
G04  22809941.008 5 119867048.709 5     -2749.203          34.000
G06  21549030.289 8 113240918.593 8     -1794.832          50.000    21549032.570 8  88239661.224 8     -1398.573          49.000
G07  21258650.273 8 111714944.633 8      1635.504          51.000    21258649.227 8  87050604.716 8      1274.419          51.000
G09  20657555.891 8 108556297.082 8     -1243.867          51.000    20657556.766 8  84589277.304 8      -969.247          51.000
G30  22858224.891 6 120120793.924 6      3313.805          40.000    22858223.180 6  93600637.146 6      2582.182          40.000
R06  20256110.547 5 108090458.391 5     -1587.672          31.000
R07  20040901.594 4 107280514.254 4      1406.105          28.000
R09  21829830.906 7 116570071.455 7      3998.301          45.000    21829831.531 7  90665613.316 7      3109.793          46.000
R16  20369235.219 5 108808784.335 5      -254.266          31.000    20369237.078 6  84629077.105 6      -197.759          36.000
R22  21749586.555 6 116100756.203 6     -2644.715          38.000    21749596.578 4  90300605.238 4     -2056.997          28.000
C05  39775513.711 5 207121536.171 5       -19.832          35.000    39775510.805 6 160159496.414 6       -15.175          38.000
C23  22912376.781 8 119310721.161 8      1506.777          51.000
C30  25687020.258 7 133759090.868 7     -2667.887          42.000
E21  27122219.758 6 142528223.291 6      3045.977          41.000    27122223.977 7 109209942.613 7      2333.852          44.000
E30  25974105.414 6 136494881.977 6     -1246.980          36.000    25974108.586 6 104586967.341 6      -955.338          37.000
E33  26407046.016 6 138769973.155 6     -2931.660          39.000    26407021.656 5 106330132.562 5     -2246.220          31.000
> 2020 05 07 01 03 30.0000000  0 15        .000000000000
G06  21559319.305 8 113294989.167 8     -1815.383          49.000    21559321.609 8  88281794.125 8     -1414.584          49.000
G07  21249349.430 8 111666068.641 8      1617.402          51.000    21249348.508 8  87012519.509 8      1260.310          51.000
G09  20664678.062 8 108593724.278 8     -1256.707          51.000    20664679.062 8  84618441.349 8      -979.252          51.000
G30  22839321.406 7 120021459.358 7      3302.863          43.000    22839322.109 7  93523233.549 7      2573.660          43.000
R06  20265055.500 5 108138189.520 5     -1601.352          31.000
R09  21807391.812 7 116450247.008 7      3984.414          45.000    21807394.141 8  90572416.469 8      3098.986          49.000
R16  20370735.766 5 108816801.536 5      -285.980          35.000    20370737.672 6  84635312.720 6      -222.429          36.000
R22  21764496.984 6 116180366.097 6     -2667.645          38.000    21764515.023 4  90362523.687 4     -2074.826          29.000
C05  39775618.336 6 207122081.907 6       -22.387          36.000    39775615.398 6 160159917.630 6       -17.169          38.000
C23  22903733.023 8 119265708.280 8      1488.730          51.000
C25  23998329.672 5 124965573.844 5     -1570.195          32.000
C30  25702396.992 7 133839156.563 7     -2675.352          42.000
E21  27104828.664 7 142436835.779 7      3040.996          43.000    27104833.984 7 109139918.390 7      2330.039          43.000
E30  25981253.102 6 136532445.448 6     -1263.180          36.000    25981256.844 6 104615749.742 6      -967.663          37.000
E33  26423787.641 6 138857952.109 6     -2939.449          36.000    26423799.672 5 106397678.278 5     -2252.135          33.000
> 2020 05 07 01 04  0.0000000  0 15        .000000000000
G06  21569723.539 8 113349665.866 8     -1831.215          48.000    21569725.797 8  88324399.335 8     -1426.921          48.000
G07  21240150.719 8 111617731.067 8      1603.695          49.000    21240150.492 8  86974853.869 8      1249.633          49.000
G09  20671872.594 8 108631531.939 8     -1265.078          51.000    20671873.617 8  84647901.868 8      -985.775          51.000
G30  22820479.836 7 119922444.344 7      3296.531          44.000    22820481.172 7  93446078.981 7      2568.726          45.000
R06  20274072.117 6 108186310.884 6     -1608.867          36.000
R09  21785028.859 7 116330828.905 7      3975.387          47.000    21785032.086 8  90479535.667 8      3091.964          50.000
R16  20372409.344 5 108825745.870 5      -312.223          35.000    20372412.383 6  84642269.448 6      -242.840          36.000
R22  21779535.273 6 116260648.013 6     -2685.465          40.000    21779554.836 5  90424965.356 5     -2088.692          32.000
C05  39775738.117 5 207122706.021 5       -20.480          35.000    39775735.250 6 160160399.873 6       -16.024          38.000
C23  22895192.391 8 119221231.447 8      1475.012          51.000
C25  24007404.242 5 125012864.833 5     -1583.703          30.000
C30  25717814.805 6 133919436.755 6     -2678.121          41.000
E21  27087464.891 7 142345588.415 7      3040.211          43.000    27087471.805 7 109070022.658 7      2329.408          42.000
E30  25988492.734 5 136570492.629 5     -1274.820          35.000    25988497.070 6 104644902.826 6      -976.813          37.000
E33  26440571.281 5 138946140.503 5     -2942.031          31.000    26440584.672 5 106465264.233 5     -2254.769          34.000
> 2020 05 07 01 04 30.0000000  0 15        .000000000000
G06  21580215.906 8 113404805.634 8     -1847.715          48.000    21580218.523 8  88367365.342 8     -1439.781          48.000
G07  21231027.805 8 111569791.790 8      1589.293          50.000    21231028.258 8  86937498.587 8      1238.410          50.000
G09  20679112.500 8 108669577.964 8     -1274.211          51.000    20679113.266 8  84677548.126 8      -992.892          51.000
G30  22801672.727 7 119823609.962 7      3289.254          46.000    22801674.141 7  93369065.194 7      2563.055          46.000
R06  20283137.109 6 108234679.303 6     -1618.402          36.000
R09  21762716.562 8 116211677.830 8      3965.070          50.000    21762719.352 8  90386862.591 8      3083.944          50.000
R16  20374229.422 5 108835473.463 5      -339.531          35.000    20374233.078 5  84649835.451 5      -264.080          35.000
R22  21794672.570 6 116341454.442 6     -2704.406          39.000    21794693.234 6  90487814.849 6     -2103.427          36.000
C05  39775846.164 6 207123268.196 6       -19.648          36.000    39775843.328 6 160160834.964 6       -15.206          38.000
C23  22886727.930 8 119177152.075 8      1460.637          51.000
C25  24016537.000 4 125060474.096 4     -1597.730          28.000
C30  25733246.352 6 133999789.159 6     -2681.777          41.000
E21  27070104.398 7 142254357.033 7      3038.891          44.000    27070112.281 7 109000122.840 7      2328.480          42.000
E30                                                                  25995801.797 5 104674317.629 5      -986.358          35.000
E33                                                                  26457384.016 5 106532914.035 5     -2257.352          35.000
> 2020 05 07 01 05  0.0000000  0 14        .000000000000
G06  21590807.414 8 113460465.053 8     -1863.551          49.000    21590810.219 8  88410736.308 8     -1452.117          49.000
G07  21221992.422 8 111522311.010 8      1575.461          51.000    21221992.930 8  86900500.578 8      1227.632          51.000
G09  20686408.734 8 108707920.027 8     -1282.746          51.000    20686409.109 8  84707425.064 8      -999.542          51.000
G30  22782911.500 7 119725017.086 7      3282.730          47.000    22782913.109 7  93292239.586 7      2557.972          47.000
R06  20292259.266 6 108283353.859 6     -1627.238          37.000
R09  21740466.414 8 116092857.780 8      3955.484          51.000    21740468.070 8  90294446.968 8      3076.488          49.000
R16  20376208.383 6 108846043.911 6      -365.988          38.000    20376212.438 5  84658056.901 5      -284.658          35.000
R22  21809918.094 6 116422840.890 6     -2722.199          38.000    21809938.875 5  90551115.451 5     -2117.263          35.000
C05  39775953.688 6 207123827.980 6       -18.180          36.000    39775950.828 6 160161267.822 6       -14.133          38.000
C23  22878351.102 8 119133529.569 8      1446.836          51.000
C30  25748702.531 6 134080269.294 6     -2684.270          41.000
E21  27052757.477 7 142163199.387 7      3037.855          45.000    27052765.961 6 108930272.486 6      2327.612          41.000
E30                                                                  26003181.680 5 104704038.275 5      -995.407          31.000
E33                                                                  26474211.188 6 106600671.129 6     -2259.890          36.000
> 2020 05 07 01 05 30.0000000  0 17        .000000000000
G02  22414105.375 5 117786934.499 5       435.188          32.000
G06  21601494.227 8 113516624.377 8     -1882.180          51.000    21601497.211 8  88454496.800 8     -1466.634          51.000
G07  21213041.062 8 111475271.625 8      1558.723          50.000    21213041.195 8  86863846.524 8      1214.589          50.000
G09  20693757.742 8 108746539.373 8     -1293.801          51.000    20693757.898 8  84737518.058 8     -1008.156          51.000
G30  22764193.062 7 119626650.170 7      3273.328          46.000    22764194.906 7  93215590.054 7      2550.645          46.000
R06  20301434.055 6 108332316.877 6     -1638.879          39.000
R07  20002160.547 5 107073024.637 5      1359.754          31.000    20002145.445 4  83279038.117 4      1057.574          25.000
R09  21718275.375 8 115974354.864 8      3942.801          51.000    21718276.094 8  90202278.035 8      3066.626          48.000
R16  20378341.383 5 108857437.939 5      -395.078          35.000    20378345.812 5  84666919.030 5      -307.277          32.000
R22  21825268.398 6 116504763.184 6     -2742.629          37.000    21825282.914 5  90614849.294 5     -2133.156          33.000
C05  39776057.125 5 207124366.268 5       -19.309          35.000    39776054.531 6 160161684.875 6       -15.115          38.000
C23  22870058.570 8 119090347.608 8      1430.188          51.000
C25  24035109.070 5 125157100.080 5     -1626.676          32.000
C30  25764179.320 6 134160856.938 6     -2689.949          41.000
E21  27035420.656 7 142072092.742 7      3034.227          46.000    27035430.359 6 108860463.494 6      2324.735          38.000
E30  26010633.039 5 136686797.841 5     -1313.723          31.000    26010635.727 5 104734050.405 5     -1006.783          31.000
E33  26491062.266 5 139211475.681 5     -2955.641          34.000    26491060.859 5 106668520.333 5     -2264.640          34.000
> 2020 05 07 01 06  0.0000000  0 17        .000000000000
G02  22411660.328 5 117774066.147 5       419.293          32.000
G04  22904484.656 5 120363870.341 5     -2769.188          31.000
G06  21612281.398 8 113573309.565 8     -1897.238          51.000    21612283.938 8  88498667.066 8     -1478.371          51.000
G07  21204179.336 8 111428702.733 8      1545.531          51.000    21204178.992 8  86827559.065 8      1204.310          51.000
G09  20701164.648 8 108785463.061 8     -1301.500          51.000    20701164.875 8  84767848.225 8     -1014.153          51.000
G30  22745523.266 7 119528539.441 7      3267.090          46.000    22745524.859 7  93139140.149 7      2545.784          46.000
R06  20310669.562 7 108381596.761 7     -1646.895          42.000
R09  21696149.805 8 115856201.608 8      3933.562          51.000    21696149.789 8  90110381.050 8      3059.438          48.000
R16  20380634.312 5 108869683.989 5      -421.453          35.000    20380637.695 4  84676443.693 4      -327.800          29.000
R22  21840730.234 6 116587301.675 6     -2759.488          37.000    21840738.305 5  90679031.008 5     -2146.266          32.000
C05  39776162.078 6 207124912.962 6       -17.414          36.000    39776159.508 6 160162107.578 6       -13.490          38.000
C23  22861856.141 8 119047635.183 8      1416.879          51.000
C25  24044520.922 5 125206069.059 5     -1637.949          31.000
C30  25779681.547 6 134241577.293 6     -2691.809          41.000
E21  27018099.727 7 141981070.152 7      3033.641          46.000    27018111.500 6 108790718.865 6      2324.454          36.000
E30                                                                  26018167.656 5 104764375.720 5     -1015.427          31.000
E33  26507939.391 6 139300163.808 6     -2957.969          36.000    26507938.000 5 106736481.506 5     -2266.549          33.000
> 2020 05 07 01 06 30.0000000  0 15        .000000000000
G02  22409337.148 5 117761814.876 5       398.117          35.000
G06  21623177.234 8 113630565.144 8     -1918.668          51.000    21623179.008 8  88543281.792 8     -1495.066          51.000
G07  21195416.320 8 111382651.982 8      1525.707          51.000    21195415.781 8  86791675.357 8      1188.863          51.000
G09  20708638.148 8 108824736.718 8     -1315.555          51.000    20708638.633 8  84798451.078 8     -1025.108          51.000
G30  22726911.336 7 119430733.657 7      3254.285          46.000    22726912.469 7  93062927.854 7      2535.807          46.000
R06  20319973.664 6 108431240.709 6     -1661.562          39.000
R09  21674099.078 8 115738449.891 8      3917.602          51.000    21674099.086 7  90018796.361 7      3047.020          46.000
R16  20383094.680 5 108882828.037 5      -453.715          34.000    20383098.039 4  84686661.500 4      -352.886          28.000
R22  21856307.750 6 116670442.461 6     -2782.777          38.000    21856310.336 4  90743702.658 4     -2164.385          29.000
C05  39776277.180 6 207125512.076 6       -21.953          36.000    39776274.805 6 160162571.622 6       -16.667          39.000
C23  22853752.859 8 119005439.686 8      1397.184          51.000
C25  24054027.016 4 125255526.394 4     -1657.203          29.000
C30  25795217.094 6 134322474.045 6     -2700.039          40.000
E21  27000803.391 7 141890180.224 7      3026.785          45.000    27000815.773 6 108721075.862 6      2319.339          36.000
E33  26524850.641 6 139389049.603 6     -2966.887          37.000    26524850.602 5 106804588.775 5     -2273.089          35.000
> 2020 05 07 01 07  0.0000000  0 15        .000000000000
G02  22407101.727 5 117750048.238 5       392.668          33.000
G06  21634161.547 8 113688287.049 8     -1923.820          51.000    21634162.867 8  88588259.885 8     -1499.084          51.000
G07  21186732.539 8 111337018.555 8      1522.105          49.000    21186732.258 8  86756116.859 8      1186.056          49.000
G09  20716158.625 8 108864257.345 8     -1313.441          51.000    20716159.258 8  84829246.379 8     -1023.461          51.000
G30  22708338.352 8 119333132.953 8      3257.891          48.000    22708339.586 8  92986875.382 8      2538.616          48.000
R06  20329324.891 6 108481145.268 6     -1659.609          39.000
R09  21652104.102 8 115621000.084 8      3918.051          51.000    21652104.750 7  89927446.491 7      3047.373          43.000
R16  20385704.234 5 108896766.218 5      -469.598          30.000    20385708.266 4  84697501.955 4      -365.227          24.000
R22  21871985.445 7 116754111.986 7     -2789.383          43.000    21871982.742 4  90808783.900 4     -2169.526          28.000
C05  39776383.242 5 207126064.606 5       -10.270          35.000    39776380.969 6 160162998.869 6        -7.585          38.000
C23  22845728.828 8 118963661.296 8      1393.578          50.000
C25  24063601.680 4 125305486.279 4     -1659.234          29.000
C30  25810765.500 6 134403443.464 6     -2692.180          38.000
E21  26983512.961 7 141799323.049 7      3035.809          44.000    26983523.602 6 108651457.982 6      2326.172          38.000
E33  26541768.609 5 139477926.078 5     -2959.500          35.000    26541774.875 5 106872723.509 5     -2267.699          35.000
> 2020 05 07 01 07 30.0000000  0 14        .000000000000
G04  22952019.977 5 120613668.699 5     -2779.184          31.000    22952021.516 5  93984690.896 5     -2165.598          30.000
G06  21645226.258 8 113746432.926 8     -1946.605          50.000    21645227.609 8  88633568.331 8     -1516.835          50.000
G07  21178120.562 8 111291762.803 8      1500.801          48.000    21178120.602 8  86720852.644 8      1169.455          48.000
G09  20723718.234 8 108903983.735 8     -1328.973          51.000    20723718.812 8  84860201.997 8     -1035.563          51.000
G30  22689797.297 8 119235699.272 8      3243.664          48.000    22689799.367 8  92910953.038 8      2527.530          48.000
R06  20338718.805 6 108531269.239 6     -1675.855          38.000
R09  21630158.633 8 115503815.736 8      3900.316          51.000    21630159.781 6  89836303.143 6      3033.579          41.000
R16  20388455.406 5 108911456.929 5      -503.785          32.000
R22  21887750.688 7 116838254.105 7     -2814.059          43.000    21887747.406 5  90874200.646 5     -2188.718          34.000
C05  39776472.531 6 207126530.104 6       -15.562          36.000    39776470.227 6 160163358.460 6       -11.871          38.000
C23  22837777.648 8 118922261.307 8      1372.363          51.000
C30  25826318.805 5 134484443.097 5     -2702.000          35.000
E21  26966221.492 7 141708460.387 7      3027.434          43.000    26966230.562 6 108581835.930 6      2319.770          39.000
E33  26558711.727 5 139566942.856 5     -2969.387          35.000    26558704.492 6 106940931.235 6     -2275.433          36.000
> 2020 05 07 01 08  0.0000000  0 14        .000000000000
G04  22967922.156 5 120697244.090 5     -2789.941          31.000
G06  21656414.945 8 113805230.063 8     -1970.496          51.000    21656416.477 8  88679384.264 8     -1535.452          51.000
G07  21169624.336 8 111247115.067 8      1478.316          49.000    21169624.492 8  86686062.199 8      1151.935          49.000
G09  20731360.422 8 108944144.325 8     -1345.707          51.000    20731361.000 8  84891495.947 8     -1048.606          51.000
G30  22671332.227 8 119138664.200 8      3228.062          49.000    22671335.070 8  92835341.292 8      2515.373          48.000
R06  20348195.664 6 108581845.863 6     -1693.262          36.000
R09  21608307.086 8 115387134.109 8      3881.215          51.000    21608308.102 7  89745550.885 7      3018.726          43.000
R16  20391390.625 5 108927132.131 5      -537.812          30.000    20391397.023 4  84721148.173 4      -418.289          24.000
R22  21903645.719 6 116923097.776 6     -2839.730          40.000    21903642.609 5  90940190.095 5     -2208.679          35.000
C05  39776588.758 5 207127134.952 5       -22.531          35.000    39776586.414 6 160163826.161 6       -17.181          39.000
C23  22829943.336 8 118881468.284 8      1349.816          50.000
C30  25841921.648 5 134565697.680 5     -2712.637          34.000
E21  26948973.352 7 141617823.711 7      3017.660          44.000    26948980.969 6 108512387.001 6      2312.260          39.000
E33                                                                  26575690.398 6 107009347.079 6     -2283.984          36.000
> 2020 05 07 01 08 30.0000000  0 14        .000000000000
G04  22983844.055 5 120780901.614 5     -2787.520          32.000
G06  21667698.438 8 113864524.874 8     -1982.199          51.000    21667700.367 8  88725587.988 8     -1544.571          51.000
G07  21161215.133 8 111202924.791 8      1468.039          49.000    21161215.297 8  86651628.198 8      1143.923          49.000
G09  20739056.234 8 108984586.639 8     -1350.219          51.000    20739056.836 8  84923009.415 8     -1052.119          51.000
G30  22652914.656 8 119041878.432 8      3224.652          49.000    22652917.414 8  92759923.803 8      2512.716          49.000
R06  20357729.117 6 108632720.802 6     -1698.582          36.000
R09  21586521.422 8 115270805.481 8      3874.340          48.000    21586523.367 7  89655073.084 7      3013.375          46.000
R16  20394480.484 5 108943652.462 5      -561.953          32.000
R22  21919638.812 6 117008484.444 6     -2852.496          39.000    21919638.938 6  91006601.950 6     -2218.611          37.000
C05  39776703.047 5 207127729.996 5       -16.582          35.000    39776700.531 6 160164285.939 6       -13.448          38.000
C23  22822196.781 8 118841133.216 8      1339.398          51.000
C30  25857546.047 5 134647054.509 5     -2710.781          34.000
E21  26931740.078 7 141527263.559 7      3019.910          44.000    26931745.664 6 108442996.688 6      2314.026          39.000
E33                                                                  26592702.219 5 107077853.451 5     -2282.691          35.000
> 2020 05 07 01 09  0.0000000  0 13        .000000000000
G06  21679066.430 8 113924263.593 8     -2000.508          51.000    21679068.758 8  88772137.612 8     -1558.837          51.000
G07  21152883.359 8 111159141.662 8      1450.812          48.000    21152883.469 8  86617511.470 8      1130.503          48.000
G09  20746795.656 8 109025258.169 8     -1361.402          51.000    20746796.406 8  84954701.502 8     -1060.833          51.000
G30  22634535.172 8 118945292.535 8      3214.316          50.000    22634537.234 8  92684662.075 8      2504.662          50.000
R06  20367308.953 6 108683841.749 6     -1709.719          37.000
R09  21564792.188 7 115154781.617 7      3860.383          47.000    21564796.273 7  89564832.290 7      3002.520          47.000
R16  20397716.008 6 108960934.490 6      -590.582          36.000    20397727.781 4  84747404.340 4      -459.336          27.000
R22  21935725.516 6 117094358.024 6     -2872.355          39.000    21935725.594 6  91073392.489 6     -2234.057          37.000
C05                                                                  39776802.930 6 160164698.241 6       -14.284          38.000
C23  22814529.086 8 118801206.180 8      1322.277          51.000
C30  25873181.406 6 134728460.014 6     -2716.098          36.000
E21  26914512.141 7 141436730.359 7      3015.555          44.000    26914515.328 6 108373627.033 6      2310.671          40.000
E33                                                                  26609727.414 5 107146409.264 5     -2287.145          34.000
> 2020 05 07 01 09 30.0000000  0 13        .000000000000
G06  21690531.430 8 113984512.241 8     -2015.895          51.000    21690534.211 8  88819084.608 8     -1570.827          51.000
G07  21144642.328 8 111115834.776 8      1436.445          48.000    21144642.125 8  86583765.859 8      1119.308          48.000
G09  20754591.547 8 109066226.097 8     -1369.637          51.000    20754592.438 8  84986624.549 8     -1067.252          51.000
G30  22616207.156 8 118848976.844 8      3206.828          51.000    22616208.414 8  92609610.915 8      2498.830          51.000
R06  20376947.766 6 108735278.139 6     -1718.789          36.000
R09  21543134.523 7 115039136.325 7      3849.332          46.000    21543139.820 8  89474885.917 8      2993.925          48.000
R16  20401109.469 5 108979061.750 5      -617.219          34.000    20401117.711 4  84761503.407 4      -480.056          26.000
R22  21951916.273 6 117180783.918 6     -2888.902          37.000    21951917.406 6  91140612.496 6     -2246.927          38.000
C05  39776909.016 5 207128802.616 5       -17.328          35.000    39776906.617 6 160165115.347 6       -13.254          39.000
C23  22806953.195 8 118761755.889 8      1307.906          51.000
C30  25888839.766 6 134809979.321 6     -2718.301          38.000
E21  26897302.773 7 141346294.429 7      3013.793          43.000    26897304.180 7 108304331.907 7      2309.258          42.000
E33                                                                  26626778.594 5 107215065.189 5     -2289.447          35.000
> 2020 05 07 01 10  0.0000000  0 14        .000000000000
G06  21702090.969 8 114045258.191 8     -2033.012          51.000    21702093.812 8  88866419.156 8     -1584.165          51.000
G07  21136489.953 8 111072994.224 8      1420.414          49.000    21136489.438 8  86550383.618 8      1106.819          49.000
G09  20762441.773 8 109107479.051 8     -1379.664          51.000    20762442.648 8  85018769.694 8     -1075.063          51.000
G30  22597929.047 8 118752923.122 8      3197.504          51.000    22597929.570 8  92534763.885 8      2491.561          51.000
R06  20386643.930 6 108787019.096 6     -1729.699          36.000
R09  21521546.531 7 114923862.926 7      3836.254          45.000    21521552.789 8  89385228.853 8      2983.756          48.000
R16  20404658.711 5 108998022.411 5      -646.137          34.000    20404658.797 4  84776241.599 4      -502.551          26.000
R22  21968208.141 6 117267746.544 6     -2907.684          38.000    21968208.430 6  91208250.077 6     -2261.535          37.000
C05  39777011.773 5 207129337.922 5       -17.469          35.000    39777009.438 6 160165529.291 6       -13.586          38.000
C23  22799467.180 8 118722773.122 8      1291.664          51.000
C25  24122756.672 5 125613458.716 5     -1753.102          30.000
C30  25904517.250 6 134891599.396 6     -2722.402          38.000
E21  26880109.703 7 141255947.384 7      3010.242          42.000    26880110.773 7 108235104.904 7      2306.462          43.000
E33                                                                  26643853.148 5 107283811.685 5     -2292.907          35.000
> 2020 05 07 01 10 30.0000000  0 14        .000000000000
G06  21713746.617 8 114106509.583 8     -2049.629          51.000    21713749.375 8  88914147.540 8     -1597.110          51.000
G07  21128428.523 8 111030631.399 8      1404.574          49.000    21128427.711 8  86517373.643 8      1094.473          49.000
G09  20770348.086 8 109149026.406 8     -1389.410          51.000    20770348.875 8  85051144.234 8     -1082.657          51.000
G30  22579703.008 8 118657143.735 8      3188.461          50.000    22579702.961 8  92460130.636 8      2484.515          50.000
R06  20396399.828 5 108839075.604 5     -1739.922          34.000
R09  21500030.984 7 114808976.206 7      3823.711          45.000    21500037.781 8  89295872.538 8      2973.997          48.000
R16  20408365.867 6 109017825.966 6      -673.625          37.000    20408366.109 4  84791644.411 4      -523.934          29.000
R22  21984601.336 6 117355252.353 6     -2925.430          40.000    21984600.664 5  91276310.191 5     -2275.337          35.000
C05                                                                  39777113.414 6 160165947.896 6       -13.502          38.000
C23  22792073.320 8 118684269.193 8      1275.891          51.000
C25  24132901.945 4 125666277.771 4     -1766.352          29.000
C30  25920213.922 6 134973327.868 6     -2725.496          39.000
E21  26862935.242 7 141165701.523 7      3006.875          42.000    26862937.391 7 108165955.411 7      2304.080          44.000
E33  26660966.352 6 140104322.472 6     -2996.730          36.000    26660952.008 6 107352655.063 6     -2295.951          36.000
> 2020 05 07 01 11  0.0000000  0 14        .000000000000
G06  21725497.062 8 114168259.501 8     -2066.875          49.000    21725499.641 8  88962264.367 8     -1610.552          49.000
G07  21120457.461 8 110988742.375 8      1388.074          51.000    21120456.203 8  86484732.864 8      1081.616          51.000
G09  20778309.258 8 109190862.452 8     -1399.688          51.000    20778310.016 8  85083743.742 8     -1090.666          51.000
G30  22561528.344 8 118561636.190 8      3178.641          48.000    22561527.969 7  92385709.196 7      2476.863          47.000
R06  20406212.773 4 108891442.094 4     -1750.234          29.000
R09  21478588.594 7 114694475.581 7      3809.938          46.000    21478595.688 8  89206816.517 8      2963.285          50.000
R16  20412229.516 5 109038466.615 5      -702.605          35.000    20412230.203 4  84807698.270 4      -546.471          27.000
R22  22001092.469 5 117443292.223 5     -2943.473          35.000    22001093.312 4  91344785.660 4     -2289.368          29.000
C05  39777219.898 5 207130421.040 5       -18.090          35.000    39777217.633 6 160166367.591 6       -14.154          38.000
C23  22784770.828 8 118646240.540 8      1259.375          51.000
C25  24143125.688 5 125719593.497 5     -1782.094          31.000
C30  25935929.133 6 135055157.553 6     -2729.832          38.000
E21  26845780.039 7 141075554.212 7      3003.168          44.000    26845783.414 7 108096881.435 7      2300.985          45.000
E33  26678085.906 6 140194288.523 6     -3001.020          36.000    26678073.305 6 107421590.094 6     -2299.300          36.000
> 2020 05 07 01 11 30.0000000  0 14        .000000000000
G06  21737341.578 8 114230504.070 8     -2083.270          48.000    21737344.008 8  89010766.642 8     -1623.327          48.000
G07  21112576.398 8 110947325.860 8      1372.465          51.000    21112574.539 8  86452460.285 8      1069.456          51.000
G09  20786324.844 8 109232984.614 8     -1409.125          51.000    20786325.742 8  85116566.203 8     -1098.019          51.000
G30  22543404.477 7 118466401.040 7      3169.805          45.000    22543404.992 7  92311499.943 7      2469.975          45.000
R06  20416088.039 5 108944156.981 5     -1761.223          33.000
R09  21457219.797 8 114580363.662 8      3797.008          48.000    21457226.281 8  89118062.806 8      2953.228          49.000
R16  20416248.922 5 109059941.445 5      -730.078          34.000    20416249.492 4  84824397.975 4      -567.839          26.000
R22  22017679.648 6 117531860.270 6     -2961.453          38.000    22017678.461 4  91413667.992 4     -2303.362          26.000
C05  39777324.070 6 207130963.587 6       -18.410          36.000    39777321.852 6 160166787.121 6       -14.052          38.000
C23  22777559.188 8 118608686.605 8      1243.664          51.000
C25  24153430.297 5 125773252.561 5     -1795.523          33.000
C30  25951662.305 6 135137084.267 6     -2732.617          37.000
E21  26828644.539 7 140985505.872 7      2999.809          45.000    26828648.789 7 108027883.299 7      2298.522          46.000
E33  26695227.930 6 140284370.623 6     -3004.949          37.000    26695216.391 6 107490614.037 6     -2302.425          37.000
> 2020 05 07 01 12  0.0000000  0 14        .000000000000
G04  23095755.000 5 121368989.932 5     -2798.871          34.000
G06  21749272.922 8 114293204.271 8     -2085.258          48.000    21749275.234 8  89059623.942 8     -1624.876          48.000
G07  21104778.625 8 110906346.811 8      1370.984          51.000    21104776.375 8  86420528.605 8      1068.300          51.000
G09  20794387.672 8 109275355.157 8     -1404.172          51.000    20794388.844 8  85149582.218 8     -1094.160          51.000
G30  22525325.898 7 118371403.588 7      3174.992          45.000    22525327.492 7  92237475.926 7      2474.020          44.000
R09  21435918.266 8 114466607.195 8      3798.539          50.000    21435923.055 8  89029585.544 8      2954.419          49.000
R16  20420418.164 5 109082212.353 5      -743.031          32.000    20420419.867 5  84841717.818 5      -577.907          31.000
R22  22034362.969 7 117620914.898 7     -2964.090          43.000    22034365.711 4  91482941.531 4     -2305.409          27.000
C05  39777421.203 5 207131470.062 5        -4.035          35.000    39777419.047 6 160167178.374 6        -3.229          39.000
C23  22770431.977 8 118571572.053 8      1242.000          51.000
C25  24163806.828 5 125827292.018 5     -1795.344          31.000
C30  25967406.594 6 135219069.052 6     -2721.480          37.000
E21  26811521.719 7 140895521.744 7      3010.605          46.000    26811526.445 7 107958934.412 7      2306.875          47.000
E33  26712385.070 6 140374529.896 6     -2994.129          38.000    26712374.062 6 107559697.105 6     -2294.382          37.000
> 2020 05 07 01 12 30.0000000  0 13        .000000000000
G06  21761299.914 8 114356405.531 8     -2131.840          49.000    21761301.922 8  89108871.651 8     -1661.174          49.000
G07  21097073.258 8 110865853.440 8      1324.992          51.000    21097071.008 8  86388975.353 8      1032.464          51.000
G09  20802506.711 8 109318020.834 8     -1443.828          51.000    20802508.094 8  85182828.202 8     -1125.061          51.000
G30  22507303.055 7 118276693.564 7      3135.535          46.000    22507304.633 7  92163675.920 7      2443.274          46.000
R09  21414693.250 8 114353258.778 8      3754.457          51.000    21414696.477 8  88941425.686 8      2920.136          48.000
R16  20424744.781 5 109105326.421 5      -801.758          35.000    20424747.445 4  84859705.426 4      -623.599          26.000
R22  22051146.328 7 117710500.201 7     -3011.867          44.000    22051150.602 5  91552618.955 5     -2342.566          33.000
C05  39777520.445 5 207131986.077 5       -34.227          35.000    39777518.180 6 160167577.779 6       -26.209          39.000
C23  22763398.211 8 118534945.143 8      1196.180          51.000
C25  24174265.867 5 125881757.346 5     -1839.125          31.000
C30  25983169.758 6 135301156.604 6     -2754.555          36.000
E21  26794420.914 8 140805651.598 8      2976.980          48.000    26794424.859 7 107890072.875 7      2281.183          45.000
E33  26729565.891 6 140464811.988 6     -3028.266          39.000    26729554.812 6 107628874.287 6     -2320.323          37.000
> 2020 05 07 01 13  0.0000000  0 11        .000000000000
G06  21773439.117 8 114420195.008 8     -2129.562          51.000    21773440.266 8  89158577.707 8     -1659.402          51.000
G07  21089477.219 8 110825935.767 8      1327.504          51.000    21089475.133 8  86357870.695 8      1034.419          51.000
G09  20810698.820 8 109361070.123 8     -1434.707          51.000    20810700.234 8  85216373.104 8     -1117.954          51.000
G30  22489352.820 7 118182362.552 7      3144.719          47.000    22489354.086 7  92090171.273 7      2450.433          47.000
R09  21393562.289 8 114240413.794 8      3759.723          51.000    21393563.758 8  88853657.380 8      2924.232          48.000
R22  22068045.664 6 117800702.753 6     -3010.227          41.000    22068052.078 5  91622776.449 5     -2341.287          32.000
C05  39777638.625 5 207132601.858 5       -15.762          35.000    39777636.453 6 160168053.934 6       -12.194          39.000
C23  22756475.141 8 118498895.525 8      1198.520          51.000
C30  25998968.352 6 135383433.010 6     -2738.969          36.000
E21  26777359.305 8 140715986.921 8      2992.074          49.000    26777360.445 7 107821368.788 7      2292.673          43.000
E33  26746786.719 6 140555304.271 6     -3013.246          40.000    26746775.750 6 107698212.547 6     -2308.962          37.000
> 2020 05 07 01 13 30.0000000  0 11        .000000000000
G06  21785652.781 8 114484376.165 8     -2148.969          51.000    21785653.461 8  89208588.970 8     -1674.521          51.000
G07  21081953.859 8 110786400.519 8      1308.270          51.000    21081951.891 8  86327064.007 8      1019.431          51.000
G09  20818926.805 8 109404307.875 8     -1447.605          51.000    20818928.070 8  85250064.867 8     -1128.004          51.000
G30  22471438.109 7 118088218.512 7      3131.859          46.000    22471439.125 7  92016812.317 7      2440.413          46.000
R09  21372489.070 8 114127878.866 8      3742.754          50.000    21372489.586 8  88766130.232 8      2911.034          49.000
R16  20433882.406 5 109154156.182 5      -841.258          30.000    20433883.453 4  84897661.669 4      -654.312          25.000
R22  22085022.766 6 117891320.746 6     -3030.633          41.000    22085025.180 5  91693257.128 5     -2357.162          33.000
C05  39777738.938 5 207133124.359 5       -18.652          35.000    39777736.781 6 160168458.009 6       -14.541          38.000
C23  22749626.297 8 118463231.818 8      1179.246          51.000
E21  26760299.953 8 140626335.575 8      2985.051          49.000    26760297.492 7 107752674.951 7      2287.256          42.000
E33  26764010.219 6 140645810.492 6     -3020.234          39.000    26763999.711 6 107767561.440 6     -2313.873          36.000
> 2020 05 07 01 14  0.0000000  0 11        .000000000000
G06  21797960.039 8 114549050.310 8     -2162.422          51.000    21797960.555 8  89258984.400 8     -1685.004          51.000
G07  21074523.180 8 110747351.943 8      1295.109          51.000    21074521.289 8  86296636.524 8      1009.173          51.000
G09  20827210.203 8 109447836.770 8     -1454.262          51.000    20827211.164 8  85283983.489 8     -1133.191          51.000
G30  22453578.711 7 117994367.207 7      3124.984          45.000    22453579.891 7  91943681.450 7      2435.053          45.000
R07  19880229.414 4 106420420.556 4      1199.176          29.000
R09  21351493.359 7 114015763.491 7      3731.723          47.000    21351494.156 8  88678929.362 8      2902.451          50.000
R22  22102097.047 6 117982455.353 6     -3044.781          39.000    22102095.766 5  91764139.603 5     -2368.163          34.000
C05  39777841.125 5 207133656.520 5       -16.262          35.000    39777838.977 6 160168869.491 6       -12.801          38.000
C23  22742871.195 8 118428057.674 8      1165.910          51.000
E21  26743263.156 8 140536803.180 8      2984.027          51.000    26743257.922 7 107684072.252 7      2286.400          42.000
E33  26781255.773 6 140736432.237 6     -3020.930          37.000    26781244.953 5 107836998.897 5     -2314.969          35.000
> 2020 05 07 01 14 30.0000000  0 10        .000000000000
G06  21810346.477 8 114614142.433 8     -2186.785          51.000    21810347.148 8  89309705.533 8     -1703.988          50.000
G07  21067171.398 8 110708718.167 8      1270.711          50.000    21067169.875 8  86266532.275 8       990.164          50.000
G09  20835534.930 8 109491583.170 8     -1471.840          51.000    20835535.625 8  85318071.579 8     -1146.891          51.000
G30  22435761.164 7 117900738.061 7      3107.141          44.000    22435763.172 7  91870723.653 7      2421.149          43.000
R09  21330561.258 7 113903998.193 7      3709.535          45.000    21330564.469 8  88592000.716 8      2885.191          50.000
R22  22119250.680 5 118074028.285 5     -3070.332          34.000    22119250.508 6  91835362.979 6     -2388.036          36.000
C05  39777931.312 5 207134126.142 5       -24.148          35.000    39777929.188 6 160169232.645 6       -19.120          39.000
C23  22736195.922 8 118393302.070 8      1141.562          50.000
E21  26726235.461 8 140447319.202 8      2971.836          51.000    26726229.625 7 107615506.630 7      2277.139          44.000
E33  26798509.508 5 140827116.855 5     -3032.617          32.000    26798497.727 5 107906467.606 5     -2323.700          35.000
> 2020 05 07 01 15  0.0000000  0 11        .000000000000
G06  21822845.078 8 114679824.805 8     -2195.070          50.000    21822846.477 8  89360886.592 8     -1710.444          50.000
G07  21059931.891 8 110670674.723 8      1262.484          51.000    21059930.633 8  86236888.051 8       983.757          51.000
G09  20843933.961 8 109535720.731 8     -1473.449          51.000    20843934.594 8  85352464.474 8     -1148.142          51.000
G30  22418019.898 7 117807507.653 7      3105.199          46.000    22418022.406 7  91798076.578 7      2419.636          46.000
R07  19866911.797 5 106349114.205 5      1179.551          30.000    19866890.359 4  82715923.955 4       917.413          27.000
R09  21309729.641 8 113792764.118 8      3703.219          48.000    21309733.984 8  88505485.291 8      2880.281          50.000
R22  22136515.023 5 118166212.294 5     -3078.875          34.000    22136520.297 6  91907061.739 6     -2394.678          37.000
C05  39778042.664 5 207134706.218 5       -16.578          35.000    39778040.648 6 160169681.200 6       -13.094          39.000
C23  22729634.828 8 118359138.945 8      1133.027          50.000
E21  26709250.188 8 140358060.151 8      2975.797          51.000    26709245.141 7 107547113.359 7      2280.111          46.000
E33                                                                  26815791.570 5 107976099.790 5     -2320.314          33.000
> 2020 05 07 01 15 30.0000000  0 11        .000000000000
G06  21835422.070 8 114745918.785 8     -2211.645          50.000    21835423.984 8  89412388.403 8     -1723.356          50.000
G07  21052771.539 8 110633045.554 8      1245.750          51.000    21052770.164 8  86207566.626 8       970.714          51.000
G09  20852373.719 8 109580072.233 8     -1483.535          51.000    20852374.383 8  85387024.067 8     -1156.001          51.000
G30  22400322.133 8 117714501.841 8      3094.855          48.000    22400324.320 8  91725604.529 8      2411.576          48.000
R09  21288966.273 8 113681886.762 8      3688.379          50.000    21288969.898 8  88419247.344 8      2868.739          48.000
R22  22153862.531 6 118258824.189 6     -3095.633          39.000    22153868.594 5  91979093.212 5     -2407.714          34.000
C05  39778141.703 5 207135221.645 5       -17.383          35.000    39778139.688 6 160170080.147 6       -13.728          39.000
C23  22723154.281 8 118325394.608 8      1116.207          50.000
C25  24238696.352 4 126217235.139 4     -1904.113          29.000
E21  26692274.258 8 140268851.893 8      2971.090          51.000    26692270.711 8 107478759.014 8      2276.606          48.000
E33                                                                  26833090.703 5 108045736.826 5     -2323.769          31.000
> 2020 05 07 01 16  0.0000000  0 12        .000000000000
G06  21848089.039 8 114812486.033 8     -2226.719          49.000    21848091.766 8  89464258.976 8     -1735.106          49.000
G07  21045702.359 8 110595895.850 8      1230.273          51.000    21045700.820 8  86178618.817 8       958.655          51.000
G09  20860866.203 8 109624700.803 8     -1492.355          50.000    20860866.914 8  85421799.561 8     -1162.877          50.000
G30  22382680.117 8 117621786.786 8      3085.605          50.000    22382681.328 8  91653359.051 8      2404.371          50.000
R06  20507514.008 5 109431967.877 5     -1852.551          35.000
R09  21268282.898 8 113571435.004 8      3674.582          51.000    21268285.125 7  88333340.484 7      2858.011          46.000
R22  22171303.133 7 118351924.381 7     -3111.152          43.000    22171307.055 5  92051504.434 5     -2419.785          32.000
C05  39778240.758 6 207135737.457 6       -17.074          36.000    39778238.648 6 160170478.596 6       -13.360          39.000
C23  22716766.648 8 118292133.433 8      1100.520          50.000
C25  24249716.148 4 126274634.871 4     -1916.934          27.000
E21  26675320.430 8 140179760.505 8      2967.711          51.000    26675318.289 8 107410494.234 8      2273.939          49.000
E33                                                                  26850409.086 5 108115470.195 5     -2325.720          32.000
> 2020 05 07 01 16 30.0000000  0 10        .000000000000
G06  21860846.312 8 114879527.438 8     -2242.473          49.000    21860849.414 8  89516499.045 8     -1747.381          49.000
G07  21038724.891 8 110559229.318 8      1214.363          51.000    21038723.484 8  86150047.529 8       946.257          51.000
G09  20869411.891 8 109669608.779 8     -1501.391          49.000    20869412.773 8  85456792.773 8     -1169.915          49.000
G30  22365094.375 8 117529367.819 8      3075.805          51.000    22365094.594 8  91581344.300 8      2396.731          51.000
R09  21247680.852 8 113461416.512 8      3660.148          51.000    21247680.469 7  88247770.615 7      2846.785          43.000
R22  22188836.164 7 118445512.117 7     -3127.441          43.000    22188837.883 5  92124294.877 5     -2432.454          34.000
C05  39778340.156 5 207136255.343 5       -17.262          35.000    39778338.109 6 160170879.035 6       -13.209          39.000
C23  22710473.094 8 118259359.597 8      1084.512          51.000
E21  26658389.930 8 140090791.369 8      2963.688          51.000    26658388.898 8 107342323.100 8      2270.901          50.000
E33                                                                  26867747.977 5 108185278.827 5     -2328.192          32.000
> 2020 05 07 01 17  0.0000000  0 12        .000000000000
G02  22383605.367 5 117626656.887 5        27.906          32.000
G06  21873684.711 8 114946993.339 8     -2257.824          50.000    21873687.773 8  89569069.869 8     -1759.344          51.000
G07  21031830.516 8 110522999.207 8      1198.473          51.000    21031829.484 8  86121816.304 8       933.875          51.000
G09  20878001.531 8 109714747.935 8     -1510.434          49.000    20878002.664 8  85491966.145 8     -1176.961          49.000
G30  22347556.109 8 117437199.755 8      3066.090          51.000    22347555.594 8  91509525.061 8      2389.161          51.000
R09  21227151.234 8 113351787.330 8      3645.805          51.000    21227149.016 7  88162503.522 7      2835.626          44.000
R16  20470677.422 5 109350682.019 5     -1031.062          31.000    20470683.633 5  85050540.220 5      -801.941          32.000
R22  22206451.750 7 118539534.643 7     -3143.301          44.000    22206451.945 6  92197423.472 6     -2444.789          38.000
C05  39778430.992 5 207136728.832 5       -16.523          35.000    39778429.039 6 160171245.204 6       -13.016          39.000
C23  22704264.641 8 118227027.130 8      1068.520          51.000
E21  26641474.172 8 140001899.206 8      2959.734          51.000    26641474.055 8 107274210.921 8      2267.908          51.000
E33                                                                  26885096.344 5 108255137.925 5     -2330.395          34.000
> 2020 05 07 01 17 30.0000000  0 13        .000000000000
G02  22383489.508 5 117626037.240 5        13.176          34.000
G06  21886614.867 8 115014940.016 8     -2270.340          51.000    21886617.539 8  89622015.318 8     -1769.096          51.000
G07  21025030.445 8 110487265.333 8      1185.371          51.000    21025029.695 8  86093971.739 8       923.666          51.000
G09  20886646.141 8 109760175.980 8     -1516.477          50.000    20886647.516 8  85527364.631 8     -1181.667          50.000
G30  22330076.703 8 117345343.374 8      3059.145          51.000    22330076.133 8  91437948.675 8      2383.749          51.000
