     3.02           OBSERVATION DATA    M (MIXED)           RINEX VERSION / TYPE
SAVERINEX           SC600               20200505 215931 LCL PGM / RUN BY / DATE
       G = GPS       R = GLONASS       C = COMPASS          COMMENT
       S = SBAS      J = QZSS          E = GALILEO          COMMENT
BEAN                                                        MARKER NAME
1                                                           MARKER NUMBER
GEODETIC                                                    MARKER TYPE
Unige DICCA         GTER                                    OBSERVER / AGENCY
SC60291900056       SC600               2.12(191226)        REC # / TYPE / VERS
                    HEMA45          NONE                    ANT # / TYPE
  4509407.8091   693652.4678  4442337.6214                  APPROX POSITION XYZ
        0.0000        0.0000        0.0000                  ANTENNA: DELTA H/E/N
G    8 C1C L1C D1C S1C C2Y L2Y D2Y S2Y                      SYS / # / OBS TYPES
R    8 C1C L1C D1C S1C C2P L2P D2P S2P                      SYS / # / OBS TYPES
C    8 C1I L1I D1I S1I C7I L7I D7I S7I                      SYS / # / OBS TYPES
E    8 C1C L1C D1C S1C C7Q L7Q D7Q S7Q                      SYS / # / OBS TYPES
DBHZ                                                        COMMENT
     30.000                                                 INTERVAL
  2020    05    05    19    00    0.0000000     GPS         TIME OF FIRST OBS
  2020    05    05    19    59   30.0000000     GPS         TIME OF LAST OBS
     0                                                      RCV CLOCK OFFS APPL
G L1C  0.00000                                              SYS / PHASE SHIFT
G L2Y  0.00000                                              SYS / PHASE SHIFT
R L1C  0.00000                                              SYS / PHASE SHIFT
R L2P  0.25000                                              SYS / PHASE SHIFT
C L1I  0.00000                                              SYS / PHASE SHIFT
C L7I  0.00000                                              SYS / PHASE SHIFT
E L1C  0.50000                                              SYS / PHASE SHIFT
E L7Q -0.25000                                              SYS / PHASE SHIFT
 14 R01  1 R02 -4 R03  5 R04  6 R08  6 R10 -5 R12 -1 R13 -2 GLONASS SLOT / FRQ #
    R14 -7 R15  0 R17  4 R18 -3 R22 -3 R23  3               GLONASS SLOT / FRQ #
 C1C   71.950 C2C   71.950 C2P   71.950                     GLONASS COD/PHS/BIS
    18                                                      LEAP SECONDS
*** Above antenna height is from mark to ANTENNA BOTTOM.    COMMENT
    17     4        0.0000        ANT MEASURE TYPE/HEIGT    COMMENT
    0.0000    0.0000    0.0458    0.0405    0.0000          COMMENT
                    BASE STATION                            COMMENT
                                                            END OF HEADER
> 2020 05 05 19 00  0.0000000  0 15        .000000000000
G03  23209149.727 7 121964889.279 7      3270.168          44.000    23209153.195 5  95037633.235 5      2548.183          35.000
G08  20829368.414 8 109459060.361 8     -1724.219          50.000    20829372.562 8  85292773.590 8     -1343.547          50.000
G10  23633326.414 5 124193961.780 5     -3139.574          35.000    23633333.531 5  96774541.979 5     -2446.425          35.000
G11  19918753.039 8 104673750.941 8       599.352          50.000    19918752.023 8  81563967.253 8       467.027          50.000
G14  22371867.203 7 117564987.668 7      1664.691          42.000    22371867.023 6  91609091.355 6      1297.165          37.000
G22  21481854.508 8 112887957.187 8      1972.941          51.000    21481850.781 7  87964650.425 7      1537.357          46.000
G27  22846596.648 7 120059651.116 7     -3332.328          46.000    22846602.484 7  93552977.393 7     -2596.619          46.000
G32  22018747.281 5 115709310.615 5       252.277          35.000    22018752.594 5  90163228.136 5       196.577          35.000
R02  19834944.000 8 105843067.035 8     -1756.395          51.000    19834947.359 8  82322382.347 8     -1366.085          48.000
R03  19937803.711 8 106728662.404 8      2487.766          49.000    19937805.281 7  83011193.779 7      1934.929          46.000
R17  20093463.711 8 107524170.638 8     -1850.277          51.000    20093465.391 7  83629916.772 7     -1439.108          46.000
C05                                                                  39647489.602 6 159644016.971 6       -19.661          39.000
C28  22238105.820 8 115799639.191 8     -1700.805          49.000
E19  24922740.297 8 130969888.545 8      1939.348          48.000    24922742.359 7 100353564.586 7      1486.027          47.000
E33  24362210.758 8 128024265.118 8     -1281.395          49.000    24362212.055 8  98096501.672 8      -981.938          49.000
> 2020 05 05 19 00 30.0000000  0 15        .000000000000
G03  23190488.297 7 121866827.864 7      3264.605          42.000    23190492.352 5  94961221.811 5      2543.851          33.000
G08  20839243.531 8 109510953.690 8     -1737.906          51.000    20839247.742 8  85333209.956 8     -1354.213          51.000
G10  23651247.039 6 124288135.464 6     -3141.324          37.000    23651253.578 5  96847924.081 5     -2447.782          33.000
G11  19915363.125 8 104655937.187 8       585.699          50.000    19915362.055 8  81550086.401 8       456.389          50.000
G14  22362392.312 6 117515195.394 6      1652.219          41.000    22362392.461 6  91570292.188 6      1287.440          38.000
G22  21470612.672 8 112828881.215 8      1962.863          51.000    21470608.812 7  87918617.204 7      1529.504          47.000
G27  22865631.039 7 120159674.738 7     -3338.285          46.000    22865636.172 7  93630917.849 7     -2601.261          46.000
G32  22017363.641 5 115702025.971 5       235.223          33.000    22017359.945 5  90157408.222 5       183.290          32.000
R02  19844868.219 8 105896024.956 8     -1776.676          51.000    19844871.758 8  82363571.849 8     -1381.856          48.000
R03  19923908.320 8 106654277.408 8      2468.570          51.000    19923910.188 7  82953338.825 7      1920.002          46.000
R17  20103866.539 8 107579836.935 8     -1863.383          50.000    20103868.258 7  83673212.736 7     -1449.301          47.000
C05                                                                  39647622.773 6 159644553.221 6       -18.099          39.000
C28  22247922.227 8 115850756.453 8     -1709.645          51.000
E19  24911686.328 8 130911799.154 8      1930.582          48.000    24911688.188 7 100309054.549 7      1479.274          47.000
E33  24369530.781 8 128062731.860 8     -1285.594          49.000    24369532.422 8  98125976.174 8      -985.074          49.000
> 2020 05 05 19 01  0.0000000  0 14        .000000000000
G03  23171896.062 6 121769131.921 6      3252.773          40.000    23171899.031 6  94885095.200 6      2534.629          36.000
G08  20849237.219 8 109563469.156 8     -1758.676          51.000    20849241.000 8  85374131.096 8     -1370.397          51.000
G10  23669217.469 5 124382568.241 5     -3149.727          34.000    23669223.797 5  96921508.027 5     -2454.338          34.000
G11  19912091.484 8 104638744.297 8       565.004          51.000    19912090.391 8  81536689.342 8       440.266          50.000
G14  22353029.281 6 117465994.511 6      1632.258          39.000    22353030.148 6  91531953.836 6      1271.889          38.000
G22  21459467.742 8 112770314.278 8      1946.113          51.000    21459463.828 8  87872980.648 8      1516.455          48.000
G27  22884738.750 7 120260083.452 7     -3350.992          46.000    22884742.711 7  93709158.412 7     -2611.163          46.000
R02  19854946.109 8 105949802.803 8     -1803.953          51.000    19854949.484 7  82405399.059 7     -1403.075          47.000
R03  19910160.469 8 106580681.662 8      2442.367          51.000    19910162.289 7  82896097.764 7      1899.619          46.000
R17  20114382.820 8 107636112.449 8     -1883.746          49.000    20114384.852 7  83716982.578 7     -1465.136          46.000
C05                                                                  39647782.117 6 159645194.732 6       -21.528          39.000
C28  22257830.438 8 115902347.166 8     -1725.293          51.000
E19  24900722.719 8 130854183.241 8      1914.793          49.000    24900724.344 7 100264907.310 7      1467.191          47.000
E33  24376913.695 8 128101529.546 8     -1296.535          49.000    24376915.469 8  98155704.273 8      -993.527          49.000
> 2020 05 05 19 01 30.0000000  0 16        .000000000000
G01  21115883.930 6 110964735.325 6      1759.207          36.000
G03  23153347.664 5 121671669.467 5      3239.625          34.000    23153350.695 5  94809150.469 5      2524.380          35.000
G08  20859323.516 8 109616471.816 8     -1780.387          51.000    20859326.789 8  85415431.868 8     -1387.314          51.000
G10  23687211.930 6 124477124.781 6     -3159.387          37.000    23687217.438 5  96995188.369 5     -2461.860          35.000
G11  19908912.852 8 104622039.763 8       543.113          50.000    19908911.680 8  81523672.816 8       423.205          50.000
G14  22343753.516 6 117417253.641 6      1611.527          39.000    22343755.742 6  91493973.962 6      1255.733          37.000
G22  21448394.305 8 112712123.477 8      1927.895          51.000    21448390.523 8  87827637.197 8      1502.255          49.000
G27  22903893.281 7 120360741.820 7     -3365.090          43.000    22903896.500 7  93787593.504 7     -2622.148          44.000
G32  22014949.828 6 115689351.993 6       186.324          40.000    22014941.078 6  90147528.774 6       145.188          40.000
R02  19865151.711 8 106004262.341 8     -1832.297          51.000    19865155.117 8  82447756.478 8     -1425.120          48.000
R03  19896535.188 8 106507741.767 8      2414.719          51.000    19896536.945 7  82839366.798 7      1878.118          47.000
R17  20124987.133 8 107692861.164 8     -1905.207          49.000    20124989.781 7  83761120.466 7     -1481.828          46.000
C05                                                                  39647942.172 6 159645839.290 6       -25.790          39.000
C28  22267804.102 8 115954278.665 8     -1742.203          51.000
E19  24889824.203 8 130796908.506 8      1897.914          49.000    24889825.555 7 100221021.507 7      1454.306          47.000
E33  24384334.547 8 128140524.857 8     -1308.688          50.000    24384336.469 8  98185583.774 8     -1002.734          50.000
> 2020 05 05 19 02  0.0000000  0 16        .000000000000
G03  23134813.758 6 121574278.367 6      3242.457          36.000    23134817.906 6  94733261.312 6      2526.590          36.000
G08  20869471.039 8 109669797.244 8     -1785.465          51.000    20869473.820 8  85456984.144 8     -1391.271          51.000
G10  23705198.266 6 124571639.675 6     -3152.254          39.000    23705202.195 6  97068836.339 6     -2456.299          39.000
G11  19905796.266 8 104605661.301 8       537.891          51.000    19905794.984 8  81510910.382 8       419.136          50.000
G14  22334535.625 6 117368811.475 6      1607.371          41.000    22334537.562 5  91456226.777 5      1252.497          32.000
G22  21437361.227 8 112654145.897 8      1926.422          51.000    21437357.945 8  87782459.892 8      1501.108          49.000
G27  22923062.719 7 120461484.385 7     -3362.012          42.000    22923066.312 7  93866094.202 7     -2619.752          42.000
G32  22013866.648 6 115683726.703 6       177.770          38.000    22013871.805 6  90143145.566 6       138.531          37.000
R02  19875453.555 8 106059234.620 8     -1843.582          51.000    19875457.117 8  82490512.709 8     -1433.897          48.000
R03  19883001.227 8 106435293.130 8      2404.035          50.000    19883003.477 8  82783017.896 8      1869.808          48.000
R17  20135648.945 8 107749916.187 8     -1909.648          49.000    20135651.758 7  83805496.595 7     -1485.279          45.000
C05                                                                  39648071.898 6 159646361.557 6       -17.474          38.000
C14  24347294.477 5 126782742.151 5     -2739.402          31.000
C28  22277812.102 8 116006388.589 8     -1742.555          51.000
E19  24878959.734 8 130739812.713 8      1897.500          49.000    24878960.812 7 100177272.807 7      1453.932          47.000
E33  24391761.961 8 128179554.470 8     -1304.188          51.000    24391763.945 8  98215489.569 8      -999.342          50.000
> 2020 05 05 19 02 30.0000000  0 16        .000000000000
G03  23116396.172 6 121477491.796 6      3218.004          40.000    23116400.875 6  94657843.245 6      2507.539          41.000
G08  20879780.992 8 109723976.578 8     -1818.453          51.000    20879783.422 8  85499201.791 8     -1416.976          51.000
G10  23723277.008 6 124666643.073 6     -3173.160          40.000    23723280.828 6  97142865.018 6     -2472.589          39.000
G11  19902843.133 8 104590142.247 8       504.750          50.000    19902841.836 8  81498817.619 8       393.312          50.000
G14  22325476.453 7 117321201.695 7      1574.723          42.000    22325477.477 5  91419128.263 5      1227.060          35.000
G22  21426470.094 8 112596913.878 8      1896.977          51.000    21426467.555 8  87737863.533 8      1478.164          49.000
G27  22942349.578 7 120562841.180 7     -3387.059          44.000    22942353.094 7  93945073.538 7     -2639.266          43.000
G32  22012972.117 6 115679054.261 6       141.543          40.000    22012979.656 6  90139504.616 6       110.287          38.000
R02  19885952.227 8 106115256.752 8     -1883.078          51.000    19885955.758 8  82534085.464 8     -1464.619          48.000
R03  19869659.602 7 106363879.958 7      2364.754          47.000    19869663.172 7  82727474.354 7      1839.253          47.000
R17  20146469.062 8 107807819.354 8     -1942.512          49.000    20146472.633 7  83850532.336 7     -1510.845          45.000
C05                                                                  39648272.500 6 159647169.188 6       -30.130          39.000
C14  24363172.852 5 126865430.677 5     -2762.543          30.000    24363163.180 5  98100380.170 5     -2137.312          31.000
C28  22287955.328 8 116059203.760 8     -1770.582          51.000
E19  24868230.539 8 130683429.256 8      1869.355          49.000    24868231.375 8 100134069.926 8      1432.288          48.000
E33  24399296.922 8 128219150.670 8     -1327.598          51.000    24399298.797 8  98245829.481 8     -1017.208          50.000
> 2020 05 05 19 03  0.0000000  0 16        .000000000000
G03  23097979.297 7 121380708.491 7      3231.070          42.000    23097983.617 6  94582427.739 6      2517.720          41.000
G08  20890138.594 8 109778405.711 8     -1813.254          51.000    20890140.664 8  85541614.074 8     -1412.925          51.000
G10  23741333.523 6 124761530.403 6     -3155.840          40.000    23741338.867 6  97216803.170 6     -2459.096          39.000
G11  19899938.930 8 104574880.685 8       509.629          50.000    19899937.742 8  81486925.482 8       397.113          50.000
G14  22316461.414 7 117273823.530 7      1580.461          45.000    22316461.625 5  91382210.274 5      1231.528          34.000
G22  21415606.383 8 112539825.207 8      1905.715          51.000    21415604.500 8  87693378.865 8      1484.976          48.000
G27  22961639.352 7 120664207.499 7     -3373.824          47.000    22961642.086 7  94024060.224 7     -2628.957          47.000
G32  22012146.734 6 115674731.860 6       142.992          40.000    22012159.586 6  90136136.644 6       111.426          40.000
R02  19896532.305 8 106171713.866 8     -1883.824          51.000    19896535.742 8  82577996.548 8     -1465.197          49.000
R03  19856396.555 7 106292890.674 7      2364.570          47.000    19856401.492 8  82672260.449 8      1839.107          48.000
R17  20157333.594 8 107865956.412 8     -1936.531          51.000    20157336.562 7  83895750.019 7     -1506.194          44.000
C05                                                                  39648429.297 6 159647800.326 6       -14.139          39.000
C14  24379047.352 4 126948095.835 4     -2750.332          28.000    24379037.539 5  98164287.707 5     -2126.130          30.000
C28  22298118.789 8 116112126.406 8     -1760.633          51.000
E19  24857522.039 8 130627156.204 8      1879.098          49.000    24857522.875 8 100090951.635 8      1439.906          48.000
E33  24406825.094 8 128258710.800 8     -1312.863          51.000    24406826.664 8  98276141.753 8     -1005.888          49.000
> 2020 05 05 19 03 30.0000000  0 17        .000000000000
G03  23079577.695 6 121284005.539 6      3221.312          41.000    23079580.867 6  94507074.851 6      2510.117          41.000
G08  20900557.945 8 109833159.262 8     -1831.539          51.000    20900559.797 8  85584279.129 8     -1427.173          51.000
G10  23759382.125 6 124856375.533 6     -3161.793          40.000    23759388.914 6  97290708.456 6     -2463.735          40.000
G11  19897098.383 8 104559953.500 8       490.930          50.000    19897097.281 8  81475293.904 8       382.543          50.000
G14  22307505.023 7 117226754.539 7      1562.836          43.000    22307504.555 5  91345533.210 5      1217.797          35.000
G22  21404784.641 8 112482956.432 8      1891.043          51.000    21404782.594 8  87649065.558 8      1473.543          48.000
G27  22980945.430 8 120765657.064 8     -3383.898          49.000    22980946.734 8  94103111.716 8     -2636.807          49.000
G32  22011416.047 6 115670790.881 6       121.961          39.000    22011419.430 6  90133089.830 6        95.031          39.000
R02  19907207.562 8 106228679.347 8     -1908.262          51.000    19907210.953 8  82622303.034 8     -1484.204          49.000
R03  19843228.562 8 106222404.397 8      2340.074          48.000    19843233.836 8  82617437.743 8      1820.058          49.000
R17  20168256.023 8 107924404.296 8     -1954.465          51.000    20168258.586 7  83941209.442 7     -1520.139          45.000
R18  19607448.758 6 104665890.166 6      1486.262          36.000
C05                                                                  39648556.570 6 159648312.915 6       -15.755          38.000
C14                                                                  24394921.633 4  98228233.915 4     -2132.217          27.000
C28  22308317.102 8 116165231.238 8     -1774.188          51.000
E19  24846849.172 8 130571070.673 8      1865.480          49.000    24846849.984 8 100047977.039 8      1429.337          48.000
E33  24414360.758 8 128298310.761 8     -1321.613          51.000    24414362.219 8  98306484.573 8     -1012.629          48.000
> 2020 05 05 19 04  0.0000000  0 16        .000000000000
G03  23061291.188 6 121187908.132 6      3208.160          41.000    23061293.555 6  94432193.794 6      2499.865          41.000
G08  20911138.781 8 109888759.782 8     -1852.504          51.000    20911140.281 8  85627604.153 8     -1443.510          51.000
G10  23777522.164 6 124951700.460 6     -3170.594          39.000    23777529.680 6  97364987.646 6     -2470.589          39.000
G11  19894421.344 8 104545885.688 8       469.559          50.000    19894420.336 8  81464331.968 8       365.890          50.000
G14  22298707.305 7 117180520.544 7      1542.121          44.000    22298706.344 6  91309506.727 6      1201.650          37.000
G22  21394104.508 8 112426831.476 8      1873.352          51.000    21394101.312 7  87605331.863 7      1459.754          47.000
G27  23000366.664 8 120867711.667 8     -3396.910          50.000    23000366.086 8  94182634.699 8     -2646.946          49.000
G32  22010854.297 5 115667845.175 5        97.352          34.000    22010854.914 5  90130794.576 5        75.861          35.000
R02  19918077.344 8 106286682.028 8     -1935.543          51.000    19918080.391 8  82667416.216 8     -1505.422          49.000
R03  19830255.445 8 106152956.759 8      2312.891          49.000    19830260.492 8  82563422.929 8      1798.918          49.000
R17  20179336.531 8 107983696.174 8     -1975.148          51.000    20179338.773 7  83987325.306 7     -1536.227          45.000
R18  19599211.867 5 104621944.381 5      1466.570          35.000    19599217.789 4  81372641.699 4      1140.675          25.000
C05                                                                  39648754.078 6 159649108.382 6       -19.764          39.000
C28  22318649.969 8 116219036.856 8     -1790.379          51.000
E19  24836311.961 8 130515697.543 8      1848.852          50.000    24836313.156 8 100005548.301 8      1416.614          48.000
E33  24422003.508 8 128338474.592 8     -1333.211          50.000    24422005.250 8  98337259.423 8     -1021.554          49.000
> 2020 05 05 19 04 30.0000000  0 16        .000000000000
G03  23043002.836 6 121091801.596 6      3197.016          40.000    23043005.539 6  94357305.620 6      2491.184          40.000
G08  20921763.352 8 109944590.059 8     -1871.680          51.000    20921763.961 8  85671108.223 8     -1458.452          51.000
G10  23795635.742 6 125046887.173 6     -3176.785          37.000    23795643.094 5  97439159.156 5     -2475.414          35.000
G11  19891790.750 8 104532062.168 8       449.859          50.000    19891789.953 8  81453560.391 8       350.540          50.000
G14  22289951.203 7 117134507.046 7      1523.559          43.000    22289950.242 5  91273652.083 5      1187.189          35.000
G22  21383448.953 8 112370834.888 8      1857.602          51.000    21383445.305 8  87561698.187 8      1447.482          48.000
G27  23019785.109 8 120969753.199 8     -3407.949          49.000    23019784.344 8  94262147.533 8     -2655.548          49.000
G32  22010357.094 5 115665205.205 5        74.961          33.000    22010363.273 5  90128760.020 5        58.414          33.000
R02  19929023.508 8 106345093.685 8     -1960.801          51.000    19929027.000 8  82712847.517 8     -1525.067          49.000
R03  19817359.359 8 106083922.314 8      2287.383          50.000    19817364.211 8  82509729.498 8      1779.076          48.000
R17  20190457.320 8 108043204.364 8     -1994.141          51.000    20190459.477 7  84033609.414 7     -1551.001          45.000
R18  19591011.688 6 104578178.177 6      1448.953          36.000    19591019.828 5  81338588.275 5      1126.967          30.000
C05                                                                  39648904.617 6 159649714.542 6       -22.111          39.000
C28  22328999.938 8 116272932.337 8     -1804.746          51.000
E19  24825793.312 8 130460422.001 8      1834.086          49.000    24825794.828 8  99963194.336 8      1405.363          48.000
E33  24429636.312 8 128378586.303 8     -1342.961          50.000    24429638.367 8  98367994.329 8     -1029.013          48.000
> 2020 05 05 19 05  0.0000000  0 16        .000000000000
G03  23024767.094 6 120995972.698 6      3193.562          41.000    23024770.328 6  94282633.800 6      2488.493          41.000
G08  20932485.609 8 110000934.444 8     -1882.879          51.000    20932485.750 8  85715012.915 8     -1467.178          51.000
G10  23813776.578 5 125142219.508 5     -3175.992          32.000    23813783.445 5  97513444.105 5     -2474.799          30.000
G11  19889261.195 8 104518769.705 8       438.109          50.000    19889260.484 8  81443202.619 8       341.384          50.000
G14  22281291.703 7 117089001.507 7      1512.277          42.000    22281291.070 6  91238193.274 6      1178.398          37.000
G22  21372872.383 8 112315252.511 8      1849.668          51.000    21372868.906 8  87518387.266 8      1441.300          49.000
G27  23039254.898 8 121072065.147 8     -3410.883          49.000    23039254.859 8  94341871.117 8     -2657.831          49.000
G32  22009983.953 5 115663246.118 5        59.961          33.000
R02  19940100.180 8 106404201.030 8     -1977.707          51.000    19940103.336 8  82758819.866 8     -1538.220          49.000
R03  19804595.188 8 106015594.227 8      2269.895          50.000    19804599.805 7  82456585.455 7      1765.474          47.000
R17  20201672.789 8 108103219.197 8     -2004.902          51.000    20201674.742 7  84080287.611 7     -1559.372          46.000
R18  19582901.562 6 104534883.850 6      1439.273          36.000    19582909.984 5  81304914.869 5      1119.435          31.000
C05                                                                  39649062.484 6 159650350.248 6       -18.830          39.000
C28  22339421.305 8 116327200.231 8     -1811.344          51.000
E19  24815347.523 8 130405530.528 8      1827.172          49.000    24815349.688 8  99921134.665 8      1399.987          48.000
E33  24437313.578 8 128418931.617 8     -1344.883          49.000    24437315.633 8  98398908.253 8     -1030.578          48.000
> 2020 05 05 19 05 30.0000000  0 15        .000000000000
G03  23006576.359 7 120900379.821 7      3181.336          42.000    23006579.133 7  94208145.888 7      2478.966          42.000
G08  20943297.133 8 110057748.852 8     -1902.633          51.000    20943297.469 8  85759283.874 8     -1482.571          51.000
G11  19886824.719 8 104505966.144 8       417.691          50.000    19886824.055 8  81433225.815 8       325.474          50.000
G14  22272720.703 6 117043962.879 6      1492.391          39.000    22272720.594 6  91203098.249 6      1162.905          37.000
G22  21362366.273 8 112260041.944 8      1833.176          51.000    21362363.023 8  87475366.040 8      1428.449          48.000
G27  23058767.352 8 121174602.554 8     -3422.664          49.000    23058768.156 8  94421770.379 8     -2667.011          49.000
G32  22009712.742 5 115661832.668 5        36.234          33.000    22009709.523 5  90126100.888 5        28.235          34.000
R02  19951298.258 8 106463956.640 8     -2003.688          51.000    19951301.617 8  82805296.459 8     -1558.424          50.000
R03  19791955.094 8 105947930.609 8      2243.332          50.000    19791959.352 7  82403958.223 7      1744.817          46.000
R17  20212974.617 8 108163696.690 8     -2024.625          51.000    20212976.930 7  84127325.641 7     -1574.711          47.000
R18  19574872.258 5 104492019.965 5      1420.773          35.000    19574879.227 5  81271576.312 5      1105.052          31.000
C05                                                                  39649219.484 6 159650982.445 6       -21.718          39.000
C28  22349906.172 8 116381797.447 8     -1826.348          51.000
E19  24804966.859 8 130350981.200 8      1811.664          49.000    24804969.539 8  99879337.157 8      1388.119          49.000
E33  24445027.008 8 128459467.722 8     -1355.320          48.000    24445029.094 8  98429968.373 8     -1038.447          48.000
> 2020 05 05 19 06  0.0000000  0 16        .000000000000
G03  22988429.438 7 120805017.860 7      3173.547          42.000    22988431.523 6  94133837.918 6      2472.897          41.000
G08  20954196.266 8 110115025.370 8     -1918.086          51.000    20954197.109 8  85803914.915 8     -1494.612          51.000
G11  19884480.281 8 104493646.081 8       401.371          50.000    19884479.633 8  81423625.753 8       312.757          50.000
G14  22264236.812 6 116999386.317 6      1476.957          37.000    22264237.867 6  91168363.218 6      1150.873          36.000
G22  21351929.250 8 112205197.165 8      1820.945          51.000    21351926.367 8  87432629.831 8      1418.918          48.000
G27  23078321.336 8 121277356.921 8     -3429.969          49.000    23078322.320 8  94501838.693 8     -2672.703          49.000
G32  22009552.000 5 115660990.936 5        18.031          33.000    22009554.492 5  90125445.029 5        14.053          32.000
R02  19962616.352 8 106524351.588 8     -2025.094          51.000    19962619.953 8  82852270.300 8     -1575.076          50.000
R03  19779438.477 8 105880927.097 8      2221.113          50.000    19779442.102 7  82351844.419 7      1727.536          45.000
R17  20224361.555 8 108224630.020 8     -2039.930          51.000    20224364.195 7  84174718.206 7     -1586.615          47.000
R18  19566922.766 6 104449582.310 6      1406.254          36.000    19566928.523 5  81238569.291 5      1093.756          32.000
C05                                                                  39649374.461 6 159651606.283 6       -21.512          39.000
C14  24475082.531 4 127448177.016 4     -2799.230          29.000    24475072.875 4  98550979.713 4     -2163.724          28.000
C28  22360453.289 8 116436717.183 8     -1837.254          51.000
E19  24794650.359 8 130296768.904 8      1800.242          48.000    24794653.625 8  99837797.878 8      1379.421          49.000
E33  24452775.898 8 128500188.319 8     -1361.598          49.000    24452778.102 8  98461169.868 8     -1043.224          49.000
> 2020 05 05 19 06 30.0000000  0 16        .000000000000
G03  22970337.508 6 120709946.209 6      3166.145          41.000    22970339.727 6  94059756.188 6      2467.129          41.000
G08  20965193.945 8 110172821.174 8     -1933.273          51.000    20965195.531 8  85848950.574 8     -1506.450          51.000
G11  19882239.023 8 104481868.635 8       385.469          50.000    19882238.508 8  81414448.525 8       300.365          50.000
G14  22255851.836 6 116955331.733 6      1461.789          38.000    22255853.531 5  91134035.062 5      1139.056          31.000
G22  21341572.781 8 112150776.885 8      1808.855          50.000    21341570.203 8  87390224.424 8      1409.501          48.000
G27  23097926.906 8 121380384.378 8     -3436.793          48.000    23097928.180 8  94582119.770 8     -2678.020          48.000
G32  22009511.930 6 115660779.051 6        -1.180          38.000    22009513.867 6  90125279.932 6         -.922          37.000
R02  19974064.398 8 106585440.907 8     -2045.906          51.000    19974067.969 8  82899784.225 8     -1591.260          50.000
R03  19767056.586 8 105814644.806 8      2199.277          49.000    19767059.516 7  82300291.546 7      1710.549          45.000
R17  20235844.297 8 108286077.804 8     -2054.945          51.000    20235847.180 7  84222510.903 7     -1598.294          46.000
R18  19559064.625 5 104407632.490 5      1392.570          35.000    19559071.672 5  81205941.632 5      1083.110          35.000
C05                                                                  39649538.305 6 159652266.196 6       -21.138          39.000
C14  24491231.586 5 127532253.096 5     -2804.285          30.000
C28  22371073.250 8 116492016.576 8     -1847.723          51.000
E19  24784409.289 8 130242952.935 8      1789.000          48.000    24784412.797 8  99796562.287 8      1370.795          50.000
E33  24460571.203 8 128541151.749 8     -1367.602          49.000    24460573.750 8  98492557.422 8     -1047.950          50.000
> 2020 05 05 19 07  0.0000000  0 16        .000000000000
G03  22952290.164 7 120615107.139 7      3155.492          43.000    22952292.930 7  93985855.672 7      2458.825          43.000
G08  20976279.102 8 110231075.887 8     -1951.457          51.000    20976281.344 8  85894343.818 8     -1520.616          51.000
G10  23886539.734 5 125524612.538 5     -3195.605          32.000
G11  19880089.961 8 104470575.708 8       366.395          49.000    19880089.594 8  81405648.825 8       285.502          49.000
G14  22247556.742 6 116911741.987 6      1443.500          40.000    22247557.336 5  91100069.098 5      1124.808          34.000
G22  21331286.305 8 112096722.125 8      1793.785          51.000    21331283.578 8  87348103.870 8      1397.758          48.000
G27  23117572.570 7 121483623.788 7     -3446.785          47.000    23117574.242 7  94662566.016 7     -2685.807          47.000
R02  19985630.945 8 106647161.959 8     -2069.840          51.000    19985634.633 8  82947789.473 8     -1609.878          50.000
R03  19754798.312 8 105749025.421 8      2174.312          50.000    19754801.250 7  82249254.263 7      1691.132          46.000
R17  20247412.305 8 108347979.529 8     -2072.902          50.000    20247414.969 7  84270656.675 7     -1612.257          46.000
R18  19551286.898 6 104366112.777 6      1374.609          37.000    19551294.344 5  81173648.507 5      1069.144          35.000
C05                                                                  39649699.867 6 159652916.907 6       -23.137          39.000
C14  24507409.953 4 127616512.427 4     -2812.602          27.000
C28  22381754.719 8 116547636.581 8     -1861.266          51.000
E19  24774232.688 8 130189474.954 8      1775.062          48.000    24774236.422 8  99755585.701 8      1360.023          50.000
E33  24468401.516 8 128582299.067 8     -1376.586          51.000    24468404.039 8  98524085.880 8     -1054.838          50.000
> 2020 05 05 19 07 30.0000000  0 14        .000000000000
G03  22934287.500 7 120520502.501 7      3149.375          44.000    22934290.828 7  93912137.786 7      2454.058          43.000
G08  20987451.594 8 110289788.392 8     -1964.957          51.000    20987454.555 8  85940093.829 8     -1531.135          51.000
G11  19878033.516 8 104459768.997 8       351.770          49.000    19878033.047 8  81397228.013 8       274.106          49.000
G14  22239351.422 6 116868619.550 6      1429.469          39.000    22239349.680 5  91066467.252 5      1113.884          32.000
G22  21321070.016 8 112043034.207 8      1783.250          51.000    21321067.492 8  87306269.167 8      1389.545          49.000
G27  23137257.641 7 121587073.701 7     -3452.141          44.000    23137260.109 7  94743176.312 7     -2689.980          44.000
R02  19997315.453 8 106709512.151 8     -2089.051          51.000    19997318.930 8  82996284.071 8     -1624.817          50.000
R03  19742664.516 8 105684071.389 8      2153.734          51.000    19742667.648 7  82198734.480 7      1675.127          47.000
R17  20259064.656 8 108410335.500 8     -2086.465          50.000    20259067.609 7  84319155.717 7     -1622.806          45.000
R18  19543590.070 6 104325025.931 6      1362.477          37.000    19543596.992 5  81141692.041 5      1059.704          34.000
C05                                                                  39649859.328 6 159653558.878 6       -21.512          39.000
C28  22392497.562 8 116603577.304 8     -1870.324          51.000
E19  24764120.930 8 130136337.015 8      1765.293          48.000    24764124.578 8  99714869.636 8      1352.636          49.000
E33  24476266.969 8 128623630.945 8     -1381.051          51.000    24476269.180 8  98555755.760 8     -1058.226          50.000
> 2020 05 05 19 08  0.0000000  0 16        .000000000000
G01  20989207.867 5 110299031.573 5      1647.352          30.000
G03  22916331.883 7 120426145.301 7      3140.734          46.000    22916335.797 7  93838612.731 7      2447.325          44.000
G08  20998713.242 8 110348969.488 8     -1980.922          51.000    20998716.961 8  85986208.975 8     -1543.575          51.000
G10  23923033.242 5 125716387.477 5     -3200.203          32.000
G11  19876072.016 8 104449461.165 8       334.820          49.000    19876071.406 8  81389195.931 8       260.899          49.000
G14  22231237.195 7 116825977.580 7      1413.051          42.000    22231235.797 5  91033239.812 5      1101.079          34.000
G22  21310925.789 8 111989725.023 8      1770.281          51.000    21310923.781 8  87264729.553 8      1379.440          50.000
G27  23156984.594 7 121690743.752 7     -3459.590          43.000    23156987.938 7  94823958.142 7     -2695.784          43.000
R02  20009119.461 8 106772500.153 8     -2110.641          51.000    20009122.633 8  83045274.713 8     -1641.609          50.000
R03  19730657.953 8 105619796.685 8      2130.789          51.000    19730660.891 7  82148743.079 7      1657.280          47.000
R17  20270804.109 8 108473157.002 8     -2102.219          50.000    20270806.891 7  84368016.846 7     -1635.062          45.000
R18  19535977.039 5 104284386.409 5      1347.059          35.000    19535981.250 5  81110083.573 5      1047.712          33.000
C05                                                                  39650018.750 6 159654200.991 6       -21.639          39.000
C28  22403303.688 8 116659849.809 8     -1881.617          51.000
E19  24754076.156 7 130083551.495 7      1753.180          47.000    24754079.641 8  99674423.609 8      1343.408          49.000
E33  24484169.406 8 128665159.283 8     -1387.922          51.000    24484171.562 8  98587576.150 8     -1063.455          50.000
> 2020 05 05 19 08 30.0000000  0 14        .000000000000
G03  22898423.906 8 120332037.430 8      3132.680          48.000    22898428.094 7  93765281.963 7      2441.049          43.000
G08  21010064.031 8 110408618.305 8     -1996.102          51.000    21010068.188 8  86032688.569 8     -1555.404          51.000
G11  19874205.812 8 104439653.994 8       318.430          49.000    19874205.148 8  81381553.967 8       248.127          49.000
G14  22223214.883 7 116783818.517 7      1396.922          43.000    22223214.648 5  91000388.664 5      1088.514          33.000
G22  21300853.852 8 111936795.380 8      1757.945          51.000    21300851.898 8  87223485.671 8      1369.828          49.000
G27  23176753.555 7 121794632.555 7     -3466.637          44.000    23176757.438 7  94904910.434 7     -2701.275          43.000
R02  20021042.250 8 106836122.833 8     -2131.301          51.000    20021045.703 8  83094759.034 8     -1657.678          50.000
R03  19718778.711 8 105556203.777 8      2108.414          51.000    19718780.773 7  82099281.953 7      1639.881          45.000
R17  20282630.688 8 108536444.398 8     -2117.414          51.000    20282633.516 7  84417240.316 7     -1646.881          45.000
R18  19528447.711 6 104244196.847 6      1332.238          37.000    19528451.812 5  81078825.055 5      1036.191          33.000
C05                                                                  39650178.391 6 159654843.717 6       -21.373          39.000
C28  22414173.477 8 116716454.224 8     -1892.387          51.000
E19  24744098.914 7 130031120.397 7      1741.730          47.000    24744101.719 8  99634249.161 8      1334.621          48.000
E33  24492109.680 8 128706884.819 8     -1394.180          51.000    24492111.523 8  98619547.653 8     -1068.345          50.000
> 2020 05 05 19 09  0.0000000  0 14        .000000000000
G03  22880563.109 8 120238176.893 8      3124.348          49.000    22880567.602 7  93692143.932 7      2434.560          45.000
G08  21021503.234 8 110468730.561 8     -2011.605          51.000    21021507.055 8  86079529.271 8     -1567.488          51.000
G11  19872434.273 8 104430344.678 8       301.734          49.000    19872433.766 8  81374299.955 8       235.118          49.000
G14  22215284.062 6 116742140.900 6      1380.895          39.000    22215283.891 6  90967912.599 6      1076.025          36.000
G22  21290853.992 8 111884242.610 8      1745.266          51.000    21290851.531 8  87182535.473 8      1359.947          49.000
G27  23196563.148 7 121898734.656 7     -3473.832          43.000    23196567.703 7  94986028.964 7     -2706.882          43.000
R02  20033082.898 8 106900373.897 8     -2152.355          50.000    20033086.250 8  83144732.076 8     -1674.054          50.000
R03  19707025.883 8 105493291.225 8      2085.500          51.000    19707027.328 7  82050350.004 7      1622.056          44.000
R17  20294543.977 8 108600194.038 8     -2132.855          51.000    20294546.531 7  84466823.347 7     -1658.888          46.000
R18  19521002.242 6 104204456.725 6      1316.754          36.000    19521005.961 5  81047916.036 5      1024.139          33.000
C05                                                                  39650337.547 6 159655484.528 6       -21.528          39.000
C28  22425106.477 8 116773386.787 8     -1903.324          51.000
E19  24734188.578 7 129979041.207 7      1729.922          47.000    24734190.695 7  99594344.343 7      1325.483          47.000
E33  24500086.891 8 128748804.406 8     -1400.719          51.000    24500088.492 8  98651667.836 8     -1073.299          50.000
> 2020 05 05 19 09 30.0000000  0 16        .000000000000
G03  22862746.805 8 120144550.050 8      3116.562          48.000    22862751.617 7  93619188.015 7      2428.490          45.000
G08  21033027.383 8 110529289.315 8     -2026.434          51.000    21033030.680 8  86126717.891 8     -1579.039          51.000
G10  23977903.164 5 126004731.486 5     -3207.785          31.000
G11  19870754.875 8 104421519.343 8       285.723          48.000    19870754.656 8  81367423.065 8       222.638          48.000
G14  22207441.891 6 116700931.091 6      1365.492          39.000    22207442.547 5  90935801.046 5      1064.020          33.000
G22  21280922.820 8 111832052.136 8      1733.223          51.000    21280919.984 8  87141867.583 8      1350.563          49.000
G27  23216410.383 7 122003033.118 7     -3480.312          45.000    23216415.039 7  95067300.485 7     -2711.932          45.000
R02  20045237.648 8 106965234.889 8     -2172.516          50.000    20045241.320 8  83195179.548 8     -1689.734          50.000
R03  19695397.359 8 105431045.448 8      2063.371          50.000    19695398.641 7  82001936.671 7      1604.847          45.000
R17  20306540.648 8 108664390.146 8     -2147.730          51.000    20306543.375 7  84516753.628 7     -1670.460          47.000
R18  19513638.789 6 104165153.026 6      1302.293          38.000    19513642.883 5  81017346.454 5      1012.891          34.000
C05                                                                  39650493.328 6 159656111.887 6       -20.887          39.000
C14  24588812.656 5 128040405.513 5     -2841.023          31.000    24588814.219 5  99008959.082 5     -2196.775          32.000
C28  22436099.852 8 116830632.176 8     -1913.754          51.000
E19  24724342.570 7 129927300.185 7      1718.684          47.000    24724343.508 7  99554698.625 7      1316.877          45.000
E33  24508098.000 8 128790903.252 8     -1406.664          50.000    24508099.500 8  98683925.368 8     -1077.890          49.000
> 2020 05 05 19 10  0.0000000  0 17        .000000000000
G03  22844985.023 7 120051210.593 7      3109.465          47.000    22844989.883 7  93546456.016 7      2422.963          45.000
G08  21044646.031 8 110590345.991 8     -2040.500          51.000    21044648.859 8  86174294.500 8     -1590.000          51.000
G11  19869177.703 8 104413231.596 8       270.316          48.000    19869177.742 8  81360965.079 8       210.636          48.000
G14  22199699.484 6 116660243.420 6      1350.617          41.000    22199700.812 5  90904096.363 5      1052.429          35.000
G22  21271070.055 8 111780276.660 8      1721.973          51.000    21271067.242 8  87101523.054 8      1341.797          49.000
G27  23236304.945 7 122107578.257 7     -3486.078          46.000    23236308.555 7  95148764.217 7     -2716.425          45.000
G32  22012308.414 5 115675457.707 5      -136.152          33.000    22012317.602 5  90136753.216 5      -106.093          30.000
R02  20057516.297 8 107030755.675 8     -2191.883          50.000    20057520.008 8  83246140.129 8     -1704.798          50.000
R03  19683903.695 8 105369521.829 8      2041.793          51.000    19683905.000 7  81954085.028 7      1588.061          44.000
R17  20318630.438 8 108729085.551 8     -2161.766          51.000    20318633.609 7  84567072.244 7     -1681.373          47.000
R18  19506368.492 6 104126340.963 6      1288.324          39.000    19506372.211 5  80987159.343 5      1002.036          34.000
C05                                                                  39650655.812 6 159656765.990 6       -19.945          39.000
C14  24605202.570 5 128125749.892 5     -2845.375          33.000    24605204.234 5  99074952.733 5     -2200.161          33.000
C27  21759311.180 5 113306437.742 5      1076.891          35.000
C28  22447163.375 8 116888241.791 8     -1923.480          51.000
E19  24714571.250 8 129875950.857 8      1708.113          49.000    24714570.883 7  99515353.032 7      1308.814          45.000
E33  24516153.344 8 128833233.903 8     -1411.965          49.000    24516154.164 8  98716360.512 8     -1081.853          48.000
> 2020 05 05 19 10 30.0000000  0 16        .000000000000
G03  22827266.391 8 119958097.435 8      3096.531          49.000    22827270.328 7  93473900.347 7      2412.881          43.000
G08  21056347.070 8 110651837.106 8     -2060.355          50.000    21056349.984 8  86222209.649 8     -1605.472          50.000
G11  19867691.148 8 104405419.883 8       248.918          49.000    19867691.227 8  81354878.022 8       193.962          48.000
G14  22192045.375 7 116620016.880 7      1329.746          43.000    22192045.844 5  90872751.009 5      1036.163          35.000
G22  21261284.477 8 111728854.070 8      1704.773          51.000    21261281.555 8  87061453.519 8      1328.395          48.000
G27  23256234.383 7 122212305.756 7     -3497.414          47.000    23256235.828 7  95230369.991 7     -2725.261          47.000
R02  20069905.922 8 107096869.520 8     -2217.223          49.000    20069909.477 8  83297562.029 8     -1724.507          49.000
R03  19672533.852 8 105308658.547 8      2014.242          50.000    19672534.469 7  81906746.912 7      1566.633          44.000
R17  20330801.789 8 108794216.073 8     -2181.777          51.000    20330804.930 7  84617729.276 7     -1696.938          46.000
R18  19499179.133 6 104087959.703 6      1268.668          40.000    19499182.273 6  80957307.288 6       986.745          36.000
C05                                                                  39650812.984 6 159657399.047 6       -23.539          39.000
C14  24621620.531 5 128211243.113 5     -2855.848          33.000    24621622.125 5  99141061.477 5     -2208.513          33.000
C27  21753149.742 6 113274349.670 6      1060.629          36.000
C28  22458284.961 8 116946153.327 8     -1938.852          51.000
E19  24704862.805 8 129824931.668 8      1691.559          49.000    24704861.961 7  99476260.438 7      1296.150          46.000
E33  24524240.914 8 128875734.140 8     -1423.035          49.000    24524241.078 7  98748925.626 7     -1090.452          47.000
> 2020 05 05 19 11  0.0000000  0 18        .000000000000
G03  22809591.078 8 119865212.564 8      3098.848          49.000    22809593.367 7  93401522.607 7      2414.690          42.000
G08  21068130.828 8 110713761.916 8     -2064.844          50.000    21068133.859 8  86270462.743 8     -1608.969          50.000
G10  24032942.734 5 126293960.918 5     -3209.293          35.000    24032945.539 5  98410893.497 5     -2500.739          35.000
G11  19866295.594 8 104398085.978 8       242.996          49.000    19866295.531 8  81349163.283 8       189.348          49.000
G14  22184479.383 6 116580254.018 6      1324.184          41.000    22184478.859 6  90841767.033 6      1031.841          36.000
G22  21251566.133 8 111677785.558 8      1702.859          51.000    21251563.297 7  87021659.900 7      1326.903          47.000
G27  23276198.477 7 122317214.241 7     -3493.500          47.000    23276197.445 8  95312116.774 8     -2722.208          48.000
G32  22014096.133 5 115684847.383 5      -167.969          33.000    22014100.680 5  90144009.014 5      -130.891          33.000
R02  20082406.352 7 107163573.437 7     -2226.578          47.000    20082409.695 8  83349442.849 8     -1731.783          49.000
R03  19661288.055 8 105248458.121 8      2002.246          49.000    19661288.594 7  81859924.358 7      1557.303          46.000
R17  20343054.617 8 108859782.355 8     -2186.184          51.000    20343057.547 7  84668725.239 7     -1700.368          46.000
R18  19492070.641 6 104050012.519 6      1264.070          40.000    19492074.016 6  80927792.772 6       983.166          37.000
C05                                                                  39650965.117 6 159658011.613 6       -15.142          39.000
C14  24638066.117 5 128296883.864 5     -2851.168          31.000    24638068.320 4  99207284.283 4     -2204.058          29.000
C27  21747049.164 5 113242588.739 5      1059.762          35.000
C28  22469464.594 8 117004366.977 8     -1939.062          51.000
E19  24695217.430 8 129774244.547 8      1690.547          50.000    24695217.188 7  99437422.303 7      1295.240          47.000
E33  24532360.820 8 128918404.862 8     -1418.777          48.000    24532360.859 7  98781621.355 7     -1087.088          46.000
> 2020 05 05 19 11 30.0000000  0 16        .000000000000
G03  22791964.320 8 119772583.188 8      3080.902          50.000    22791964.938 6  93329343.946 6      2400.706          41.000
G08  21080001.984 8 110776144.942 8     -2089.570          51.000    21080005.305 8  86319072.885 8     -1628.237          51.000
G10  24051314.398 6 126390493.643 6     -3221.695          36.000    24051315.734 6  98486113.789 6     -2510.412          37.000
G11  19864996.039 8 104391256.436 8       216.820          49.000    19864995.797 8  81343841.556 8       168.951          49.000
G14  22177006.570 6 116540982.548 6      1298.406          40.000    22177006.055 6  90811165.917 6      1011.745          36.000
G22  21241919.930 8 111627097.483 8      1680.805          51.000    21241917.375 7  86982162.698 7      1309.718          47.000
G27  23296201.320 7 122422327.549 7     -3509.770          46.000    23296200.367 7  95394023.192 7     -2734.885          46.000
R02  20095021.391 7 107230891.076 7     -2256.520          46.000    20095025.062 8  83401801.031 8     -1755.071          48.000
R03  19650171.117 8 105188948.548 8      1969.613          48.000    19650172.891 8  81813639.159 8      1531.921          48.000
R17  20355393.781 8 108925810.170 8     -2211.207          51.000    20355396.219 7  84720080.163 7     -1719.828          45.000
R18  19485048.492 6 104012527.804 6      1239.238          39.000    19485051.516 6  80898638.001 6       963.849          37.000
C05                                                                  39651117.094 6 159658623.489 6       -22.277          39.000
C27  21741016.789 5 113211182.086 5      1038.438          35.000
C28  22480706.945 8 117062907.880 8     -1959.176          51.000
E19  24685640.352 8 129723916.392 8      1669.125          50.000    24685640.594 7  99398859.193 7      1278.895          47.000
E33  24540517.883 8 128961272.175 8     -1434.664          49.000    24540518.422 7  98814467.689 7     -1099.264          46.000
> 2020 05 05 19 12  0.0000000  0 16        .000000000000
G03  22774397.273 8 119680267.980 8      3073.152          50.000    22774396.961 7  93257410.074 7      2394.667          42.000
G08  21091970.992 8 110839041.956 8     -2103.852          51.000    21091974.617 8  86368083.536 8     -1639.365          51.000
G10  24069710.836 6 126487165.448 6     -3223.180          36.000    24069712.438 6  98561442.451 6     -2511.572          36.000
G11  19863803.633 8 104384989.801 8       200.758          50.000    19863803.328 8  81338958.460 8       156.435          50.000
G14  22169638.047 6 116502261.363 6      1282.781          38.000    22169638.250 5  90780993.615 5       999.573          34.000
G22  21232357.391 8 111576847.486 8      1668.961          51.000    21232355.172 8  86943006.841 8      1300.489          48.000
G27  23316253.344 7 122527701.020 7     -3515.555          46.000    23316253.922 7  95476132.380 7     -2739.393          46.000
R02  20107761.875 7 107298877.148 7     -2275.977          46.000    20107765.773 7  83454679.099 7     -1770.204          47.000
R03  19639194.695 8 105130190.050 8      1947.363          50.000    19639197.625 8  81767938.097 8      1514.616          49.000
R17  20367829.953 8 108992357.459 8     -2225.609          51.000    20367832.039 7  84771839.144 7     -1731.030          45.000
R18  19478124.102 6 103975566.469 6      1224.535          40.000    19478127.688 6  80869890.341 6       952.416          37.000
C05                                                                  39651279.812 6 159659278.682 6       -21.606          39.000
C27  21735064.438 5 113180187.657 5      1027.387          34.000
C28  22492022.664 8 117121832.374 8     -1969.281          51.000
E19  24676142.703 8 129674005.428 8      1657.941          51.000    24676143.570 8  99360615.761 8      1270.386          48.000
E33  24548723.562 8 129004393.584 8     -1440.363          50.000    24548723.805 7  98847508.738 7     -1103.574          46.000
> 2020 05 05 19 12 30.0000000  0 16        .000000000000
G03  22756899.609 8 119588318.066 8      3056.086          48.000    22756899.188 7  93185760.852 7      2381.369          42.000
G08  21104047.305 8 110902501.859 8     -2127.586          51.000    21104050.680 8  86417532.805 8     -1657.859          51.000
G10  24088143.078 6 126584024.712 6     -3235.309          36.000    24088144.367 5  98636917.155 5     -2521.020          35.000
G11  19862727.984 8 104379336.786 8       175.238          50.000    19862727.523 8  81334553.506 8       136.549          50.000
G14  22162383.859 6 116464141.929 6      1257.992          38.000    22162384.680 5  90751290.180 5       980.257          34.000
G22  21222888.086 8 111527085.690 8      1647.629          51.000    21222885.969 8  86904231.425 8      1283.867          48.000
G27  23336364.102 8 122633382.485 8     -3530.570          48.000    23336365.594 8  95558481.570 8     -2751.094          48.000
R02  20120636.570 7 107367578.687 7     -2304.801          46.000    20120640.703 7  83508113.678 7     -1792.623          46.000
R03  19628368.109 8 105072234.885 8      1915.457          51.000    19628371.750 8  81722861.886 8      1489.800          49.000
R17  20380372.141 8 109059474.419 8     -2249.668          50.000    20380374.242 7  84824041.201 7     -1749.742          45.000
R18  19471307.609 6 103939181.109 6      1200.156          40.000    19471311.289 6  80841590.608 6       933.455          38.000
C05                                                                  39651462.781 6 159660015.372 6       -28.191          39.000
C27  21729199.500 5 113149656.496 5      1007.309          32.000
C28  22503421.508 8 117181189.318 8     -1988.609          51.000
E19  24666734.336 8 129624562.952 8      1637.355          51.000    24666735.344 7  99322731.268 7      1254.651          47.000
E33  24556987.344 8 129047819.150 8     -1455.570          51.000    24556987.297 7  98880782.847 7     -1115.328          47.000
> 2020 05 05 19 13  0.0000000  0 16        .000000000000
G03  22739434.438 7 119496540.714 7      3056.465          47.000    22739435.055 7  93114246.117 7      2381.664          42.000
G08  21116193.539 8 110966329.033 8     -2133.449          51.000    21116196.453 8  86467268.256 8     -1662.431          51.000
G10  24106573.047 6 126680875.567 6     -3227.809          36.000    24106574.992 6  98712385.302 6     -2515.179          37.000
G11  19861732.406 8 104374104.272 8       167.551          51.000    19861731.828 8  81330476.214 8       130.559          50.000
G14  22155207.188 6 116426431.927 6      1250.262          36.000    22155208.609 5  90721905.713 5       974.224          35.000
G22  21213474.984 8 111477618.794 8      1644.117          51.000    21213472.305 7  86865685.826 7      1281.133          47.000
G27  23356496.422 8 122739175.956 8     -3528.098          50.000    23356498.133 8  95640918.019 8     -2749.167          50.000
R02  20133607.773 7 107436795.364 7     -2315.688          45.000    20133611.508 7  83561948.853 7     -1801.090          46.000
R03  19617655.156 8 105014887.258 8      1901.637          51.000    19617658.758 8  81678258.197 8      1479.051          48.000
R17  20392983.805 8 109126962.870 8     -2255.609          50.000    20392985.828 7  84876532.206 7     -1754.366          44.000
R18  19464563.102 7 103903177.311 7      1194.012          42.000    19464566.578 6  80813587.648 6       928.676          39.000
C05                                                                  39651629.062 6 159660684.910 6       -21.222          39.000
C27  21723387.125 5 113119397.620 5      1004.156          34.000
C28  22514866.328 8 117240785.930 8     -1990.375          51.000
E19  24657378.242 8 129575395.529 8      1634.508          50.000    24657379.445 8  99285057.546 8      1252.355          48.000
E33  24565272.180 8 129091354.999 8     -1452.914          51.000    24565272.742 8  98914141.437 8     -1113.305          48.000
> 2020 05 05 19 13 30.0000000  0 16        .000000000000
G03  22722015.070 7 119405003.908 7      3047.012          47.000    22722017.641 7  93042918.801 7      2374.298          44.000
G08  21128421.906 8 111030588.646 8     -2149.332          51.000    21128424.406 8  86517340.644 8     -1674.804          51.000
G10  24125013.289 5 126777783.214 5     -3231.355          35.000    24125016.227 5  98787897.716 5     -2517.936          35.000
G11  19860829.633 8 104369359.606 8       149.793          51.000    19860828.914 8  81326779.056 8       116.722          50.000
G14  22148121.195 6 116389199.095 6      1233.293          37.000    22148123.078 5  90692893.127 5       961.014          35.000
G22  21204130.602 8 111428513.716 8      1630.664          51.000    21204127.477 7  86827422.146 7      1270.647          47.000
G27  23376662.391 8 122845146.060 8     -3535.441          51.000    23376664.047 8  95723492.088 8     -2754.889          51.000
R02  20146687.734 7 107506592.391 7     -2336.352          46.000    20146691.609 7  83616235.464 7     -1817.162          45.000
R03  19607069.234 8 104958216.816 8      1877.523          51.000    19607071.867 7  81634181.195 7      1460.296          47.000
R17  20405677.594 8 109194890.325 8     -2271.734          50.000    20405679.539 7  84929364.633 7     -1766.908          44.000
R18  19457903.117 7 103867625.114 7      1177.555          42.000    19457906.414 6  80785935.925 6       915.876          40.000
C05                                                                  39651791.344 6 159661338.440 6       -21.679          39.000
C27  21717641.766 6 113089478.364 6       991.230          37.000
C28  22526369.719 8 117300687.742 8     -2001.945          51.000
E19  24648087.188 8 129526571.122 8      1621.551          50.000    24648088.055 7  99247646.665 7      1242.484          47.000
E33  24573590.648 8 129135068.006 8     -1460.234          51.000    24573591.953 8  98947635.780 8     -1118.893          49.000
> 2020 05 05 19 14  0.0000000  0 16        .000000000000
G03  22704645.672 7 119313729.826 7      3037.922          46.000    22704650.477 7  92971796.190 7      2367.215          45.000
G08  21140736.188 8 111095300.382 8     -2164.746          51.000    21140737.984 8  86567765.339 8     -1686.815          51.000
G10  24143467.898 6 126874766.769 6     -3233.871          36.000    24143471.875 5  98863469.279 5     -2519.903          35.000
G11  19860023.977 8 104365124.928 8       132.305          51.000    19860023.031 8  81323479.300 8       103.095          50.000
G14  22141131.414 7 116352466.498 7      1215.820          43.000    22141133.414 6  90664270.339 6       947.392          36.000
G22  21194859.148 8 111379791.067 8      1617.391          51.000    21194856.242 8  86789456.448 8      1260.301          48.000
G27  23396865.312 8 122951311.625 8     -3542.387          51.000    23396866.820 8  95806218.454 8     -2760.301          51.000
R02  20159879.609 7 107576986.492 7     -2356.770          46.000    20159883.391 7  83670986.438 7     -1833.043          43.000
