     3.02           OBSERVATION DATA    M (MIXED)           RINEX VERSION / TYPE
SAVERINEX           SC600               20200519 005932 LCL PGM / RUN BY / DATE
       G = GPS       R = GLONASS       C = COMPASS          COMMENT
       S = SBAS      J = QZSS          E = GALILEO          COMMENT
BEAN                                                        MARKER NAME
1                                                           MARKER NUMBER
GEODETIC                                                    MARKER TYPE
Unige DICCA         GTER                                    OBSERVER / AGENCY
SC60291900056       SC600               2.12(191202)        REC # / TYPE / VERS
                    HEMA45          NONE                    ANT # / TYPE
  4509407.8091   693652.4678  4442337.6214                  APPROX POSITION XYZ
        0.0000        0.0000        0.0000                  ANTENNA: DELTA H/E/N
G    8 C1C L1C D1C S1C C2Y L2Y D2Y S2Y                      SYS / # / OBS TYPES
R    8 C1C L1C D1C S1C C2P L2P D2P S2P                      SYS / # / OBS TYPES
C    4 C1I L1I D1I S1I                                      SYS / # / OBS TYPES
E    8 C1C L1C D1C S1C C7Q L7Q D7Q S7Q                      SYS / # / OBS TYPES
DBHZ                                                        COMMENT
     30.000                                                 INTERVAL
  2020    05    18    22    00    0.0000000     GPS         TIME OF FIRST OBS
  2020    05    18    22    59   30.0000000     GPS         TIME OF LAST OBS
     0                                                      RCV CLOCK OFFS APPL
G L1C  0.00000                                              SYS / PHASE SHIFT
G L2Y  0.00000                                              SYS / PHASE SHIFT
R L1C  0.00000                                              SYS / PHASE SHIFT
R L2P  0.25000                                              SYS / PHASE SHIFT
C L1I  0.00000                                              SYS / PHASE SHIFT
E L1C  0.50000                                              SYS / PHASE SHIFT
E L7Q -0.25000                                              SYS / PHASE SHIFT
 11 R01  1 R02 -4 R03  5 R08  6 R09 -2 R10 -7 R11  0 R12 -1 GLONASS SLOT / FRQ #
    R17  4 R22 -3 R23  3                                    GLONASS SLOT / FRQ #
 C1C   71.950 C2C   71.950 C2P   71.950                     GLONASS COD/PHS/BIS
    18                                                      LEAP SECONDS
*** Above antenna height is from mark to ANTENNA BOTTOM.    COMMENT
    17     4        0.0000        ANT MEASURE TYPE/HEIGT    COMMENT
    0.0000    0.0000    0.0458    0.0405    0.0000          COMMENT
                    BASE STATION                            COMMENT
                                                            END OF HEADER
> 2020 05 18 22 00  0.0000000  0 17        .000000000000
G01  23783472.930 7 124982972.873 7     -3612.668          45.000    23783475.070 7  97389340.840 7     -2815.066          45.000
G03  21221399.945 6 111519202.531 6     -1734.766          37.000    21221400.383 6  86898084.885 6     -1351.762          38.000
G04  20252238.016 8 106426282.882 8        10.758          50.000    20252239.047 8  82929586.717 8         8.383          51.000
G09  21320072.594 8 112037806.953 8      2254.996          50.000    21320074.484 8  87302196.363 8      1757.140          50.000
G17  22794962.953 8 119788339.365 8     -2068.711          50.000    22794962.586 8  93341546.264 8     -1611.983          50.000
G31  24254357.438 5 127457510.957 5     -2434.906          32.000    24254357.305 5  99317541.469 5     -1897.323          32.000
R03  23443834.766 5 125496686.186 5      3132.551          34.000    23443815.641 4  97608491.758 4      2436.428          27.000
R17  19691324.305 6 105372280.606 6      -154.859          40.000    19691323.086 4  81956178.911 4      -120.446          27.000
R24  21216496.578 8 113454109.111 8     -3832.648          49.000    21216497.766 8  88242108.009 8     -2980.949          48.000
C20  22232988.375 8 115773090.113 8      -979.754          51.000
C23  25822586.102 5 134464956.553 5      -651.586          30.000
C29  23636051.969 8 123079113.004 8     -2672.582          50.000
E04                                                                  25264177.266 5 101728468.452 5     -1567.451          35.000
E05  26077765.414 8 137039607.146 8      2234.430          50.000    26077767.898 8 105004405.933 8      1712.092          49.000
E09  21476620.664 8 112860487.323 8       230.316          51.000    21476622.664 8  86477516.726 8       176.467          51.000
E11  24620072.672 7 129379363.048 7     -2808.348          47.000    24620072.070 7  99134821.437 7     -2151.797          47.000
E36  23503375.570 8 123511077.898 8      -414.383          51.000    23503378.773 8  94638369.651 8      -317.484          51.000
> 2020 05 18 22 00 30.0000000  0 17        .000000000000
G01  23804112.047 7 125091434.842 7     -3620.895          44.000    23804116.125 7  97473856.671 7     -2821.476          44.000
G03  21231327.539 6 111571376.804 6     -1745.977          37.000    21231328.633 6  86938740.203 6     -1360.501          36.000
G04  20252223.227 8 106426204.788 8        -8.492          51.000    20252224.086 8  82929525.854 8        -6.617          51.000
G09  21307234.523 8 111970345.520 8      2239.543          49.000    21307236.688 8  87249629.025 8      1745.098          50.000
G17  22806809.945 8 119850596.016 8     -2084.555          49.000    22806809.617 8  93390057.917 8     -1624.331          49.000
G22  23202500.828 4 121929965.165 4     -2520.840          27.000
G31  24268300.578 5 127530777.942 5     -2452.152          33.000    24268299.133 4  99374632.542 4     -1910.774          28.000
R03  23426308.953 4 125402786.687 4      3124.664          29.000
R17  19692269.742 6 105377345.532 6      -185.887          38.000    19692267.375 5  81960118.369 5      -144.579          31.000
R24  21238037.797 7 113569301.915 7     -3849.672          47.000    21238039.516 8  88331702.427 8     -2994.189          48.000
C20  22238652.641 8 115802585.723 8      -989.445          51.000
C29  23651477.047 8 123159433.475 8     -2684.852          50.000
E04                                                                  25275868.453 6 101775536.350 6     -1572.536          36.000
E05  26065023.992 8 136972650.101 8      2226.574          50.000    26065026.258 8 104953101.210 8      1706.037          49.000
E09  21475330.133 8 112853705.127 8       219.062          51.000    21475331.875 8  86472319.993 8       167.880          51.000
E11  24636123.367 7 129463713.185 7     -2817.715          45.000    24636124.180 8  99199453.368 8     -2159.061          48.000
E36  23505781.602 8 123523721.360 8      -431.395          51.000    23505784.602 8  94648057.481 8      -330.513          51.000
> 2020 05 18 22 01  0.0000000  0 16        .000000000000
G01  23824774.141 7 125200017.529 7     -3619.016          44.000    23824779.383 7  97558466.604 7     -2820.009          44.000
G03  21241297.281 7 111623763.773 7     -1747.422          42.000    21241296.648 7  86979561.213 7     -1361.624          42.000
G04  20252294.781 8 106426580.012 8       -17.539          51.000    20252295.586 8  82929818.253 8       -13.664          51.000
G09  21294462.328 8 111903228.589 8      2233.867          50.000    21294464.609 8  87197330.142 8      1740.679          50.000
G17  22818724.156 8 119913205.474 8     -2090.328          49.000    22818723.695 8  93438844.477 8     -1628.827          49.000
G31  24282319.266 5 127604447.106 5     -2459.414          34.000    24282316.008 5  99432035.429 5     -1916.427          34.000
R17  19693366.000 5 105383218.544 5      -206.578          35.000    19693367.258 5  81964686.227 5      -160.672          33.000
R24  21259649.680 7 113684877.349 7     -3856.305          46.000    21259652.820 7  88421594.462 7     -2999.345          47.000
C19  22510270.812 5 117216848.397 5      1520.434          34.000
C20  22244349.328 8 115832249.959 8      -989.152          51.000
C29  23666949.172 8 123240001.183 8     -2687.227          50.000
E04                                                                  25287573.328 6 101822655.114 6     -1569.441          37.000
E05  26052304.047 8 136905807.964 8      2228.633          48.000    26052306.734 8 104901884.543 8      1707.687          50.000
E09  21474080.016 8 112847135.286 8       217.902          51.000    21474081.453 8  86467285.974 8       166.988          51.000
E11  24652205.297 7 129548230.351 7     -2817.707          43.000    24652207.844 8  99264213.292 8     -2158.971          48.000
E36  23508260.938 8 123536749.298 8      -438.246          51.000    23508263.805 8  94658039.913 8      -335.751          51.000
> 2020 05 18 22 01 30.0000000  0 19        .000000000000
G01  23845433.977 7 125308586.169 7     -3618.094          44.000    23845439.391 7  97643065.582 7     -2819.291          44.000
G03  21251281.609 6 111676230.168 6     -1749.391          41.000    21251280.047 7  87020444.122 7     -1363.162          42.000
G04  20252427.180 8 106427275.019 8       -27.891          51.000    20252427.781 8  82930359.818 8       -21.733          51.000
G09  21281730.914 8 111836324.359 8      2227.246          50.000    21281733.148 8  87145197.012 8      1735.519          50.000
G17  22830679.586 8 119976032.340 8     -2097.113          49.000    22830678.875 8  93487800.495 8     -1634.114          49.000
G19  22410467.961 5 117767806.173 5     -1347.613          35.000
G22  23231259.930 5 122081088.973 5     -2516.801          30.000
G31  24296388.367 5 127678379.315 5     -2468.152          32.000    24296386.711 5  99489644.980 5     -1923.220          31.000
R02  19810061.109 5 105710298.205 5      1063.207          33.000    19810063.836 4  82219113.052 4       826.939          29.000
R17  19694589.438 5 105389764.447 5      -228.703          34.000    19694590.086 5  81969777.388 5      -177.886          32.000
R24  21281307.570 8 113800696.263 8     -3863.914          49.000    21281311.414 7  88511675.845 7     -3005.266          46.000
C19  22501515.781 5 117171249.834 5      1520.305          30.000
C20  22250053.141 8 115861950.745 8      -989.973          51.000
C29  23682442.250 8 123320682.158 8     -2690.590          49.000
E04                                                                  25299264.516 6 101869722.324 6     -1567.592          36.000
E05  26039580.820 8 136838948.176 8      2229.680          49.000    26039583.938 8 104850654.340 8      1708.432          49.000
E09  21472844.906 8 112840644.448 8       215.684          51.000    21472846.273 8  86462312.485 8       165.276          51.000
E11  24668294.258 7 129632780.313 7     -2818.180          45.000    24668297.477 7  99328998.328 7     -2159.322          47.000
E36  23510788.227 8 123550029.045 8      -446.199          51.000    23510790.969 8  94668215.302 8      -341.884          51.000
> 2020 05 18 22 02  0.0000000  0 17        .000000000000
G01  23866164.648 7 125417525.853 7     -3634.883          45.000    23866170.000 7  97727953.666 7     -2832.376          44.000
G03  21261354.406 7 111729162.578 7     -1769.555          42.000    21261353.648 6  87061690.186 6     -1378.871          41.000
G04  20252693.914 8 106428675.989 8       -55.840          51.000    20252694.078 8  82931451.481 8       -43.512          51.000
G09  21269113.906 8 111770020.773 8      2202.617          51.000    21269115.953 8  87093531.922 8      1716.325          51.000
G17  22842749.602 8 120039461.185 8     -2121.656          50.000    22842749.016 8  93537225.573 8     -1653.239          50.000
G19  22418277.633 5 117808843.707 5     -1378.355          33.000    22418274.297 5  91799085.202 5     -1074.043          30.000
R02  19804182.438 5 105678919.707 5      1038.586          33.000    19804184.273 5  82194707.611 5       807.795          30.000
R17  19696012.172 5 105397377.177 5      -268.867          35.000    19696010.906 4  81975698.478 4      -209.122          29.000
R24  21303085.133 8 113917148.532 8     -3889.602          51.000    21303088.148 7  88602249.812 7     -3025.246          45.000
C19  22492833.695 4 117126059.586 4      1501.824          29.000
C20  22255837.469 8 115892071.061 8     -1008.453          51.000
C29  23698030.195 8 123401857.615 8     -2711.434          49.000
E04                                                                  25311014.055 5 101917033.789 5     -1579.115          35.000
E05  26026928.086 8 136772458.083 8      2212.684          49.000    26026931.617 8 104799707.413 8      1695.466          49.000
E09  21471698.312 8 112834619.093 8       195.648          51.000    21471699.844 8  86457695.656 8       149.927          51.000
E11  24684463.617 7 129717748.676 7     -2836.719          46.000    24684466.484 7  99394103.965 7     -2173.620          46.000
E36  23513436.859 8 123563947.696 8      -472.055          51.000    23513439.508 8  94678880.250 8      -361.683          51.000
> 2020 05 18 22 02 30.0000000  0 18        .000000000000
G01  23886910.359 7 125526544.212 7     -3636.902          44.000    23886915.758 7  97812903.047 7     -2833.947          44.000
G03  21271460.336 6 111782270.166 6     -1774.816          40.000    21271460.469 6  87103072.696 6     -1382.974          39.000
G04  20253039.477 8 106430491.665 8       -69.105          51.000    20253039.492 8  82932866.314 8       -53.845          50.000
G09  21256556.188 8 111704028.318 8      2192.809          51.000    21256557.891 8  87042109.269 8      1708.682          51.000
G17  22854878.430 8 120103199.003 8     -2131.410          50.000    22854878.289 8  93586891.382 8     -1660.842          50.000
G19  22426181.461 5 117850377.950 5     -1394.164          30.000
G22  23260162.156 4 122232976.671 4     -2535.707          28.000
R02  19798358.398 5 105647832.485 5      1029.773          33.000    19798363.008 5  82170528.697 5       800.935          31.000
R17  19697578.758 6 105405761.157 6      -293.852          38.000    19697576.070 5  81982220.374 5      -228.551          30.000
R24  21324925.617 8 114033934.579 8     -3900.055          51.000    21324926.523 7  88693083.347 7     -3033.379          44.000
C19  22484177.398 4 117081013.679 4      1499.758          29.000
C20  22261646.953 8 115922322.555 8     -1012.262          51.000
C29  23713658.008 8 123483237.412 8     -2717.652          49.000
E04                                                                  25322767.195 5 101964366.153 5     -1579.474          33.000
E05  26014290.703 8 136706047.331 8      2210.656          50.000    26014294.375 8 104748821.287 8      1693.808          48.000
E09  21470585.062 8 112828768.165 8       190.477          51.000    21470586.594 8  86453212.470 8       145.914          51.000
E11  24700657.445 7 129802843.448 7     -2840.133          46.000    24700659.117 7  99459306.444 7     -2176.397          45.000
E36  23516151.633 8 123578214.853 8      -483.055          51.000    23516154.320 8  94689812.226 8      -370.157          51.000
> 2020 05 18 22 03  0.0000000  0 17        .000000000000
G01  23907689.258 7 125635737.191 7     -3643.707          43.000    23907694.633 7  97897988.470 7     -2839.252          44.000
G03  21281618.336 7 111835650.321 7     -1784.973          42.000    21281618.484 6  87144667.605 6     -1390.888          41.000
G04  20253482.359 8 106432819.020 8       -87.141          51.000    20253482.172 8  82934679.843 8       -67.902          50.000
G09  21244076.594 8 111638445.706 8      2178.086          51.000    21244078.078 8  86991005.945 8      1697.210          51.000
G17  22867084.297 8 120167340.934 8     -2145.883          50.000    22867084.445 8  93636872.078 8     -1672.120          50.000
G31  24339181.867 5 127903253.496 5     -2521.992          30.000
R01  21011804.375 5 112320072.160 5     -2595.348          34.000
R02  19792605.266 4 105617136.147 4      1016.609          28.000    19792613.648 5  82146653.723 5       790.693          31.000
R17  19699307.633 6 105415015.734 6      -324.266          38.000    19699306.633 5  81989418.405 5      -252.207          34.000
R24  21346846.172 8 114151149.654 8     -3915.434          50.000    21346845.516 7  88784250.557 7     -3045.340          44.000
C20  22267500.078 8 115952801.608 8     -1020.812          51.000
C29  23729343.664 8 123564916.158 8     -2728.664          48.000
E04                                                                  25334543.461 5 102011793.660 5     -1583.626          33.000
E05  26001687.336 8 136639814.077 8      2203.645          49.000    26001690.633 8 104698071.170 8      1688.555          48.000
E09  21469523.469 8 112823188.949 8       180.355          51.000    21469524.992 8  86448937.484 8       138.182          51.000
E11  24716893.828 7 129888161.012 7     -2848.660          47.000    24716893.375 7  99524679.615 7     -2182.710          44.000
E36  23518951.586 8 123592928.360 8      -499.074          51.000    23518954.391 8  94701086.215 8      -382.396          51.000
> 2020 05 18 22 03 30.0000000  0 17        .000000000000
G01  23928503.203 7 125745113.651 7     -3645.773          43.000    23928508.227 7  97983216.865 7     -2840.862          43.000
G03  21291830.203 6 111889313.401 6     -1790.398          39.000    21291830.375 6  87186483.010 6     -1395.116          38.000
G04  20254024.547 8 106435668.063 8      -100.586          51.000    20254024.070 8  82936899.866 8       -78.379          50.000
G09  21231677.125 8 111573284.677 8      2168.137          51.000    21231678.727 8  86940231.128 8      1689.457          51.000
G17  22879368.602 8 120231895.306 8     -2155.562          50.000    22879368.797 8  93687174.168 8     -1679.659          50.000
R01  21026354.133 4 112397911.707 4     -2597.301          29.000
R02  19786925.727 5 105586830.508 5      1006.219          35.000    19786937.469 4  82123090.411 4       782.612          28.000
R03  23321558.438 4 124842111.327 4      3099.516          28.000
R17  19701201.422 6 105425151.956 6      -349.398          39.000    19701202.266 5  81997302.074 5      -271.757          34.000
R24  21368847.672 8 114268801.011 8     -3925.859          50.000    21368847.320 7  88875757.154 7     -3053.446          45.000
C20  22273398.859 8 115983518.466 8     -1024.816          51.000
C29  23745088.375 7 123646902.198 7     -2734.891          47.000
E04                                                                  25346345.672 5 102059232.817 5     -1583.374          31.000
E05  25989119.805 8 136573769.449 8      2201.410          50.000    25989122.734 8 104647465.626 8      1686.798          48.000
E09  21468515.430 8 112817891.658 8       174.961          51.000    21468517.055 8  86444878.531 8       134.076          51.000
E11  24733174.078 7 129973710.808 7     -2852.504          46.000    24733171.266 7  99590230.712 7     -2185.742          43.000
E36  23521838.766 8 123608099.075 8      -510.250          51.000    23521841.648 8  94712710.528 8      -390.947          51.000
> 2020 05 18 22 04  0.0000000  0 15        .000000000000
G01  23949337.453 7 125854596.752 7     -3653.215          43.000    23949342.148 7  98068528.387 7     -2846.661          43.000
G03  21302081.133 5 111943191.291 5     -1800.793          31.000    21302081.625 5  87228460.227 5     -1403.218          31.000
G04  20254651.500 8 106438963.008 8      -119.262          51.000    20254650.977 8  82939467.364 8       -92.931          51.000
G09  21219343.516 8 111508471.292 8      2152.551          51.000    21219345.492 8  86889727.183 8      1677.312          51.000
G17  22891716.484 8 120296784.743 8     -2170.641          48.000    22891716.664 8  93737737.360 8     -1691.408          48.000
R02  19781309.461 5 105556859.728 5       992.008          31.000    19781319.297 4  82099779.833 4       771.559          28.000
R10  22998713.469 5 122596089.132 5     -1065.754          34.000
R17  19703246.742 7 105436093.400 7      -380.312          42.000    19703248.219 5  82005812.145 5      -295.799          34.000
R24  21390914.961 8 114386808.238 8     -3941.602          48.000    21390916.508 7  88967540.568 7     -3065.687          46.000
C20  22279329.031 8 116014398.422 8     -1034.129          51.000
C29  23760877.938 8 123729119.004 8     -2746.492          48.000
E05  25976573.492 8 136507838.793 8      2193.734          48.000    25976576.172 8 104596947.373 8      1680.862          48.000
E09  21467546.773 8 112812800.909 8       164.039          51.000    21467548.305 8  86440977.831 8       125.716          51.000
E11  24749483.688 7 130059416.375 7     -2861.426          47.000    24749479.203 7  99655901.186 7     -2192.584          44.000
E36  23524798.555 8 123623652.181 8      -526.891          51.000    23524801.469 8  94724627.837 8      -403.709          51.000
> 2020 05 18 22 04 30.0000000  0 16        .000000000000
G01  23970191.312 6 125964183.330 6     -3656.945          41.000    23970195.648 6  98153920.533 6     -2849.568          41.000
G04  20255362.930 8 106442701.725 8      -134.570          51.000    20255362.383 8  82942380.654 8      -104.860          51.000
G09  21207075.828 8 111444005.073 8      2140.629          51.000    21207077.938 8  86839493.771 8      1668.023          51.000
G17  22904127.391 8 120362004.724 8     -2181.895          50.000    22904127.344 8  93788558.117 8     -1700.178          50.000
G22  23318269.609 5 122538338.769 5     -2554.312          31.000
R03  23286877.781 5 124656441.602 5      3088.539          33.000
R10  23004762.281 5 122628350.642 5     -1089.770          34.000
R17  19705441.188 7 105447838.238 7      -407.289          42.000    19705442.734 5  82014946.988 5      -316.786          33.000
R24  21413047.656 8 114505166.153 8     -3953.516          48.000    21413051.109 7  89059596.767 7     -3074.954          47.000
C20  22285290.172 8 116045439.696 8     -1039.852          51.000
C29  23776711.609 8 123811563.021 8     -2754.461          49.000
E04  25369989.367 5 133320210.846 5     -2074.699          33.000
E05  25964048.227 8 136442021.009 8      2189.625          48.000    25964051.258 8 104546515.577 8      1677.720          48.000
E09  21466617.062 8 112807914.768 8       156.988          51.000    21466618.352 8  86437233.903 8       120.368          51.000
E11  24765822.266 7 130145275.071 7     -2867.066          47.000    24765817.430 7  99721688.999 7     -2196.741          44.000
E36  23527830.672 8 123639586.350 8      -539.898          51.000    23527833.531 8  94736837.131 8      -413.638          51.000
> 2020 05 18 22 05  0.0000000  0 19        .000000000000
G01  23991077.938 6 126073943.372 6     -3662.090          40.000    23991082.344 6  98239447.831 6     -2853.577          40.000
G04  20256172.289 8 106446955.230 8      -150.715          51.000    20256171.695 8  82945695.095 8      -117.440          51.000
G09  21194888.180 8 111379958.843 8      2127.449          51.000    21194889.945 8  86789587.644 8      1657.753          51.000
G17  22916614.789 8 120427625.573 8     -2194.441          51.000    22916614.148 8  93839691.260 8     -1709.954          51.000
G19  22467328.844 5 118066624.933 5     -1487.773          30.000
G22  23332864.844 5 122615039.132 5     -2560.305          35.000
R02  19770277.188 5 105497938.579 5       968.391          34.000
R03  23269575.672 5 124563839.258 5      3082.754          33.000
R10  23010958.719 5 122661357.866 5     -1114.863          30.000
R17  19707799.789 7 105460459.592 7      -435.680          43.000    19707801.664 5  82024763.597 5      -338.859          35.000
R24  21435259.391 8 114623943.816 8     -3966.566          49.000    21435263.961 7  89151979.475 7     -3085.104          47.000
C19  22441475.062 5 116858624.786 5      1465.984          31.000
C20  22291295.797 8 116076712.981 8     -1046.652          51.000
C29  23792601.789 8 123894303.124 8     -2763.312          50.000
E04  25381841.375 5 133382483.142 5     -2077.914          34.000
E05  25951558.430 8 136376388.315 8      2184.305          48.000    25951561.758 8 104496225.595 8      1673.649          48.000
E09  21465739.680 8 112803304.608 8       148.688          51.000    21465741.008 8  86433701.447 8       113.938          51.000
E11  24782203.375 7 130231357.250 7     -2873.355          47.000    24782198.906 7  99787648.067 7     -2201.737          45.000
E36  23530948.766 8 123655973.523 8      -554.152          51.000    23530951.859 8  94749393.539 8      -424.616          51.000
> 2020 05 18 22 05 30.0000000  0 17        .000000000000
G01  24011994.406 6 126183860.137 6     -3666.852          39.000    24011999.023 6  98325097.282 6     -2857.284          38.000
G04  20257076.625 8 106451707.945 8      -167.039          51.000    20257075.984 8  82949398.510 8      -130.160          50.000
G09  21182777.875 8 111316318.780 8      2114.258          51.000    21182778.992 8  86739997.999 8      1647.474          51.000
G17  22929175.094 8 120493628.965 8     -2206.738          51.000    22929173.930 8  93891122.458 8     -1719.536          51.000
G22  23347489.648 5 122691898.295 5     -2564.711          35.000
R03  23252309.664 4 124471433.286 4      3078.801          29.000
R10  23017299.148 5 122695153.147 5     -1139.348          31.000
R17  19710318.922 7 105473942.431 7      -464.062          42.000    19710321.234 5  82035250.148 5      -360.944          34.000
R24  21457546.766 8 114743122.097 8     -3979.562          51.000    21457550.953 7  89244673.722 7     -3095.212          46.000
C19  22433051.016 4 116814742.405 4      1459.234          28.000
C20  22297343.055 8 116108203.255 8     -1053.594          51.000
C23  25869212.992 4 134707745.903 4      -822.438          29.000
C29  23808544.648 8 123977322.394 8     -2772.176          50.000
E05  25939101.570 8 136310926.169 8      2179.055          49.000    25939104.688 8 104446066.294 8      1669.674          48.000
E09  21464911.930 8 112798955.161 8       140.430          51.000    21464913.508 8  86430368.765 8       107.605          51.000
E11  24798623.906 8 130317646.824 8     -2879.980          48.000    24798619.938 7  99853766.040 7     -2206.915          45.000
E36  23534150.070 8 123672798.987 8      -568.406          51.000    23534153.664 8  94762285.771 8      -435.508          51.000
> 2020 05 18 22 06  0.0000000  0 16        .000000000000
G01  24032954.789 6 126294008.275 6     -3673.312          37.000    24032959.875 6  98410927.037 6     -2862.321          36.000
G03  21343566.984 5 112161201.262 5     -1835.180          30.000
G04  20258090.320 8 106457035.317 8      -185.148          51.000    20258090.070 8  82953549.718 8      -144.272          51.000
G09  21170759.633 8 111253162.132 8      2099.262          51.000    21170760.078 8  86690785.045 8      1635.788          51.000
G17  22941822.172 8 120560089.042 8     -2220.809          50.000    22941820.719 8  93942909.497 8     -1730.500          50.000
G22  23362160.719 5 122768992.085 5     -2571.586          30.000
R03  23235077.000 5 124379205.142 5      3070.871          33.000
R17  19713013.586 7 105488363.800 7      -494.137          42.000    19713015.000 5  82046466.799 5      -384.329          34.000
R24  21479923.414 8 114862774.886 8     -3994.098          51.000    21479926.203 7  89337737.002 7     -3106.520          44.000
C19  22424677.820 4 116771181.636 4      1450.484          27.000
C20  22303446.398 8 116139985.717 8     -1062.176          51.000
C29  23824554.312 8 124060694.156 8     -2782.805          49.000
E05  25926691.633 7 136245711.261 7      2171.797          46.000    25926695.016 8 104396096.443 8      1664.128          49.000
E09  21464148.422 8 112794942.282 8       130.277          51.000    21464150.117 8  86427293.965 8        99.775          51.000
E11  24815098.016 7 130404218.722 7     -2888.340          47.000    24815094.609 7  99920100.318 7     -2213.072          45.000
E36  23537449.383 8 123690139.067 8      -584.523          51.000    23537453.328 8  94775572.342 8      -447.897          51.000
> 2020 05 18 22 06 30.0000000  0 14        .000000000000
G01  24053926.992 6 126404217.594 6     -3675.332          36.000    24053932.289 6  98496804.437 6     -2863.892          36.000
G03  21354057.008 5 112216307.819 5     -1840.879          33.000    21354057.234 5  87441292.262 5     -1434.457          30.000
G04  20259181.141 8 106462768.291 8      -198.641          51.000    20259181.273 8  82958016.991 8      -154.785          50.000
G09  21158801.531 8 111190321.576 8      2088.637          51.000    21158801.555 8  86641818.430 8      1627.512          51.000
G17  22954523.430 8 120626834.908 8     -2230.430          48.000    22954522.086 8  93994919.237 8     -1737.997          49.000
R03  23217876.383 5 124287093.968 5      3068.246          35.000
R17  19715851.180 6 105503552.215 6      -519.871          39.000    19715852.945 6  82058280.006 6      -404.344          36.000
R24  21502356.023 8 114982726.785 8     -4004.148          51.000    21502356.586 7  89431032.891 7     -3114.338          42.000
C20  22309573.836 8 116171893.282 8     -1066.469          51.000
C29  23840599.219 8 124144249.452 8     -2789.020          49.000
E05  25914296.297 7 136180575.697 7      2169.113          46.000    25914300.219 8 104346187.420 8      1662.030          49.000
E09  21463416.859 8 112791097.199 8       124.617          51.000    21463418.430 8  86424347.730 8        95.486          51.000
E11  24831592.656 7 130490903.185 7     -2891.953          43.000    24831590.430 7  99986520.873 7     -2215.936          45.000
E36  23540814.688 8 123707825.623 8      -596.070          51.000    23540819.055 8  94789124.378 8      -456.714          51.000
> 2020 05 18 22 07  0.0000000  0 14        .000000000000
G01  24074928.438 6 126514578.014 6     -3680.680          37.000    24074933.336 6  98582799.536 6     -2868.062          37.000
G03  21364595.812 6 112271694.048 6     -1849.750          39.000    21364597.023 6  87484450.363 6     -1441.364          38.000
G04  20260366.406 8 106468997.694 8      -215.207          51.000    20260366.336 8  82962871.075 8      -167.694          50.000
G09  21146921.172 8 111127889.761 8      2074.902          51.000    21146921.008 8  86593170.284 8      1616.807          51.000
G17  22967295.578 7 120693955.728 7     -2242.855          46.000    22967294.930 7  94047221.179 7     -1747.680          46.000
R03  23200706.727 5 124195152.480 5      3062.344          33.000
R17  19718849.844 6 105519600.637 6      -548.656          41.000    19718852.688 6  82070762.157 6      -426.730          36.000
R24  21524860.727 8 115103067.178 8     -4017.141          48.000    21524859.125 6  89524630.926 6     -3124.446          40.000
C20  22315742.766 8 116204016.355 8     -1073.695          51.000
C29  23856697.148 8 124228076.849 8     -2798.078          49.000
E05  25901933.500 7 136115611.460 7      2163.180          46.000    25901937.859 8 104296409.634 8      1657.474          49.000
E09  21462734.352 8 112787511.084 8       115.855          51.000    21462735.789 8  86421599.941 8        88.790          51.000
E11  24848123.922 6 130577790.504 6     -2899.188          41.000    24848124.570 7 100053096.906 7     -2221.404          45.000
E36  23544263.422 8 123725950.394 8      -610.758          51.000    23544268.250 8  94803012.180 8      -467.986          51.000
> 2020 05 18 22 07 30.0000000  0 16        .000000000000
G01  24095955.953 6 126625074.929 6     -3684.922          38.000    24095960.312 6  98668901.024 6     -2871.368          39.000
G03  21375182.336 6 112327328.444 6     -1858.148          40.000    21375184.352 6  87527801.906 6     -1447.905          40.000
G04  20261643.664 8 106475710.037 8      -231.332          51.000    20261643.641 8  82968101.481 8      -180.256          50.000
G09  21135116.141 8 111065854.924 8      2061.633          51.000    21135116.500 8  86544831.448 8      1606.467          51.000
G17  22980136.172 7 120761436.016 7     -2254.863          46.000    22980136.125 7  94099803.229 7     -1757.036          46.000
G22  23406300.352 4 123000955.222 4     -2584.156          29.000
R03  23183563.148 5 124103368.584 5      3057.195          31.000
R17  19722006.469 7 105536495.926 7      -576.801          42.000    19722009.406 5  82083902.978 5      -448.620          34.000
R24  21547434.219 7 115223779.435 7     -4029.406          45.000    21547432.633 6  89618518.193 6     -3133.983          40.000
C19  22399746.766 5 116641352.011 5      1432.422          30.000
C20  22321950.547 8 116236341.997 8     -1080.371          51.000
C29  23872844.672 8 124312161.513 8     -2806.586          48.000
E05  25889601.539 8 136050806.239 8      2157.906          48.000    25889606.000 8 104246753.717 8      1653.482          49.000
E09  21462098.711 8 112784170.816 8       107.758          51.000    21462099.930 8  86419040.525 8        82.550          51.000
E11  24864693.062 7 130664866.682 7     -2905.047          45.000    24864694.727 7 100119817.654 7     -2225.891          46.000
E36  23547793.664 8 123744500.713 8      -624.934          51.000    23547798.273 8  94817226.049 8      -478.833          51.000
> 2020 05 18 22 08  0.0000000  0 15        .000000000000
G01  24117017.734 6 126735753.104 6     -3689.945          36.000    24117021.672 5  98755143.780 5     -2875.279          35.000
G03  21385824.852 6 112383257.397 6     -1866.953          41.000    21385826.773 6  87571382.922 6     -1454.769          40.000
G04  20263021.578 8 106482950.983 8      -247.953          51.000    20263021.750 8  82973743.802 8      -193.210          50.000
G09  21123395.688 8 111004264.533 8      2047.801          51.000    21123396.945 8  86496838.972 8      1595.692          51.000
G17  22993054.047 8 120829320.374 8     -2267.242          48.000    22993054.289 8  94152700.116 8     -1766.682          48.000
R02  19738879.914 5 105330485.243 5       894.426          33.000    19738882.250 4  81923692.168 4       695.664          24.000
R17  19725331.656 7 105554284.921 7      -605.504          42.000    19725334.055 5  82097738.814 5      -470.947          34.000
R24  21570083.531 7 115344906.613 7     -4042.254          42.000    21570084.922 7  89712728.273 7     -3143.972          42.000
C19  22391525.383 5 116598526.336 5      1425.746          32.000
C20  22328205.945 8 116268915.974 8     -1087.754          51.000
C29  23889049.906 7 124396547.332 7     -2815.750          46.000
E05  25877309.328 8 135986206.899 8      2152.117          48.000    25877313.594 8 104197255.551 8      1648.995          49.000
E09  21461518.719 8 112781122.508 8        98.926          51.000    21461519.781 8  86416704.804 8        75.848          51.000
E11  24881308.719 8 130752177.062 8     -2912.293          48.000    24881309.766 7 100186717.795 7     -2231.428          46.000
E36  23551413.961 8 123763523.164 8      -639.766          51.000    23551418.086 8  94831801.685 8      -490.180          51.000
> 2020 05 18 22 08 30.0000000  0 16        .000000000000
G01  24138078.414 5 126846431.469 5     -3698.754          32.000    24138083.281 5  98841386.700 5     -2882.143          33.000
G03  21396489.367 6 112439301.288 6     -1880.238          40.000    21396491.922 6  87615053.518 6     -1465.121          40.000
G04  20264465.781 8 106490540.442 8      -268.969          51.000    20264465.570 8  82979657.691 8      -209.586          49.000
G09  21111726.109 8 110942940.248 8      2029.398          51.000    21111727.828 8  86449053.868 8      1581.352          51.000
G17  23006014.461 8 120897426.186 8     -2284.164          50.000    23006014.648 8  94205769.577 8     -1779.865          50.000
R02  19733871.398 4 105303742.997 4       876.977          27.000
R17  19728789.898 7 105572784.708 7      -638.793          42.000    19728790.250 5  82112127.476 5      -496.842          33.000
R24  21592776.195 7 115466262.293 7     -4059.273          43.000    21592779.859 6  89807116.085 6     -3157.210          41.000
C19  22383311.695 5 116555768.083 5      1413.402          30.000
C20  22334474.852 8 116301560.315 8     -1099.441          51.000
C29  23905278.625 7 124481054.402 7     -2829.207          46.000
E04  25465375.109 5 133821449.395 5     -2106.422          34.000
E05  25865022.219 8 135921634.501 8      2141.637          48.000    25865026.781 8 104147778.060 8      1640.920          50.000
E09  21460959.812 8 112778186.409 8        85.625          51.000    21460961.117 8  86414455.069 8        65.576          51.000
E11  24897934.992 8 130839540.905 8     -2923.219          50.000    24897935.148 7 100253658.894 7     -2239.875          47.000
E36  23555089.844 8 123782838.532 8      -659.113          51.000    23555093.641 8  94846601.782 8      -505.083          51.000
> 2020 05 18 22 09  0.0000000  0 16        .000000000000
G01  24159186.016 6 126957354.076 6     -3698.934          36.000    24159191.141 5  98927819.963 5     -2882.283          35.000
G03  21407222.297 6 112495705.751 6     -1883.844          39.000    21407224.727 6  87659005.047 6     -1467.930          38.000
G04  20266022.930 8 106498723.418 8      -280.145          51.000    20266022.430 8  82986034.039 8      -218.294          50.000
G09  21100154.148 8 110882128.846 8      2020.859          51.000    21100155.883 8  86401668.383 8      1574.696          51.000
G17  23019063.250 8 120965997.134 8     -2291.188          50.000    23019063.266 8  94259201.449 8     -1785.341          49.000
G22  23450686.117 5 123234200.659 5     -2599.547          34.000
R17  19732427.656 7 105592244.890 7      -661.988          42.000    19732426.594 5  82127263.165 5      -514.880          34.000
R24  21615559.453 7 115588093.134 7     -4066.293          44.000    21615562.516 6  89901873.381 6     -3162.672          39.000
C19  22375157.336 4 116513303.323 4      1412.898          28.000
C20  22340803.883 8 116334518.273 8     -1101.402          51.000
C29  23921578.078 7 124565924.091 7     -2832.660          46.000
E04  25477381.758 5 133884544.902 5     -2104.484          33.000
E05  25852786.836 8 135857335.232 8      2141.070          48.000    25852791.602 8 104098509.815 8      1640.542          49.000
E09  21460468.914 8 112775607.882 8        82.410          51.000    21460470.570 8  86412479.321 8        63.110          51.000
E11  24914617.750 8 130927202.638 8     -2924.656          50.000    24914617.203 8 100320828.250 8     -2241.024          48.000
E36  23558868.094 8 123802692.669 8      -668.379          51.000    23558871.625 8  94861814.684 8      -512.158          51.000
> 2020 05 18 22 09 30.0000000  0 17        .000000000000
G01  24180325.219 6 127068438.946 6     -3708.938          38.000    24180329.750 6  99014379.631 6     -2890.081          38.000
G03  21418008.859 6 112552390.279 6     -1897.773          40.000    21418011.055 6  87703174.833 6     -1478.784          39.000
G04  20267677.539 8 106507418.849 8      -301.789          51.000    20267677.492 8  82992809.718 8      -235.160          51.000
G09  21088664.633 8 110821751.057 8      2002.016          51.000    21088666.156 8  86354620.763 8      1560.012          51.000
G17  23032184.648 8 121034950.184 8     -2308.277          49.000    23032184.438 8  94312931.076 8     -1798.658          49.000
R01  21203647.227 5 113345617.340 5     -2670.402          33.000
R03  23115252.930 4 123737757.312 4      3030.238          28.000    23115266.086 4  96240533.052 4      2356.852          27.000
R17  19736228.414 6 105612583.478 6      -696.070          41.000    19736227.469 5  82143082.112 5      -541.388          33.000
R24  21638416.055 7 115710313.304 7     -4083.961          43.000    21638417.250 6  89996933.438 6     -3176.417          38.000
C19  22367059.961 5 116471087.307 5      1399.797          32.000
C20  22347177.930 8 116367710.023 8     -1113.746          51.000
C29  23937931.578 7 124651074.701 7     -2846.402          45.000
E04  25489413.695 5 133947772.483 5     -2112.719          31.000
E05  25840587.789 7 135793229.300 7      2130.137          47.000    25840592.398 8 104049389.701 8      1632.123          49.000
E09  21460030.891 8 112773306.351 8        68.594          51.000    21460032.672 8  86410715.814 8        52.556          51.000
E11  24931341.227 8 131015080.703 8     -2936.340          50.000    24931340.367 8 100388163.383 8     -2249.974          49.000
E36  23562733.617 8 123823005.439 8      -688.156          51.000    23562736.977 8  94877378.995 8      -527.327          51.000
> 2020 05 18 22 10  0.0000000  0 14        .000000000000
G01  24201483.906 6 127179627.140 6     -3709.176          38.000    24201488.445 6  99101019.755 6     -2890.270          38.000
G03  21428837.969 6 112609297.472 6     -1901.984          40.000    21428840.234 6  87747518.114 6     -1482.066          40.000
G04  20269418.836 8 106516568.720 8      -313.785          51.000    20269418.875 8  82999939.484 8      -244.508          51.000
G09  21077247.016 8 110761750.612 8      1992.551          51.000    21077248.180 8  86307867.177 8      1552.637          51.000
G17  23045367.352 8 121104226.067 8     -2315.855          49.000    23045367.055 8  94366912.292 8     -1804.566          49.000
R01  21218624.930 5 113425659.221 5     -2671.480          35.000
R17  19740182.383 7 105633741.616 7      -719.898          42.000    19740180.883 5  82159538.476 5      -559.921          34.000
R24  21661332.750 6 115832860.622 6     -4091.453          40.000    21661333.586 6  90092248.017 6     -3182.241          39.000
C20  22353586.133 8 116401078.613 8     -1116.402          51.000
C29  23954326.531 7 124736447.331 7     -2850.652          44.000
E05  25828414.305 7 135729259.905 7      2128.762          46.000    25828418.523 7 104000374.206 7      1631.171          47.000
E09  21459634.523 8 112771224.169 8        64.586          51.000    21459636.414 8  86409120.382 8        49.461          51.000
E11  24948094.203 8 131103116.575 8     -2938.227          48.000    24948093.539 8 100455619.433 8     -2251.347          49.000
E36  23566675.805 8 123843719.647 8      -698.328          51.000    23566678.648 8  94893250.919 8      -535.107          51.000
> 2020 05 18 22 10 30.0000000  0 16        .000000000000
G01  24222651.219 6 127290862.189 6     -3713.016          38.000    24222656.352 6  99187696.414 6     -2893.259          37.000
G03  21439698.875 6 112666372.458 6     -1909.672          37.000    21439700.781 6  87791992.173 6     -1488.050          36.000
G04  20271236.086 8 106526117.561 8      -329.453          51.000    20271235.969 8  83007380.153 8      -256.717          51.000
G09  21065890.984 8 110702073.870 8      1979.301          51.000    21065891.992 8  86261365.830 8      1542.312          51.000
G17  23058600.703 8 121173767.160 8     -2327.035          49.000    23058600.172 8  94421100.140 8     -1813.271          50.000
G19  22567231.414 6 118591591.878 6     -1692.551          37.000
R01  21233613.914 5 113505773.085 5     -2676.215          32.000
R17  19744278.945 7 105655663.131 7      -747.973          42.000    19744278.656 6  82176588.560 6      -581.753          37.000
R24  21684299.211 6 115955675.665 6     -4102.820          41.000    21684302.023 7  90187770.852 7     -3191.082          42.000
C19  22350966.562 4 116387305.170 4      1391.117          28.000
C20  22360017.812 8 116434569.678 8     -1122.852          51.000
C29  23970751.812 7 124821985.667 7     -2858.547          44.000
E05  25816256.555 7 135665372.848 7      2123.660          45.000    25816260.062 7 103951421.803 7      1627.214          47.000
E09  21459269.445 8 112769306.371 8        56.617          51.000    21459271.352 8  86407650.910 8        43.376          51.000
E11  24964865.906 7 131191254.422 7     -2944.324          46.000    24964865.953 8 100523153.647 8     -2256.044          48.000
E36  23570684.211 8 123864780.805 8      -712.379          51.000    23570686.320 8  94909388.695 8      -545.867          51.000
> 2020 05 18 22 11  0.0000000  0 18        .000000000000
G01  24243862.195 6 127402326.565 6     -3716.055          39.000    24243867.836 6  99274551.791 6     -2895.627          39.000
G03  21450626.180 5 112723799.193 5     -1916.977          34.000    21450628.219 5  87836740.372 5     -1493.739          33.000
G04  20273164.094 8 106536248.646 8      -344.367          51.000    20273164.141 8  83015274.517 8      -268.338          51.000
G09  21054631.594 8 110642905.855 8      1966.848          51.000    21054632.617 8  86215260.913 8      1532.609          51.000
G17  23071919.141 8 121243755.244 8     -2337.312          50.000    23071918.023 8  94475636.318 8     -1821.282          50.000
G19  22576939.953 6 118642639.832 6     -1709.430          37.000
G22  23510273.516 5 123547320.859 5     -2618.945          30.000
R01  21248641.461 5 113586194.824 5     -2680.031          34.000    21248652.766 4  88344837.397 4     -2084.469          25.000
R17  19748552.961 6 105678534.919 6      -774.996          41.000    19748553.820 6  82194377.734 6      -602.775          36.000
R24  21707351.805 7 116078941.977 7     -4113.223          44.000    21707355.164 7  90283644.654 7     -3199.173          43.000
C19  22342970.844 4 116345731.612 4      1386.176          28.000
C20  22366508.008 8 116468365.322 8     -1128.547          51.000
C29  23987244.859 7 124907869.944 7     -2865.523          46.000
E04  25525567.797 5 134137763.810 5     -2116.484          33.000
E05  25804149.836 7 135601752.594 7      2119.340          45.000    25804153.125 7 103902673.854 7      1623.880          47.000
E09  21458970.617 8 112767736.609 8        49.637          51.000    21458972.516 8  86406448.111 8        38.066          51.000
E11  24981691.047 7 131279676.817 7     -2948.812          44.000    24981692.445 7 100590905.915 7     -2259.510          47.000
E36  23574793.344 8 123886372.999 8      -725.523          51.000    23574795.375 8  94925933.377 8      -555.959          51.000
> 2020 05 18 22 11 30.0000000  0 15        .000000000000
G01  24265076.938 6 127513809.063 6     -3716.887          41.000    24265082.781 6  99361421.272 6     -2896.275          40.000
G04  20275162.859 8 106546751.712 8      -356.945          51.000    20275162.828 8  83023458.744 8      -278.139          51.000
G09  21043428.953 8 110584038.132 8      1956.629          50.000    21043430.234 8  86169390.000 8      1524.646          50.000
G17  23085282.289 8 121313978.245 8     -2345.156          50.000    23085280.414 8  94530355.533 8     -1827.394          50.000
G19  22586741.156 5 118694135.159 5     -1723.285          34.000
R17  19752965.008 7 105702143.003 7      -799.684          43.000    19752966.719 6  82212739.553 6      -621.976          39.000
R24  21730448.125 7 116202442.639 7     -4121.199          42.000    21730451.875 7  90379700.705 7     -3205.377          44.000
C19  22334968.703 5 116304036.040 5      1381.422          31.000
C20  22373016.781 8 116502257.779 8     -1131.922          51.000
C29  24003765.344 8 124993890.527 8     -2870.289          48.000
E04  25537666.930 5 134201333.345 5     -2116.422          34.000
E05  25792054.289 7 135538190.151 7      2117.234          44.000    25792057.648 8 103853970.201 8      1622.165          48.000
E09  21458698.062 8 112766305.130 8        44.793          51.000    21458699.969 8  86405351.288 8        34.331          51.000
E11  24998530.297 7 131368173.279 7     -2951.762          44.000    24998532.922 7 100658714.944 7     -2261.787          46.000
E36  23578963.438 8 123908286.890 8      -736.422          51.000    23578965.828 8  94942724.554 8      -564.262          51.000
> 2020 05 18 22 12  0.0000000  0 14        .000000000000
G01  24286336.070 6 127625523.393 6     -3725.836          41.000    24286341.625 6  99448471.322 6     -2903.255          39.000
G04  20277273.227 8 106557841.456 8      -377.727          51.000    20277273.102 8  83032100.105 8      -294.332          51.000
G09  21032324.703 8 110525687.127 8      1938.184          50.000    21032326.156 8  86123921.692 8      1510.273          50.000
G17  23098730.625 8 121384649.393 8     -2361.473          49.000    23098728.656 8  94585423.951 8     -1840.109          49.000
G22  23540220.891 5 123704713.364 5     -2629.625          34.000
R17  19757556.039 7 105726706.086 7      -832.828          42.000    19757558.422 6  82231844.143 6      -647.755          39.000
R24  21753627.945 6 116326392.843 6     -4137.418          37.000    21753632.484 7  90476106.398 7     -3217.995          43.000
C20  22379585.195 8 116536460.411 8     -1143.531          51.000
C29  24020352.656 8 125080258.744 8     -2882.996          49.000
E04  25549792.531 5 134265064.083 5     -2124.508          31.000
E05  25780010.914 7 135474901.468 7      2106.680          44.000    25780014.688 8 103805476.297 8      1614.374          49.000
E09  21458492.812 8 112765227.042 8        31.836          51.000    21458494.688 8  86404525.238 8        24.355          51.000
E11  25015425.000 7 131456957.889 7     -2962.426          44.000    25015427.891 7 100726744.739 7     -2269.869          44.000
E36  23583235.672 8 123930737.990 8      -755.527          51.000    23583238.438 8  94959927.354 8      -578.932          51.000
> 2020 05 18 22 12 30.0000000  0 13        .000000000000
G01  24307608.820 6 127737309.190 6     -3727.387          39.000    24307614.516 6  99535576.978 6     -2904.457          39.000
G04  20279464.820 8 106569358.233 8      -391.406          51.000    20279464.844 8  83041074.233 8      -304.992          51.000
G09  21021289.016 8 110467695.049 8      1926.660          51.000    21021290.516 8  86078733.062 8      1501.294          50.000
G17  23112233.344 8 121455607.391 8     -2370.461          48.000    23112231.938 8  94640715.882 8     -1847.112          48.000
R01  21293891.352 5 113828051.776 5     -2694.594          30.000
R17  19762294.852 6 105752061.926 6      -858.758          41.000    19762296.727 6  82251565.374 6      -667.920          38.000
R24  21776861.984 5 116450627.463 5     -4146.734          33.000    21776865.781 6  90572733.293 6     -3225.238          41.000
C20  22386183.008 8 116570815.627 8     -1148.145          51.000
C29  24036975.383 8 125166815.075 8     -2888.660          48.000
E05  25767989.516 7 135411728.190 7      2103.699          45.000    25767993.656 8 103757070.825 8      1611.836          49.000
E09  21458324.555 8 112764343.249 8        25.910          51.000    21458326.523 8  86403848.040 8        19.895          51.000
E11  25032344.531 7 131545870.646 7     -2966.219          45.000    25032346.422 6 100794872.676 6     -2272.778          41.000
E36  23587580.047 8 123953567.606 8      -767.559          51.000    23587582.930 8  94977420.189 8      -588.159          51.000
> 2020 05 18 22 13  0.0000000  0 12        .000000000000
G01  24328911.445 6 127849252.113 6     -3732.031          39.000    24328918.352 6  99622805.197 6     -2908.079          40.000
G04  20281754.188 8 106581388.533 8      -407.488          51.000    20281754.422 8  83050448.493 8      -317.523          51.000
G09  21010338.680 8 110410150.135 8      1912.793          51.000    21010340.055 8  86033892.865 8      1490.488          51.000
G17  23125806.781 8 121526936.476 8     -2381.660          48.000    23125805.820 8  94696297.006 8     -1855.839          48.000
R01  21309038.742 5 113909042.609 5     -2699.855          31.000
R17  19767197.586 7 105778298.585 7      -886.949          43.000    19767200.234 6  82271971.650 6      -689.846          39.000
C20  22392826.578 8 116605409.775 8     -1155.027          51.000
C29  24053649.781 7 125253643.865 7     -2896.766          47.000
E05  25756006.875 7 135348758.080 7      2097.707          46.000    25756011.023 8 103708821.013 8      1607.400          50.000
E09  21458209.820 8 112763740.673 8        17.551          51.000    21458211.977 8  86403386.326 8        13.424          51.000
E11  25049305.109 7 131634997.544 7     -2972.445          46.000    25049303.656 6 100863164.646 6     -2277.489          39.000
E36  23592013.039 8 123976863.083 8      -782.207          51.000    23592015.758 8  94995269.968 8      -599.335          51.000
> 2020 05 18 22 13 30.0000000  0 12        .000000000000
G01  24350222.773 6 127961239.484 6     -3729.402          39.000    24350228.641 6  99710068.076 6     -2906.028          39.000
G03  21505946.961 5 113014483.102 5     -1952.004          31.000
G04  20284119.945 8 106593820.726 8      -416.750          51.000    20284120.367 8  83060135.926 8      -324.740          51.000
G09  20999452.852 8 110352942.577 8      1905.730          51.000    20999454.117 8  85989315.545 8      1484.985          51.000
G17  23139429.500 8 121598523.717 8     -2386.125          50.000    23139428.664 8  94752079.280 8     -1859.315          50.000
R17  19772243.555 7 105805302.623 7      -908.426          44.000    19772247.188 6  82292974.781 6      -706.553          40.000
C20  22399494.789 8 116640132.846 8     -1155.262          51.000
C29  24070354.461 7 125340633.218 7     -2897.906          44.000
E05  25744041.891 7 135285880.772 7      2098.715          46.000    25744045.680 8 103660642.326 8      1608.088          50.000
E09  21458127.531 8 112763308.200 8        15.914          51.000    21458129.867 8  86403054.960 8        12.239          51.000
E11  25066285.227 7 131724226.517 7     -2971.383          45.000    25066280.211 6 100931534.870 6     -2277.121          39.000
E36  23596513.195 8 124000513.681 8      -789.945          51.000    23596515.797 8  95013391.833 8      -605.277          51.000
> 2020 05 18 22 14  0.0000000  0 15        .000000000000
G01  24371561.242 6 128073368.729 6     -3741.277          38.000    24371565.289 6  99797441.479 6     -2915.281          37.000
G04  20286580.891 8 106606753.058 8      -440.836          51.000    20286581.164 8  83070213.061 8      -343.509          51.000
G09  20988650.281 8 110296172.306 8      1883.852          51.000    20988651.414 8  85945078.990 8      1467.936          51.000
G17  23153120.062 8 121670466.005 8     -2405.344          51.000    23153118.680 8  94808138.203 8     -1874.294          51.000
G19  22637291.203 5 118959757.046 5     -1816.633          32.000
G22  23600454.414 5 124021222.683 5     -2648.688          32.000
R17  19777451.648 7 105833173.873 7      -944.812          43.000    19777456.070 6  82314652.399 6      -734.857          41.000
R24  21846941.250 5 116825412.993 5     -4180.379          31.000
C19  22295750.648 5 116099829.453 5      1343.703          30.000
C20  22406206.492 8 116675082.786 8     -1170.180          51.000
C29  24087107.891 6 125427879.120 6     -2913.590          39.000
E05  25732113.453 7 135223195.833 7      2084.902          46.000    25732116.922 8 103612611.038 8      1597.538          50.000
E09  21458096.477 8 112763144.567 8         -.434          51.000    21458098.977 8  86402929.587 8         -.305          51.000
E11  25083303.445 7 131813655.386 7     -2985.766          46.000    25083297.492 6 101000058.244 6     -2287.908          40.000
E36  23601099.719 8 124024618.452 8      -812.438          51.000    23601102.227 8  95031861.701 8      -622.559          51.000
> 2020 05 18 22 14 30.0000000  0 15        .000000000000
G01  24392911.664 6 128185562.882 6     -3741.117          39.000    24392914.219 6  99884865.455 6     -2915.156          38.000
G04  20289122.391 8 106620109.269 8      -452.359          51.000    20289122.875 8  83080620.503 8      -352.485          51.000
G09  20977916.508 8 110239764.986 8      1874.168          51.000    20977917.617 8  85901125.245 8      1460.391          51.000
G17  23166863.203 8 121742684.690 8     -2412.078          50.000    23166861.055 8  94864412.483 8     -1879.544          50.000
G19  22647693.977 6 119014409.815 6     -1830.309          36.000
R02  19679287.414 5 105012482.218 5       738.707          33.000    19679286.164 4  81676353.654 4       574.556          28.000
R17  19782807.266 7 105861834.806 7      -968.504          45.000    19782812.156 6  82336944.197 6      -753.281          41.000
R24  21870400.359 5 116950887.812 5     -4187.023          31.000    21870387.781 5  90961827.718 5     -3256.574          34.000
C20  22412947.344 8 116710184.799 8     -1172.715          51.000
C29  24103897.469 4 125515304.855 4     -2917.266          29.000
E04  25610588.305 5 134584465.647 5     -2135.164          35.000    25610571.984 5 103123182.753 5     -1635.616          33.000
E05  25720206.820 7 135160628.326 7      2083.613          44.000    25720210.648 8 103564669.721 8      1596.517          50.000
E09  21458102.141 8 112763174.076 8        -4.223          51.000    21458104.688 8  86402952.205 8        -3.262          51.000
E11  25100345.062 7 131903207.510 7     -2987.055          44.000    25100340.008 6 101068676.068 6     -2288.683          41.000
E36  23605758.445 8 124049102.088 8      -822.445          51.000    23605761.180 8  95050621.884 8      -630.227          51.000
> 2020 05 18 22 15  0.0000000  0 16        .000000000000
G01  24414303.648 6 128297977.721 6     -3749.047          38.000    24414305.242 6  99972461.493 6     -2921.335          37.000
G03  21539677.180 5 113191787.059 5     -1984.430          33.000    21539675.484 5  88201371.006 5     -1546.303          30.000
G04  20291774.359 8 106634046.083 8      -472.453          51.000    20291775.102 8  83091480.357 8      -368.148          51.000
G09  20967281.695 8 110183879.064 8      1855.828          51.000    20967282.773 8  85857577.767 8      1446.100          51.000
G17  23180688.258 8 121815334.870 8     -2427.090          48.000    23180685.719 8  94921023.005 8     -1891.236          48.000
G19  22658212.820 6 119069691.711 6     -1851.371          40.000
R02  19675194.992 5 104990603.900 5       722.207          33.000
R17  19788340.914 7 105891444.993 7     -1000.949          45.000    19788344.797 6  82359974.334 6      -778.516          40.000
R24  21893941.578 5 117076787.871 5     -4202.141          33.000    21893935.078 6  91059749.963 6     -3268.329          37.000
C20  22419747.289 8 116745594.832 8     -1183.711          51.000
C29  24120760.727 5 125603083.398 5     -2929.332          34.000
E04  25622806.461 6 134648685.100 6     -2141.953          36.000    25622775.586 5 103172389.820 5     -1641.303          32.000
E05  25708352.352 7 135098336.241 7      2073.609          44.000    25708356.898 8 103516939.443 8      1588.819          49.000
E09  21458174.539 8 112763553.950 8       -16.852          51.000    21458176.844 8  86403243.289 8       -12.921          51.000
E11  25117439.766 7 131993039.234 7     -2997.438          43.000    25117436.000 6 101137508.186 6     -2296.798          41.000
E36  23610518.930 8 124074122.182 8      -841.176          51.000    23610522.625 8  95069793.105 8      -644.585          51.000
> 2020 05 18 22 15 30.0000000  0 15        .000000000000
G01  24435708.805 6 128410467.336 6     -3751.391          36.000    24435711.281 6 100060115.774 6     -2923.162          37.000
G03  21551021.078 5 113251391.499 5     -1991.199          33.000    21551020.938 5  88247831.461 5     -1551.587          33.000
G04  20294509.305 8 106648418.428 8      -487.195          51.000    20294509.859 8  83102679.581 8      -379.633          51.000
