     3.02           OBSERVATION DATA    M (MIXED)           RINEX VERSION / TYPE
SAVERINEX           SC600               20200505 095931 LCL PGM / RUN BY / DATE
       G = GPS       R = GLONASS       C = COMPASS          COMMENT
       S = SBAS      J = QZSS          E = GALILEO          COMMENT
BEAN                                                        MARKER NAME
1                                                           MARKER NUMBER
GEODETIC                                                    MARKER TYPE
Unige DICCA         GTER                                    OBSERVER / AGENCY
SC60291900056       SC600               2.12(191226)        REC # / TYPE / VERS
                    HEMA45          NONE                    ANT # / TYPE
  4509407.8091   693652.4678  4442337.6214                  APPROX POSITION XYZ
        0.0000        0.0000        0.0000                  ANTENNA: DELTA H/E/N
G    8 C1C L1C D1C S1C C2Y L2Y D2Y S2Y                      SYS / # / OBS TYPES
R    8 C1C L1C D1C S1C C2P L2P D2P S2P                      SYS / # / OBS TYPES
C    4 C1I L1I D1I S1I                                      SYS / # / OBS TYPES
E    8 C1C L1C D1C S1C C7Q L7Q D7Q S7Q                      SYS / # / OBS TYPES
DBHZ                                                        COMMENT
     30.000                                                 INTERVAL
  2020    05    05    07    00    0.0000000     GPS         TIME OF FIRST OBS
  2020    05    05    07    59   30.0000000     GPS         TIME OF LAST OBS
     0                                                      RCV CLOCK OFFS APPL
G L1C  0.00000                                              SYS / PHASE SHIFT
G L2Y  0.00000                                              SYS / PHASE SHIFT
R L1C  0.00000                                              SYS / PHASE SHIFT
R L2P  0.25000                                              SYS / PHASE SHIFT
C L1I  0.00000                                              SYS / PHASE SHIFT
E L1C  0.50000                                              SYS / PHASE SHIFT
E L7Q -0.25000                                              SYS / PHASE SHIFT
 12 R05  1 R06 -4 R07  5 R08  6 R09 -2 R10 -7 R11  0 R16 -1 GLONASS SLOT / FRQ #
    R17  4 R18 -3 R19  3 R20  2                             GLONASS SLOT / FRQ #
 C1C   71.950 C2C   71.950 C2P   71.950                     GLONASS COD/PHS/BIS
    18                                                      LEAP SECONDS
*** Above antenna height is from mark to ANTENNA BOTTOM.    COMMENT
    17     4        0.0000        ANT MEASURE TYPE/HEIGT    COMMENT
    0.0000    0.0000    0.0458    0.0405    0.0000          COMMENT
                    BASE STATION                            COMMENT
                                                            END OF HEADER
> 2020 05 05 07 00  0.0000000  0 16        .000000000000
G12  22740393.945 6 119501556.822 6      3366.117          38.000    22740394.508 6  93118100.276 6      2622.952          38.000
G13  21818406.953 8 114656467.004 8     -2851.859          51.000    21818406.391 7  89342702.423 7     -2222.231          45.000
G15  20806079.898 8 109336682.637 8     -1744.660          49.000    20806079.898 8  85197413.077 8     -1359.475          49.000
G17  22391993.766 5 117670731.052 5        62.793          31.000    22391996.219 5  91691467.719 5        48.936          31.000
G19  22167397.125 6 116490472.545 6      2041.223          37.000    22167394.461 5  90771763.550 5      1590.566          33.000
R07  21208742.844 8 113532029.223 8     -3775.184          50.000    21208745.531 7  88302700.222 7     -2936.254          46.000
R08  19932636.492 6 106738321.552 6      -182.109          37.000    19932634.469 4  83018722.928 4      -141.644          24.000
R09  19912910.375 6 106333825.985 6     -1588.852          40.000    19912912.477 5  82704076.853 5     -1235.780          35.000
R11  23477401.773 5 125456063.456 5      3156.172          32.000
C21  24685620.125 7 128544535.185 7     -3166.094          42.000
C24  25398685.625 5 132257615.768 5      2532.996          32.000
C26  21754414.531 6 113280911.492 6       883.055          36.000
E07  24218944.031 8 127271424.272 8     -1754.324          51.000    24218947.961 8  97519641.949 8     -1344.193          51.000
E08                                                                  25642973.141 5 103253624.106 5     -2416.294          35.000
E27  24118924.688 8 126745794.099 8      1402.551          49.000    24118928.516 8  97116921.268 8      1074.694          51.000
E30  22467880.828 8 118069484.555 8     -1104.789          51.000    22467882.578 8  90468839.095 8      -846.488          51.000
> 2020 05 05 07 00 30.0000000  0 15        .000000000000
G12  22721207.680 6 119400734.569 6      3355.727          37.000    22721209.547 6  93039537.495 6      2614.852          36.000
G13  21834726.383 8 114742227.289 8     -2865.188          51.000    21834725.133 7  89409528.558 7     -2232.614          42.000
G15  20816092.656 8 109389301.359 8     -1763.039          50.000    20816092.930 8  85238414.688 8     -1373.797          50.000
G17  22391695.898 6 117669156.841 6        42.188          36.000    22391700.711 5  91690248.966 5        32.873          35.000
G19  22155799.008 6 116429523.259 6      2022.391          41.000    22155795.922 5  90724270.521 5      1575.880          31.000
R07  21229947.211 8 113645535.025 8     -3791.465          50.000    21229949.719 7  88390982.475 7     -2948.917          46.000
R08  19933749.109 6 106744240.568 6      -211.625          38.000    19933744.945 4  83023345.557 4      -164.591          27.000
R09  19921869.344 6 106381669.698 6     -1600.617          38.000    19921870.961 6  82741288.626 6     -1244.924          36.000
C21  24703880.812 6 128639621.492 6     -3172.535          41.000
C24  25384109.734 5 132181706.275 5      2528.250          33.000
C26  21749354.281 5 113254562.432 5       873.789          35.000
E07  24228998.297 8 127324258.114 8     -1767.539          51.000    24229001.297 8  97560124.983 8     -1354.282          51.000
E08  25660991.531 5 134849417.995 5     -3156.820          32.000    25660986.688 5 103326158.632 5     -2419.180          33.000
E27  24110946.008 8 126703864.782 8      1393.105          48.000    24110949.219 8  97084793.607 8      1067.438          50.000
E30  22474212.961 8 118102759.719 8     -1113.223          51.000    22474214.859 8  90494335.642 8      -853.019          51.000
> 2020 05 05 07 01  0.0000000  0 15        .000000000000
G12  22702066.297 6 119300145.936 6      3348.820          41.000    22702067.969 6  92961156.728 6      2609.470          41.000
G13  21851106.531 8 114828306.469 8     -2874.953          51.000    21851104.625 7  89476603.137 7     -2240.226          43.000
G15  20826195.469 8 109442392.166 8     -1777.934          50.000    20826195.742 8  85279784.170 8     -1385.406          50.000
G19  22144294.250 6 116369062.751 6      2007.016          40.000    22144289.969 5  90677158.492 5      1563.911          33.000
R07  21251227.328 8 113759446.250 8     -3804.082          50.000    21251228.836 7  88479580.039 7     -2958.734          45.000
R08  19935006.727 6 106750960.267 6      -237.668          40.000    19935003.992 4  83028571.884 4      -184.850          29.000
R09  19930878.297 6 106429783.393 6     -1608.434          39.000    19930879.797 6  82778710.326 6     -1251.001          37.000
R11  23442012.125 5 125267004.720 5      3145.645          30.000
C21  24722164.656 6 128734828.772 6     -3175.926          39.000
C24  25369546.570 4 132105860.700 4      2527.184          28.000
C26  21744330.586 5 113228417.922 5       868.043          30.000
E07  24239112.367 8 127377406.183 8     -1777.113          51.000    24239114.406 8  97600848.795 8     -1361.672          51.000
E08                                                                  25679004.688 5 103398710.859 5     -2418.850          31.000
E27  24103005.109 7 126662136.793 7      1387.250          47.000    24103007.539 8  97052820.199 8      1062.916          49.000
E30  22480578.266 8 118136209.264 8     -1118.203          51.000    22480579.969 8  90519965.801 8      -856.817          51.000
> 2020 05 05 07 01 30.0000000  0 14        .000000000000
G12  22682976.602 7 119199829.554 7      3338.852          42.000    22682978.195 7  92882988.105 7      2601.706          42.000
G13  21867554.117 8 114914739.324 8     -2887.266          51.000    21867551.805 7  89543953.336 7     -2249.820          44.000
G15  20836395.094 8 109495990.564 8     -1795.398          51.000    20836395.227 8  85321549.158 8     -1399.012          51.000
G17  22391418.617 5 117667703.323 5         5.723          35.000    22391417.195 5  91689120.626 5         4.459          35.000
G19  22132889.547 7 116309130.052 7      1988.469          42.000    22132882.227 4  90630457.813 4      1549.453          28.000
R07  21272589.086 8 113873795.208 8     -3819.090          50.000    21272589.750 7  88568518.057 7     -2970.406          46.000
R08  19936417.086 6 106758518.079 6      -265.965          39.000    19936409.781 4  83034450.134 4      -206.859          29.000
R09  19939944.977 6 106478202.547 6     -1619.469          38.000    19939946.234 6  82816369.678 6     -1259.587          38.000
C21  24740478.008 5 128830190.801 5     -3181.000          35.000
C24  25355004.555 5 132030146.492 5      2522.426          30.000
E07  24249292.969 8 127430904.038 8     -1789.246          51.000    24249294.305 8  97641840.630 8     -1370.927          51.000
E08                                                                  25697034.891 5 103471310.695 5     -2421.191          30.000
E27  24095108.992 7 126620646.494 7      1378.949          46.000    24095111.133 8  97021028.906 8      1056.585          49.000
E30  22486983.523 8 118169868.716 8     -1125.656          51.000    22486984.719 8  90545756.789 8      -862.513          51.000
> 2020 05 05 07 02  0.0000000  0 15        .000000000000
G12  22663930.406 7 119099742.823 7      3329.191          42.000    22663932.195 6  92804998.513 6      2594.181          41.000
G13  21884060.469 8 115001480.156 8     -2899.867          51.000    21884058.695 7  89611543.553 7     -2259.640          46.000
G15  20846682.875 8 109550051.259 8     -1813.008          51.000    20846682.859 8  85363674.370 8     -1412.733          51.000
G17  22391425.352 5 117667762.206 5       -14.715          33.000    22391426.758 5  91689174.679 5       -11.463          34.000
G19  22121577.406 6 116249683.705 6      1969.988          41.000    22121569.133 5  90584136.020 5      1535.053          31.000
R07  21294022.859 8 113988533.541 8     -3834.523          51.000    21294024.117 7  88657758.960 7     -2982.407          47.000
R08  19937976.430 6 106766869.455 6      -295.020          38.000    19937970.805 5  83040945.661 5      -229.460          32.000
R09  19949061.109 6 106526880.743 6     -1630.328          40.000    19949062.398 6  82854230.509 6     -1268.030          38.000
R18  23084750.477 6 123227902.156 6     -1352.137          36.000    23084755.570 4  95843990.631 4     -1051.659          29.000
C21  24758814.398 5 128925661.729 5     -3187.859          30.000
C24  25340468.312 4 131954473.405 4      2518.469          29.000
C26  21734422.539 6 113176800.689 6       850.594          37.000
E07  24259531.477 8 127484706.818 8     -1801.797          51.000    24259532.594 8  97683066.115 8     -1380.571          51.000
E27  24087249.938 7 126579349.747 7      1369.984          45.000    24087251.922 8  96989385.948 8      1049.779          48.000
E30  22493420.109 8 118203693.134 8     -1133.531          51.000    22493421.164 8  90571674.181 8      -868.565          51.000
> 2020 05 05 07 02 30.0000000  0 16        .000000000000
G12  22644946.961 7 118999986.631 7      3319.621          42.000    22644948.617 7  92727266.427 7      2586.715          42.000
G13  21900643.781 8 115088626.400 8     -2911.684          51.000    21900642.992 7  89679449.685 7     -2268.844          47.000
G15  20857077.133 8 109604671.636 8     -1830.035          51.000    20857076.859 8  85406235.691 8     -1426.001          51.000
G19  22110376.836 7 116190825.327 7      1952.012          42.000    22110370.852 5  90538272.405 5      1521.042          33.000
R07  21315547.250 8 114103758.104 8     -3848.914          51.000    21315549.648 7  88747378.038 7     -2993.600          47.000
R08  19939700.375 5 106776114.674 5      -322.883          31.000    19939697.695 5  83048136.338 5      -251.131          33.000
R09  19958244.680 6 106575917.240 6     -1640.695          41.000    19958246.164 6  82892369.980 6     -1276.096          38.000
R11  23389158.945 5 124984587.717 5      3129.234          34.000    23389160.555 4  97210232.218 4      2433.852          29.000
R18  23092418.273 5 123268842.505 5     -1378.629          32.000    23092423.266 5  95875812.642 5     -1072.273          32.000
C21  24777197.516 5 129021375.936 5     -3192.672          30.000
C24  25325962.711 5 131878940.683 5      2515.133          33.000
C26  21729548.648 6 113151389.416 6       841.934          38.000
C29  24298094.211 5 126526587.744 5       989.977          30.000
E07  24269846.539 8 127538912.516 8     -1813.500          51.000    24269848.016 8  97724600.347 8     -1389.547          51.000
E27  24079446.602 7 126538345.424 7      1361.887          44.000    24079448.703 8  96957967.076 8      1043.586          48.000
E30  22499906.656 8 118237780.530 8     -1140.621          51.000    22499908.102 8  90597793.079 8      -873.985          51.000
> 2020 05 05 07 03  0.0000000  0 15        .000000000000
G12  22626021.750 7 118900532.745 7      3313.699          44.000    22626021.953 7  92649769.858 7      2582.103          44.000
G13  21917298.133 8 115176146.838 8     -2919.660          50.000    21917298.469 7  89747647.408 7     -2275.060          47.000
G15  20867571.820 8 109659820.472 8     -1843.238          51.000    20867571.133 8  85449208.798 8     -1436.290          51.000
G19  22099283.242 6 116132527.888 6      1937.590          41.000    22099279.406 6  90492845.843 6      1509.813          37.000
R07  21337156.414 8 114219434.001 8     -3859.469          51.000    21337159.016 7  88837348.150 7     -3001.809          46.000
R08  19941586.125 6 106786223.043 6      -347.320          36.000    19941585.062 5  83055998.512 5      -270.132          34.000
R09  19967488.680 6 106625280.362 6     -1646.797          37.000    19967491.453 6  82930763.562 6     -1280.839          37.000
R11  23371608.953 5 124890784.220 5      3127.895          33.000    23371609.117 4  97137274.026 4      2432.807          26.000
C21  24795599.844 5 129117223.412 5     -3194.098          33.000
C24  25311481.117 5 131803534.072 5      2515.297          30.000
C26  21724719.656 5 113126243.790 5       836.754          32.000
C29  24292438.906 5 126497086.663 5       977.195          35.000
E07  24280232.195 8 127593490.434 8     -1821.543          51.000    24280234.422 8  97766419.789 8     -1395.731          51.000
E27  24071693.258 7 126497603.657 7      1357.617          44.000    24071694.984 7  96926749.378 7      1040.147          47.000
E30  22506437.422 8 118272100.142 8     -1143.965          51.000    22506439.195 8  90624089.917 8      -876.533          51.000
> 2020 05 05 07 03 30.0000000  0 15        .000000000000
G12  22607127.961 7 118801243.235 7      3302.828          47.000    22607126.656 7  92572401.451 7      2573.635          46.000
G13  21933996.703 8 115263900.382 8     -2933.059          49.000    21933998.148 7  89816026.774 7     -2285.500          47.000
G15  20878139.812 8 109715356.939 8     -1861.570          51.000    20878138.906 8  85492483.925 8     -1450.574          51.000
G19  22088269.602 6 116074654.544 6      1918.223          36.000    22088268.328 6  90447749.711 6      1494.722          36.000
G24  20777299.023 4 109185442.563 4      1571.312          28.000
R07  21358822.742 8 114335415.536 8     -3875.176          50.000    21358824.930 7  88927555.966 7     -3014.026          45.000
R08  19943607.430 6 106797052.853 6      -376.727          36.000    19943608.414 5  83064421.692 5      -293.007          33.000
R09  19976766.898 6 106674826.823 6     -1658.781          40.000    19976770.789 5  82969299.721 5     -1290.163          34.000
R11  23354062.383 5 124797020.074 5      3120.812          32.000    23354064.172 4  97064362.330 4      2427.305          27.000
C21  24814005.680 5 129213103.583 5     -3200.523          32.000
C26  21719912.938 5 113101225.675 5       828.344          34.000
C29  24286854.031 5 126467989.086 5       959.699          34.000
E07  24290661.711 8 127648300.249 8     -1834.824          51.000    24290664.891 8  97808416.914 8     -1405.907          51.000
E27  24063963.625 7 126456984.955 7      1347.875          45.000    24063964.188 7  96895625.950 7      1032.808          46.000
E30  22512985.781 8 118306511.652 8     -1152.516          51.000    22512987.500 8  90650457.170 8      -883.138          51.000
> 2020 05 05 07 04  0.0000000  0 12        .000000000000
G12  22588297.844 8 118702288.172 8      3294.953          49.000    22588295.383 8  92495293.643 8      2567.496          49.000
G13  21950770.961 7 115352053.523 7     -2942.977          47.000    21950773.422 7  89884717.575 7     -2293.228          47.000
G15  20888813.328 8 109771447.918 8     -1876.938          51.000    20888812.141 8  85536191.155 8     -1462.549          51.000
G19  22077368.648 6 116017375.943 6      1901.410          38.000    22077368.656 6  90403117.023 6      1481.615          37.000
R07  21380577.781 8 114451869.828 8     -3887.566          51.000    21380578.922 7  89018131.474 7     -3023.666          45.000
R08  19945796.562 6 106808774.720 6      -403.504          37.000    19945796.586 5  83073538.722 5      -313.833          33.000
R09  19986111.812 6 106724726.271 6     -1666.879          41.000    19986114.273 5  83008110.329 5     -1296.461          34.000
R11  23336557.219 4 124703480.511 4      3117.473          29.000
C26  21715164.141 5 113076501.980 5       821.320          35.000
E07  24301167.141 8 127703509.236 8     -1844.852          51.000    24301171.188 8  97850719.884 8     -1413.582          51.000
E27  24056290.000 7 126416657.380 7      1341.418          47.000    24056289.406 7  96864725.609 7      1027.918          46.000
E30  22519583.461 8 118341182.287 8     -1157.949          51.000    22519585.055 8  90677022.971 8      -887.257          51.000
> 2020 05 05 07 04 30.0000000  0 13        .000000000000
G12  22569517.969 8 118603598.215 8      3283.773          48.000    22569515.398 8  92418392.389 8      2558.784          48.000
G13  21967607.656 8 115440533.433 8     -2956.262          49.000    21967610.586 7  89953662.967 7     -2303.578          46.000
G15  20899578.688 8 109828020.876 8     -1895.293          50.000    20899577.250 8  85580273.970 8     -1476.852          50.000
G17  22393167.297 6 117676868.531 6      -108.215          38.000
G19  22066568.102 5 115960623.580 5      1881.297          34.000    22066569.516 5  90358894.404 5      1465.949          33.000
R07  21402406.898 8 114568720.483 8     -3903.129          51.000    21402407.992 7  89109015.274 7     -3035.767          45.000
R08  19948138.969 5 106821315.982 5      -433.227          35.000    19948137.461 5  83083293.024 5      -336.951          32.000
R09  19995508.508 6 106774905.012 6     -1679.027          40.000    19995510.719 5  83047138.178 5     -1305.910          35.000
C26  21710458.148 6 113052002.032 6       811.562          36.000
C29  24275981.648 5 126411367.147 5       928.309          31.000
E07  24311734.922 8 127759045.257 8     -1858.152          51.000    24311739.570 8  97893273.433 8     -1423.821          51.000
E27  24048658.398 7 126376549.645 7      1331.719          46.000    24048657.531 7  96833993.717 7      1020.393          47.000
E30  22526216.664 8 118376039.969 8     -1166.531          51.000    22526218.289 8  90703732.114 8      -893.833          51.000
> 2020 05 05 07 05  0.0000000  0 15        .000000000000
G12  22550782.852 8 118505145.370 8      3277.043          50.000    22550781.547 8  92341675.901 8      2553.540          50.000
G13  21984501.555 8 115529309.467 8     -2964.941          51.000    21984503.805 7  90022839.057 7     -2310.347          45.000
G15  20910429.664 8 109885045.093 8     -1909.031          49.000    20910428.477 8  85624708.379 8     -1487.560          49.000
G19  22055863.195 6 115904370.945 6      1865.816          39.000    22055865.531 6  90315061.262 6      1453.883          38.000
R07  21424303.492 8 114685933.300 8     -3913.863          50.000    21424305.133 7  89200180.761 7     -3044.116          46.000
R08  19950627.672 6 106834646.655 6      -458.141          36.000    19950625.703 5  83093661.283 5      -356.332          30.000
R09  20004951.797 7 106825331.818 7     -1685.582          42.000    20004954.617 6  83086359.005 6     -1311.008          38.000
R18  23132819.648 5 123484495.736 5     -1498.234          34.000
C21  24869424.594 4 129501620.739 4     -3211.637          28.000
C24  25253685.148 5 131502557.231 5      2502.500          32.000
C26  21705789.133 5 113027696.956 5       806.191          35.000
C29  24270677.922 5 126383757.428 5       914.777          35.000
E07  24322359.633 8 127814878.225 8     -1866.742          51.000    24322364.305 8  97936054.515 8     -1430.331          51.000
E27  24041062.469 7 126336632.522 7      1326.676          44.000    24041062.648 8  96803407.881 8      1016.550          48.000
E30  22532879.641 8 118411054.565 8     -1170.449          51.000    22532881.266 8  90730561.480 8      -896.796          51.000
> 2020 05 05 07 05 30.0000000  0 16        .000000000000
G12  22532102.867 8 118406981.125 8      3265.809          50.000    22532102.617 8  92265184.282 8      2544.786          50.000
G13  22001461.211 8 115618429.118 8     -2977.820          51.000    22001462.125 7  90092282.877 7     -2320.383          44.000
G15  20921375.789 8 109942568.454 8     -1927.340          50.000    20921374.641 8  85669531.727 8     -1501.823          50.000
G19  22045264.195 6 115848669.642 6      1845.852          38.000    22045265.469 6  90271657.655 6      1438.320          37.000
R07  21446276.078 8 114803554.923 8     -3929.020          49.000    21446278.414 7  89291664.228 7     -3055.904          46.000
R08  19953272.695 5 106848816.618 5      -488.023          32.000    19953271.047 5  83104682.392 5      -379.580          30.000
R09  20014451.070 7 106876055.515 7     -1697.227          43.000    20014454.891 6  83125810.766 6     -1320.065          40.000
R11  23284174.539 5 124423567.530 5      3100.398          33.000    23284189.250 4  96773920.028 4      2411.418          27.000
R18  23141312.812 5 123529821.361 5     -1525.258          31.000    23141318.773 5  96078823.537 5     -1186.312          31.000
C21  24887943.172 5 129598049.639 5     -3217.652          32.000
C24  25239283.047 4 131427569.585 4      2497.547          28.000
C26  21701165.797 5 113003635.720 5       796.750          31.000
C29  24265458.594 4 126356564.489 4       896.219          28.000
E07  24333050.375 8 127871056.368 8     -1879.836          51.000    24333054.367 8  97979100.090 8     -1440.355          51.000
E27  24033511.773 7 126296955.087 7      1317.094          44.000    24033513.719 8  96773005.685 8      1009.178          49.000
E30  22539581.688 8 118446274.390 8     -1178.832          51.000    22539583.156 8  90757548.101 8      -903.297          51.000
> 2020 05 05 07 06  0.0000000  0 15        .000000000000
G12  22513488.984 8 118309164.190 8      3254.965          50.000    22513488.883 8  92188963.306 8      2536.336          50.000
G13  22018496.820 8 115707948.216 8     -2990.383          51.000    22018496.422 7  90162037.959 7     -2330.168          43.000
G15  20932427.984 8 110000646.900 8     -1944.965          51.000    20932426.641 8  85714787.625 8     -1515.557          51.000
G17  22395454.586 5 117688913.539 5      -165.012          30.000
G19  22034780.773 5 115793579.368 5      1825.477          32.000    22034781.992 5  90228730.267 5      1422.461          34.000
R07  21468334.961 7 114921639.316 7     -3943.625          47.000    21468338.094 7  89383507.645 7     -3067.264          46.000
R08  19956085.461 5 106863883.886 5      -517.230          34.000    19956084.453 5  83116401.319 5      -402.293          30.000
R09  20024016.531 6 106927132.788 6     -1708.148          41.000    20024020.812 6  83165537.501 6     -1328.563          40.000
R11  23266787.945 4 124330654.208 4      3094.266          29.000    23266799.508 3  96701644.857 3      2406.654          23.000
C21  24906499.836 5 129694674.313 5     -3223.844          35.000
C26  21696600.750 5 112979875.065 5       786.758          34.000
C29  24260320.992 5 126329871.665 5       880.023          34.000
E07  24343817.422 8 127927636.137 8     -1892.480          51.000    24343820.453 8  98022453.407 8     -1450.097          51.000
E27  24026018.227 7 126257574.670 7      1307.777          46.000    24026020.992 8  96742831.040 8      1002.186          49.000
E30  22546333.508 8 118481755.938 8     -1186.902          51.000    22546334.969 8  90784735.255 8      -909.433          51.000
> 2020 05 05 07 06 30.0000000  0 15        .000000000000
G12  22494921.898 8 118211593.402 8      3243.535          51.000    22494921.102 8  92112934.147 8      2527.430          51.000
G13  22035588.133 8 115797762.168 8     -3003.379          51.000    22035586.977 6  90232022.781 6     -2340.295          41.000
G15  20943566.086 8 110059176.390 8     -1963.297          51.000    20943564.836 8  85760394.996 8     -1529.842          51.000
G17  22396440.859 5 117694089.949 5      -186.906          35.000    22396436.281 5  91709672.074 5      -145.647          32.000
G19  22024395.500 6 115739000.257 6      1806.070          37.000    22024395.758 6  90186201.032 6      1407.331          36.000
R07  21490459.430 7 115040077.556 7     -3958.508          46.000    21490463.594 7  89475626.288 7     -3078.839          45.000
R08  19959045.047 5 106879743.039 5      -547.000          31.000    19959047.625 5  83128736.177 5      -425.444          34.000
R09  20033628.000 6 106978457.725 6     -1719.637          39.000    20033631.375 6  83205456.882 6     -1337.495          39.000
R11  23249421.328 5 124237848.285 5      3087.066          30.000
C21  24925073.430 5 129791387.913 5     -3229.836          35.000
C24  25210527.281 5 131277875.574 5      2488.016          32.000
C26  21692075.945 6 112956312.960 6       777.410          38.000
E07  24354640.781 8 127984513.608 8     -1905.617          51.000    24354642.797 8  98066034.822 8     -1460.214          51.000
E27  24018561.914 7 126218388.124 7      1298.145          46.000    24018564.633 8  96712804.958 8       994.736          48.000
E30  22553115.422 8 118517395.299 8     -1195.363          51.000    22553117.008 8  90812043.335 8      -915.949          51.000
> 2020 05 05 07 07  0.0000000  0 16        .000000000000
G12  22476405.672 8 118114289.529 8      3240.375          51.000    22476404.539 8  92037112.984 8      2524.968          50.000
G13  22052738.391 8 115887888.282 8     -3007.930          51.000    22052736.961 7  90302250.883 7     -2343.841          42.000
G15  20954793.266 8 110118173.903 8     -1972.984          51.000    20954792.281 8  85806367.062 8     -1537.390          51.000
G17  22397533.977 5 117699826.593 5      -198.570          35.000    22397527.109 5  91714142.128 5      -154.727          34.000
G19  22014111.141 6 115684953.335 6      1794.082          36.000    22014111.047 5  90144086.564 5      1397.989          34.000
R07  21512653.164 8 115158885.026 8     -3964.879          48.000    21512657.430 7  89568032.091 7     -3083.798          42.000
R08  19962157.938 5 106896413.000 5      -567.867          34.000    19962161.695 5  83141701.763 5      -441.668          32.000
R09  20043289.234 6 107030048.391 6     -1722.473          41.000    20043290.773 6  83245582.901 6     -1339.701          39.000
R11  23232082.414 5 124145173.164 5      3088.047          32.000
C21  24943667.578 5 129888207.177 5     -3228.453          30.000
C24  25196185.164 5 131203162.357 5      2490.531          31.000
C26  21687593.242 6 112932968.533 6       776.168          38.000
C29  24250347.586 6 126277894.864 6       851.930          37.000
E07  24365523.961 8 128041706.928 8     -1910.316          51.000    24365524.969 8  98109858.254 8     -1463.839          51.000
E27  24011145.602 7 126179414.467 7      1297.059          44.000    24011148.211 8  96682942.038 8       993.775          48.000
E30  22559930.859 8 118553210.700 8     -1195.359          51.000    22559932.578 8  90839486.297 8      -915.955          51.000
> 2020 05 05 07 07 30.0000000  0 15        .000000000000
G12  22457945.508 8 118017281.171 8      3225.547          50.000    22457945.023 8  91961522.082 8      2513.413          50.000
G13  22069952.828 8 115978351.993 8     -3024.043          51.000    22069951.836 6  90372742.053 6     -2356.400          41.000
G15  20966114.352 8 110177665.164 8     -1994.258          51.000    20966113.898 8  85852723.873 8     -1553.967          51.000
G17  22398734.047 5 117706143.558 5      -224.449          32.000    22398732.680 4  91719060.616 4      -174.908          29.000
G19  22003932.562 5 115631468.146 5      1770.145          34.000    22003932.047 5  90102409.779 5      1379.330          34.000
R07  21534921.594 8 115278085.452 8     -3982.820          50.000    21534923.242 6  89660743.432 6     -3097.752          39.000
R08  19965427.367 5 106913920.893 5      -600.336          35.000    19965431.945 5  83155318.991 5      -466.931          33.000
R09  20053005.492 6 107081930.908 6     -1737.398          40.000    20053005.852 6  83285935.932 6     -1351.310          40.000
R11  23214772.023 5 124052702.375 5      3078.609          32.000
C21  24962284.242 5 129985156.586 5     -3237.301          33.000
C24  25181859.781 5 131128556.342 5      2482.199          31.000
C26  21683157.133 6 112909868.660 6       762.895          38.000
E07  24376472.164 8 128099242.217 8     -1926.582          51.000    24376472.766 8  98153943.717 8     -1476.230          51.000
E27  24003773.977 7 126140680.760 7      1284.008          42.000    24003777.273 8  96653262.972 8       983.907          48.000
E30  22566784.750 8 118589228.321 8     -1206.984          51.000    22566786.531 8  90867084.204 8      -924.802          51.000
> 2020 05 05 07 08  0.0000000  0 15        .000000000000
G12  22439543.117 8 117920576.312 8      3219.270          50.000    22439543.469 8  91886167.633 8      2508.522          49.000
G13  22087232.609 8 116069157.846 8     -3031.699          51.000    22087231.594 6  90443499.793 6     -2362.363          41.000
G15  20977529.984 8 110237654.763 8     -2007.047          51.000    20977530.195 8  85899469.007 8     -1563.933          51.000
G17  22400046.109 6 117713033.844 6      -238.375          38.000    22400045.258 5  91724432.241 5      -185.744          32.000
G19  21993863.164 5 115578553.208 5      1754.871          35.000    21993863.625 5  90061177.306 5      1367.435          33.000
R07  21557264.734 8 115397680.542 8     -3992.102          51.000    21557263.359 6  89753761.700 6     -3104.971          39.000
R08  19968855.992 5 106932272.597 5      -624.688          35.000    19968858.859 4  83169592.496 4      -485.874          28.000
R09  20062777.133 6 107134110.032 6     -1743.188          37.000    20062777.656 6  83326519.711 6     -1355.809          41.000
C21  24980930.109 5 130082239.597 5     -3236.957          31.000
C24  25167551.531 4 131054063.850 4      2482.000          29.000
C26  21678769.492 6 112887019.388 6       758.328          36.000
C29  24240735.086 6 126227850.224 6       817.918          37.000
E07  24387486.523 8 128157124.511 8     -1934.293          51.000    24387487.344 8  98198295.078 8     -1482.124          51.000
E27  23996449.242 7 126102192.857 7      1279.832          43.000    23996453.078 8  96623772.264 8       980.576          48.000
E30  22573678.125 8 118625453.333 8     -1210.016          51.000    22573679.891 8  90894841.020 8      -927.194          51.000
> 2020 05 05 07 08 30.0000000  0 13        .000000000000
G12  22421184.695 8 117824102.475 8      3208.461          51.000    22421185.594 8  91810993.214 8      2500.099          51.000
G13  22104563.258 8 116160230.731 8     -3043.621          51.000    22104561.656 6  90514465.615 6     -2371.656          40.000
G15  20989026.070 8 110298067.385 8     -2024.332          51.000    20989026.750 8  85946543.767 8     -1577.402          51.000
G17  22401454.516 6 117720434.928 6      -258.723          37.000    22401458.414 5  91730199.389 5      -201.599          35.000
G19  21983888.430 5 115526137.429 5      1735.727          34.000    21983889.203 5  90020333.827 5      1352.511          32.000
R07  21579666.492 8 115517591.156 8     -4005.750          50.000    21579664.281 6  89847025.421 6     -3115.586          41.000
R08  19972427.492 6 106951391.893 6      -653.801          36.000
R09  20072590.055 6 107186509.570 6     -1753.707          39.000    20072591.125 6  83367274.878 6     -1363.994          41.000
C21  24999586.406 5 130179381.110 5     -3242.578          31.000
C26  21674417.172 6 112864347.580 6       749.289          38.000
E07  24398552.844 8 128215279.043 8     -1946.449          51.000    24398554.008 8  98242855.016 8     -1491.420          51.000
E27  23989157.961 7 126063876.849 7      1270.855          44.000    23989161.828 8  96594413.247 8       973.817          48.000
E30  22580596.781 8 118661811.004 8     -1217.555          51.000    22580598.555 8  90922699.484 8      -932.938          51.000
> 2020 05 05 07 09  0.0000000  0 15        .000000000000
G12  22402897.414 8 117728001.706 8      3201.695          51.000    22402897.609 8  91736109.501 8      2494.828          51.000
G13  22121970.633 8 116251708.564 8     -3051.402          49.000    22121968.547 6  90585746.985 6     -2377.719          39.000
G15  21000629.188 8 110359041.623 8     -2037.203          51.000    21000629.836 8  85994056.156 8     -1587.428          51.000
G17  22402985.602 5 117728483.787 5      -274.383          31.000    22402988.250 4  91736471.232 4      -213.805          29.000
G19  21974035.734 5 115474363.527 5      1719.953          34.000    21974036.125 5  89979990.491 5      1340.217          33.000
R07  21602152.234 7 115637956.339 7     -4015.070          46.000    21602150.406 6  89940642.743 6     -3122.832          41.000
R08  19976168.609 5 106971421.099 5      -677.969          33.000
R09  20082469.742 5 107239270.584 5     -1760.598          34.000    20082471.117 6  83408311.245 6     -1369.354          39.000
C21  25018281.406 5 130276717.497 5     -3242.270          30.000
C24  25138992.344 5 130905322.378 5      2477.203          34.000
C26  21670125.297 6 112841992.233 6       744.266          39.000
C29  24231502.219 6 126179779.857 6       787.754          37.000
E07  24409697.695 8 128273845.156 8     -1954.391          51.000    24409699.242 8  98287730.336 8     -1497.535          51.000
E27  23981926.438 7 126025872.997 7      1266.250          44.000    23981929.938 7  96565293.408 7       970.288          47.000
E30  22587567.180 8 118698440.808 8     -1220.883          51.000    22587569.117 8  90950766.462 8      -935.464          51.000
> 2020 05 05 07 09 30.0000000  0 14        .000000000000
G12  22384649.789 8 117632109.721 8      3190.883          51.000    22384648.734 8  91661388.493 8      2486.405          50.000
G13  22139422.938 8 116343423.723 8     -3063.227          48.000    22139420.867 6  90657213.345 6     -2386.927          40.000
G15  21012307.359 8 110420410.181 8     -2054.273          51.000    21012307.688 8  86041875.788 8     -1600.733          51.000
G17  22404608.047 4 117737014.585 4      -294.254          29.000    22404610.617 4  91743118.573 4      -229.283          28.000
G19  21964274.477 5 115423067.773 5      1699.898          32.000    21964275.273 5  89940019.848 5      1324.593          31.000
R07  21624688.664 7 115758602.766 7     -4028.426          43.000    21624688.898 7  90034478.863 7     -3133.220          42.000
R08  19980048.039 6 106992190.580 6      -706.789          37.000    19980049.180 4  83216185.201 4      -549.728          26.000
R09  20092384.852 6 107292223.108 6     -1769.988          38.000    20092387.031 6  83449496.503 6     -1376.661          39.000
C24  25124737.266 5 130831066.297 5      2472.590          35.000
C26  21665862.086 6 112819789.064 6       735.625          39.000
C29  24227010.875 5 126156399.210 5       771.207          34.000
E07  24420889.180 8 128332655.800 8     -1966.543          51.000    24420891.477 8  98332793.013 8     -1506.826          51.000
E27  23974722.211 7 125988015.137 7      1257.426          42.000    23974725.266 7  96536285.420 7       963.500          46.000
E30  22594557.562 8 118735175.810 8     -1228.379          51.000    22594559.758 8  90978914.038 8      -941.192          51.000
> 2020 05 05 07 10  0.0000000  0 12        .000000000000
G12  22366465.945 8 117536554.557 8      3181.465          49.000    22366464.500 8  91586929.940 8      2479.064          49.000
G13  22156944.711 8 116435501.146 8     -3073.414          49.000    22156942.562 7  90728961.986 7     -2394.868          43.000
G15  21024084.234 8 110482298.108 8     -2069.766          51.000    21024084.195 8  86090100.108 8     -1612.804          51.000
G19  21954629.797 5 115372379.079 5      1681.594          35.000    21954629.562 4  89900535.216 4      1310.342          28.000
R07  21647300.984 7 115879655.093 7     -4039.957          43.000    21647302.953 6  90128630.685 6     -3142.189          41.000
R08  19984089.156 5 107013828.323 5      -734.441          34.000
R09  20102360.367 6 107345494.383 6     -1778.887          39.000    20102364.125 6  83490929.632 6     -1383.585          39.000
C24  25110505.367 5 130756951.547 5      2469.766          35.000
C26  21661651.031 6 112797863.374 6       728.398          37.000
E07  24432151.141 8 128391836.300 8     -1976.973          51.000    24432154.453 8  98378139.107 8     -1514.835          51.000
E27  23967568.930 7 125950429.506 7      1250.113          42.000    23967571.844 7  96507486.058 7       957.936          45.000
E30  22601591.812 8 118772141.503 8     -1234.207          51.000    22601594.250 8  91007238.378 8      -945.658          51.000
> 2020 05 05 07 10 30.0000000  0 12        .000000000000
G12  22348330.336 8 117441252.932 8      3171.145          48.000    22348329.359 8  91512668.929 8      2471.022          48.000
G13  22174519.750 8 116527854.317 8     -3084.258          51.000    22174517.727 7  90800925.448 7     -2403.318          45.000
G15  21035943.477 8 110544618.697 8     -2085.867          51.000    21035942.984 8  86138661.575 8     -1625.354          51.000
G19  21945085.539 6 115322214.423 6      1662.082          40.000    21945084.055 6  89861445.900 6      1295.138          38.000
R07  21669973.344 7 116001022.646 7     -4052.059          42.000    21669975.992 6  90223027.620 6     -3151.601          40.000
R08  19988275.492 5 107036247.298 5      -761.891          35.000
R09  20112379.758 6 107398996.606 6     -1788.434          41.000    20112384.469 6  83532542.448 6     -1391.004          38.000
C24  25096284.164 5 130682894.403 5      2466.477          31.000
C26  21657476.445 6 112776131.157 6       719.875          37.000
E07  24443467.375 8 128451300.814 8     -1988.141          51.000    24443471.461 8  98423702.816 8     -1523.351          51.000
E27  23960452.078 7 125913031.151 7      1242.234          44.000    23960453.836 7  96478830.217 7       951.818          44.000
E30  22608653.633 8 118809252.119 8     -1240.633          51.000    22608656.219 8  91035673.774 8      -950.612          51.000
> 2020 05 05 07 11  0.0000000  0 15        .000000000000
G12  22330255.945 8 117346271.455 8      3161.508          49.000    22330255.328 8  91438657.421 8      2463.516          49.000
G13  22192159.359 8 116620546.641 8     -3094.559          51.000    22192157.094 7  90873153.207 7     -2411.344          45.000
G15  21047897.047 8 110607435.431 8     -2101.250          51.000    21047896.258 8  86187609.673 8     -1637.338          51.000
G17  22410134.203 6 117766053.657 6      -350.418          37.000    22410140.352 6  91765776.766 6      -273.053          37.000
G19  21935653.133 7 115272641.397 7      1643.383          43.000    21935651.008 5  89822817.648 5      1280.558          35.000
R07  21692717.414 6 116122767.753 6     -4063.438          40.000    21692718.508 6  90317718.185 6     -3160.454          37.000
R08  19992619.859 5 107059512.486 5      -788.723          35.000    19992619.117 5  83268532.708 5      -613.457          30.000
R09  20122454.969 6 107452794.810 6     -1797.035          41.000    20122459.336 6  83574385.487 6     -1397.694          37.000
R11  23094366.773 5 123409295.670 5      3045.742          34.000
C24  25082084.945 4 130608959.662 4      2464.219          29.000
C26  21653351.234 6 112754656.755 6       712.484          38.000
C29  24214108.453 5 126089217.163 5       722.906          30.000
E07  24454849.805 8 128511113.361 8     -1998.703          51.000    24454854.461 8  98469533.193 8     -1531.519          51.000
E27  23953384.117 7 125875885.004 7      1234.875          46.000    23953384.180 7  96450367.608 7       946.104          43.000
E30  22615755.266 8 118846571.834 8     -1246.578          51.000    22615757.922 8  91064269.386 8      -955.182          51.000
> 2020 05 05 07 11 30.0000000  0 16        .000000000000
G12  22312235.484 8 117251573.147 8      3151.781          50.000    22312234.891 8  91364866.584 8      2455.933          50.000
G13  22209855.422 8 116713537.832 8     -3104.785          51.000    22209853.336 7  90945613.849 7     -2419.313          46.000
G15  21059936.961 8 110670708.008 8     -2116.809          49.000    21059936.477 8  86236913.012 8     -1649.458          49.000
G17  22412191.000 5 117776853.289 5      -369.312          32.000    22412191.484 5  91774191.988 5      -287.773          32.000
G19  21926326.266 7 115223624.007 7      1624.520          43.000    21926322.641 5  89784622.313 5      1265.862          35.000
G28  23970038.688 5 125963403.388 5     -3090.961          31.000
R07  21715521.281 5 116244846.810 5     -4075.477          33.000    21715522.102 6  90412668.500 6     -3169.815          36.000
R08  19997114.781 5 107083583.912 5      -815.715          33.000    19997115.594 5  83287254.843 5      -634.445          30.000
R09  20132578.000 6 107506848.281 6     -1806.066          41.000    20132581.367 5  83616427.035 5     -1404.721          34.000
R11  23077277.156 5 123317989.131 5      3041.246          35.000
C24  25067902.125 5 130535109.427 5      2460.430          31.000
C26  21649268.961 6 112733402.220 6       704.875          39.000
C29  24209994.758 5 126067788.858 5       705.902          30.000
E07  24466290.805 8 128571234.410 8     -2009.340          51.000    24466295.711 8  98515599.939 8     -1539.609          51.000
E27  23946356.742 7 125838952.425 7      1227.348          46.000    23946355.508 7  96422068.639 7       940.441          42.000
E30  22622889.289 8 118884061.319 8     -1252.676          51.000    22622891.906 8  91092995.077 8      -959.795          51.000
> 2020 05 05 07 12  0.0000000  0 17        .000000000000
G12  22294256.820 8 117157094.140 8      3145.238          49.000    22294255.984 8  91291246.604 8      2450.835          49.000
G13  22227594.719 8 116806760.383 8     -3111.574          49.000    22227593.492 7  91018254.768 7     -2424.603          45.000
G15  21072050.805 8 110734369.301 8     -2128.902          49.000    21072050.992 8  86286519.226 8     -1658.885          49.000
G17  22414337.984 5 117788142.046 5      -384.348          34.000    22414336.961 5  91782983.810 5      -299.495          34.000
G19  21917092.281 6 115175098.717 6      1608.660          40.000    21917088.219 6  89746810.389 6      1253.504          36.000
G24  20633002.781 5 108427151.537 5      1404.297          34.000
G28  23987687.820 5 126056137.455 5     -3089.055          33.000
R07  21738370.812 6 116367188.905 6     -4082.602          36.000    21738377.703 6  90507823.542 6     -3175.357          38.000
R08  20001746.125 5 107108393.827 5      -839.398          31.000    20001747.977 5  83306551.352 5      -652.875          31.000
R09  20142735.906 7 107561089.309 7     -1811.406          44.000    20142737.844 4  83658614.412 4     -1408.878          29.000
R11  23060224.602 5 123226830.558 5      3039.402          33.000
R18  23264112.227 5 124185353.304 5     -1832.535          30.000
C24  25053724.055 5 130461278.832 5      2460.480          33.000
C26  21645216.562 6 112712302.502 6       700.473          37.000
E07  24477777.711 8 128631597.235 8     -2016.500          51.000    24477782.578 8  98561851.944 8     -1545.042          51.000
E27  23939357.406 7 125802167.579 7      1223.352          45.000    23939354.773 6  96393882.882 6       937.373          41.000
E30  22630042.945 8 118921653.967 8     -1255.090          51.000    22630045.523 8  91121799.827 8      -961.674          51.000
> 2020 05 05 07 12 30.0000000  0 16        .000000000000
G12  22276352.945 7 117063008.852 7      3131.320          47.000    22276352.359 7  91217933.385 7      2439.987          47.000
G13  22245409.789 7 116900385.347 7     -3125.812          47.000    22245409.688 7  91091209.297 7     -2435.698          43.000
G15  21084271.844 8 110798590.538 8     -2148.293          51.000    21084272.211 8  86336561.728 8     -1673.998          51.000
G17  22416609.805 5 117800081.107 5      -406.496          34.000    22416611.188 5  91792286.928 5      -316.750          34.000
G19  21907984.305 6 115127240.596 6      1585.980          41.000    21907981.852 5  89709518.462 5      1235.829          35.000
G28  24005353.938 5 126148977.040 5     -3095.957          33.000
R07  21761305.031 6 116489966.063 6     -4098.191          36.000    21761315.984 6  90603316.857 6     -3187.482          41.000
R08  20006551.000 5 107134117.204 5      -870.781          31.000    20006553.383 5  83326558.396 5      -677.274          34.000
R09  20152961.422 7 107615691.858 7     -1824.172          43.000    20152959.742 5  83701082.915 5     -1418.803          30.000
R11  23043192.477 6 123135850.000 6      3030.441          36.000
R18  23274496.000 5 124240844.120 5     -1859.031          31.000    23274500.602 4  96631779.833 4     -1445.916          26.000
C24  25039581.859 5 130387639.478 5      2453.621          31.000
C26  21641225.820 5 112691528.955 5       688.703          34.000
E07  24489343.086 8 128692373.598 8     -2031.055          51.000    24489347.758 8  98608420.826 8     -1556.209          51.000
E27  23932419.336 7 125765703.237 7      1211.977          46.000    23932415.555 7  96365942.650 7       928.714          42.000
E30  22637248.969 8 118959521.770 8     -1265.051          51.000    22637251.555 8  91150815.403 8      -969.328          51.000
> 2020 05 05 07 13  0.0000000  0 15        .000000000000
G12  22258514.398 8 116969267.156 8      3115.492          48.000    22258514.078 8  91144887.913 8      2427.659          49.000
G13  22263291.484 7 116994359.394 7     -3141.738          47.000    22263292.094 7  91164435.833 7     -2448.108          43.000
G15  21096589.430 8 110863318.170 8     -2169.449          51.000    21096589.773 8  86386998.802 8     -1690.483          51.000
G17  22418997.273 5 117812624.315 5      -431.602          33.000    22418998.445 5  91802060.826 5      -336.313          32.000
G19  21898994.195 6 115080000.308 6      1560.754          39.000    21898991.516 4  89672707.851 4      1216.169          29.000
G28  24023038.969 5 126241921.194 5     -3103.270          31.000
R07  21784311.594 6 116613121.468 6     -4114.957          39.000    21784323.906 6  90699104.433 6     -3200.519          41.000
R08  20011518.906 5 107160700.446 5      -903.246          32.000    20011516.906 5  83347234.215 5      -702.519          34.000
R09  20163244.461 7 107670602.324 7     -1838.969          42.000    20163244.297 5  83743791.045 5     -1430.309          34.000
R11  23026198.453 6 123045068.547 6      3019.258          38.000    23026191.289 4  95701658.886 4      2348.315          25.000
C26  21637287.930 5 112671030.366 5       675.180          34.000
C29  24198204.375 5 126006401.357 5       651.410          35.000
E07  24500976.766 8 128753510.717 8     -2047.402          51.000    24500981.125 8  98655266.131 8     -1568.711          51.000
E27  23925532.016 7 125729507.556 7      1198.559          45.000    23925528.984 7  96338208.257 7       918.448          44.000
E30  22644497.375 8 118997612.138 8     -1276.816          51.000    22644500.000 8  91180001.517 8      -978.325          51.000
> 2020 05 05 07 13 30.0000000  0 14        .000000000000
G12  22240726.773 8 116875791.470 8      3110.438          49.000    22240726.203 8  91072049.720 8      2423.718          49.000
G13  22281225.070 8 117088602.217 8     -3146.848          48.000    22281225.805 7  91237871.751 7     -2452.089          42.000
G15  21108988.086 8 110928471.955 8     -2179.840          51.000    21108988.172 8  86437767.941 8     -1698.580          51.000
G19  21890106.656 6 115033301.156 6      1546.504          37.000    21890105.094 5  89636318.995 5      1205.080          35.000
R07  21807375.055 7 116736570.631 7     -4120.828          44.000    21807385.961 6  90795120.426 6     -3205.089          41.000
R08  20016628.344 5 107188062.355 5      -926.012          31.000    20016627.117 5  83368515.761 5      -720.231          35.000
R09  20173569.922 7 107725738.956 7     -1842.801          43.000    20173572.414 5  83786675.133 5     -1433.286          35.000
R10  19689677.023 4 104957103.094 4       517.633          29.000
R11  23009225.703 5 122954406.343 5      3018.742          34.000
C26  21633390.008 5 112650728.650 5       672.590          35.000
C29  24194468.609 5 125986946.946 5       639.316          31.000
E07  24512663.641 8 128814928.646 8     -2052.988          51.000    24512667.742 8  98702326.627 8     -1573.096          51.000
E27  23918679.719 7 125693501.503 7      1195.902          43.000    23918678.812 7  96310619.178 7       916.323          45.000
E30  22651773.047 8 119035845.349 8     -1277.871          51.000    22651775.586 8  91209297.084 8      -979.169          51.000
> 2020 05 05 07 14  0.0000000  0 13        .000000000000
G12  22223012.289 8 116782700.175 8      3100.602          49.000    22223011.828 8  90999511.090 8      2416.053          49.000
G13  22299232.172 8 117183228.214 8     -3156.703          48.000    22299232.203 7  91311606.253 7     -2459.772          43.000
G15  21121489.570 8 110994166.600 8     -2194.797          51.000    21121488.984 8  86488958.544 8     -1710.231          51.000
G17  22424093.672 5 117839406.703 5      -463.559          35.000    22424092.273 5  91822903.305 5      -361.218          33.000
G19  21881345.242 6 114987261.700 6      1527.555          39.000    21881344.727 6  89600444.088 6      1190.296          37.000
R07  21830515.711 7 116860428.343 7     -4131.227          44.000    21830523.734 6  90891454.145 6     -3213.179          41.000
R08  20021902.750 5 107216320.296 5      -953.109          33.000    20021904.531 6  83390494.194 6      -741.310          37.000
R09  20183960.141 7 107781219.360 7     -1850.965          44.000    20183964.508 5  83829826.629 5     -1439.639          34.000
R11  22992295.336 5 122863982.440 5      3013.918          34.000
C26  21629552.617 6 112630739.452 6       665.324          36.000
E07  24524426.078 8 128876742.894 8     -2063.090          51.000    24524430.180 8  98749690.783 8     -1580.758          51.000
E27  23911884.664 6 125657801.424 6      1188.977          41.000    23911886.453 7  96283264.578 7       911.037          45.000
E30  22659097.891 8 119074337.059 8     -1283.301          51.000    22659100.289 8  91238790.725 8      -983.293          51.000
> 2020 05 05 07 14 30.0000000  0 14        .000000000000
G12  22205335.156 8 116689805.222 8      3094.402          48.000    22205334.633 8  90927125.419 8      2411.223          48.000
G13  22317275.992 8 117278046.364 8     -3162.543          50.000    22317275.742 7  91385490.471 7     -2464.319          44.000
G15  21134057.492 8 111060210.988 8     -2205.965          51.000    21134056.117 8  86540421.667 8     -1718.934          51.000
G19  21872674.172 6 114941695.085 6      1512.262          39.000    21872673.609 6  89564937.597 6      1178.383          37.000
R07  21853695.914 7 116984497.381 7     -4137.680          44.000    21853700.422 6  90987952.202 6     -3218.198          39.000
R08  20027309.602 6 107245280.178 6      -975.551          37.000    20027312.422 6  83413018.567 6      -758.762          38.000
R09  20194378.234 7 107836849.337 7     -1855.621          44.000    20194382.898 5  83873094.492 5     -1443.258          32.000
R11  22975376.242 6 122773604.279 6      3013.105          36.000
C21  25225055.164 4 131353480.963 4     -3276.586          29.000
C24  24983223.250 5 130094181.060 5      2443.426          32.000
C26  21625738.055 5 112610874.906 5       661.059          35.000
E07  24536228.039 8 128938762.766 8     -2069.555          51.000    24536231.820 8  98797212.507 8     -1585.760          51.000
E27  23905112.227 7 125622217.663 7      1185.348          43.000    23905114.812 7  96255999.079 7       908.232          44.000
E30  22666435.625 8 119112896.857 8     -1285.215          51.000    22666438.008 8  91268336.540 8      -984.787          51.000
> 2020 05 05 07 15  0.0000000  0 15        .000000000000
G12  22187709.695 7 116597183.123 7      3080.934          47.000    22187708.516 8  90854952.373 8      2400.727          48.000
G13  22335370.281 8 117373129.379 8     -3175.680          51.000    22335370.125 7  91459581.097 7     -2474.559          45.000
G15  21146705.727 8 111126678.173 8     -2224.547          51.000    21146703.828 8  86592214.229 8     -1733.416          51.000
G19  21864107.242 5 114896677.621 5      1489.496          34.000    21864108.039 5  89529859.099 5      1160.649          34.000
G24  20586108.227 5 108180710.757 5      1338.266          32.000    20586103.266 5  84296650.249 5      1042.807          31.000
R07  21876928.398 7 117108849.460 7     -4151.746          43.000    21876930.367 6  91084670.413 6     -3229.139          39.000
R08  20032862.055 6 107275017.023 6     -1005.887          38.000    20032865.289 6  83436147.238 6      -782.353          38.000
R09  20204837.859 7 107892703.852 7     -1867.477          43.000    20204844.305 5  83916536.919 5     -1452.482          33.000
R11  22958481.711 6 122683348.533 6      3004.648          36.000
C24  24969171.320 5 130020979.101 5      2436.750          32.000
C26  21621962.602 5 112591209.204 5       650.582          33.000
C29  24183821.945 4 125931492.512 4       591.605          29.000
E07  24548083.578 8 129001062.036 8     -2083.270          51.000    24548086.641 8  98844948.303 8     -1596.280          51.000
E27  23898376.961 7 125586824.935 7      1174.633          44.000    23898379.594 7  96228879.960 7       900.040          46.000
E30  22673800.352 8 119151598.728 8     -1294.359          51.000    22673802.844 8  91297991.223 8      -991.800          51.000
> 2020 05 05 07 15 30.0000000  0 16        .000000000000
G12  22170154.461 8 116504930.831 8      3066.734          48.000    22170152.516 7  90783067.496 7      2389.666          47.000
G13  22353532.828 8 117468570.908 8     -3189.492          51.000    22353532.758 7  91533951.089 7     -2485.319          46.000
G15  21159451.984 8 111193661.800 8     -2243.430          50.000    21159449.781 8  86644409.225 8     -1748.127          50.000
G19  21855663.047 5 114852307.058 5      1466.285          35.000    21855663.836 5  89495284.638 5      1142.563          34.000
G28  24111584.664 5 126707232.131 5     -3109.473          31.000
R07  21900230.609 6 117233577.722 6     -4166.047          41.000    21900230.719 6  91181681.212 6     -3240.262          37.000
R08  20038578.406 6 107305626.715 6     -1037.047          40.000    20038581.711 6  83459954.772 6      -806.592          39.000
R09  20215357.391 7 107948878.316 7     -1880.000          43.000    20215363.867 5  83960228.205 5     -1462.219          33.000
R11  22941629.617 6 122593312.526 6      2995.504          37.000    22941667.570 5  95350334.814 5      2329.836          31.000
R18  23339569.758 5 124588085.164 5     -2001.855          34.000
C21  25262873.203 5 131550390.665 5     -3289.008          31.000
C26  21618242.570 5 112571837.000 5       638.711          32.000
C29  24180456.266 5 125914003.225 5       571.562          33.000
E07  24560010.289 8 129063734.848 8     -2097.402          51.000    24560012.758 8  98892970.315 8     -1607.062          51.000
E27  23891696.797 7 125551718.311 7      1163.469          44.000    23891699.648 7  96201980.095 7       891.564          47.000
E30  22681210.141 8 119190537.053 8     -1303.883          51.000    22681212.633 8  91327827.078 8      -999.100          51.000
> 2020 05 05 07 16  0.0000000  0 14        .000000000000
G12  22152653.180 8 116412962.089 8      3071.328          48.000    22152650.953 8  90711403.557 8      2393.243          49.000
G13  22371746.469 8 117564281.944 8     -3184.449          51.000    22371746.406 7  91608531.085 7     -2481.389          46.000
G15  21172279.641 8 111261072.792 8     -2243.668          50.000    21172277.555 8  86696937.251 8     -1748.310          50.000
G19  21847326.820 6 114808498.216 6      1461.125          37.000    21847326.984 6  89461147.792 6      1138.536          36.000
G28  24129327.391 5 126800477.944 5     -3096.699          33.000
R07  21923584.164 6 117358588.878 6     -4161.246          37.000    21923582.312 5  91278912.042 5     -3236.528          32.000
R08  20044441.164 6 107337018.993 6     -1048.828          39.000    20044443.969 6  83484370.981 6      -815.755          39.000
R09  20225919.680 7 108005282.856 7     -1873.469          42.000    20225927.164 5  84004098.432 5     -1457.142          34.000
R11  22924826.609 5 122503317.976 5      3005.621          35.000    22924845.742 5  95280393.969 5      2337.705          30.000
C21  25281806.023 5 131648966.154 5     -3276.137          31.000
C26  21614560.898 5 112552671.729 5       645.746          34.000
E07  24571990.906 8 129126692.798 8     -2092.918          51.000    24571993.523 8  98941210.804 8     -1603.670          51.000
E27  23885054.148 7 125516810.314 7      1170.562          43.000    23885057.781 7  96175232.464 7       897.008          47.000
E30  22688648.219 8 119229623.704 8     -1294.977          51.000    22688650.492 8  91357776.582 8      -992.225          51.000
> 2020 05 05 07 16 30.0000000  0 13        .000000000000
G12  22135187.445 8 116321179.787 8      3048.945          50.000    22135185.797 8  90639884.892 8      2375.805          50.000
G13  22389991.969 8 117660162.103 8     -3206.180          51.000    22389992.039 7  91683242.845 7     -2498.322          45.000
