     3.02           OBSERVATION DATA    M (MIXED)           RINEX VERSION / TYPE
SAVERINEX           SC600               20200506 195932 LCL PGM / RUN BY / DATE
       G = GPS       R = GLONASS       C = COMPASS          COMMENT
       S = SBAS      J = QZSS          E = GALILEO          COMMENT
BEAN                                                        MARKER NAME
1                                                           MARKER NUMBER
GEODETIC                                                    MARKER TYPE
Unige DICCA         GTER                                    OBSERVER / AGENCY
SC60291900056       SC600               2.12(191226)        REC # / TYPE / VERS
                    HEMA45          NONE                    ANT # / TYPE
  4509407.8091   693652.4678  4442337.6214                  APPROX POSITION XYZ
        0.0000        0.0000        0.0000                  ANTENNA: DELTA H/E/N
G    8 C1C L1C D1C S1C C2Y L2Y D2Y S2Y                      SYS / # / OBS TYPES
R    8 C1C L1C D1C S1C C2P L2P D2P S2P                      SYS / # / OBS TYPES
C    8 C1I L1I D1I S1I C7I L7I D7I S7I                      SYS / # / OBS TYPES
E    8 C1C L1C D1C S1C C7Q L7Q D7Q S7Q                      SYS / # / OBS TYPES
DBHZ                                                        COMMENT
     30.000                                                 INTERVAL
  2020    05    06    17    00    0.0000000     GPS         TIME OF FIRST OBS
  2020    05    06    17    59   30.0000000     GPS         TIME OF LAST OBS
     0                                                      RCV CLOCK OFFS APPL
G L1C  0.00000                                              SYS / PHASE SHIFT
G L2Y  0.00000                                              SYS / PHASE SHIFT
R L1C  0.00000                                              SYS / PHASE SHIFT
R L2P  0.25000                                              SYS / PHASE SHIFT
C L1I  0.00000                                              SYS / PHASE SHIFT
C L7I  0.00000                                              SYS / PHASE SHIFT
E L1C  0.50000                                              SYS / PHASE SHIFT
E L7Q -0.25000                                              SYS / PHASE SHIFT
 14 R01  1 R02 -4 R03  5 R04  6 R08  6 R10 -5 R12 -1 R13 -2 GLONASS SLOT / FRQ #
    R14 -7 R15  0 R16 -1 R17  4 R18 -3 R23  3               GLONASS SLOT / FRQ #
 C1C   71.950 C2C   71.950 C2P   71.950                     GLONASS COD/PHS/BIS
    18                                                      LEAP SECONDS
*** Above antenna height is from mark to ANTENNA BOTTOM.    COMMENT
    17     4        0.0000        ANT MEASURE TYPE/HEIGT    COMMENT
    0.0000    0.0000    0.0458    0.0405    0.0000          COMMENT
                    BASE STATION                            COMMENT
                                                            END OF HEADER
> 2020 05 06 17 00  0.0000000  0 14        .000000000000
G10  20936036.867 8 110019710.753 8      -339.574          51.000    20936039.000 8  85729656.063 8      -264.603          51.000
G16  22410220.594 8 117766478.281 8     -3200.016          49.000    22410221.164 7  91766082.587 7     -2493.522          44.000
G27  20293282.930 8 106641916.173 8      -278.062          51.000    20293284.102 8  83097602.250 8      -216.675          51.000
G32  24662219.008 6 129600840.726 6      3008.324          39.000    24662223.648 6 100987681.394 6      2344.149          38.000
R03  21428119.734 8 114706419.086 8      3675.082          49.000    21428125.234 7  89216130.987 7      2858.397          46.000
R17  20574339.016 6 110097426.060 6     -1837.129          40.000    20574340.656 6  85631339.276 6     -1428.875          36.000
C05  39620573.594 5 206314723.098 5       -14.879          35.000    39620576.562 6 159535644.516 6       -11.469          37.000
C11  21839460.867 8 113723795.012 8      -151.031          50.000    21839460.602 8  87938458.666 8      -116.787          51.000
C14  24339002.516 7 126739567.050 7      3258.703          43.000    24338999.977 6  98003101.108 6      2519.757          37.000
C21  23193946.219 6 120776975.985 6      -624.945          39.000
C23  25519285.438 5 132885541.293 5     -2138.047          35.000
E08  24843336.508 7 130552672.132 7      2882.477          43.000    24843339.156 7 100033883.278 7      2208.893          43.000
E15  23935357.133 7 125781226.081 7     -1247.645          42.000    23935362.031 7  96377839.458 7      -955.954          44.000
E27  26282558.375 7 138115792.028 7     -2979.340          44.000
> 2020 05 06 17 00 30.0000000  0 17        .000000000000
G10  20938023.000 8 110030148.221 8      -356.672          51.000    20938025.414 8  85737789.161 8      -277.923          51.000
G16  22428511.805 8 117862597.626 8     -3208.402          49.000    22428512.727 7  91840980.731 7     -2500.057          45.000
G20  22075961.508 6 116009974.079 6     -2474.043          36.000
G27  20294906.359 8 106650447.785 8      -291.164          51.000    20294907.969 8  83104250.244 8      -226.881          51.000
G32  24645042.516 6 129510580.691 6      3008.473          37.000    24645046.492 6 100917348.967 6      2344.264          38.000
R02  20397181.484 5 108843223.800 5        30.168          34.000    20397173.938 6  84655848.698 6        23.458          36.000
R03  21407558.945 8 114596349.427 8      3662.266          50.000    21407563.117 7  89130521.267 7      2848.429          47.000
R17  20584656.820 4 110152623.819 4     -1844.828          29.000    20584659.453 6  85674291.367 6     -1434.866          37.000
R18  19869788.766 4 106066283.233 4       993.148          29.000    19869788.945 4  82496016.674 4       772.455          28.000
C11  21840349.859 8 113728424.375 8      -158.109          50.000    21840349.258 8  87942038.393 8      -122.209          51.000
C14  24320238.039 7 126641855.413 7      3254.914          42.000    24320234.383 6  97927544.291 6      2517.027          36.000
C21  23197590.062 6 120795950.095 6      -639.961          37.000
C23  25531622.008 5 132949782.450 5     -2145.539          34.000
E08  24826884.594 7 130466214.038 7      2880.789          46.000    24826887.844 7  99967636.273 7      2207.328          45.000
E13  23735817.906 5 124732562.936 5       914.355          33.000
E15  23942484.531 7 125818682.955 7     -1250.035          42.000    23942489.023 7  96406540.180 7      -957.873          44.000
E27  26299573.250 7 138205204.714 7     -2981.914          44.000
> 2020 05 06 17 01  0.0000000  0 15        .000000000000
G10  20940115.258 8 110041142.648 8      -376.859          51.000    20940117.820 8  85746356.269 8      -293.654          51.000
G16  22446859.055 8 117959012.514 8     -3219.770          49.000    22446860.141 7  91916109.185 7     -2508.914          44.000
G20  22090120.742 5 116084383.683 5     -2488.125          35.000
G27  20296612.688 8 106659414.425 8      -307.211          51.000    20296614.602 8  83111237.220 8      -239.385          51.000
G32  24627874.469 6 129420359.638 6      3005.328          41.000    24627877.531 6 100847046.960 6      2341.820          41.000
R02  20397087.406 5 108842735.093 5          .867          34.000    20397085.125 6  84655455.993 6          .678          37.000
R03  21387077.594 8 114486706.007 8      3646.484          50.000    21387080.953 7  89045243.078 7      2836.158          46.000
R17  20595030.133 6 110208103.315 6     -1855.148          39.000    20595026.477 5  85717442.519 5     -1442.887          35.000
C11  21841287.500 8 113733307.271 8      -168.035          50.000    21841286.805 8  87945814.153 8      -129.887          51.000
C14  24301503.555 6 126544304.817 6      3248.082          38.000    24301499.680 5  97852112.014 5      2511.874          35.000
C21  23201329.633 5 120815425.417 5      -658.445          34.000
C23  25544010.891 5 133014296.091 5     -2156.289          32.000
E08  24810451.312 7 130379851.140 7      2876.195          46.000    24810455.359 7  99901462.160 7      2203.862          47.000
E15  23949634.453 6 125856258.444 6     -1255.363          41.000    23949638.586 7  96435331.801 7      -962.004          44.000
E27  26316611.656 7 138294739.795 7     -2987.441          44.000
> 2020 05 06 17 01 30.0000000  0 15        .000000000000
G10  20942316.312 8 110052708.437 8      -394.684          51.000    20942318.680 8  85755368.578 8      -307.543          51.000
G16  22465264.656 8 118055735.209 8     -3228.828          49.000    22465265.578 7  91991477.496 7     -2515.970          43.000
G27  20298404.812 8 106668831.803 8      -321.086          51.000    20298406.648 8  83118575.404 8      -250.200          51.000
G32  24610717.688 7 129330195.671 7      3004.785          44.000    24610720.797 7 100776789.434 7      2341.397          44.000
R02  20397148.516 5 108843092.110 5       -25.965          33.000    20397151.211 6  84655733.639 6       -20.195          38.000
R03  21366679.117 8 114377508.417 8      3632.816          49.000    21366681.898 7  88960311.661 7      2825.524          46.000
R16  21889104.766 5 116927672.208 5     -2559.727          35.000    21889102.969 4  90943736.431 4     -1990.898          25.000
R17  20605449.211 6 110263863.132 6     -1862.984          38.000    20605448.492 6  85760811.296 6     -1448.988          37.000
C11  21842276.867 8 113738459.273 8      -175.828          51.000    21842276.172 8  87949797.993 8      -135.928          51.000
C14  24282802.031 6 126446932.498 6      3243.152          37.000    24282797.531 5  97776817.700 5      2507.153          30.000
C21  23205170.734 5 120835416.415 5      -674.422          34.000
C23  25556454.125 4 133079094.736 4     -2164.363          29.000
E08  24794039.391 7 130293600.626 7      2873.402          47.000    24794043.852 8  99835374.146 8      2201.812          48.000
E15  23956810.211 6 125893967.686 6     -1258.949          41.000    23956813.852 7  96464225.848 7      -964.464          43.000
E27  26333675.961 7 138384410.404 7     -2990.844          43.000
> 2020 05 06 17 02  0.0000000  0 15        .000000000000
G10  20944624.984 8 110064839.637 8      -412.953          51.000    20944627.188 8  85764821.484 8      -321.782          51.000
G16  22483727.430 8 118152758.018 8     -3238.309          49.000    22483727.969 7  92067079.669 7     -2523.354          42.000
G27  20300281.797 8 106678695.332 8      -335.430          51.000    20300283.461 8  83126261.246 8      -261.374          51.000
G32  24593571.266 7 129240086.636 7      3003.402          45.000    24593575.102 7 100706574.685 7      2340.317          44.000
R02  20397371.633 5 108844281.419 5       -52.293          34.000    20397374.273 6  84656658.792 6       -40.669          38.000
R03  21346363.516 8 114268755.822 8      3618.523          48.000    21346365.898 7  88875726.365 7      2814.410          46.000
R16  21903534.523 5 117004758.882 5     -2578.102          33.000    21903533.859 4  91003688.688 4     -2005.196          25.000
R17  20615916.000 6 110319897.977 6     -1871.668          37.000    20615918.109 5  85804393.807 5     -1455.742          33.000
C11  21843317.133 8 113743875.797 8      -184.141          50.000    21843316.383 8  87953986.393 8      -142.453          51.000
C14  24264134.789 6 126349735.596 6      3237.227          37.000
C21  23209104.516 5 120855904.854 5      -690.305          30.000
C23  25568949.836 5 133144235.816 5     -2172.250          31.000
E08  24777647.938 7 130207459.343 7      2870.266          47.000    24777652.320 8  99769369.863 8      2199.268          48.000
E15  23964010.469 6 125931805.245 6     -1262.598          40.000    23964013.727 7  96493218.269 7      -967.529          43.000
E27  26350764.664 7 138474209.382 7     -2994.625          42.000
> 2020 05 06 17 02 30.0000000  0 13        .000000000000
G10  20947036.594 8 110077511.511 8      -432.117          51.000    20947038.641 8  85774695.679 8      -336.715          51.000
G16  22502242.203 8 118250054.201 8     -3248.426          49.000    22502242.453 7  92142894.821 7     -2531.244          43.000
G27  20302239.281 8 106688981.520 8      -350.625          51.000    20302240.422 8  83134276.433 8      -273.214          51.000
G32  24576431.031 7 129150011.477 7      3001.176          44.000    24576435.445 7 100636386.313 7      2338.579          45.000
R02  20397744.195 6 108846278.929 6       -81.254          37.000    20397747.352 6  84658212.407 6       -63.194          38.000
R03  21326126.891 8 114160428.224 8      3603.051          48.000    21326129.023 7  88791471.589 7      2802.373          45.000
R17  20626434.594 6 110376182.973 6     -1881.160          41.000    20626434.891 5  85848171.123 5     -1463.125          33.000
C11  21844403.789 8 113749533.513 8      -193.387          51.000    21844402.914 8  87958361.279 8      -149.542          51.000
C14  24245497.898 6 126252692.449 6      3231.395          38.000
C23  25581494.578 6 133209563.400 6     -2182.496          36.000
E08  24761272.977 8 130121405.345 8      2866.207          48.000    24761276.375 7  99703432.440 7      2196.179          47.000
E15  23971230.531 6 125969747.045 6     -1267.387          40.000    23971233.852 7  96522290.526 7      -971.004          44.000
E27  26367873.000 7 138564110.732 7     -2999.016          42.000    26367878.484 6 106172507.918 6     -2298.234          36.000
> 2020 05 06 17 03  0.0000000  0 14        .000000000000
G10  20949556.352 8 110090752.269 8      -450.211          51.000    20949558.375 8  85785013.159 8      -350.814          51.000
G16  22520813.883 8 118347650.266 8     -3257.582          48.000    22520813.406 7  92218943.656 7     -2538.379          42.000
G27  20304282.820 8 106699719.985 8      -364.961          51.000    20304283.625 8  83142644.040 8      -284.385          51.000
G32  24559303.016 7 129060002.347 7      2999.812          43.000    24559307.828 7 100566249.353 7      2337.516          43.000
R02  20398274.781 6 108849113.908 6      -107.949          39.000    20398279.828 6  84660417.456 6       -83.961          38.000
R03  21305975.633 7 114052559.175 7      3588.562          47.000    21305977.727 7  88707573.421 7      2791.104          44.000
R17  20637003.367 6 110432747.875 6     -1889.375          37.000    20637006.336 5  85892166.039 5     -1469.514          34.000
C11  21845542.484 8 113755461.857 8      -201.559          51.000    21845541.523 8  87962945.434 8      -155.915          51.000
C14  24226897.258 6 126155834.245 6      3225.953          38.000
C21  23217260.641 5 120898368.335 5      -724.512          33.000
C23  25594093.219 6 133275168.845 6     -2190.898          38.000
E08  24744920.117 8 130035469.745 8      2862.977          48.000    24744922.250 7  99637585.719 7      2193.814          47.000
E15  23978476.312 6 126007822.032 6     -1270.781          40.000    23978479.422 7  96551464.861 7      -973.730          44.000
E27  26385006.031 6 138654141.601 6     -3002.512          40.000    26385011.867 6 106241492.557 6     -2300.674          38.000
> 2020 05 06 17 03 30.0000000  0 16        .000000000000
G10  20952181.625 8 110104547.830 8      -468.789          51.000    20952183.539 8  85795762.956 8      -365.290          51.000
G16  22539439.375 7 118445530.164 7     -3267.055          47.000    22539438.062 7  92295213.663 7     -2545.760          42.000
G27  20306410.008 8 106710897.946 8      -379.707          51.000    20306410.906 8  83151354.109 8      -295.876          51.000
G32  24542185.055 7 128970048.815 7      2997.555          42.000    24542190.438 7 100496155.726 7      2335.760          42.000
R02  20398960.547 6 108852772.741 6      -135.141          38.000    20398965.062 6  84663263.188 6      -105.106          37.000
R03  21285908.883 8 113945139.580 8      3573.340          48.000    21285910.594 7  88624024.843 7      2779.264          44.000
R16  21947458.258 5 117239374.868 5     -2635.078          33.000
R17  20647622.891 6 110489579.140 6     -1898.551          39.000    20647626.703 5  85936368.046 5     -1476.648          32.000
C11  21846730.641 8 113761648.115 8      -210.266          51.000    21846729.672 8  87967729.016 8      -162.585          51.000
C14  24208330.594 6 126059150.129 6      3219.961          38.000
C21  23221485.938 5 120920366.387 5      -741.422          33.000
C23  25606742.648 5 133341036.679 5     -2199.750          35.000
E08  24728587.055 7 129949641.257 7      2859.457          46.000    24728588.844 7  99571821.094 7      2191.057          47.000
E13                                                                  23704981.281 5  95450137.302 5       678.075          35.000
E15  23985745.258 7 126046016.785 7     -1274.875          42.000    23985747.617 7  96580730.984 7      -976.966          44.000
E27  26402160.898 6 138744286.713 6     -3006.434          40.000    26402165.570 6 106310564.776 6     -2303.691          39.000
> 2020 05 06 17 04  0.0000000  0 16        .000000000000
G10  20954912.203 8 110118897.571 8      -487.648          51.000    20954914.305 8  85806944.583 8      -379.983          51.000
G16  22558118.539 8 118543691.186 8     -3276.871          48.000    22558116.672 7  92371702.727 7     -2553.406          42.000
G27  20308621.008 8 106722516.175 8      -394.664          51.000    20308622.023 8  83160407.241 8      -307.533          51.000
G32  24525078.531 7 128880154.054 7      2995.559          44.000    24525083.734 7 100426107.908 7      2334.202          44.000
R02  20399800.203 7 108857255.496 7      -163.168          42.000    20399805.672 6  84666749.885 6      -126.905          37.000
R03  21265927.156 8 113838173.695 8      3557.883          48.000    21265928.680 7  88540829.218 7      2767.245          44.000
R16  21962309.094 4 117318705.535 4     -2653.766          29.000
R17  20658292.750 6 110546676.729 6     -1908.004          37.000    20658297.977 5  85980777.201 5     -1484.009          32.000
C11  21847968.430 8 113768093.124 8      -219.199          51.000    21847967.445 8  87972712.696 8      -169.354          51.000
C14  24189797.234 6 125962642.547 6      3214.133          37.000
C21  23225810.133 6 120942863.729 6      -758.504          40.000
C23  25619440.797 5 133407164.686 5     -2207.723          31.000
E08  24712274.695 7 129863922.166 7      2855.449          47.000    24712276.773 7  99506140.293 7      2187.960          47.000
E13                                                                  23699944.531 5  95429851.537 5       674.340          35.000
E15  23993037.133 6 126084331.431 6     -1279.164          41.000    23993038.961 7  96610088.937 7      -980.058          44.000
E27  26419337.062 6 138834544.272 6     -3010.441          39.000    26419340.344 6 106379723.155 6     -2306.636          41.000
> 2020 05 06 17 04 30.0000000  0 15        .000000000000
G10  20957745.953 8 110133789.352 8      -505.742          51.000    20957747.875 8  85818548.572 8      -394.085          51.000
G16  22576849.070 8 118642120.058 8     -3285.816          50.000    22576847.102 7  92448400.483 7     -2560.379          43.000
G27  20310913.820 8 106734563.857 8      -409.203          51.000    20310914.766 8  83169795.007 8      -318.860          51.000
G32  24507981.562 7 128790309.844 7      2993.582          45.000    24507986.711 7 100356099.505 7      2332.664          45.000
R02  20400793.023 7 108862550.400 7      -190.293          43.000    20400797.461 5  84670868.095 5      -148.009          35.000
R03  21246028.242 8 113731654.478 8      3542.680          50.000    21246030.453 7  88457981.016 7      2755.421          45.000
R16  21977256.812 5 117398567.572 5     -2671.250          32.000
R17  20669011.086 6 110604029.125 6     -1916.352          37.000    20669015.492 5  86025384.539 5     -1490.496          30.000
C11  21849253.688 8 113774786.165 8      -227.668          51.000    21849252.906 8  87977888.174 8      -175.996          51.000
C14  24171294.195 5 125866302.674 5      3208.004          33.000    24171301.898 5  97327829.352 5      2480.696          34.000
C21  23230225.617 6 120965847.967 6      -774.555          40.000
E08  24695981.719 7 129778303.194 7      2851.793          47.000    24695983.984 8  99440536.212 8      2185.197          48.000
E13                                                                  23694931.836 5  95409666.725 5       670.844          32.000
E15  24000349.039 7 126122754.615 7     -1283.125          43.000    24000351.109 7  96639530.028 7      -983.021          44.000
E27  26436531.859 6 138924901.066 6     -3013.949          38.000    26436534.766 6 106448957.564 6     -2309.222          41.000
> 2020 05 06 17 05  0.0000000  0 15        .000000000000
G10  20960690.898 8 110149265.813 8      -524.492          51.000    20960692.688 8  85830608.164 8      -408.695          51.000
G16  22595638.578 8 118740856.758 8     -3295.234          51.000    22595636.438 7  92525338.131 7     -2567.715          44.000
G27  20313296.797 8 106747084.985 8      -424.066          51.000    20313297.391 8  83179551.726 8      -330.441          51.000
G32  24490903.234 7 128700562.668 7      2991.082          46.000    24490907.930 7 100286166.710 7      2330.716          46.000
R02  20401946.156 6 108868701.455 6      -218.246          40.000    20401951.391 6  84675652.364 6      -169.741          36.000
R03  21226221.859 8 113625630.599 8      3526.926          51.000    21226225.023 7  88375518.056 7      2743.168          46.000
R16  21992315.352 5 117479019.638 5     -2690.449          33.000
R17  20679785.852 5 110661680.615 5     -1925.543          33.000    20679788.859 4  86070224.589 4     -1497.645          27.000
C11  21850595.039 8 113781770.932 8      -236.578          51.000    21850594.516 8  87983289.225 8      -182.976          51.000
C14  24152832.312 6 125770175.784 6      3201.590          37.000    24152840.211 6  97253497.923 6      2475.545          40.000
C21  23234739.875 6 120989361.251 6      -791.387          40.000
E08  24679716.875 8 129692829.937 8      2847.770          48.000    24679719.188 8  99375043.778 8      2182.072          49.000
E13                                                                  23689949.336 5  95389609.264 5       667.018          30.000
E15  24007689.492 7 126161329.660 7     -1287.285          43.000    24007692.227 7  96669087.534 7      -986.349          44.000
E27  26453753.172 6 139015398.617 6     -3017.598          36.000    26453756.398 6 106518299.837 6     -2312.410          41.000
> 2020 05 06 17 05 30.0000000  0 13        .000000000000
G10  20963735.172 8 110165263.930 8      -542.254          51.000    20963737.133 8  85843074.227 8      -422.536          51.000
G16  22614474.500 8 118839836.703 8     -3303.703          51.000    22614472.156 7  92602465.308 7     -2574.314          44.000
G27  20315758.055 8 106760017.956 8      -438.219          51.000    20315758.211 8  83189629.350 8      -341.469          51.000
G32  24473832.219 7 128610853.408 7      2989.461          46.000    24473836.289 7 100216263.477 7      2329.453          46.000
R02  20403248.008 7 108875645.560 7      -245.023          42.000    20403254.312 5  84681053.449 5      -190.574          32.000
R03  21206496.930 8 113520042.866 8      3512.031          51.000    21206500.828 7  88293394.311 7      2731.580          46.000
C11  21851980.570 8 113788986.319 8      -244.543          51.000    21851980.414 8  87988868.604 8      -189.111          51.000
C14  24134402.023 6 125674202.444 6      3196.266          39.000    24134409.125 7  97179285.258 7      2471.622          42.000
C21  23239345.430 7 121013341.313 7      -807.348          42.000
E08  24663468.398 7 129607442.292 7      2844.559          47.000    24663470.852 8  99309616.915 8      2179.570          50.000
E13                                                                  23684989.430 5  95369637.565 5       663.855          32.000
E15  24015046.883 7 126199994.343 7     -1290.523          43.000    24015049.773 7  96698713.706 7      -988.849          44.000
E27  26470988.820 6 139105972.784 6     -3020.473          36.000    26470992.109 7 106587700.830 7     -2314.490          42.000
> 2020 05 06 17 06  0.0000000  0 14        .000000000000
G10  20966886.688 8 110181825.628 8      -559.715          51.000    20966888.633 8  85855979.453 8      -436.141          51.000
G16  22633364.266 8 118939100.002 8     -3311.660          51.000    22633361.766 7  92679813.283 7     -2580.517          45.000
G27  20318305.852 8 106773406.123 8      -452.027          51.000    20318305.930 8  83200061.670 8      -352.229          51.000
G32  24456777.453 7 128521227.911 7      2987.715          47.000    24456780.570 7 100146425.515 7      2328.093          47.000
R02  20404706.820 6 108883425.826 6      -271.215          39.000    20404710.539 4  84687104.795 4      -210.939          29.000
R03  21186862.234 8 113414939.154 8      3497.094          50.000    21186866.109 7  88211647.043 7      2719.965          44.000
R17  20701481.391 5 110777774.488 5     -1941.656          32.000    20701490.500 4  86160481.601 4     -1510.180          29.000
C11  21853418.695 8 113796475.430 8      -252.473          51.000    21853418.922 8  87994659.635 8      -195.216          51.000
C14  24116010.375 6 125578427.486 6      3190.836          40.000    24116016.000 7  97105226.017 7      2467.469          44.000
C21  23244048.344 7 121037829.773 7      -823.039          42.000
E08  24647244.719 7 129522185.128 7      2841.480          47.000    24647247.430 8  99244290.055 8      2177.175          51.000
E13                                                                  23680061.766 5  95349793.564 5       660.643          34.000
E15  24022429.586 7 126238791.541 7     -1293.707          42.000    24022432.133 7  96728441.386 7      -991.288          44.000
E27  26488246.453 5 139196675.497 5     -3023.004          35.000    26488250.094 7 106657191.883 7     -2316.585          42.000
> 2020 05 06 17 06 30.0000000  0 16        .000000000000
G10  20970136.711 8 110198904.860 8      -580.082          51.000    20970138.633 8  85869287.951 8      -452.012          51.000
G16  22652298.719 8 119038599.264 8     -3322.727          51.000    22652296.094 7  92757345.130 7     -2589.141          45.000
G27  20320931.781 8 106787204.800 8      -468.977          51.000    20320931.852 8  83210813.863 8      -365.436          51.000
G32  24439730.930 8 128431644.033 8      2983.113          48.000    24439732.492 7 100076620.002 7      2324.510          47.000
R02  20406312.680 6 108891995.841 6      -300.898          38.000    20406316.164 4  84693770.522 4      -234.029          26.000
R03  21167309.992 8 113310277.796 8      3479.047          49.000    21167312.781 7  88130243.817 7      2705.928          43.000
R16  22038099.148 5 117723587.406 5     -2744.785          35.000
R17  20712400.961 5 110836192.706 5     -1952.391          35.000    20712395.438 4  86205920.667 4     -1518.526          26.000
R18  19806786.828 5 105729974.555 5       873.480          32.000
C11  21854901.094 8 113804193.992 8      -263.203          51.000    21854901.430 8  88000628.114 8      -203.543          51.000
C14  24097648.555 6 125482808.494 6      3182.352          40.000    24097652.984 7  97031287.400 7      2460.893          45.000
C21  23248840.195 7 121062781.055 7      -841.641          42.000
E08  24631038.047 7 129437015.393 7      2835.328          47.000    24631040.719 8  99179030.184 8      2172.530          51.000
E13                                                                  23675156.758 6  95330034.715 6       655.591          36.000
E15  24029828.977 7 126277675.896 7     -1299.781          42.000    24029831.945 7  96758235.866 7      -995.855          44.000
E27  26505517.734 5 139287435.676 5     -3028.340          33.000    26505521.586 6 106726736.895 6     -2320.725          41.000
> 2020 05 06 17 07  0.0000000  0 16        .000000000000
G10  20973505.891 8 110216609.706 8      -597.309          51.000    20973507.883 8  85883083.935 8      -465.435          51.000
G16  22671297.781 8 119138440.338 8     -3330.391          51.000    22671295.578 7  92835143.328 7     -2595.110          45.000
G27  20323656.664 8 106801523.429 8      -482.699          51.000    20323656.820 8  83221971.223 8      -376.129          51.000
G32  24422713.539 8 128342213.757 8      2981.730          48.000    24422713.797 7 100006934.199 7      2323.429          47.000
R02  20408088.648 6 108901466.226 6      -327.422          39.000    20408092.211 5  84701151.514 5      -254.655          32.000
R03  21147862.070 8 113206174.072 8      3464.117          49.000    21147863.680 7  88049274.344 7      2694.316          42.000
R16  22053563.680 6 117806219.300 6     -2761.340          36.000
R17  20723374.586 5 110894896.155 5     -1961.246          31.000
C11  21856448.367 8 113812250.666 8      -270.957          51.000    21856448.789 8  88006858.038 8      -209.545          51.000
C14  24079337.828 6 125387455.721 6      3177.238          41.000    24079341.117 7  96957554.607 7      2456.836          46.000
C21  23253740.297 6 121088302.263 6      -857.078          39.000
C23  25696663.297 5 133809281.113 5     -2259.055          32.000
E08  24614869.141 7 129352044.148 7      2832.320          47.000    24614871.648 8  99113922.406 8      2170.193          51.000
E13                                                                  23670293.281 6  95310444.540 6       652.472          36.000
E15  24037265.805 7 126316756.423 7     -1302.613          43.000    24037269.555 7  96788180.634 7      -998.154          45.000
E27                                                                  26522826.516 6 106796417.875 6     -2322.425          41.000
> 2020 05 06 17 07 30.0000000  0 16        .000000000000
G10  20976970.516 8 110234816.251 8      -616.508          51.000    20976972.367 8  85897270.863 8      -480.399          51.000
G16  22690337.422 8 119238497.568 8     -3340.109          49.000    22690336.242 7  92913109.977 7     -2602.683          44.000
G27  20326457.070 8 106816239.550 8      -498.453          51.000    20326457.227 8  83233438.317 8      -388.405          51.000
G32  24405702.461 8 128252817.229 8      2978.090          49.000    24405702.148 7  99937274.658 7      2320.593          47.000
R02  20410008.562 6 108911711.636 6      -355.652          37.000    20410012.711 5  84709120.383 5      -276.615          31.000
R03  21128496.117 8 113102506.933 8      3446.973          49.000    21128497.281 7  87968644.414 7      2680.982          44.000
R16  22069119.914 6 117889332.219 6     -2779.309          37.000
R17  20734386.805 5 110953859.495 5     -1970.273          32.000
C11  21858037.344 8 113820524.117 8      -280.562          50.000    21858037.805 8  88013255.587 8      -216.946          51.000
C14  24061054.828 6 125292249.616 6      3170.074          40.000    24061057.648 7  96883935.226 7      2451.191          47.000
C21  23258727.438 6 121114270.731 6      -874.375          40.000
C23  25709699.078 5 133877166.769 5     -2267.590          32.000
E08  24598714.891 7 129267150.503 7      2827.285          45.000    24598717.352 8  99048874.071 8      2166.442          51.000
E13                                                                  23665447.570 5  95290928.928 5       648.488          35.000
E15  24044716.609 7 126355910.104 7     -1307.480          44.000    24044720.539 7  96818181.465 7     -1001.800          44.000
E27                                                                  26540141.305 6 106866139.145 6     -2325.481          41.000
> 2020 05 06 17 08  0.0000000  0 16        .000000000000
G10  20980541.820 8 110253582.876 8      -634.227          51.000    20980543.375 8  85911894.209 8      -494.203          51.000
G16  22709428.766 8 119338827.877 8     -3348.207          48.000    22709428.852 7  92991289.421 7     -2608.992          45.000
G27  20329344.367 8 106831412.991 8      -512.699          51.000    20329344.445 8  83245261.760 8      -399.506          51.000
G32  24388709.609 7 128163516.830 7      2975.773          47.000    24388709.609 7  99867690.022 7      2318.788          47.000
R02  20412085.578 6 108922791.649 6      -382.250          39.000    20412086.055 5  84717741.204 5      -297.303          32.000
R03  21109224.117 8 112999341.145 8      3431.180          49.000    21109226.617 7  87888404.400 7      2668.698          47.000
R16  22084777.562 6 117972982.259 6     -2796.523          37.000
R17  20745454.398 5 111013102.446 5     -1978.551          35.000    20745461.594 4  86343552.489 4     -1538.879          27.000
C11  21859679.320 8 113829073.707 8      -288.879          50.000    21859679.805 8  88019866.660 8      -223.337          51.000
C14  24042811.523 6 125197251.282 6      3163.773          41.000    24042814.266 8  96810476.475 8      2446.509          48.000
C21  23263811.445 6 121140744.394 6      -890.152          40.000
C23  25722782.961 5 133945306.638 5     -2274.586          30.000
E08  24582587.031 7 129182395.813 7      2823.621          42.000    24582589.602 8  98983932.254 8      2163.545          51.000
E13                                                                  23660631.469 5  95271533.406 5       644.917          34.000
E15  24052192.281 7 126395196.166 7     -1311.156          43.000    24052195.867 7  96848283.753 7     -1004.449          44.000
E27                                                                  26557477.195 6 106935944.671 6     -2327.740          40.000
> 2020 05 06 17 08 30.0000000  0 15        .000000000000
G10  20984212.734 8 110272873.793 8      -650.203          51.000    20984214.398 8  85926926.098 8      -506.652          51.000
G16  22728565.141 8 119439393.915 8     -3354.602          48.000    22728566.414 7  93069652.543 7     -2613.975          44.000
G27  20332312.055 8 106847009.407 8      -525.473          51.000    20332312.461 8  83257414.786 8      -409.462          51.000
G32  24371728.930 7 128074280.719 7      2974.977          43.000    24371729.828 7  99798155.480 7      2318.167          43.000
R02  20414312.219 5 108934670.595 5      -407.664          32.000    20414313.438 5  84726980.439 5      -317.066          34.000
R03  21090039.688 8 112896645.224 8      3416.762          48.000    21090043.445 7  87808529.825 7      2657.484          47.000
R16  22100529.492 5 118057130.301 5     -2810.961          31.000
R17  20756568.586 6 111072589.391 6     -1985.012          36.000    20756578.633 5  86389820.046 5     -1543.904          32.000
C11  21861367.711 8 113837865.495 8      -295.738          50.000    21861368.102 8  88026665.031 8      -228.548          51.000
C14  24024601.672 7 125102428.465 7      3159.277          42.000    24024604.578 8  96737153.474 8      2442.917          48.000
C21  23268986.000 6 121167687.843 6      -904.555          37.000
E08  24566479.367 6 129097747.414 6      2821.391          37.000    24566481.828 8  98919071.832 8      2161.767          51.000
E13                                                                  23655838.664 5  95252231.433 5       642.858          33.000
E15  24059686.742 7 126434579.793 7     -1313.211          44.000    24059689.719 7  96878460.775 7     -1006.098          44.000
E27                                                                  26574827.555 6 107005806.305 6     -2328.650          39.000
> 2020 05 06 17 09  0.0000000  0 15        .000000000000
G10  20987992.766 8 110292738.104 8      -673.773          51.000    20987994.250 8  85942404.783 8      -525.018          51.000
G16  22747755.523 8 119540242.395 8     -3368.301          48.000    22747757.453 7  93148235.768 7     -2624.650          42.000
G27  20335369.922 8 106863079.288 8      -545.562          51.000    20335370.508 8  83269936.749 8      -425.114          51.000
G32  24354771.242 6 127985162.140 6      2966.121          39.000    24354772.156 6  99728712.535 6      2311.266          39.000
R02  20416696.242 6 108947398.822 6      -440.574          41.000    20416698.258 5  84736880.262 5      -342.672          32.000
R03  21070953.359 8 112794474.537 8      3394.793          49.000    21070957.562 7  87729063.777 7      2640.398          47.000
R17  20767740.180 6 111132371.342 6     -1999.672          38.000    20767746.516 4  86436316.971 4     -1555.297          29.000
C11  21863111.992 8 113846949.707 8      -309.805          48.000    21863112.352 8  88033689.526 8      -239.651          51.000
C14  24006435.484 7 125007833.074 7      3147.109          43.000    24006438.391 8  96664006.311 8      2433.690          48.000
C21  23274259.352 5 121195149.819 5      -925.984          35.000
C23  25749085.531 5 134082245.336 5     -2294.523          30.000
E08  24550396.461 5 129013257.636 5      2811.805          35.000    24550404.000 8  98854332.825 8      2154.323          51.000
E13                                                                  23651077.531 5  95233089.509 5       635.301          33.000
E15  24067209.211 7 126474110.957 7     -1322.273          44.000    24067212.117 7  96908750.897 7     -1013.123          44.000
E27                                                                  26592201.539 6 107075760.931 6     -2334.957          37.000
> 2020 05 06 17 09 30.0000000  0 16        .000000000000
G10  20991874.031 8 110313134.608 8      -687.316          51.000    20991875.367 8  85958298.152 8      -535.571          51.000
G16  22766991.750 8 119641330.838 8     -3372.105          48.000    22766993.461 6  93227005.958 6     -2627.615          40.000
G27  20338510.359 8 106879582.909 8      -555.844          51.000    20338511.078 8  83282796.698 8      -433.125          51.000
G32  24337829.648 6 127896123.940 6      2967.996          36.000    24337828.953 6  99659332.207 6      2312.724          36.000
R02  20419232.555 6 108960934.590 6      -462.785          37.000    20419234.469 5  84747408.176 5      -359.935          33.000
R03  21051958.664 8 112692792.237 8      3382.742          50.000    21051962.367 7  87649977.589 7      2631.022          46.000
R16  22132345.195 5 118226985.117 5     -2846.730          33.000    22132343.555 4  91954340.829 4     -2214.121          26.000
R17  20778958.805 6 111192407.350 6     -2003.273          37.000    20778964.320 5  86483011.682 5     -1558.105          35.000
C11  21864904.844 8 113856287.104 8      -313.977          49.000    21864905.078 8  88040909.774 8      -242.765          51.000
C14  23988306.047 7 124913427.545 7      3145.098          45.000    23988308.359 7  96591005.995 7      2432.188          47.000
C21  23279625.047 6 121223089.581 6      -937.922          37.000
C23  25762306.406 5 134151090.051 5     -2296.758          31.000
E08  24534339.211 6 128928888.137 6      2811.832          41.000    24534348.789 8  98789686.019 8      2154.488          51.000
E13                                                                  23646339.516 5  95214020.935 5       635.022          33.000
E15  24074751.945 7 126513749.517 7     -1321.570          42.000    24074755.234 7  96939123.269 7     -1012.608          44.000
E27                                                                  26609590.961 6 107145776.256 6     -2333.646          36.000
> 2020 05 06 17 10  0.0000000  0 15        .000000000000
G10  20995860.906 8 110334086.452 8      -707.617          51.000    20995862.570 8  85974624.283 8      -551.390          51.000
G16  22786278.031 8 119742680.740 8     -3382.559          49.000    22786278.227 6  93305979.850 6     -2635.763          39.000
G27  20341738.000 8 106896544.888 8      -573.070          51.000    20341739.031 8  83296013.808 8      -446.548          51.000
R02  20421925.039 7 108975302.242 7      -492.680          42.000    20421925.984 5  84758582.943 5      -383.198          33.000
R03  21033060.859 8 112591627.202 8      3363.652          48.000    21033063.242 7  87571293.703 7      2616.177          46.000
R16  22148388.727 5 118312697.681 5     -2865.438          31.000    22148393.695 5  92021006.169 5     -2228.677          30.000
R17  20790231.414 6 111252722.099 6     -2015.258          39.000    20790237.258 5  86529923.033 5     -1567.423          34.000
C11  21866751.109 8 113865902.177 8      -325.074          49.000    21866751.109 8  88048344.766 8      -251.353          51.000
C14  23970218.383 7 124819238.173 7      3136.094          47.000    23970219.242 7  96518172.827 7      2425.075          46.000
C21  23285088.758 6 121251530.268 6      -956.387          39.000
C23  25775575.398 5 134220178.918 5     -2306.906          35.000
E08  24518312.938 7 128844665.088 7      2805.090          45.000    24518321.109 8  98725151.516 8      2149.325          50.000
E13                                                                  23641632.250 5  95195072.224 5       629.623          35.000
E15  24082319.781 7 126553519.611 7     -1327.871          43.000    24082322.562 7  96969596.433 7     -1017.361          43.000
E27                                                                  26627000.141 6 107215869.383 6     -2337.633          36.000
> 2020 05 06 17 10 30.0000000  0 14        .000000000000
G10  20999947.484 8 110355561.737 8      -725.602          51.000    20999949.109 8  85991358.259 8      -565.407          51.000
G16  22805608.055 8 119844258.549 8     -3390.750          49.000    22805606.625 6  93385131.321 6     -2642.143          39.000
G27  20345046.977 8 106913934.760 8      -587.848          51.000    20345048.211 8  83309564.338 8      -458.063          51.000
R02  20424766.117 6 108990469.877 6      -519.984          37.000    20424769.367 5  84770380.096 5      -404.426          34.000
R03  21014253.250 7 112490952.070 7      3346.773          45.000    21014256.000 7  87492990.806 7      2603.043          46.000
R17  20801548.883 5 111313283.886 5     -2024.438          31.000    20801552.859 5  86577026.739 5     -1574.556          32.000
C11  21868644.859 8 113875764.935 8      -333.867          49.000    21868644.906 8  88055971.261 8      -258.128          51.000
C14  23952167.023 8 124725236.588 8      3129.180          48.000    23952166.000 7  96445484.897 7      2419.713          45.000
C21  23290641.102 5 121280440.182 5      -972.473          32.000
C23  25788884.430 5 134289478.900 5     -2314.352          33.000
E08  24502309.617 7 128760559.790 7      2800.598          47.000    24502315.398 8  98660707.246 8      2145.850          48.000
E13                                                                  23636950.484 6  95176219.801 6       626.031          36.000
E15  24089906.625 7 126593390.291 7     -1331.664          43.000    24089908.984 7  97000146.685 7     -1020.363          43.000
E27                                                                  26644422.969 5 107286015.088 5     -2339.617          35.000
> 2020 05 06 17 11  0.0000000  0 15        .000000000000
G10  21004143.156 8 110377610.891 8      -742.480          51.000    21004144.938 8  86008539.426 8      -578.556          51.000
G16  22824990.914 8 119946113.147 8     -3397.641          48.000    22824989.047 6  93464498.473 6     -2647.515          40.000
G27  20348447.273 8 106931804.454 8      -601.570          51.000    20348448.625 8  83323488.759 8      -468.756          51.000
G32  24287111.117 7 127629617.790 7      2956.625          42.000    24287115.227 7  99451667.977 7      2303.867          43.000
R02  20427768.320 6 109006488.903 6      -545.840          38.000    20427771.898 5  84782839.403 5      -424.536          34.000
R03  20995547.945 7 112390823.713 7      3330.598          47.000    20995550.656 7  87415113.130 7      2590.462          44.000
R17  20812930.711 5 111374218.561 5     -2031.586          32.000    20812926.242 5  86624344.507 5     -1580.116          34.000
C11  21870596.289 8 113885927.020 8      -341.707          50.000    21870596.477 8  88063829.221 8      -264.245          51.000
C14  23934162.156 8 124631476.128 8      3123.402          50.000    23934159.266 7  96372983.463 7      2415.029          44.000
C21  23296291.531 6 121309869.331 6      -987.539          36.000
C23  25802241.711 5 134359038.788 5     -2321.211          33.000
E08  24486339.156 8 128676625.866 8      2796.922          50.000    24486342.164 7  98596394.284 7      2143.009          47.000
E13                                                                  23632304.062 6  95157503.280 6       623.173          38.000
E15  24097522.398 7 126633413.118 7     -1334.711          43.000    24097525.359 7  97030813.509 7     -1022.533          44.000
E27                                                                  26661866.891 5 107356251.466 5     -2341.425          34.000
> 2020 05 06 17 11 30.0000000  0 15        .000000000000
G10  21008434.438 8 110400161.844 8      -761.004          51.000    21008436.484 8  86026111.599 8      -592.990          51.000
G16  22844412.305 7 120048170.686 7     -3406.309          47.000    22844410.867 7  93544023.793 7     -2654.266          42.000
G27  20351925.539 8 106950083.336 8      -617.059          51.000    20351926.891 8  83337732.035 8      -480.825          51.000
G32  24270243.617 7 127540967.961 7      2952.934          45.000    24270246.578 7  99382590.250 7      2300.990          45.000
R02  20430915.828 6 109023286.590 6      -573.941          40.000    20430919.594 5  84795904.257 5      -446.399          34.000
R03  20976933.258 8 112291173.421 8      3312.684          49.000    20976934.711 7  87337607.397 7      2576.535          44.000
R17  20824334.898 4 111435307.403 4     -2040.680          29.000    20824338.836 5  86671858.162 5     -1587.183          31.000
C11  21872591.867 8 113896318.549 8      -351.137          49.000    21872592.195 8  88071864.617 8      -271.585          51.000
C14  23916190.477 8 124537888.668 8      3115.691          50.000    23916185.891 7  96300615.769 7      2409.217          44.000
C21  23302029.547 6 121339746.592 6     -1003.977          36.000
C23  25815636.117 5 134428785.690 5     -2329.613          32.000
E08  24470388.047 8 128592794.386 8      2791.641          50.000    24470389.062 7  98532159.821 7      2139.079          46.000
E13                                                                  23627677.711 6  95138868.355 6       618.958          38.000
E15  24105154.008 6 126673517.009 6     -1339.184          41.000    24105157.688 7  97061542.429 7     -1026.095          44.000
E27                                                                  26679319.414 5 107426522.499 5     -2343.945          34.000
> 2020 05 06 17 12  0.0000000  0 15        .000000000000
G01  24161425.539 6 126969191.169 6      3136.590          36.000
G10  21012830.453 8 110423263.070 8      -778.738          51.000    21012832.250 8  86044112.550 8      -606.809          51.000
G16  22863881.055 7 120150478.346 7     -3413.902          47.000    22863880.383 7  93623744.030 7     -2660.184          43.000
G27  20355491.195 8 106968821.420 8      -631.855          51.000    20355492.312 8  83352333.113 8      -492.355          51.000
G32  24253397.578 7 127452437.213 7      2949.578          47.000    24253399.922 7  99313605.325 7      2298.373          47.000
R02  20434218.961 6 109040912.169 6      -601.047          36.000    20434222.539 5  84809613.052 5      -467.475          35.000
R03  20958417.430 8 112192056.082 8      3295.387          50.000    20958418.516 7  87260516.247 7      2563.082          43.000
C11  21874641.094 8 113906989.227 8      -359.828          50.000    21874641.539 8  88080115.846 8      -278.308          51.000
C14  23898261.648 8 124444525.621 8      3108.738          50.000    23898255.820 7  96228421.596 7      2403.916          45.000
C21  23307861.805 6 121370119.928 6     -1020.328          36.000
C23  25829075.352 4 134498766.392 4     -2334.996          28.000
E08  24454465.695 8 128509116.937 8      2787.078          51.000    24454465.375 7  98468043.401 7      2135.580          45.000
E13                                                                  23623079.016 6  95120353.102 6       615.783          37.000
E15  24112810.719 7 126713751.533 7     -1343.082          43.000    24112814.297 7  97092371.443 7     -1028.944          44.000
E27  26696780.867 5 140292530.028 5     -3061.137          33.000    26696789.242 5 107496864.751 5     -2346.031          33.000
> 2020 05 06 17 12 30.0000000  0 16        .000000000000
G01  24143512.211 6 126875054.329 6      3132.758          37.000
G10  21017309.531 8 110446801.118 8      -796.875          51.000    21017311.414 8  86062453.898 8      -620.942          51.000
G16  22883375.297 7 120252920.662 7     -3422.012          47.000    22883375.250 7  93703569.193 7     -2666.503          43.000
G27  20359123.016 8 106987906.702 8      -647.020          51.000    20359124.180 8  83367204.745 8      -504.171          51.000
G32  24236552.625 8 127363916.330 8      2945.406          48.000    24236555.156 8  99244628.084 8      2295.122          48.000
R02  20437655.633 6 109059251.031 6      -628.246          39.000    20437660.125 5  84823876.717 5      -488.639          32.000
R03  20939980.180 8 112093361.683 8      3277.613          51.000    20939980.883 7  87183754.030 7      2549.255          43.000
R17  20847303.906 5 111558139.596 5     -2059.332          32.000    20847308.188 5  86767447.865 5     -1601.697          32.000
C11  21876722.727 8 113917828.319 8      -369.016          50.000    21876723.062 8  88088497.317 8      -285.434          51.000
C14  23880354.727 8 124351277.953 8      3101.273          49.000    23880348.500 7  96156316.644 7      2398.092          47.000
C21  23313769.516 6 121400877.165 6     -1036.664          41.000
C23  25842537.883 5 134568873.363 5     -2343.879          31.000
E08  24438551.375 8 128425483.305 8      2781.875          51.000    24438550.242 7  98403960.568 7      2131.662          46.000
E13                                                                  23618487.844 6  95101871.617 6       611.461          36.000
E15  24120470.734 7 126754004.269 7     -1347.176          43.000    24120473.750 7  97123214.491 7     -1032.177          44.000
E27  26714246.773 5 140384312.330 5     -3064.023          35.000    26714253.867 5 107567231.694 5     -2347.890          32.000
> 2020 05 06 17 13  0.0000000  0 14        .000000000000
G10  21021927.648 8 110471069.457 8      -819.293          51.000    21021929.656 8  86081364.290 8      -638.410          51.000
G16  22902950.625 7 120355789.536 7     -3434.215          46.000    22902951.195 7  93783726.730 7     -2676.012          43.000
G27  20362877.148 8 107007634.131 8      -666.395          51.000    20362878.422 8  83382576.749 8      -519.268          51.000
G32  24219765.867 7 127275702.998 7      2937.109          47.000    24219768.680 7  99175890.495 7      2288.660          47.000
R02  20441282.344 5 109078601.571 5      -660.137          35.000    20441283.953 5  84838927.116 5      -513.440          32.000
R03  20921678.703 8 111995393.960 8      3255.348          51.000    20921679.719 7  87107556.979 7      2531.937          44.000
C11  21878892.695 8 113929128.335 8      -382.504          50.000    21878892.930 8  88097235.207 8      -295.794          51.000
C14  23862525.891 8 124258439.812 8      3089.590          48.000    23862520.477 8  96084528.369 8      2389.031          48.000
C21  23319805.594 6 121432309.172 6     -1057.199          40.000
C23  25856080.352 5 134639383.965 5     -2355.574          35.000
E08  24422701.633 8 128342190.130 8      2772.570          51.000    24422699.828 7  98340138.614 7      2124.428          46.000
E13                                                                  23613961.969 5  95083649.632 5       604.540          34.000
E15  24128190.133 6 126794569.927 6     -1355.406          41.000    24128193.250 7  97154297.245 7     -1038.600          45.000
E27  26731762.805 5 140476365.969 5     -3071.254          34.000    26731771.164 5 107637764.470 5     -2353.173          31.000
> 2020 05 06 17 13 30.0000000  0 14        .000000000000
G10  21026631.383 8 110495788.374 8      -832.473          51.000    21026633.164 8  86100625.792 8      -648.680          51.000
G16  22922553.227 7 120458804.109 7     -3437.168          43.000    22922554.438 7  93863997.794 7     -2678.313          42.000
G27  20366700.531 8 107027725.551 8      -676.805          51.000    20366701.797 8  83398232.391 8      -527.380          51.000
G32  24202984.727 7 127187521.748 7      2937.852          45.000    24202987.961 7  99107177.912 7      2289.238          45.000
R02  20445044.781 6 109098679.083 6      -682.555          37.000    20445048.500 5  84854543.052 5      -530.876          35.000
R03  20903461.438 8 111897873.660 8      3242.211          51.000    20903462.188 7  87031707.845 7      2521.720          45.000
C11  21881098.250 8 113940613.753 8      -386.918          50.000    21881098.438 8  88106116.441 8      -299.162          51.000
C14  23844722.539 7 124165737.474 7      3086.957          47.000    23844718.664 8  96012845.075 8      2387.037          48.000
C21  23325916.875 6 121464138.752 6     -1068.777          39.000
C23  25869647.500 5 134710025.730 5     -2357.895          34.000
E08  24406863.781 8 128258960.966 8      2772.215          50.000    24406861.555 7  98276365.659 7      2124.239          46.000
E13                                                                  23609447.586 5  95065473.872 5       604.151          33.000
E15  24135915.828 7 126835169.875 7     -1354.746          42.000    24135919.344 7  97185406.283 7     -1038.160          45.000
E27  26749276.750 5 140568400.530 5     -3068.895          31.000
> 2020 05 06 17 14  0.0000000  0 15        .000000000000
G10  21031434.695 8 110521030.293 8      -850.430          51.000    21031436.742 8  86120294.820 8      -662.672          51.000
G16  22942195.930 6 120562035.278 6     -3444.820          38.000    22942198.430 6  93944437.660 6     -2684.279          39.000
G27  20370607.109 8 107048254.845 8      -691.852          51.000    20370608.500 8  83414229.221 8      -539.105          51.000
G32  24186224.125 7 127099449.254 7      2933.703          46.000    24186227.586 7  99038550.065 7      2286.005          45.000
R02  20448957.609 4 109119558.410 4      -709.652          29.000    20448961.727 5  84870782.472 5      -551.955          32.000
R03  20885342.211 8 111800879.449 8      3224.098          50.000    20885343.906 7  86956267.940 7      2507.632          46.000
C05  39622973.703 5 206327219.968 5       -15.707          35.000    39622976.664 6 159545303.378 6       -11.783          36.000
C11  21883353.781 8 113952358.098 8      -396.059          51.000    21883353.750 8  88115197.905 8      -306.209          51.000
C14  23826959.328 7 124073246.064 7      3079.281          47.000    23826957.141 8  95941324.861 8      2381.077          49.000
C21  23332119.781 7 121496437.908 7     -1084.691          42.000
C23  25883252.719 6 134780869.262 6     -2365.277          36.000
E03  25675226.188 6 134924236.839 6       683.406          38.000
E08  24391052.055 8 128175871.439 8      2767.020          50.000    24391050.664 8  98212699.702 8      2120.256          48.000
E13                                                                  23604958.320 5  95047400.790 5       600.847          33.000
E15  24143662.023 7 126875877.666 7     -1358.848          43.000    24143665.945 7  97216597.956 7     -1041.297          46.000
> 2020 05 06 17 14 30.0000000  0 16        .000000000000
G10  21036340.555 8 110546811.176 8      -866.930          51.000    21036342.938 8  86140383.834 8      -675.527          51.000
G16  22961882.750 6 120665496.950 6     -3451.367          38.000    22961885.578 6  94025057.150 6     -2689.374          37.000
G20  22497544.516 5 118225393.634 5     -2789.305          31.000
G27  20374600.250 8 107069239.507 8      -705.746          51.000    20374601.719 8  83430580.892 8      -549.932          51.000
G32  24169488.297 8 127011505.787 8      2930.609          48.000    24169492.078 7  98970022.758 7      2283.595          47.000
R03  20867324.492 8 111704433.017 8      3207.090          48.000    20867327.539 7  86881254.076 7      2494.406          45.000
R16  22296937.188 5 119106228.287 5     -3009.762          32.000    22296927.531 5  92638155.738 5     -2340.932          35.000
C05  39623065.438 5 206327698.912 5       -14.828          35.000    39623067.375 6 159545670.645 6       -11.412          36.000
C11  21885662.586 8 113964378.880 8      -403.992          51.000    21885662.102 8  88124493.147 8      -312.486          51.000
C14  23809240.500 8 123980984.844 8      3072.844          48.000    23809239.703 8  95869982.673 8      2376.012          50.000
C21  23338415.188 6 121529222.586 6     -1099.484          40.000
C23  25896899.180 6 134851929.116 6     -2370.758          37.000
E03  25671362.133 5 134903957.927 5       669.586          34.000
E08  24375270.156 8 128092940.806 8      2762.895          48.000    24375270.992 8  98149155.496 8      2116.969          50.000
E13                                                                  23600499.000 5  95029427.740 5       597.698          32.000
E15  24151432.359 7 126916710.505 7     -1362.016          43.000    24151436.531 7  97247885.434 7     -1043.595          45.000
> 2020 05 06 17 15  0.0000000  0 17        .000000000000
G10  21041347.312 8 110573121.851 8      -885.836          51.000    21041349.516 8  86160885.660 8      -690.262          51.000
G16  22981612.969 6 120769178.592 6     -3459.699          41.000    22981613.523 6  94105847.980 6     -2695.870          36.000
G27  20378678.641 8 107090671.885 8      -721.902          51.000    20378680.359 8  83447281.428 8      -562.521          51.000
G32  24152776.500 8 126923686.405 8      2925.211          48.000    24152780.422 8  98901592.131 8      2279.385          48.000
R03  20849407.570 8 111608530.350 8      3187.633          48.000    20849412.195 7  86806663.138 7      2479.273          45.000
R16  22313874.938 5 119196753.703 5     -3025.703          34.000    22313877.016 5  92708583.708 5     -2353.328          35.000
R17  20905664.547 5 111870445.326 5     -2103.398          31.000    20905656.914 4  87010316.651 4     -1635.974          28.000
R18  19731424.938 5 105327669.727 5       701.359          32.000    19731430.727 4  81921538.017 4       545.508          28.000
C05  39623156.547 5 206328173.001 5       -15.789          35.000    39623158.828 6 159546041.040 6       -12.315          36.000
C11  21888022.852 8 113976668.813 8      -414.141          51.000    21888022.211 8  88133996.488 8      -320.315          51.000
C14  23791565.367 8 123888948.141 8      3064.125          49.000    23791565.477 8  95798814.095 8      2369.349          51.000
C21  23344802.219 6 121562483.710 6     -1116.641          39.000
C23  25910585.461 6 134923194.990 6     -2378.863          36.000
E03  25667585.234 5 134884096.089 5       655.242          35.000
E08  24359516.930 7 128010163.110 7      2756.637          47.000    24359520.266 8  98085728.450 8      2112.234          51.000
E13  23596066.070 5 123998163.646 5       773.895          31.000    23596068.336 5  95011580.617 5       593.080          34.000
E15  24159224.953 7 126957660.366 7     -1367.012          44.000    24159229.461 7  97279262.587 7     -1047.451          45.000
> 2020 05 06 17 15 30.0000000  0 15        .000000000000
