     3.02           OBSERVATION DATA    M (MIXED)           RINEX VERSION / TYPE
SAVERINEX           SC600               20200511 225931 LCL PGM / RUN BY / DATE
       G = GPS       R = GLONASS       C = COMPASS          COMMENT
       S = SBAS      J = QZSS          E = GALILEO          COMMENT
BEAN                                                        MARKER NAME
1                                                           MARKER NUMBER
GEODETIC                                                    MARKER TYPE
Unige DICCA         GTER                                    OBSERVER / AGENCY
SC60291900056       SC600               2.12(191226)        REC # / TYPE / VERS
                    HEMA45          NONE                    ANT # / TYPE
  4509407.8091   693652.4678  4442337.6214                  APPROX POSITION XYZ
        0.0000        0.0000        0.0000                  ANTENNA: DELTA H/E/N
G    8 C1C L1C D1C S1C C2Y L2Y D2Y S2Y                      SYS / # / OBS TYPES
R    8 C1C L1C D1C S1C C2P L2P D2P S2P                      SYS / # / OBS TYPES
C    8 C1I L1I D1I S1I C7I L7I D7I S7I                      SYS / # / OBS TYPES
E    8 C1C L1C D1C S1C C7Q L7Q D7Q S7Q                      SYS / # / OBS TYPES
DBHZ                                                        COMMENT
     30.000                                                 INTERVAL
  2020    05    11    20    00    0.0000000     GPS         TIME OF FIRST OBS
  2020    05    11    20    59   30.0000000     GPS         TIME OF LAST OBS
     0                                                      RCV CLOCK OFFS APPL
G L1C  0.00000                                              SYS / PHASE SHIFT
G L2Y  0.00000                                              SYS / PHASE SHIFT
R L1C  0.00000                                              SYS / PHASE SHIFT
R L2P  0.25000                                              SYS / PHASE SHIFT
C L1I  0.00000                                              SYS / PHASE SHIFT
C L7I  0.00000                                              SYS / PHASE SHIFT
E L1C  0.50000                                              SYS / PHASE SHIFT
E L7Q -0.25000                                              SYS / PHASE SHIFT
 13 R01  1 R02 -4 R03  5 R07  5 R08  6 R10 -5 R11  0 R12 -1 GLONASS SLOT / FRQ #
    R13 -2 R17  4 R21  4 R22 -3 R23  3                      GLONASS SLOT / FRQ #
 C1C   71.950 C2C   71.950 C2P   71.950                     GLONASS COD/PHS/BIS
    18                                                      LEAP SECONDS
*** Above antenna height is from mark to ANTENNA BOTTOM.    COMMENT
    17     4        0.0000        ANT MEASURE TYPE/HEIGT    COMMENT
    0.0000    0.0000    0.0458    0.0405    0.0000          COMMENT
                    BASE STATION                            COMMENT
                                                            END OF HEADER
> 2020 05 11 20 00  0.0000000  0 18        .000000000000
G01  20269656.562 8 106517764.141 8      -114.809          50.000    20269658.031 8  83000862.821 8       -89.461          50.000
G03  20832277.688 7 109474350.754 7      1479.445          44.000    20832278.453 7  85304732.149 7      1152.815          44.000
G08  23574167.375 5 123883061.719 5     -3626.719          34.000    23574166.602 5  96532267.628 5     -2826.015          34.000
G11  20739348.695 8 108986008.219 8     -2296.188          51.000    20739348.344 8  84924153.589 8     -1789.237          49.000
G14  22187528.062 5 116596256.725 5     -1318.758          35.000
G22  20616375.500 8 108339795.052 8      -173.473          51.000    20616372.203 8  84420648.307 8      -135.173          51.000
R01  19800940.625 6 105847406.781 6     -2150.625          41.000    19800944.695 5  82325767.576 5     -1672.711          35.000
R02  20192433.148 8 107750680.843 8      2575.992          51.000    20192436.156 7  83806137.156 7      2003.553          47.000
R23  21810111.906 8 116669380.491 8     -3653.809          49.000    21810117.109 6  90742857.173 6     -2841.851          41.000
R24  19439841.102 8 103953562.842 8     -1339.902          51.000    19439841.227 7  80852792.305 7     -1042.146          46.000
C05  39685127.383 5 206650871.330 5       -32.426          35.000    39685124.102 6 159795549.047 6       -24.959          36.000
C20  22843314.328 8 118951212.780 8      1901.473          51.000
C27  25365651.141 5 132085539.773 5     -3332.902          30.000
C30  21933186.625 8 114211863.396 8     -1497.625          51.000
E04                                                                  24855298.367 6 100081991.539 6     -1226.659          36.000
E09  21836783.797 8 114753149.485 8      1240.961          51.000    21836786.039 8  87927748.676 8       950.878          51.000
E11  23588943.000 8 123960724.680 8     -1730.801          50.000    23588941.062 7  94982890.925 7     -1326.207          46.000
E36  23278149.641 7 122327504.144 7       817.047          44.000    23278149.984 6  93731467.028 6       626.040          41.000
> 2020 05 11 20 00 30.0000000  0 18        .000000000000
G01  20270354.148 8 106521429.713 8      -131.109          51.000    20270355.297 8  83003719.124 8      -102.163          51.000
G03  20823870.617 7 109430174.334 7      1464.320          42.000    20823872.664 7  85270308.923 7      1141.026          42.000
G08  23594894.617 5 123991976.719 5     -3635.145          33.000    23594892.953 5  96617136.421 5     -2832.583          35.000
G11  20752506.008 8 109055149.226 8     -2314.680          51.000    20752505.484 8  84978029.692 8     -1803.647          48.000
G22  20617401.711 8 108345187.912 8      -187.492          51.000    20617398.453 8  84424850.539 8      -146.098          51.000
G32  23287533.578 5 122376779.444 5     -2659.133          32.000    23287531.820 5  95358552.035 5     -2072.055          32.000
R01  19813062.133 6 105912202.563 6     -2170.809          37.000    19813066.156 6  82376164.332 6     -1688.404          36.000
R02  20178004.617 8 107673688.438 8      2555.309          51.000    20178007.211 7  83746254.229 7      1987.465          46.000
R23  21830641.211 8 116779194.003 8     -3668.531          50.000    21830646.805 6  90828267.719 6     -2853.302          41.000
R24  19447422.484 8 103994104.431 8     -1364.395          51.000    19447422.805 7  80884324.648 7     -1061.199          47.000
C05  39685316.195 5 206651854.399 5       -34.910          35.000    39685312.891 6 159796309.222 6       -26.780          36.000
C20  22832394.617 8 118894350.339 8      1887.891          51.000
C27  25384870.852 6 132185617.262 6     -3340.086          36.000
C30  21941859.531 8 114257025.836 8     -1514.738          51.000
E04  24864472.469 6 130663681.079 6     -1614.316          36.000    24864470.578 6 100118925.627 6     -1236.767          36.000
E09  21829737.641 8 114716121.530 8      1226.074          51.000    21829739.945 8  87899376.612 8       939.483          51.000
E11  23598852.719 8 124012800.465 8     -1742.109          49.000    23598851.094 7  95022793.122 7     -1334.848          47.000
E36  23273514.211 7 122303143.175 7       805.441          44.000    23273514.562 6  93712800.860 6       617.067          41.000
> 2020 05 11 20 01  0.0000000  0 18        .000000000000
G01  20271133.227 8 106525523.640 8      -143.035          51.000    20271134.430 8  83006909.197 8      -111.456          51.000
G03  20815537.891 7 109386387.131 7      1453.652          43.000    20815540.281 7  85236189.016 7      1132.716          43.000
G08  23615652.352 5 124101059.032 5     -3637.707          32.000    23615651.266 5  96702135.603 5     -2834.577          32.000
G11  20765756.914 8 109124783.134 8     -2328.711          51.000    20765756.539 7  85032289.882 7     -1814.580          47.000
G22  20618497.078 8 108350943.595 8      -197.254          51.000    20618493.672 8  84429335.475 8      -153.704          51.000
G32  23302741.414 5 122456687.575 5     -2669.234          35.000    23302739.336 5  95420818.065 5     -2079.923          34.000
R01  19825283.680 6 105977533.545 6     -2186.109          39.000    19825288.219 5  82426977.295 5     -1700.310          35.000
R02  20163680.266 8 107597256.147 8      2539.055          51.000    20163683.109 7  83686806.891 7      1974.820          45.000
R23  21851240.992 8 116889387.974 8     -3678.797          48.000    21851246.898 6  90913974.165 6     -2861.286          40.000
R24  19455129.883 8 104035320.317 8     -1384.371          51.000    19455130.781 7  80916381.422 7     -1076.733          46.000
C05  39685509.781 5 206652862.602 5       -33.363          35.000    39685506.461 6 159797088.817 6       -25.635          37.000
C20  22821541.016 8 118837833.573 8      1878.844          51.000
C27  25404118.227 6 132285835.833 6     -3342.578          36.000
C30  21950619.852 8 114302644.119 8     -1527.508          51.000
E04  24873706.797 6 130712211.147 6     -1622.445          38.000    24873705.344 6 100156108.641 6     -1243.077          37.000
E09  21822766.031 8 114679484.788 8      1215.387          51.000    21822768.180 8  87871304.292 8       931.348          51.000
E11  23608815.156 8 124065154.397 8     -1749.309          49.000    23608814.320 8  95062908.430 8     -1340.275          48.000
E36  23268934.344 7 122279075.346 7       798.102          44.000    23268935.156 7  93694359.275 7       611.410          42.000
> 2020 05 11 20 01 30.0000000  0 18        .000000000000
G01  20271989.914 8 106530025.370 8      -155.336          51.000    20271991.461 8  83010417.039 8      -121.041          51.000
G03  20807275.570 7 109342968.296 7      1442.742          44.000    20807277.797 7  85202356.148 7      1124.218          44.000
G08  23636441.250 5 124210301.679 5     -3641.973          32.000    23636436.094 5  96787243.103 5     -2837.904          31.000
G11  20779097.062 8 109194887.424 8     -2343.090          50.000    20779096.820 7  85086916.586 7     -1825.784          47.000
G22  20619657.352 8 108357040.601 8      -207.410          51.000    20619653.836 8  84434086.403 8      -161.618          51.000
G32  23318016.703 5 122536959.397 5     -2680.480          33.000    23318016.016 5  95483367.494 5     -2088.689          34.000
R01  19837600.586 5 106043375.191 5     -2201.426          34.000    19837605.195 6  82478187.466 6     -1712.214          36.000
R02  20149457.867 8 107521363.712 8      2522.266          51.000    20149460.781 7  83627779.450 7      1961.762          46.000
R23  21871907.508 8 116999938.972 8     -3689.348          49.000    21871912.953 6  90999958.362 6     -2869.490          38.000
R24  19462959.469 8 104077188.627 8     -1404.840          51.000    19462960.750 7  80948945.651 7     -1092.653          46.000
C05  39685704.289 5 206653875.114 5       -32.453          35.000    39685700.891 6 159797871.726 6       -24.784          36.000
C20  22810749.500 8 118781642.170 8      1869.223          50.000
C27  25423387.328 5 132386173.263 5     -3344.805          35.000
C30  21959463.508 8 114348696.708 8     -1540.688          51.000
E04  24882998.492 6 130761040.742 6     -1631.215          38.000    24882999.172 6 100193523.489 6     -1249.847          38.000
E09  21815864.797 8 114643218.534 8      1204.344          51.000    21815866.648 8  87843515.871 8       922.863          51.000
E11  23618826.508 8 124117765.161 8     -1756.277          48.000    23618826.062 8  95103220.560 8     -1345.695          48.000
E36  23264405.820 7 122255280.689 7       790.121          44.000    23264407.383 7  93676126.978 7       605.549          42.000
> 2020 05 11 20 02  0.0000000  0 17        .000000000000
G01  20272908.641 8 106534853.152 8      -162.699          51.000    20272910.578 8  83014178.937 8      -126.776          51.000
G03  20799067.844 7 109299835.614 7      1436.828          44.000    20799069.648 7  85168746.314 7      1119.606          45.000
G08  23657235.977 5 124319587.400 5     -3640.137          32.000    23657231.477 5  96872400.718 5     -2836.473          32.000
G11  20792510.836 8 109265378.318 8     -2352.305          50.000    20792510.492 7  85141844.536 7     -1832.965          45.000
G22  20620866.781 8 108363395.784 8      -212.359          51.000    20620863.148 8  84439038.501 8      -165.475          51.000
R01  19849996.062 6 106109640.468 6     -2212.387          37.000    19850002.430 6  82529727.165 6     -1720.745          37.000
R02  20135322.117 8 107445929.329 8      2510.645          51.000    20135324.852 8  83569108.296 8      1952.724          48.000
R23  21892624.812 8 117110760.887 8     -3694.711          51.000    21892629.383 6  91086153.208 6     -2873.661          38.000
R24  19470895.031 8 104119625.178 8     -1420.148          49.000    19470896.617 7  80981951.833 7     -1104.563          45.000
C05  39685883.820 5 206654810.235 5       -26.340          35.000    39685880.398 6 159798594.846 6       -20.174          36.000
C20  22800005.281 8 118725694.954 8      1864.621          51.000
C27  25442662.828 6 132486546.340 6     -3342.469          36.000
C30  21968374.703 8 114395101.286 8     -1548.949          51.000
E04  24892332.203 6 130810089.036 6     -1634.527          38.000    24892334.570 6 100231105.939 6     -1252.265          38.000
E09  21809018.281 8 114607240.801 8      1198.309          51.000    21809020.133 8  87815948.544 8       918.271          51.000
E11  23628870.805 8 124170550.433 8     -1758.355          48.000    23628870.539 8  95143666.423 8     -1347.275          48.000
E36  23259913.820 7 122231677.918 7       787.371          45.000    23259915.695 7  93658041.748 7       603.547          42.000
> 2020 05 11 20 02 30.0000000  0 16        .000000000000
G01  20273929.172 8 106540215.831 8      -187.176          51.000    20273931.305 8  83018357.642 8      -145.854          51.000
G03  20790954.422 7 109257197.573 7      1413.578          45.000    20790955.695 7  85135521.904 7      1101.492          45.000
G11  20806037.758 8 109336462.737 8     -2378.746          51.000    20806037.047 7  85197234.955 7     -1853.571          45.000
G22  20622164.914 8 108370216.848 8      -234.543          51.000    20622161.117 8  84444353.612 8      -182.761          51.000
R01  19862511.023 5 106176537.933 5     -2239.992          33.000    19862516.188 6  82581758.481 6     -1742.213          36.000
R02  20121311.898 8 107371165.741 8      2481.504          51.000    20121314.625 8  83510958.855 8      1930.059          49.000
R23  21913431.984 8 117222063.396 8     -3717.488          49.000    21913435.977 6  91172721.789 6     -2891.383          38.000
R24  19478976.812 8 104162841.645 8     -1452.984          50.000    19478978.328 7  81015564.641 7     -1130.099          45.000
C05  39686088.125 5 206655874.556 5       -37.016          35.000    39686084.836 6 159799417.847 6       -28.695          36.000
C20  22789348.383 8 118670198.712 8      1842.832          51.000
C27  25461982.758 5 132587159.900 5     -3357.109          31.000
C30  21977392.961 8 114442063.577 8     -1574.246          50.000
E04  24901746.734 6 130859563.073 6     -1655.645          38.000    24901749.812 6 100269014.648 6     -1268.775          37.000
E09  21802266.562 8 114571760.289 8      1174.871          51.000    21802268.547 8  87788762.200 8       900.139          51.000
E11  23638987.688 7 124223718.323 7     -1778.312          47.000    23638987.922 8  95184405.458 8     -1362.594          48.000
E36  23255498.695 7 122208476.462 7       767.156          45.000    23255500.570 7  93640264.028 7       587.737          43.000
> 2020 05 11 20 03  0.0000000  0 16        .000000000000
G01  20275000.719 8 106545846.363 8      -190.297          51.000    20275002.703 8  83022745.051 8      -148.283          51.000
G03  20782884.164 7 109214786.642 7      1411.770          45.000    20782885.516 7  85102474.471 7      1100.080          45.000
G08  23698933.297 5 124538715.885 5     -3649.855          34.000    23698924.812 5  97043126.657 5     -2844.031          34.000
G11  20819626.477 8 109407871.471 8     -2383.770          51.000    20819625.672 7  85252878.081 7     -1857.483          45.000
G22  20623500.477 8 108377235.253 8      -235.297          51.000    20623496.555 8  84449822.494 8      -183.348          51.000
R01  19875092.867 5 106243792.183 5     -2245.371          35.000    19875097.906 6  82634067.361 6     -1746.403          37.000
R02  20107375.875 8 107296802.607 8      2474.012          51.000    20107379.336 8  83453120.850 8      1924.228          49.000
R23  21934277.258 8 117333571.952 8     -3718.387          48.000    21934281.266 6  91259450.603 6     -2892.082          38.000
R24  19487153.328 8 104206565.611 8     -1464.020          49.000    19487155.133 7  81049572.151 7     -1138.682          45.000
C05  39686266.375 5 206656802.860 5       -26.945          35.000    39686263.031 6 159800134.673 6       -20.890          37.000
C20  22778727.328 8 118614888.696 8      1842.531          51.000
C30  21986466.984 8 114489317.591 8     -1578.090          49.000
E04  24911190.727 6 130909193.804 6     -1655.137          36.000    24911194.211 6 100307043.378 6     -1267.976          37.000
E09  21795558.609 8 114536509.658 8      1173.125          51.000    21795560.812 8  87761752.002 8       898.891          51.000
E11  23649126.398 7 124277001.009 7     -1776.070          46.000    23649127.195 8  95225232.451 8     -1360.942          49.000
E36  23251109.422 7 122185409.781 7       768.523          46.000    23251111.406 7  93622589.574 7       588.958          43.000
> 2020 05 11 20 03 30.0000000  0 17        .000000000000
G01  20276145.453 8 106551861.711 8      -210.766          51.000    20276147.203 8  83027432.319 8      -164.233          51.000
G03  20774878.523 7 109172719.337 7      1392.375          42.000    20774880.734 7  85069694.773 7      1084.971          42.000
G11  20833298.859 8 109479719.491 8     -2406.137          51.000    20833297.664 7  85308863.545 7     -1874.912          44.000
G22  20624895.656 8 108384566.818 8      -253.523          51.000    20624891.570 8  84455535.405 8      -197.551          51.000
G32  23379745.172 5 122861371.044 5     -2728.262          35.000    23379753.492 4  95736171.076 4     -2125.930          28.000
R01  19887762.578 5 106311518.472 5     -2268.965          33.000    19887768.219 6  82686743.396 6     -1764.747          37.000
R02  20093537.086 8 107222960.096 8      2448.816          51.000    20093541.102 8  83395687.761 8      1904.638          48.000
R23  21955181.945 7 117445402.792 7     -3737.027          44.000    21955187.016 6  91346430.121 6     -2906.577          38.000
R24  19495446.938 8 104250915.103 8     -1492.719          51.000    19495448.789 7  81084066.205 7     -1161.003          47.000
C05  39686440.859 5 206657711.517 5       -33.949          35.000    39686437.414 6 159800836.532 6       -26.152          36.000
C20  22768163.617 8 118559880.707 8      1824.719          51.000
C27  25500631.891 5 132788482.368 5     -3360.836          32.000
C30  21995619.477 8 114536977.996 8     -1599.312          49.000
E04  24920686.375 6 130959096.188 6     -1671.719          40.000    24920690.547 6 100345280.303 6     -1281.083          37.000
E09  21788916.484 8 114501605.666 8      1153.785          51.000    21788918.680 8  87735007.412 8       884.042          51.000
E11  23659309.422 7 124330514.800 7     -1791.477          47.000    23659310.445 8  95266236.519 8     -1372.633          49.000
E36  23246768.047 7 122162595.358 7       752.352          46.000    23246770.289 7  93605108.410 7       576.432          44.000
> 2020 05 11 20 04  0.0000000  0 18        .000000000000
G01  20277399.898 8 106558453.901 8      -223.711          51.000    20277401.508 8  83032569.069 8      -174.320          51.000
G03  20766974.602 7 109131187.306 7      1381.211          44.000    20766977.320 7  85037332.109 7      1076.268          44.000
G08  23740715.578 5 124758301.974 5     -3664.105          31.000
G11  20847090.969 8 109552196.640 8     -2420.699          51.000    20847089.195 7  85365339.242 7     -1886.259          44.000
G22  20626386.773 8 108392402.355 8      -263.930          51.000    20626382.695 8  84461641.023 8      -205.659          51.000
G32  23395367.867 5 122943467.795 5     -2740.223          31.000    23395373.242 4  95800142.696 4     -2135.232          28.000
R01  19900555.141 6 106379908.387 6     -2284.887          37.000    19900561.570 6  82739935.555 6     -1777.137          36.000
R02  20079833.281 8 107149832.749 8      2431.375          51.000    20079836.812 8  83338810.958 8      1891.069          48.000
R23  21976181.242 7 117557748.286 7     -3747.441          43.000    21976189.047 6  91433809.931 6     -2914.677          38.000
R24  19503894.148 8 104296084.329 8     -1513.578          51.000    19503896.023 8  81119197.821 8     -1177.227          48.000
C05  39686647.742 5 206658788.235 5       -33.016          35.000    39686644.180 6 159801669.133 6       -25.626          36.000
C20  22757694.219 8 118505364.890 8      1814.582          51.000
C27  25520019.734 5 132889433.101 5     -3364.070          35.000
C30  22004886.977 8 114585233.761 8     -1612.832          51.000
E04  24930270.156 6 131009460.448 6     -1680.961          41.000    24930274.719 6 100383871.019 6     -1287.689          36.000
E09  21782377.031 8 114467240.108 8      1142.215          51.000    21782378.758 8  87708675.382 8       875.198          51.000
E11  23669573.438 7 124384450.976 7     -1799.199          47.000    23669574.352 8  95307564.240 8     -1378.571          49.000
E36  23242511.156 7 122140225.780 7       744.059          45.000    23242513.648 7  93587968.087 7       569.964          44.000
> 2020 05 11 20 04 30.0000000  0 18        .000000000000
G01  20278718.266 8 106565381.611 8      -234.199          51.000    20278719.797 8  83037967.273 8      -182.493          51.000
G03  20759127.258 7 109089948.735 7      1372.059          46.000    20759129.234 7  85005198.144 7      1069.140          46.000
G08  23761649.602 6 124868319.066 6     -3665.641          36.000    23761648.930 6  97299972.132 6     -2856.337          36.000
G11  20860956.586 8 109625059.660 8     -2432.867          51.000    20860954.367 7  85422115.615 7     -1895.741          45.000
G22  20627927.461 8 108400498.885 8      -271.883          51.000    20627923.547 8  84467950.031 8      -211.854          51.000
G32  23411041.562 4 123025851.625 4     -2748.621          28.000
R01  19913426.906 6 106448712.710 6     -2297.926          36.000    19913432.094 5  82793450.003 5     -1787.276          34.000
R02  20066218.289 8 107077177.712 8      2416.305          51.000    20066221.547 8  83282301.536 8      1879.351          49.000
R23  21997232.344 7 117670360.068 7     -3755.723          46.000    21997241.062 6  91521396.877 6     -2921.118          38.000
R24  19512448.391 8 104341826.981 8     -1531.996          51.000    19512450.117 8  81154775.449 8     -1191.553          48.000
C05                                                                  39686837.383 6 159802447.184 6       -23.391          36.000
C20  22747273.484 8 118451102.035 8      1806.844          51.000
C27  25539412.586 5 132990418.538 5     -3364.660          33.000
C30  22014222.914 8 114633844.468 8     -1623.965          51.000
E04  24939895.445 6 131060043.189 6     -1687.414          36.000    24939899.773 6 100422629.222 6     -1292.903          36.000
E09  21775894.086 8 114433171.471 8      1132.992          51.000    21775895.281 8  87682570.861 8       868.116          51.000
E11  23679871.844 7 124438567.592 7     -1804.738          47.000    23679872.578 8  95349030.203 8     -1382.830          49.000
E36  23238293.016 7 122118060.305 7       737.727          45.000    23238295.508 7  93570984.129 7       565.241          44.000
> 2020 05 11 20 05  0.0000000  0 17        .000000000000
G01  20280126.125 8 106572779.590 8      -251.246          51.000    20280127.789 8  83043731.911 8      -195.776          51.000
G03  20751361.484 7 109049137.879 7      1356.359          46.000    20751362.805 7  84973397.525 7      1056.903          46.000
G08  23782616.383 5 124978511.512 5     -3672.922          33.000    23782620.523 5  97385836.411 5     -2862.017          33.000
G11  20874920.852 8 109698441.360 8     -2451.504          51.000    20874918.320 7  85479296.132 7     -1910.263          45.000
G22  20629543.281 8 108408990.224 8      -286.488          51.000    20629539.258 8  84474566.677 8      -223.238          51.000
R01  19926400.375 6 106518064.614 6     -2317.484          37.000    19926405.477 5  82847390.426 5     -1802.488          34.000
R02  20052717.344 8 107005132.179 8      2394.570          51.000    20052720.508 8  83226266.172 8      1862.447          49.000
R23  22018359.133 7 117783372.271 7     -3770.539          46.000    22018367.898 6  91609295.273 6     -2932.641          38.000
R24  19521134.961 8 104388278.989 8     -1556.977          51.000    19521136.711 8  81190904.807 8     -1210.982          48.000
C05                                                                  39687042.648 6 159803273.558 6       -25.847          36.000
C20  22736926.672 8 118397225.430 8      1792.527          51.000
C27  25558837.711 5 133091570.025 5     -3371.879          34.000
C30  22023652.336 8 114682942.299 8     -1641.609          51.000
E04  24949587.539 6 131110967.092 6     -1700.227          36.000    24949591.273 5 100461656.584 5     -1302.951          35.000
E09  21769493.164 8 114399534.192 8      1117.234          51.000    21769493.953 8  87656796.869 8       856.111          51.000
E11  23690230.172 8 124492998.544 8     -1816.395          48.000    23690230.781 8  95390737.044 8     -1391.804          48.000
E36  23234139.500 7 122096234.113 7       725.043          47.000    23234141.953 7  93554260.190 7       555.499          45.000
> 2020 05 11 20 05 30.0000000  0 17        .000000000000
G01  20281598.344 8 106580515.697 8      -265.047          51.000    20281600.195 8  83049760.039 8      -206.530          51.000
G03  20743651.703 7 109008622.245 7      1344.008          46.000    20743653.789 7  84941826.939 7      1047.279          46.000
G08  23803592.477 5 125088754.556 5     -3677.047          33.000    23803596.086 5  97471740.142 5     -2865.228          33.000
G11  20888958.203 8 109772207.165 8     -2466.770          51.000    20888955.258 7  85536775.979 7     -1922.158          46.000
G22  20631208.922 8 108417742.696 8      -297.656          51.000    20631204.477 8  84481386.779 8      -231.940          51.000
R01  19939451.508 6 106587826.212 6     -2333.551          39.000    19939456.523 5  82901649.386 5     -1814.987          31.000
R02  20039305.391 8 106933562.432 8      2376.152          51.000    20039308.523 8  83170600.841 8      1848.122          49.000
R23  22039535.172 7 117896648.004 7     -3781.848          46.000    22039543.867 6  91697398.651 6     -2941.437          39.000
R24  19529928.805 8 104435305.104 8     -1578.727          51.000    19529930.672 8  81227480.676 8     -1227.898          48.000
C05  39687238.273 5 206661863.861 5       -33.320          35.000    39687234.562 6 159804046.621 6       -25.880          36.000
C20  22726628.914 8 118343604.087 8      1781.609          51.000
C27  25578270.469 5 133192754.525 5     -3375.164          34.000
C30  22033149.703 8 114732395.022 8     -1655.922          51.000
E04  24959320.750 6 131162118.533 6     -1710.473          40.000    24959324.719 6 100500850.482 6     -1310.221          36.000
E09  21763149.211 8 114366195.980 8      1104.715          51.000    21763149.734 8  87631252.023 8       846.482          51.000
E11  23700622.977 8 124547611.164 8     -1824.812          48.000    23700623.266 8  95432583.082 8     -1398.272          48.000
E36  23230025.414 7 122074615.757 7       715.664          46.000    23230028.250 7  93537695.479 7       548.330          46.000
> 2020 05 11 20 06  0.0000000  0 18        .000000000000
G01  20283128.219 8 106588554.955 8      -278.004          51.000    20283130.211 8  83056024.388 8      -216.626          51.000
G03  20735991.375 7 108968366.423 7      1332.379          46.000    20735994.242 7  84910458.752 7      1038.214          46.000
G08  23824572.719 5 125199009.688 5     -3680.270          34.000    23824577.164 5  97557653.204 5     -2867.739          35.000
G11  20903061.586 8 109846320.360 8     -2481.156          51.000    20903059.141 8  85594526.506 8     -1933.369          48.000
G22  20632917.227 8 108426720.326 8      -308.012          51.000    20632912.859 8  84488382.337 8      -240.009          51.000
G32  23458446.180 5 123274955.304 5     -2785.418          34.000    23458446.328 5  96058412.566 5     -2170.443          32.000
R01  19952571.266 6 106657957.850 6     -2348.969          36.000    19952575.242 5  82956196.211 5     -1826.976          30.000
R02  20025975.594 8 106862434.098 8      2358.504          51.000    20025978.844 8  83115278.804 8      1834.392          48.000
R23  22060753.430 7 118010148.434 7     -3792.074          47.000    22060761.922 6  91785676.782 6     -2949.388          37.000
R24  19538823.117 8 104482868.515 8     -1599.523          51.000    19538825.031 7  81264474.414 7     -1244.077          46.000
C05  39687410.164 5 206662758.463 5       -32.727          35.000    39687406.586 6 159804739.180 6       -25.563          36.000
C20  22716374.133 8 118290203.171 8      1771.379          51.000
C27  25597702.141 5 133293935.308 5     -3377.996          35.000
C30  22042708.266 8 114782166.585 8     -1669.324          51.000
E04  24969088.062 6 131213450.289 6     -1718.953          39.000    24969092.797 5 100540182.587 5     -1317.210          35.000
E09  21756855.438 8 114333121.529 8      1093.125          51.000    21756855.789 8  87605909.275 8       837.601          51.000
E11  23711043.547 8 124602369.606 8     -1832.859          50.000    23711043.234 8  95474540.845 8     -1404.393          48.000
E36  23225944.320 7 122053170.729 7       707.012          46.000    23225947.500 7  93521263.567 7       541.778          46.000
> 2020 05 11 20 06 30.0000000  0 19        .000000000000
G01  20284762.266 8 106597141.452 8      -297.727          51.000    20284764.211 8  83062715.151 8      -231.998          51.000
G03  20728426.992 7 108928614.012 7      1314.500          46.000    20728429.500 7  84879482.838 7      1024.286          46.000
G08  23845600.703 5 125309517.811 5     -3689.156          31.000    23845606.289 5  97643763.421 5     -2874.661          31.000
G11  20917276.938 8 109921022.852 8     -2502.188          51.000    20917275.133 8  85652736.230 8     -1949.756          48.000
G14  22293440.805 5 117152831.498 5     -1538.223          35.000
G22  20634714.609 8 108436166.091 8      -324.938          51.000    20634710.617 8  84495742.687 8      -253.198          51.000
G32  23474384.578 5 123358706.503 5     -2802.141          35.000    23474382.711 5  96123673.235 5     -2183.483          33.000
R01  19965806.094 6 106728704.440 6     -2370.719          37.000    19965810.578 5  83011221.296 5     -1843.892          31.000
R02  20012774.859 8 106791995.358 8      2334.047          51.000    20012778.742 8  83060493.129 8      1815.370          48.000
R23  22082059.328 7 118124119.287 7     -3809.172          46.000    22082067.516 6  91874320.811 6     -2962.689          36.000
R24  19547864.352 8 104531216.424 8     -1627.023          51.000    19547866.266 7  81302078.303 7     -1265.463          45.000
C05  39687608.547 5 206663791.397 5       -38.680          35.000    39687604.914 6 159805537.911 6       -30.103          36.000
C20  22706208.266 8 118237264.476 8      1754.660          51.000
C27  25617178.094 5 133395352.192 5     -3386.484          34.000
C30  22052373.969 8 114832497.591 8     -1689.258          51.000
E04  24978936.633 5 131265196.505 5     -1734.457          34.000    24978940.711 5 100579838.465 5     -1329.317          35.000
E09  21750658.125 8 114300554.732 8      1074.750          51.000    21750658.633 8  87580955.515 8       823.495          51.000
E11  23721538.164 8 124657517.362 8     -1847.266          49.000    23721537.242 7  95516796.898 7     -1415.395          47.000
E36  23221942.906 7 122032143.718 7       691.617          47.000    23221946.133 7  93505151.953 7       529.854          46.000
> 2020 05 11 20 07  0.0000000  0 18        .000000000000
G01  20286492.547 8 106606233.648 8      -305.129          51.000    20286494.414 8  83069799.973 8      -237.763          51.000
G03  20720950.062 7 108889323.100 7      1308.398          44.000    20720952.359 7  84848866.578 7      1019.531          44.000
G11  20931596.000 8 109996270.926 8     -2510.941          51.000    20931594.508 8  85711371.109 8     -1956.578          48.000
G14  22302251.289 6 117199163.262 6     -1548.770          36.000
G22  20636592.930 8 108446036.654 8      -329.602          51.000    20636588.969 8  84503434.032 8      -256.832          51.000
G32  23490404.859 5 123442886.595 5     -2807.074          35.000    23490401.180 5  96189268.098 5     -2187.331          34.000
R01  19979146.445 6 106800019.731 6     -2379.973          36.000    19979150.820 5  83066688.727 5     -1851.093          30.000
R02  19999695.797 8 106722205.491 8      2322.094          51.000    19999700.336 7  83006212.162 7      1806.076          47.000
R23  22103444.367 7 118238515.537 7     -3813.793          45.000    22103451.766 5  91963295.615 5     -2966.286          33.000
R24  19557044.203 8 104580305.714 8     -1642.070          51.000    19557046.586 7  81340258.795 7     -1277.169          46.000
C05  39687825.305 5 206664920.046 5       -32.898          35.000    39687821.648 6 159806410.646 6       -25.291          36.000
C20  22696123.008 8 118184746.674 8      1749.906          51.000
C27  25636690.109 5 133496961.870 5     -3383.691          35.000
C30  22062138.461 8 114883345.542 8     -1697.098          51.000
E04  24988858.656 6 131317331.789 6     -1737.492          38.000    24988859.906 5 100619784.781 5     -1331.232          35.000
E09  21744549.406 8 114268453.822 8      1068.738          51.000    21744550.500 8  87556358.740 8       818.900          51.000
E11  23732098.578 8 124713012.128 8     -1849.004          49.000    23732097.422 7  95559318.848 7     -1416.742          47.000
E36  23218013.547 7 122011493.741 7       688.543          47.000    23218016.656 7  93489329.249 7       527.537          47.000
> 2020 05 11 20 07 30.0000000  0 17        .000000000000
G01  20288272.281 8 106615585.587 8      -318.641          51.000    20288273.914 8  83077087.206 8      -248.291          51.000
G03  20713514.078 7 108850247.280 7      1296.410          45.000    20713516.234 7  84818417.927 7      1010.190          45.000
G11  20945971.594 8 110071816.682 8     -2525.715          51.000    20945970.594 8  85770237.954 8     -1968.086          49.000
G22  20638505.117 8 108456085.151 8      -340.543          51.000    20638500.992 8  84511264.037 8      -265.358          51.000
G32  23506458.094 5 123527246.590 5     -2817.312          32.000    23506456.664 5  96255003.187 5     -2195.308          32.000
R01  19992546.438 6 106871650.061 6     -2395.371          38.000    19992550.672 5  83122401.220 5     -1863.066          33.000
R02  19986691.773 8 106652815.555 8      2303.730          51.000    19986696.586 7  82952242.238 7      1791.793          46.000
R23  22124861.867 7 118353083.701 7     -3824.496          46.000    22124866.445 4  92052404.173 4     -2974.608          29.000
R24  19566315.820 8 104629885.025 8     -1663.336          51.000    19566318.633 7  81378820.440 7     -1293.706          47.000
C05  39688013.484 5 206665900.115 5       -32.461          35.000    39688009.906 6 159807168.497 6       -25.469          36.000
C20  22686071.398 8 118132405.917 8      1739.219          51.000
C27  25656192.289 5 133598518.651 5     -3387.145          35.000
C30  22071955.000 8 114934465.362 8     -1711.016          51.000
E04  24998804.719 6 131369596.480 6     -1747.004          40.000    24998804.570 6 100659831.684 6     -1338.595          36.000
E09  21738482.383 8 114236572.597 8      1056.434          51.000    21738484.156 8  87531930.276 8       809.463          51.000
E11  23742677.977 8 124768607.226 8     -1857.387          50.000    23742676.508 7  95601917.684 7     -1423.201          47.000
E36  23214109.273 7 121990975.450 7       679.176          47.000    23214112.305 7  93473607.442 7       520.360          47.000
> 2020 05 11 20 08  0.0000000  0 19        .000000000000
G01  20290121.320 8 106625302.402 8      -328.645          51.000    20290122.812 8  83084658.756 8      -256.087          51.000
G03  20706139.211 7 108811491.167 7      1287.898          46.000    20706140.758 7  84788218.399 7      1003.557          45.000
G08  23908815.539 5 125641660.280 5     -3690.742          34.000    23908812.445 5  97902584.962 5     -2875.906          33.000
G11  20960423.531 8 110147763.299 8     -2536.902          51.000    20960423.328 8  85829417.140 8     -1976.807          49.000
G14  22320100.656 5 117292908.948 5     -1576.387          34.000
G22  20640470.992 8 108466415.691 8      -347.648          51.000    20640466.914 8  84519313.812 8      -270.895          51.000
G32  23522561.680 5 123611881.736 5     -2824.801          32.000    23522573.422 5  96321004.051 5     -2201.143          33.000
R01  20006024.227 6 106943698.457 6     -2407.051          38.000    20006029.586 5  83178438.882 5     -1872.154          32.000
R02  19973782.758 8 106583931.661 8      2289.039          50.000    19973787.734 7  82898665.890 7      1780.364          47.000
R23  22146331.008 7 118467928.231 7     -3831.398          46.000    22146332.562 5  92141727.583 5     -2979.983          30.000
R24  19575699.000 8 104680060.143 8     -1681.113          51.000    19575702.008 8  81417845.505 8     -1307.533          48.000
C05  39688193.125 5 206666835.347 5       -28.988          35.000    39688189.516 6 159807891.670 6       -22.672          36.000
C20  22676073.531 8 118080346.209 8      1731.961          51.000
C27  25675704.398 5 133700124.622 5     -3386.531          32.000
C30  22081843.234 8 114985959.894 8     -1721.340          51.000
E04  25008794.852 6 131422095.457 6     -1752.504          37.000    25008795.234 6 100700058.171 6     -1342.720          37.000
E09  21732477.047 8 114205015.885 8      1047.797          51.000    21732479.320 8  87507750.467 8       802.884          51.000
E11  23753296.273 8 124824407.125 8     -1862.250          49.000    23753294.836 7  95644673.438 7     -1426.952          47.000
E36  23210250.102 8 121970694.500 8       673.297          48.000    23210253.227 8  93458067.487 8       515.996          48.000
> 2020 05 11 20 08 30.0000000  0 17        .000000000000
G01  20292064.609 8 106635515.450 8      -347.117          51.000    20292066.180 8  83092616.979 8      -270.481          51.000
G03  20698849.969 7 108773185.790 7      1270.898          46.000    20698851.250 7  84758370.053 7       990.310          46.000
G08  23929921.219 5 125752589.558 5     -3699.438          34.000    23929919.242 5  97989023.304 5     -2882.682          34.000
G11  20974976.234 8 110224239.417 8     -2556.406          51.000    20974976.648 7  85889008.934 7     -1992.005          47.000
G22  20642515.242 8 108477157.946 8      -363.383          51.000    20642511.242 8  84527684.396 8      -283.155          51.000
G32  23538745.305 5 123696934.429 5     -2841.105          34.000    23538752.266 5  96387278.884 5     -2213.848          34.000
R01  20019604.523 6 107016294.718 6     -2427.301          39.000    20019610.109 5  83234902.585 5     -1887.904          32.000
R02  19960994.031 8 106515688.829 8      2265.594          51.000    19960999.125 8  82845588.140 8      1762.128          48.000
R23  22167876.383 7 118583179.605 7     -3846.883          46.000    22167876.977 5  92231367.418 5     -2992.020          34.000
R24  19585218.344 8 104730963.490 8     -1707.316          50.000    19585221.375 8  81457437.014 8     -1327.910          49.000
C05  39688389.109 6 206667856.413 6       -33.508          36.000    39688385.398 6 159808680.460 6       -26.131          36.000
C20  22666155.047 8 118028697.580 8      1716.316          51.000
C30  22091828.500 8 115037957.875 8     -1740.055          51.000
E04  25018854.961 6 131474958.315 6     -1766.387          40.000    25018855.781 6 100740563.521 6     -1353.779          38.000
E09  21726558.367 8 114173914.787 8      1030.660          51.000    21726561.141 8  87483919.780 8       789.712          51.000
E11  23763978.398 8 124880542.507 8     -1875.180          49.000    23763976.711 7  95687686.258 7     -1436.829          47.000
E36  23206461.156 8 121950782.834 8       659.125          48.000    23206464.344 8  93442810.507 8       505.047          48.000
> 2020 05 11 20 09  0.0000000  0 17        .000000000000
G01  20294060.703 8 106646006.076 8      -361.477          51.000    20294062.328 8  83100791.517 8      -281.670          51.000
G03  20691604.828 7 108735112.039 7      1257.953          46.000    20691606.117 7  84728702.219 7       980.226          46.000
G08  23951023.383 6 125863487.503 6     -3703.582          36.000    23951020.688 5  98075437.253 5     -2885.911          35.000
G11  20989587.914 8 110301024.694 8     -2571.879          51.000    20989588.203 7  85948841.612 7     -2004.061          46.000
G22  20644595.969 8 108488092.212 8      -374.941          51.000    20644591.930 8  84536204.608 8      -292.162          51.000
G32  23554966.422 5 123782175.941 5     -2851.828          34.000    23554974.203 5  96453700.836 5     -2222.210          34.000
R01  20033245.797 6 107089212.876 6     -2443.184          39.000    20033251.938 5  83291616.710 5     -1900.254          34.000
R02  19948284.414 8 106447865.674 8      2246.309          51.000    19948289.297 8  82792836.826 8      1747.132          48.000
R23  22189455.891 7 118698612.578 7     -3858.145          47.000    22189457.742 6  92321148.636 6     -3000.779          39.000
R24  19594832.000 8 104782371.406 8     -1729.398          50.000    19594834.969 8  81497420.985 8     -1345.085          49.000
C05  39688559.695 5 206668744.368 5       -34.496          35.000    39688555.875 6 159809367.054 6       -26.557          36.000
C20  22656274.219 8 117977243.250 8      1704.727          51.000
C30  22101869.109 8 115090241.355 8     -1754.711          51.000
E04  25028942.453 7 131527964.644 7     -1776.641          42.000    25028942.594 6 100781178.697 6     -1361.089          37.000
E09  21720684.820 8 114143050.426 8      1017.656          51.000    21720688.086 8  87460270.499 8       779.745          51.000
E11  23774682.883 8 124936794.018 8     -1884.051          50.000    23774680.766 7  95730788.067 7     -1443.623          47.000
E36  23202700.922 8 121931022.439 8       649.000          49.000    23202704.039 8  93427669.424 8       497.268          48.000
> 2020 05 11 20 09 30.0000000  0 18        .000000000000
G01  20296161.836 8 106657048.864 8      -381.836          51.000    20296163.531 8  83109396.307 8      -297.534          51.000
G03  20684456.023 7 108697543.998 7      1239.293          46.000    20684457.141 7  84699428.435 7       965.683          46.000
G08  23972171.383 6 125974625.704 6     -3713.359          37.000    23972169.555 6  98162038.361 6     -2893.527          37.000
G11  21004310.383 8 110378391.364 8     -2593.016          51.000    21004309.891 7  86009127.316 7     -2020.532          45.000
G22  20646765.188 8 108499491.908 8      -392.254          51.000    20646761.164 8  84545087.502 8      -305.649          51.000
G32  23571275.477 5 123867877.987 5     -2868.988          34.000    23571282.031 5  96520481.647 5     -2235.575          34.000
R01  20046998.789 6 107162728.022 6     -2464.926          36.000    20047005.758 5  83348795.191 5     -1917.161          32.000
R02  19935706.023 8 106380741.616 8      2221.230          51.000    19935710.273 7  82740629.267 7      1727.624          47.000
R23  22211120.984 8 118814503.779 8     -3875.176          49.000    22211124.516 7  92411286.225 7     -3014.026          42.000
R24  19604592.180 8 104834562.236 8     -1757.352          50.000    19604594.711 8  81538013.891 8     -1366.826          49.000
C05  39688756.891 5 206669771.633 5       -41.277          35.000    39688753.141 6 159810161.388 6       -31.514          36.000
C20  22646482.812 8 117926255.109 8      1687.395          51.000
C27  25734368.555 5 134005623.815 5     -3407.328          30.000
C30  22112016.883 8 115143080.883 8     -1775.023          51.000
E04  25039108.727 6 131581386.921 6     -1791.969          39.000    25039107.188 6 100822112.626 6     -1373.256          36.000
E09  21714908.844 8 114112697.031 8       998.723          51.000    21714912.031 8  87437012.726 8       765.279          51.000
E11  23785461.727 8 124993435.490 8     -1899.152          51.000    23785459.719 8  95774188.657 8     -1455.105          48.000
E36  23199021.828 8 121911688.414 8       632.766          49.000    23199024.781 8  93412855.032 8       484.912          48.000
> 2020 05 11 20 10  0.0000000  0 18        .000000000000
G01  20298343.453 8 106668514.099 8      -379.586          51.000    20298345.297 8  83118330.258 8      -295.781          51.000
G03  20677378.445 7 108660351.618 7      1242.926          44.000    20677379.633 7  84670447.402 7       968.514          44.000
G08  23993340.117 6 126085871.325 6     -3699.727          38.000    23993339.539 6  98248723.193 6     -2882.904          38.000
G11  21019118.531 8 110456207.832 8     -2591.707          51.000    21019116.883 7  86069763.505 7     -2019.512          44.000
G22  20648998.055 8 108511226.092 8      -387.059          51.000    20648994.125 8  84554231.024 8      -301.604          51.000
G32  23587646.617 5 123953908.054 5     -2863.727          34.000    23587651.719 5  96587518.051 5     -2231.481          31.000
R01  20060837.945 6 107236705.043 6     -2464.027          37.000    20060841.914 5  83406332.852 5     -1916.469          31.000
R02  19923233.578 8 106314185.536 8      2218.902          51.000    19923237.562 8  82688863.448 8      1725.813          48.000
R23  22232846.430 8 118930718.350 8     -3869.312          49.000    22232851.320 7  92501675.333 7     -3009.465          44.000
R24  19614473.828 8 104887402.793 8     -1762.336          51.000    19614475.789 8  81579112.115 8     -1370.706          48.000
C05  39688956.172 5 206670808.369 5       -25.215          35.000    39688952.602 6 159810963.859 6       -19.392          36.000
C20  22636755.672 8 117875604.604 8      1692.289          51.000
C27  25753975.094 5 134107683.057 5     -3394.715          35.000
C30  22122246.633 8 115196346.743 8     -1773.027          51.000
E04  25049328.625 6 131635093.520 6     -1785.102          36.000    25049326.625 6 100863264.508 6     -1367.751          37.000
E09  21709205.297 8 114082724.751 8      1002.410          51.000    21709208.062 8  87414046.963 8       768.161          51.000
E11  23796290.008 8 125050336.598 8     -1891.449          51.000    23796288.078 8  95817788.200 8     -1449.271          48.000
E36  23195399.227 8 121892651.683 8       639.238          50.000    23195402.039 8  93398268.450 8       489.809          49.000
> 2020 05 11 20 10 30.0000000  0 18        .000000000000
G01  20300590.578 8 106680323.406 8      -401.277          51.000    20300592.695 8  83127532.329 8      -312.684          51.000
G03  20670356.938 7 108623456.022 7      1222.816          43.000    20670358.836 7  84641697.583 7       952.841          43.000
G08  24014514.422 6 126197143.668 6     -3711.734          36.000    24014515.977 6  98335428.863 6     -2892.264          36.000
G11  21033996.984 8 110534393.450 8     -2614.293          51.000    21033994.469 7  86130687.336 7     -2037.111          44.000
G22  20651279.383 8 108523214.778 8      -405.887          51.000    20651275.594 8  84563572.867 8      -316.275          51.000
G32  23604064.883 5 124040184.714 5     -2881.387          34.000    23604068.180 5  96654746.661 5     -2245.233          32.000
R01  20074748.305 5 107311060.437 5     -2486.895          33.000    20074750.477 5  83464149.835 5     -1934.245          33.000
R02  19910852.133 8 106248118.590 8      2192.012          51.000    19910857.211 8  82637478.052 8      1704.898          49.000
R23  22254616.500 7 119047173.471 7     -3887.766          47.000    22254622.570 7  92592251.551 7     -3023.818          43.000
R24  19624461.641 8 104940812.073 8     -1791.781          51.000    19624463.234 7  81620652.652 7     -1393.608          46.000
C05  39689142.555 5 206671779.498 5       -33.188          35.000    39689138.953 6 159811714.005 6       -25.500          36.000
C20  22627078.422 8 117825213.808 8      1673.355          51.000
C27  25773583.680 6 134209770.124 6     -3405.156          38.000
C30  22132543.000 8 115249959.787 8     -1794.805          51.000
E04  25059587.852 6 131689004.433 6     -1802.387          41.000    25059586.617 6 100904572.886 6     -1381.136          38.000
E09  21703558.969 8 114053054.811 8       982.023          51.000    21703561.703 8  87391312.886 8       752.486          51.000
E11  23807152.344 8 125107418.174 8     -1907.496          50.000    23807150.508 7  95861526.031 7     -1461.606          47.000
E36  23191818.297 8 121873834.461 8       621.652          50.000    23191820.961 8  93383850.057 8       476.289          49.000
> 2020 05 11 20 11  0.0000000  0 18        .000000000000
G01  20302924.984 8 106692591.173 8      -415.457          51.000    20302927.211 8  83137091.633 8      -323.733          51.000
G03  20663413.680 7 108586971.247 7      1210.359          44.000    20663416.188 7  84613267.862 7       943.137          45.000
G08  24035715.078 5 126308553.653 5     -3714.742          33.000    24035717.914 5  98422241.726 5     -2894.607          34.000
G11  21048967.125 8 110613060.692 8     -2629.156          51.000    21048964.359 7  86191986.459 7     -2048.693          45.000
G22  20653630.617 8 108535571.442 8      -416.973          51.000    20653627.219 8  84573201.444 8      -324.911          51.000
G32  23620551.148 5 124126819.395 5     -2892.750          31.000
R01  20088750.531 6 107385907.116 6     -2501.895          36.000    20088753.227 5  83522363.953 5     -1945.918          32.000
R02  19898584.570 8 106182657.399 8      2172.969          51.000    19898590.180 8  82586563.792 8      1690.087          50.000
R23  22276451.508 7 119163982.588 7     -3898.461          45.000    22276459.273 6  92683103.141 6     -3032.136          41.000
R24  19634577.094 8 104994905.138 8     -1813.453          51.000    19634578.352 7  81662724.974 7     -1410.467          44.000
C05  39689337.383 5 206672793.869 5       -33.867          35.000    39689334.062 6 159812499.169 6       -25.925          36.000
C20  22617473.438 8 117775195.968 8      1662.117          51.000
C27  25793215.789 6 134311987.008 6     -3408.270          39.000
C30  22142927.484 8 115304032.045 8     -1808.965          51.000
E04  25069907.266 6 131743232.099 6     -1811.781          41.000    25069907.242 6 100946123.892 6     -1388.284          38.000
E09  21697992.328 8 114023801.406 8       969.168          51.000    21697995.109 8  87368897.965 8       742.618          51.000
E11  23818070.406 8 125164793.911 8     -1916.301          50.000    23818068.508 7  95905489.266 7     -1468.403          46.000
E36  23188301.148 8 121855351.750 8       611.543          50.000    23188303.438 8  93369687.975 8       468.570          49.000
> 2020 05 11 20 11 30.0000000  0 18        .000000000000
G01  20305353.617 8 106705354.073 8      -429.008          51.000    20305355.922 8  83147036.732 8      -334.292          51.000
G03  20656556.039 7 108550933.371 7      1198.285          46.000    20656558.242 7  84585186.436 7       933.729          46.000
G08  24056948.758 5 126420134.953 5     -3717.566          33.000    24056950.914 5  98509188.142 5     -2896.805          32.000
G11  21064035.430 8 110692244.047 8     -2643.398          51.000    21064032.883 7  86253687.750 7     -2059.791          46.000
G14  22385482.086 5 117636501.819 5     -1690.512          34.000
G22  20656058.734 8 108548331.931 8      -427.469          51.000    20656055.586 8  84583144.680 8      -333.093          51.000
R01  20102849.812 6 107461277.857 6     -2516.309          38.000    20102852.555 5  83580985.654 5     -1957.132          31.000
R02  19886437.781 8 106117840.001 8      2154.574          51.000    19886443.227 8  82536150.290 8      1675.783          48.000
R23  22298358.438 7 119281180.552 7     -3908.398          46.000    22298367.891 6  92774257.100 6     -3039.868          40.000
R24  19644827.375 8 105049718.097 8     -1834.410          51.000    19644828.570 7  81705357.181 7     -1426.766          44.000
C05                                                                  39689544.766 6 159813349.076 6       -25.741          36.000
C20  22607947.008 8 117725587.223 8      1651.426          51.000
C27  25812877.766 6 134414367.940 6     -3410.574          39.000
C30  22153406.414 8 115358598.376 8     -1822.598          51.000
E04  25080293.375 6 131797811.198 6     -1820.613          39.000    25080293.633 6 100987944.197 6     -1394.994          38.000
E09  21692512.086 8 113995000.892 8       957.082          51.000    21692514.625 8  87346830.037 8       733.411          51.000
E11  23829051.344 8 125222499.774 8     -1924.531          50.000    23829049.266 7  95949705.432 7     -1474.551          46.000
E36  23184855.008 8 121837240.763 8       602.145          51.000    23184856.617 8  93355810.729 8       461.380          49.000
> 2020 05 11 20 12  0.0000000  0 17        .000000000000
G01  20307844.977 8 106718446.520 8      -442.281          51.000    20307847.344 8  83157238.630 8      -344.635          51.000
G03  20649752.086 7 108515176.514 7      1186.773          46.000    20649753.906 7  84557323.988 7       924.762          46.000
G04  23581561.750 6 123921944.591 6      3692.383          39.000    23581563.727 4  96562555.818 4      2877.184          28.000
G11  21079169.977 8 110771775.437 8     -2657.312          51.000    21079167.648 7  86315660.244 7     -2070.633          46.000
G22  20658531.961 8 108561328.891 8      -437.629          51.000    20658528.812 8  84593272.179 8      -341.010          51.000
R01  20117015.883 6 107537001.319 6     -2530.398          39.000    20117018.562 5  83639881.626 5     -1968.091          33.000
R02  19874380.250 8 106053498.982 8      2136.254          51.000    19874384.938 7  82486107.319 7      1661.534          47.000
R23  22320307.570 8 119398595.845 8     -3917.895          48.000    22320316.883 6  92865580.052 6     -3047.254          39.000
R24  19655181.023 8 105105081.275 8     -1855.082          51.000    19655182.188 7  81748417.377 7     -1442.845          46.000
C05  39689742.203 5 206674901.633 5       -32.559          35.000    39689739.406 6 159814132.610 6       -25.593          36.000
C20  22598467.141 8 117676223.471 8      1640.887          51.000
C27  25832538.266 6 134516746.957 6     -3413.051          37.000
C30  22163948.148 8 115413493.377 8     -1835.723          51.000
E04  25090713.680 5 131852590.177 5     -1829.098          34.000    25090713.867 6 101029905.491 6     -1401.567          38.000
E09  21687086.203 8 113966487.426 8       945.223          51.000    21687088.500 8  87324982.076 8       724.220          51.000
E11  23840063.461 8 125280369.546 8     -1932.254          49.000    23840061.516 7  95994047.198 7     -1480.594          46.000
E36  23181448.039 8 121819336.595 8       592.871          51.000    23181449.398 8  93342091.960 8       454.272          50.000
> 2020 05 11 20 12 30.0000000  0 17        .000000000000
G01  20310409.898 8 106731925.257 8      -455.656          51.000    20310412.352 8  83167741.542 8      -355.057          51.000
G03  20643012.273 7 108479757.054 7      1175.105          46.000    20643013.828 7  84529724.399 7       915.664          46.000
G04  23560498.766 6 123811252.619 6      3687.727          40.000    23560501.031 5  96476302.316 5      2873.550          34.000
G11  21094381.062 8 110851709.686 8     -2671.062          51.000    21094379.039 7  86377946.658 7     -2081.347          46.000
G22  20661060.789 8 108574617.908 8      -447.699          51.000    20661057.555 8  84603627.256 8      -348.857          51.000
R01  20131258.344 5 107613131.074 5     -2544.551          34.000    20131260.898 5  83699093.698 5     -1979.092          33.000
R02  19862422.992 8 105989692.339 8      2118.109          51.000    19862426.945 7  82436479.927 7      1647.418          47.000
R23  22342308.273 8 119516283.400 8     -3927.387          49.000    22342317.117 6  92957114.727 6     -3054.637          40.000
R24  19665647.875 8 105161050.869 8     -1875.668          51.000    19665649.336 8  81791949.267 8     -1458.853          49.000
C05  39689931.414 5 206675887.593 5       -32.520          35.000    39689928.750 6 159814894.978 6       -24.841          36.000
C20  22589044.859 8 117627160.734 8      1630.512          51.000
C27  25852208.469 5 134619178.233 5     -3415.426          34.000
C30  22174563.414 8 115468771.852 8     -1848.926          51.000
E04  25101179.305 6 131907592.070 6     -1837.035          38.000    25101179.781 6 101072049.860 6     -1407.811          38.000
E09  21681725.719 8 113938317.496 8       933.367          51.000    21681727.539 8  87303397.318 8       715.133          51.000
E11  23851117.227 8 125338459.288 8     -1939.738          50.000    23851115.719 7  96038557.482 7     -1486.449          45.000
E36  23178091.266 8 121801696.606 8       583.570          51.000    23178092.766 8  93328575.606 8       447.181          50.000
> 2020 05 11 20 13  0.0000000  0 17        .000000000000
G01  20313057.875 8 106745840.309 8      -471.215          51.000    20313060.430 8  83178584.424 8      -367.180          51.000
G03  20636345.633 7 108444724.465 7      1161.301          44.000    20636347.336 7  84502426.270 7       904.907          44.000
G04  23539467.859 6 123700733.303 6      3681.000          39.000    23539469.211 5  96390183.378 5      2868.309          33.000
G11  21109677.703 8 110932094.691 8     -2687.055          51.000    21109676.031 7  86440584.322 7     -2093.809          45.000
G22  20663654.516 8 108588248.149 8      -460.082          51.000    20663651.242 8  84614248.229 8      -358.505          51.000
R01  20145583.016 6 107689714.502 6     -2560.258          40.000    20145587.109 5  83758658.619 5     -1991.312          32.000
R02  19850575.977 8 105926471.522 8      2097.602          51.000    19850579.516 8  82387308.195 8      1631.468          48.000
R23  22364369.469 8 119634290.951 8     -3938.965          50.000    22364377.562 6  93048898.315 6     -3063.642          39.000
R24  19676237.023 8 105217676.606 8     -1898.520          51.000    19676239.156 8  81835991.546 8     -1476.623          49.000
C05  39690124.984 5 206676895.234 5       -33.895          35.000    39690122.156 6 159815674.154 6       -26.330          36.000
C20  22579690.000 8 117578448.388 8      1617.809          51.000
C27  25871897.094 4 134721709.337 4     -3419.676          29.000
