     3.02           OBSERVATION DATA    M (MIXED)           RINEX VERSION / TYPE
SAVERINEX           SC600               20200507 065931 LCL PGM / RUN BY / DATE
       G = GPS       R = GLONASS       C = COMPASS          COMMENT
       S = SBAS      J = QZSS          E = GALILEO          COMMENT
BEAN                                                        MARKER NAME
1                                                           MARKER NUMBER
GEODETIC                                                    MARKER TYPE
Unige DICCA         GTER                                    OBSERVER / AGENCY
SC60291900056       SC600               2.12(191226)        REC # / TYPE / VERS
                    HEMA45          NONE                    ANT # / TYPE
  4509407.8091   693652.4678  4442337.6214                  APPROX POSITION XYZ
        0.0000        0.0000        0.0000                  ANTENNA: DELTA H/E/N
G    8 C1C L1C D1C S1C C2Y L2Y D2Y S2Y                      SYS / # / OBS TYPES
R    8 C1C L1C D1C S1C C2P L2P D2P S2P                      SYS / # / OBS TYPES
C    8 C1I L1I D1I S1I C7I L7I D7I S7I                      SYS / # / OBS TYPES
E    8 C1C L1C D1C S1C C7Q L7Q D7Q S7Q                      SYS / # / OBS TYPES
DBHZ                                                        COMMENT
     30.000                                                 INTERVAL
  2020    05    07    04    00    0.0000000     GPS         TIME OF FIRST OBS
  2020    05    07    04    59   30.0000000     GPS         TIME OF LAST OBS
     0                                                      RCV CLOCK OFFS APPL
G L1C  0.00000                                              SYS / PHASE SHIFT
G L2Y  0.00000                                              SYS / PHASE SHIFT
R L1C  0.00000                                              SYS / PHASE SHIFT
R L2P  0.25000                                              SYS / PHASE SHIFT
C L1I  0.00000                                              SYS / PHASE SHIFT
C L7I  0.00000                                              SYS / PHASE SHIFT
E L1C  0.50000                                              SYS / PHASE SHIFT
E L7Q -0.25000                                              SYS / PHASE SHIFT
 14 R01  1 R05  1 R06 -4 R07  5 R08  6 R09 -2 R10 -7 R11  0 GLONASS SLOT / FRQ #
    R12 -1 R16 -1 R19  3 R20  2 R21  4 R22 -3               GLONASS SLOT / FRQ #
 C1C   71.950 C2C   71.950 C2P   71.950                     GLONASS COD/PHS/BIS
    18                                                      LEAP SECONDS
*** Above antenna height is from mark to ANTENNA BOTTOM.    COMMENT
    17     4        0.0000        ANT MEASURE TYPE/HEIGT    COMMENT
    0.0000    0.0000    0.0458    0.0405    0.0000          COMMENT
                    BASE STATION                            COMMENT
                                                            END OF HEADER
> 2020 05 07 04 00  0.0000000  0 15        .000000000000
G05  20967612.445 8 110185537.751 8     -1625.258          51.000    20967611.062 8  85858844.336 8     -1266.435          51.000
G07  23069888.117 5 121233086.968 5     -2632.016          35.000    23069885.500 5  94467326.093 5     -2050.921          34.000
G28  21309262.484 8 111980964.959 8      1660.289          51.000    21309260.961 7  87257893.481 7      1293.732          45.000
G30  20866394.883 8 109653664.724 8     -1487.590          51.000    20866395.797 8  85444434.855 8     -1159.161          51.000
R07  21826634.430 8 116839668.572 8     -3472.516          49.000    21826637.148 7  90875320.663 7     -2700.849          47.000
R08  19252374.250 7 103095586.839 7      -391.863          47.000    19252375.016 7  80185461.118 7      -304.783          47.000
R09  21188883.055 5 113147389.518 5     -3317.164          35.000    21188886.062 4  88003541.070 4     -2580.016          28.000
R10  19218147.453 8 102443522.168 8      -782.508          50.000
R11  21057710.367 8 112526075.707 8      3326.320          51.000    21057711.203 7  87520250.502 7      2587.141          46.000
C05  39788143.328 5 207187302.050 5        26.305          35.000    39788142.273 6 160210352.210 6        19.912          40.000
C20  22010020.648 8 114611949.318 8      -799.875          51.000
C23  25166280.172 5 131047420.591 5     -2888.242          30.000
E01  24486537.430 8 128677615.480 8      2035.430          51.000    24486540.859 8  98597206.986 8      1559.624          51.000
E19  24485199.039 8 128670584.373 8     -1317.262          50.000    24485199.906 8  98591750.972 8     -1009.372          51.000
E21  24152172.789 8 126920556.444 8      -787.691          48.000    24152175.289 8  97250847.051 8      -603.565          49.000
> 2020 05 07 04 00 30.0000000  0 14        .000000000000
G05  20977033.094 8 110235044.583 8     -1662.727          51.000    20977031.898 8  85897421.088 8     -1295.631          51.000
G28  21299923.977 8 111931888.082 8      1623.902          51.000    21299922.070 7  87219651.761 7      1265.378          46.000
G30  20875009.742 8 109698935.993 8     -1518.215          51.000    20875010.914 8  85479711.168 8     -1183.025          51.000
R07  21846220.891 8 116944511.870 8     -3504.336          50.000    21846223.180 7  90956865.428 7     -2725.595          44.000
R08  19254720.766 7 103108154.476 7      -433.340          47.000    19254722.047 7  80195235.952 7      -337.042          46.000
R09  21207644.031 5 113247561.010 5     -3348.824          34.000    21207651.016 4  88081452.241 4     -2604.641          29.000
R10  19222706.609 8 102467824.547 8      -825.020          49.000
R11  21039168.812 8 112426994.295 8      3291.645          51.000    21039170.820 7  87443187.180 7      2560.168          47.000
C05  39788085.922 5 207187003.720 5         5.945          35.000    39788084.781 6 160210120.695 6         4.905          41.000
C20  22014763.211 8 114636642.937 8      -834.117          51.000
C23  25183018.773 5 131134578.811 5     -2909.836          34.000
E01  24475039.773 8 128617196.852 8      2004.918          51.000    24475042.484 8  98550912.201 8      1536.200          51.000
E19  24492835.547 8 128710711.909 8     -1345.395          50.000    24492835.578 8  98622498.047 8     -1030.944          51.000
E21  24156798.273 7 126944863.554 7      -820.250          47.000    24156801.172 8  97269471.979 8      -628.572          50.000
> 2020 05 07 04 01  0.0000000  0 14        .000000000000
G05  20986575.078 8 110285189.569 8     -1679.559          51.000    20986574.008 8  85936495.107 8     -1308.747          51.000
G28  21290700.891 8 111883418.763 8      1607.992          51.000    21290698.898 7  87181883.485 7      1252.984          47.000
G30  20883706.719 8 109744638.587 8     -1528.070          51.000    20883708.125 8  85515323.581 8     -1190.704          51.000
R07  21865892.906 7 117049819.111 7     -3515.383          46.000    21865894.516 6  91038771.013 6     -2734.190          41.000
R08  19257206.688 7 103121473.309 7      -454.004          46.000    19257209.617 7  80205595.035 7      -353.114          47.000
R09  21226485.484 5 113348171.515 5     -3359.086          30.000    21226494.688 4  88159704.817 4     -2612.625          28.000
R10  19227413.195 8 102492913.221 8      -846.754          49.000
R11  21020730.125 8 112328465.504 8      3277.695          50.000    21020732.891 7  87366553.647 7      2549.319          47.000
C05  39788047.992 5 207186806.239 5         7.207          35.000    39788046.867 6 160209967.974 6         5.842          41.000
C20  22019611.328 8 114661886.438 8      -848.090          51.000
C23  25199797.133 5 131221947.488 5     -2913.566          34.000
E01  24463624.617 8 128557210.055 8      1994.926          51.000    24463626.250 8  98504948.307 8      1528.585          51.000
E19  24500540.141 8 128751198.344 8     -1352.930          51.000    24500539.883 8  98653520.109 8     -1036.648          51.000
E21  24161517.609 7 126969662.108 7      -832.199          46.000    24161520.570 8  97288473.465 8      -637.665          50.000
> 2020 05 07 04 01 30.0000000  0 15        .000000000000
G05  20996214.195 8 110335845.488 8     -1698.445          50.000    20996213.305 8  85975967.244 8     -1323.464          51.000
G07  23115389.172 5 121472201.961 5     -2664.855          31.000
G28  21281569.516 8 111835433.169 8      1589.965          51.000    21281567.516 7  87144492.137 7      1238.937          47.000
G30  20892461.672 8 109790645.589 8     -1539.996          51.000    20892462.867 8  85551173.185 8     -1199.997          51.000
R07  21885624.773 6 117155460.540 6     -3528.496          38.000    21885627.578 6  91120936.517 6     -2744.389          41.000
R08  19259809.922 7 103135416.552 7      -476.609          47.000    19259813.609 7  80216439.769 7      -370.696          47.000
R09  21245384.680 5 113449089.746 5     -3370.691          32.000    21245394.430 4  88238281.680 4     -2621.652          26.000
R10  19232242.828 8 102518658.048 8      -870.609          48.000
R11  21002371.562 8 112230363.925 8      3261.469          50.000    21002374.898 8  87290252.385 8      2536.698          48.000
C05  39788005.656 5 207186585.421 5         5.906          35.000    39788004.688 6 160209797.964 6         4.694          41.000
C20  22024541.117 8 114687555.471 8      -864.230          51.000
C23  25216591.141 5 131309400.567 5     -2917.359          32.000
E01  24452268.102 8 128497530.585 8      1982.742          51.000    24452268.742 8  98459219.886 8      1519.229          51.000
E19  24508289.000 8 128791918.293 8     -1362.641          51.000    24508288.617 8  98684721.083 8     -1044.134          51.000
E21  24166306.242 7 126994825.601 7      -846.316          45.000    24166308.977 8  97307754.595 8      -648.455          50.000
> 2020 05 07 04 02  0.0000000  0 13        .000000000000
G05  21005992.617 8 110387232.682 8     -1728.418          51.000    21005991.930 8  86016009.201 8     -1346.816          51.000
G07  23130643.289 5 121552368.153 5     -2681.527          35.000    23130644.711 5  94716096.998 5     -2089.499          32.000
G28  21272572.531 8 111788154.654 8      1560.781          51.000    21272570.320 7  87107651.727 7      1216.193          46.000
G30  20901316.477 8 109837177.050 8     -1563.086          51.000    20901317.188 8  85587431.454 8     -1217.989          51.000
R07  21905459.555 7 117261659.649 7     -3552.695          42.000    21905466.062 7  91203535.878 7     -2763.204          43.000
R08  19262571.844 7 103150199.218 7      -510.785          47.000    19262576.336 7  80227946.365 7      -397.277          46.000
R10  19237237.484 8 102545282.059 8      -905.508          48.000
R11  20984136.023 8 112132916.776 8      3233.895          51.000    20984139.609 7  87214460.176 7      2515.251          47.000
C05  39788001.352 5 207186562.672 5        -5.930          35.000    39788000.391 6 160209780.368 6        -4.567          41.000
C20  22029594.836 8 114713869.425 8      -891.246          51.000
E01  24441012.328 8 128438380.817 8      1959.520          51.000    24441012.297 8  98413897.342 8      1501.450          51.000
E19  24516124.203 8 128833093.264 8     -1383.340          51.000    24516123.516 8  98716270.714 8     -1060.019          49.000
E21  24171206.383 7 127020574.526 7      -871.336          46.000    24171208.656 8  97327484.278 8      -667.665          50.000
> 2020 05 07 04 02 30.0000000  0 13        .000000000000
G05  21015839.602 8 110438978.918 8     -1730.262          51.000    21015838.992 8  86056330.942 8     -1348.256          51.000
G07  23145890.180 5 121632487.743 5     -2669.895          34.000    23145895.031 5  94778527.735 5     -2080.443          32.000
G28  21263639.719 8 111741213.852 8      1559.711          51.000    21263637.531 7  87071074.473 7      1215.356          46.000
G30  20910200.234 8 109883860.965 8     -1558.059          51.000    20910200.797 8  85623808.523 8     -1214.072          51.000
R07  21925332.898 8 117368037.260 8     -3548.188          48.000    21925339.000 7  91286274.034 7     -2759.701          46.000
R08  19265423.531 7 103165464.313 7      -516.227          46.000    19265427.859 7  80239821.529 7      -401.510          47.000
R10  19242325.852 7 102572407.330 7      -911.996          47.000
R11  20965953.016 8 112035749.832 8      3234.816          50.000    20965956.047 7  87138885.896 7      2515.968          45.000
C05  39787964.312 5 207186369.820 5        10.121          35.000    39787963.438 6 160209631.233 6         7.446          41.000
C20  22034701.719 8 114740461.020 8      -890.395          51.000
E01  24429787.039 8 128379391.152 8      1964.191          51.000    24429787.000 8  98368697.470 8      1505.030          51.000
E19  24523975.578 8 128874352.841 8     -1376.215          51.000    24523974.398 8  98747885.174 8     -1054.508          48.000
E21  24176147.359 7 127046537.272 7      -868.320          44.000    24176149.352 8  97347377.784 8      -665.405          50.000
> 2020 05 07 04 03  0.0000000  0 13        .000000000000
G05  21025745.086 8 110491031.430 8     -1748.555          51.000    21025744.320 8  86096891.317 8     -1362.513          51.000
G28  21254761.734 8 111694561.043 8      1541.922          50.000    21254759.609 7  87034721.637 7      1201.501          46.000
G30  20919102.898 8 109930644.665 8     -1569.551          51.000    20919103.680 8  85660263.340 8     -1223.027          51.000
R07  21945230.375 8 117474539.173 8     -3560.703          50.000    21945235.789 8  91369108.817 8     -2769.436          48.000
R08  19268354.648 7 103181152.395 7      -538.637          47.000    19268357.656 7  80252022.303 7      -418.940          46.000
R10  19247497.961 7 102599979.176 7      -934.992          47.000
R11  20947811.773 8 111938812.866 8      3218.879          48.000    20947814.359 7  87063490.515 7      2503.572          43.000
C05  39787884.969 5 207185957.122 5         9.445          35.000    39787883.961 6 160209311.314 6         7.116          41.000
C20  22039852.234 8 114767279.398 8      -906.055          51.000
C23  25267092.766 5 131572383.993 5     -2925.027          30.000
E01  24418582.578 8 128320511.249 8      1952.449          51.000    24418583.180 8  98323581.699 8      1496.033          51.000
E19  24531833.070 8 128915645.729 8     -1385.359          50.000    24531831.789 7  98779525.128 7     -1061.593          46.000
E21  24181118.719 7 127072661.488 7      -881.766          44.000    24181120.586 8  97367395.036 8      -675.719          50.000
> 2020 05 07 04 03 30.0000000  0 14        .000000000000
G05  21035793.977 8 110543836.323 8     -1767.930          51.000    21035792.859 8  86138037.960 8     -1377.608          51.000
G07  23176388.680 4 121792743.901 4     -2679.582          29.000
G28  21246024.133 8 111648646.179 8      1522.934          49.000    21246022.227 7  86998943.825 7      1186.705          46.000
G30  20928109.500 8 109977974.799 8     -1582.035          51.000    20928110.469 8  85697143.948 8     -1232.755          51.000
R07  21965235.836 8 117581619.710 8     -3574.086          50.000    21965240.266 8  91452393.652 8     -2779.845          48.000
R08  19271447.406 7 103197722.986 7      -562.184          46.000    19271451.312 7  80264910.550 7      -437.254          46.000
R10  19252838.859 7 102628449.912 7      -959.117          47.000
R11  20929799.766 8 111842564.067 8      3201.641          48.000    20929800.789 7  86988630.354 7      2490.165          43.000
C05  39787848.375 5 207185766.736 5         7.750          35.000    39787847.328 6 160209164.025 6         5.609          40.000
C20  22045131.469 8 114794768.481 8      -922.777          51.000
C23  25283969.219 5 131660277.968 5     -2929.984          30.000
E01  24407484.398 8 128262190.162 8      1939.441          51.000    24407485.938 8  98278894.117 8      1486.045          51.000
E19  24539782.258 8 128957420.259 8     -1395.828          50.000    24539780.445 7  98811534.125 7     -1069.495          45.000
E21  24186205.938 7 127099394.300 7      -896.582          44.000    24186207.070 8  97387878.572 8      -686.923          49.000
> 2020 05 07 04 04  0.0000000  0 13        .000000000000
G05  21045938.578 8 110597143.500 8     -1782.914          51.000    21045936.867 8  86179576.007 8     -1389.284          51.000
G28  21237379.820 8 111603221.470 8      1508.355          49.000    21237378.258 7  86963547.934 7      1175.339          46.000
G30  20937172.391 8 110025600.783 8     -1590.109          51.000    20937173.320 8  85734255.078 8     -1239.046          51.000
R07  21985301.250 8 117689022.824 8     -3583.102          49.000    21985304.492 7  91535929.382 7     -2786.860          47.000
R08  19274659.148 8 103214920.235 8      -581.262          48.000    19274663.172 7  80278286.158 7      -452.092          46.000
R10  19258300.688 8 102657564.670 8      -978.859          48.000
R11  20911870.164 8 111746751.769 8      3188.973          50.000    20911871.312 7  86914109.718 7      2480.312          46.000
C05  39787807.250 5 207185553.050 5        10.250          35.000    39787806.211 6 160208998.422 6         7.491          41.000
C20  22050491.844 8 114822681.289 8      -935.180          51.000
C23  25300861.141 5 131748226.314 5     -2931.855          30.000
E01  24396445.305 8 128204179.643 8      1930.836          51.000    24396447.695 8  98234444.483 8      1479.496          51.000
E19  24547775.625 8 128999427.140 8     -1401.754          49.000    24547773.547 7  98843721.166 7     -1074.104          45.000
E21  24191360.992 7 127126485.416 7      -906.656          43.000    24191362.359 8  97408636.665 8      -694.729          49.000
> 2020 05 07 04 04 30.0000000  0 14        .000000000000
G05  21056173.422 8 110650926.382 8     -1796.719          51.000    21056171.633 8  86221484.755 8     -1400.041          51.000
G07  23207043.484 5 121953827.655 5     -2681.707          35.000
G28  21228824.320 8 111558264.036 8      1494.766          48.000    21228823.430 7  86928516.147 7      1164.752          47.000
G30  20946286.719 8 110073497.024 8     -1597.105          51.000    20946287.516 8  85771576.792 8     -1244.501          51.000
R07  22005421.656 8 117796722.410 8     -3590.918          49.000    22005423.812 7  91619695.680 7     -2792.936          45.000
R08  19277984.164 8 103232720.221 8      -599.449          49.000    19277987.359 7  80292130.580 7      -466.238          47.000
R10  19263878.375 8 102687296.324 8      -997.352          48.000
R11  20894018.062 8 111651353.883 8      3177.027          50.000    20894020.406 8  86839911.375 8      2471.021          48.000
C05  39787757.016 5 207185291.352 5        13.512          35.000    39787756.016 6 160208796.011 6        10.379          41.000
C20  22055929.078 8 114850993.719 8      -946.480          51.000
C23  25317763.719 5 131836238.357 5     -2930.910          30.000
E01  24385460.766 8 128146456.409 8      1923.328          51.000    24385463.828 8  98190214.980 8      1473.701          51.000
E19  24555808.492 8 129041642.369 8     -1406.660          48.000    24555806.766 7  98876067.898 7     -1077.866          46.000
E21  24196579.422 7 127153909.635 7      -915.812          44.000    24196581.711 8  97429649.998 8      -701.613          49.000
> 2020 05 07 04 05  0.0000000  0 14        .000000000000
G05  21066514.117 8 110705267.646 8     -1820.000          51.000    21066512.734 8  86263828.590 8     -1418.182          51.000
G07  23222400.711 5 122034516.767 5     -2691.242          34.000    23222407.914 5  95091864.744 5     -2097.072          33.000
G28  21220374.062 7 111513859.379 7      1471.543          47.000    21220374.023 7  86893915.110 7      1146.657          46.000
G30  20955468.039 8 110121745.608 8     -1613.508          51.000    20955469.023 8  85809173.078 8     -1257.279          51.000
R07  22025612.180 8 117904801.163 8     -3608.199          49.000    22025613.883 7  91703756.883 7     -2806.377          44.000
R08  19281437.578 8 103251209.423 8      -627.027          49.000    19281439.523 7  80306511.056 7      -487.688          46.000
R10  19269587.375 8 102717728.248 8     -1025.266          48.000
R11  20876259.281 8 111556457.567 8      3155.594          49.000    20876262.898 8  86766103.137 8      2454.351          48.000
C05  39787713.562 5 207185064.351 5         7.828          35.000    39787712.508 6 160208620.847 6         5.790          40.000
C20  22061458.758 8 114879788.410 8      -967.203          51.000
C23  25334691.891 5 131924388.490 5     -2940.289          31.000
E01  24374546.961 8 128089104.869 8      1906.270          51.000    24374550.148 8  98146270.284 8      1460.603          51.000
E19  24563896.844 7 129084149.419 7     -1421.031          47.000    24563896.211 8  98908638.221 8     -1088.956          48.000
E21  24201877.242 7 127181749.368 7      -934.242          44.000    24201879.445 7  97450981.712 7      -715.821          47.000
> 2020 05 07 04 05 30.0000000  0 13        .000000000000
G05  21076950.523 8 110760112.358 8     -1836.887          51.000    21076949.414 8  86306564.716 8     -1431.340          51.000
G28  21212019.625 8 111469956.016 8      1454.742          49.000    21212019.750 8  86859704.677 8      1133.565          48.000
G30  20964706.141 8 110170292.411 8     -1623.539          51.000    20964707.414 8  85847001.762 8     -1265.095          51.000
R07  22045862.766 8 118013203.521 8     -3619.051          49.000    22045864.477 7  91788069.773 7     -2814.820          44.000
R08  19285009.836 8 103270333.924 8      -648.312          50.000    19285010.656 7  80321385.662 7      -504.246          47.000
R10  19275416.906 8 102748804.078 8     -1046.840          48.000
R11  20858584.312 8 111462011.123 8      3140.395          48.000    20858589.086 8  86692644.767 8      2442.529          48.000
C05  39787666.727 5 207184820.891 5         8.148          35.000    39787665.781 6 160208432.578 6         6.147          41.000
C20  22067070.508 8 114909013.034 8      -981.586          51.000
C23  25351635.828 5 132012615.818 5     -2942.234          34.000
E01  24363694.133 8 128032073.272 8      1895.395          51.000    24363697.062 8  98102570.733 8      1452.333          51.000
E19  24572030.891 8 129126895.720 8     -1429.176          48.000    24572031.383 8  98941391.859 8     -1095.110          49.000
E21  24207243.711 7 127209950.829 7      -946.328          44.000    24207245.125 7  97472590.612 7      -725.141          46.000
> 2020 05 07 04 06  0.0000000  0 14        .000000000000
G05  21087478.961 8 110815440.920 8     -1855.195          51.000    21087478.203 8  86349677.876 8     -1445.607          51.000
G07  23253165.477 6 122196164.958 6     -2700.039          36.000
G28  21203757.625 8 111426536.721 8      1436.406          51.000    21203757.570 8  86825871.464 8      1119.278          48.000
G30  20973997.289 8 110219117.862 8     -1634.984          51.000    20973998.641 8  85885047.565 8     -1274.014          51.000
R07  22066169.562 8 118121908.887 8     -3631.488          49.000    22066171.281 7  91872618.318 7     -2824.491          42.000
R08  19288697.766 8 103290096.366 8      -671.461          50.000    19288697.266 7  80336742.379 7      -522.247          47.000
R10  19281363.391 8 102780502.902 8     -1069.906          48.000
R11  20840990.102 8 111367998.328 8      3123.504          48.000    20840996.250 7  86619523.666 7      2429.392          47.000
C05                                                                  39787612.391 6 160208217.239 6         5.304          41.000
C20  22072761.438 8 114938649.364 8      -997.570          51.000
C23  25368591.469 5 132100900.915 5     -2946.977          35.000
E01  24352898.938 8 127975344.272 8      1883.051          51.000    24352901.727 8  98059103.055 8      1442.854          51.000
E19  24580207.258 8 129169862.904 8     -1438.773          48.000    24580208.648 8  98974314.760 8     -1102.467          50.000
E21  24212675.359 7 127238494.791 7      -959.953          46.000    24212676.312 7  97494461.953 7      -735.596          45.000
> 2020 05 07 04 06 30.0000000  0 13        .000000000000
G05  21098107.258 8 110871296.155 8     -1877.133          50.000    21098107.180 8  86393201.410 8     -1462.704          50.000
G28  21195596.438 8 111383648.173 8      1414.223          51.000    21195596.289 7  86792451.838 7      1101.992          47.000
G30  20983349.781 8 110268265.437 8     -1650.191          51.000    20983350.984 8  85923344.367 8     -1285.863          51.000
R07  22086540.562 8 118230961.024 8     -3647.523          48.000    22086541.844 6  91957436.621 6     -2836.963          41.000
R08  19292508.367 8 103310505.944 8      -698.035          50.000    19292508.422 7  80352615.153 7      -542.919          47.000
R10  19287434.852 8 102812867.629 8     -1096.656          50.000
R11  20823486.922 8 111274466.848 8      3102.965          51.000    20823492.844 7  86546776.941 7      2413.417          46.000
C05  39787561.664 5 207184273.620 5         2.328          35.000    39787560.773 6 160208009.333 6         1.867          41.000
C20  22078540.000 8 114968741.778 8     -1017.168          51.000
C23  25385566.000 5 132189286.806 5     -2954.531          35.000
E01  24342170.148 8 127918963.694 8      1866.949          51.000    24342172.648 8  98015902.363 8      1430.549          51.000
E19  24588434.297 7 129213096.353 7     -1452.164          47.000    24588436.406 8  99007441.683 8     -1112.616          50.000
E21  24218180.609 7 127267425.067 7      -977.289          46.000    24218181.125 7  97516629.308 7      -748.721          43.000
> 2020 05 07 04 07  0.0000000  0 13        .000000000000
G05  21108847.430 8 110927739.416 8     -1887.578          49.000    21108847.844 8  86437183.160 8     -1470.840          49.000
G28  21187548.508 8 111341354.534 8      1403.586          51.000    21187548.031 7  86759495.772 7      1093.703          46.000
G30  20992775.203 8 110317796.582 8     -1653.668          51.000    20992776.477 8  85961940.078 8     -1288.569          51.000
R07  22106987.758 7 118340421.546 7     -3651.691          46.000    22106989.008 7  92042572.592 7     -2840.204          42.000
R08  19296454.508 8 103331641.079 8      -712.941          49.000    19296454.133 7  80369053.095 7      -554.510          46.000
R10  19293642.938 8 102845960.117 8     -1111.441          50.000
R11  20806087.422 8 111181482.814 8      3094.043          51.000    20806090.922 7  86474456.036 7      2406.481          45.000
C05  39787523.906 5 207184076.695 5         9.383          35.000    39787523.039 6 160207857.054 6         7.098          41.000
C20  22084418.133 8 114999352.385 8     -1025.316          51.000
C23  25402571.594 5 132277834.297 5     -2950.711          35.000
E01  24331519.984 8 127862995.280 8      1862.395          51.000    24331521.688 8  97973017.486 8      1427.122          51.000
E19  24596723.930 8 129256658.806 8     -1453.902          48.000    24596726.289 8  99040820.707 8     -1113.990          50.000
E21  24223770.867 7 127296803.438 7      -982.934          47.000    24223771.016 7  97539140.013 7      -753.199          42.000
> 2020 05 07 04 07 30.0000000  0 14        .000000000000
G05  21119669.000 8 110984608.048 8     -1902.797          51.000    21119669.234 8  86481496.377 8     -1482.699          51.000
G28  21179583.195 8 111299496.036 8      1387.941          51.000    21179582.367 7  86726878.791 7      1081.513          45.000
G30  21002242.625 8 110367548.522 8     -1662.125          51.000    21002244.133 8  86000707.834 8     -1295.162          51.000
R07  22127480.812 7 118450124.730 7     -3660.895          45.000    22127482.297 7  92127897.289 7     -2847.362          43.000
R08  19300506.664 8 103353341.515 8      -732.879          49.000    19300506.773 7  80385931.205 7      -570.017          46.000
R09  21476733.117 5 114684520.233 5     -3488.324          32.000    21476733.008 3  89199091.972 3     -2713.144          23.000
R10  19299956.312 8 102879614.468 8     -1131.230          50.000
R11  20788759.789 8 111088884.240 8      3080.000          51.000    20788760.812 7  86402434.984 7      2395.559          44.000
C05  39787469.219 5 207183792.426 5        10.250          35.000    39787468.391 6 160207636.809 6         8.452          41.000
C20  22090365.250 8 115030321.099 8     -1038.336          50.000
C23  25419576.625 5 132366381.943 5     -2952.027          34.000
E01  24320917.867 8 127807278.546 8      1852.871          51.000    24320918.164 8  97930325.451 8      1419.774          51.000
E19  24605045.469 8 129300389.005 8     -1460.645          48.000    24605047.695 8  99074328.282 8     -1119.192          50.000
E21  24229415.539 8 127326467.459 8      -993.742          48.000    24229415.289 6  97561869.584 6      -761.439          41.000
> 2020 05 07 04 08  0.0000000  0 13        .000000000000
G05  21130597.148 8 111042034.803 8     -1925.500          51.000    21130596.875 8  86526244.514 8     -1500.390          51.000
G28  21171726.273 8 111258208.760 8      1364.727          49.000    21171725.195 7  86694706.915 7      1063.423          45.000
G30  21011777.500 8 110417654.569 8     -1678.133          51.000    21011779.109 8  86039751.481 8     -1307.636          51.000
R07  22148044.898 7 118560205.038 7     -3677.551          46.000    22148045.656 7  92213515.357 7     -2860.314          43.000
R08  19304690.344 8 103375744.590 8      -760.469          49.000    19304690.180 7  80403355.793 7      -591.476          45.000
R10  19306400.406 8 102913964.719 8     -1158.578          50.000
R11  20771529.656 8 110996809.928 8      3058.367          50.000    20771529.477 7  86330821.668 7      2378.730          45.000
C05  39787423.258 5 207183552.653 5         5.312          35.000    39787422.500 6 160207451.790 6         3.978          41.000
C20  22096406.703 8 115061781.187 8     -1058.812          50.000
C23  25436606.992 5 132455061.750 5     -2960.000          32.000
E01  24310389.195 8 127751949.006 8      1835.832          51.000    24310388.164 8  97887930.109 8      1406.650          51.000
E19  24613424.672 8 129344421.524 8     -1474.906          48.000    24613426.758 8  99108067.477 8     -1130.000          49.000
E21  24235140.320 7 127356550.646 7     -1011.812          47.000    24235139.398 6  97584920.340 6      -775.153          41.000
> 2020 05 07 04 08 30.0000000  0 13        .000000000000
G05  21141622.008 8 111099968.747 8     -1937.605          51.000    21141621.266 8  86571387.855 8     -1509.822          51.000
G28  21163968.703 8 111217444.931 8      1351.895          48.000    21163967.875 7  86662942.905 7      1053.424          46.000
G30  21021370.141 8 110468064.236 8     -1683.496          51.000    21021371.703 8  86079031.719 8     -1311.815          51.000
R07  22168669.977 7 118670610.785 7     -3683.699          46.000    22168670.211 7  92299386.461 7     -2865.099          43.000
R08  19308995.898 8 103398800.770 8      -777.555          49.000    19308995.219 7  80421288.359 7      -604.765          44.000
R10  19312964.984 8 102948958.642 8     -1175.328          49.000
R11  20754387.492 7 110905212.196 7      3047.145          47.000    20754388.922 7  86259579.002 7      2370.001          47.000
C05                                                                  39787375.984 6 160207264.416 6         7.624          41.000
C20  22102533.109 8 115093683.795 8     -1068.902          51.000
C23  25453654.133 5 132543823.677 5     -2958.215          33.000
E01  24299924.406 8 127696958.447 8      1829.277          51.000    24299922.930 8  97845794.521 8      1401.624          51.000
E19  24621852.133 8 129388707.355 8     -1478.535          49.000    24621854.000 8  99142000.758 8     -1132.871          48.000
E21  24240935.266 8 127387002.879 8     -1019.301          48.000    24240934.031 6  97608253.894 6      -781.181          40.000
> 2020 05 07 04 09  0.0000000  0 14        .000000000000
G05  21152737.312 8 111158377.991 8     -1953.516          51.000    21152736.219 8  86616901.534 8     -1522.220          51.000
G13  20740173.812 4 108990325.836 4      1541.625          29.000
G28  21156305.273 8 111177175.820 8      1335.512          48.000    21156305.148 7  86631564.364 7      1040.658          47.000
G30  21031014.523 8 110518746.082 8     -1692.582          50.000    21031015.930 8  86118524.045 8     -1318.895          50.000
R07  22189348.797 7 118781309.088 7     -3693.395          45.000    22189349.867 7  92385485.017 7     -2872.643          42.000
R08  19313418.000 8 103422480.131 8      -798.438          49.000    19313417.258 7  80439705.587 7      -621.007          45.000
R10  19319644.266 8 102984563.032 8     -1195.621          50.000
R11  20737328.523 7 110814062.853 7      3032.207          47.000    20737332.508 8  86188685.046 8      2358.383          48.000
C05  39787323.953 5 207183035.464 5        10.773          35.000    39787323.180 6 160207051.821 6         8.654          41.000
C20  22108739.289 8 115125998.962 8     -1082.758          51.000
C23  25470711.664 5 132632636.568 5     -2959.992          34.000
E01  24289518.133 8 127642277.706 8      1818.875          50.000    24289517.172 8  97803896.329 8      1393.642          51.000
E19  24630322.320 8 129433216.641 8     -1486.078          49.000    24630323.438 7  99176105.252 7     -1138.626          46.000
E21  24246794.398 7 127417793.001 7     -1030.535          46.000    24246793.852 6  97631846.337 6      -789.592          40.000
> 2020 05 07 04 09 30.0000000  0 14        .000000000000
G05  21163941.289 8 111217253.695 8     -1971.129          51.000    21163939.836 8  86662778.685 8     -1535.945          51.000
G07  23361504.891 5 122765538.165 5     -2721.266          31.000
G28  21148735.180 8 111137395.510 8      1316.957          49.000    21148735.500 7  86600566.732 7      1026.200          47.000
G30  21040709.039 8 110569691.644 8     -1703.469          51.000    21040710.250 8  86158221.859 8     -1327.381          51.000
R07  22210080.727 7 118892290.864 7     -3705.113          44.000    22210082.750 7  92471804.076 7     -2881.758          43.000
R08  19317955.289 8 103446775.848 8      -821.090          49.000    19317954.570 7  80458602.221 7      -638.628          45.000
R10  19326436.195 8 103020768.422 8     -1217.734          50.000
R11  20720353.945 8 110723356.417 8      3015.219          51.000    20720358.805 8  86118135.572 8      2345.170          49.000
C05  39787263.484 5 207182720.859 5        10.660          35.000    39787262.781 6 160206808.553 6         7.856          41.000
C20  22115023.359 8 115158719.472 8     -1098.344          51.000
C23  25487777.648 5 132721491.837 5     -2963.320          34.000
E01  24279169.586 8 127587900.578 8      1806.469          49.000    24279169.969 8  97762230.740 8      1384.255          51.000
E19  24638833.805 8 129477942.320 8     -1495.395          50.000    24638834.125 7  99210375.536 7     -1145.891          46.000
E21  24252716.578 7 127448912.798 7     -1043.770          47.000    24252717.227 6  97655691.388 6      -799.846          41.000
> 2020 05 07 04 10  0.0000000  0 13        .000000000000
G05  21175297.656 8 111276931.006 8     -1991.594          51.000    21175296.172 8  86709280.473 8     -1551.894          51.000
G28  21141322.852 8 111098442.875 8      1295.543          50.000    21141322.859 7  86570214.019 7      1009.514          47.000
G30  21050517.719 8 110621236.883 8     -1717.207          51.000    21050519.062 8  86198386.955 8     -1338.083          50.000
R07  22230928.016 7 119003897.358 7     -3719.469          42.000    22230932.984 7  92558609.127 7     -2892.920          44.000
R08  19322671.953 8 103472032.125 8      -846.812          48.000    19322671.211 7  80478245.980 7      -658.632          46.000
R10  19333404.906 8 103057914.610 8     -1242.723          51.000
R11  20703527.961 8 110633437.916 8      2995.270          51.000    20703532.148 8  86048198.970 8      2329.654          48.000
C05  39787259.664 5 207182700.955 5         6.973          35.000    39787258.938 6 160206793.146 6         5.087          41.000
C20  22121449.156 8 115192179.352 8     -1116.820          51.000
C23  25504914.117 5 132810722.433 5     -2970.000          33.000
E01  24268943.148 8 127534165.279 8      1791.391          48.000    24268945.375 8  97721056.905 8      1372.669          51.000
E19  24647450.469 8 129523221.712 8     -1507.625          50.000    24647449.969 7  99245070.083 7     -1155.175          46.000
E21  24258765.195 7 127480698.524 7     -1059.562          47.000    24258766.773 6  97680046.693 6      -811.905          41.000
> 2020 05 07 04 10 30.0000000  0 14        .000000000000
G05  21186655.469 8 111336616.906 8     -1994.984          51.000    21186654.289 8  86755788.956 8     -1554.533          51.000
G28  21133917.750 8 111059527.130 8      1291.246          51.000    21133917.250 8  86539890.051 8      1006.166          48.000
G30  21060289.672 8 110672588.600 8     -1713.637          50.000    21060291.234 8  86238401.273 8     -1335.301          50.000
R07  22251741.219 7 119115320.125 7     -3716.453          44.000    22251748.617 7  92645271.287 7     -2890.575          44.000
R08  19327417.438 8 103497442.993 8      -854.977          48.000    19327417.016 7  80498009.994 7      -664.982          47.000
R09  21595324.258 5 115317779.031 5     -3534.027          33.000    21595326.906 4  89691648.091 4     -2748.688          25.000
R10  19340398.734 8 103095195.512 8     -1250.305          50.000
R11  20686699.102 8 110543504.162 8      2992.699          51.000    20686702.195 8  85978250.509 8      2327.655          48.000
C05  39787161.789 5 207182191.244 5        19.738          35.000    39787161.008 6 160206398.952 6        15.514          41.000
C20  22127866.109 8 115225593.745 8     -1118.297          51.000
C23  25521971.836 5 132899542.286 5     -2959.594          30.000
E01  24258689.094 8 127480280.749 8      1793.441          49.000    24258692.508 8  97679768.744 8      1374.130          51.000
E19  24656021.680 8 129568262.952 8     -1502.625          50.000    24656020.914 7  99279582.170 7     -1151.422          46.000
E21  24264789.422 7 127512357.218 7     -1058.410          46.000    24264790.742 6  97704304.641 6      -810.951          41.000
> 2020 05 07 04 11  0.0000000  0 13        .000000000000
G05  21198200.391 8 111397287.538 8     -2029.723          51.000    21198199.898 8  86803064.769 8     -1581.602          51.000
G28  21126706.055 8 111021627.499 8      1255.359          51.000    21126705.312 8  86510357.874 8       978.202          48.000
G30  21070210.602 8 110724723.081 8     -1741.648          48.000    21070211.898 8  86279025.542 8     -1357.129          49.000
R07  22272707.688 7 119227552.976 7     -3745.285          45.000    22272714.633 7  92732563.483 7     -2913.000          43.000
R08  19332377.617 8 103524004.527 8      -895.336          48.000    19332377.734 8  80518668.976 8      -696.372          48.000
R09  21615315.977 5 115424515.311 5     -3561.230          35.000    21615315.227 5  89774665.250 5     -2769.846          30.000
R10  19347603.641 8 103133601.032 8     -1289.691          51.000
R11  20670052.617 8 110454551.495 8      2957.898          49.000    20670055.227 7  85909065.101 7      2300.588          46.000
C05  39787155.766 5 207182160.028 5         2.242          35.000    39787154.984 6 160206375.209 6         1.510          41.000
C20  22134460.391 8 115259931.122 8     -1151.008          51.000
E01  24248593.680 8 127427225.510 8      1763.715          51.000    24248597.352 8  97639116.015 8      1351.400          51.000
E19  24664733.555 8 129614043.797 8     -1529.344          51.000    24664733.359 8  99314660.958 8     -1171.799          48.000
E21  24270975.688 7 127544865.448 7     -1088.762          47.000    24270976.758 6  97729213.542 6      -834.135          41.000
> 2020 05 07 04 11 30.0000000  0 15        .000000000000
G05  21209790.523 8 111458196.565 8     -2042.043          50.000    21209790.641 8  86850526.337 8     -1591.205          50.000
G07  23423907.555 6 123093448.883 6     -2740.398          37.000    23423908.406 5  95916985.572 5     -2135.375          31.000
G15  22461586.633 5 118036432.737 5      2900.105          34.000
G28  21119546.117 8 110984001.070 8      1241.824          51.000    21119545.344 8  86481038.601 8       967.655          48.000
G30  21080138.609 7 110776894.939 7     -1747.512          47.000    21080139.523 7  86319678.952 7     -1361.697          47.000
R07  22293684.227 7 119339835.759 7     -3751.590          47.000    22293689.211 7  92819894.568 7     -2917.903          42.000
R08  19337412.336 8 103550961.564 8      -913.098          50.000    19337412.359 8  80539638.131 8      -710.187          48.000
R09  21635251.883 5 115531037.434 5     -3565.047          34.000
R10  19354877.250 8 103172373.668 8     -1306.336          50.000
R11  20653447.500 8 110365825.213 8      2945.773          49.000    20653450.039 7  85840055.760 7      2291.157          44.000
C05  39787100.297 5 207181870.684 5         6.730          35.000    39787099.531 6 160206151.840 6         4.854          40.000
C20  22141090.266 8 115294454.011 8     -1161.648          51.000
E01  24238515.008 8 127374256.372 8      1756.305          51.000    24238518.391 8  97598529.271 8      1345.758          51.000
E19  24673444.734 8 129659820.355 8     -1533.641          51.000    24673445.328 8  99349736.485 8     -1175.196          48.000
E21  24277181.523 7 127577478.082 7     -1096.512          45.000    24277183.586 6  97754202.444 6      -840.238          41.000
> 2020 05 07 04 12  0.0000000  0 14        .000000000000
G05  21221484.344 8 111519648.847 8     -2055.590          50.000    21221484.312 8  86898411.232 8     -1601.758          50.000
G07  23439550.891 6 123175654.850 6     -2740.625          37.000    23439544.180 5  95981042.194 5     -2135.558          31.000
G15  22445041.328 5 117949477.404 5      2894.578          31.000
G28  21112496.789 8 110946956.293 8      1227.051          50.000    21112495.852 7  86452172.549 7       956.143          47.000
G30  21090131.852 7 110829409.923 7     -1754.289          47.000    21090132.727 7  86360599.721 7     -1366.978          47.000
R07  22314727.914 7 119452479.226 7     -3758.938          46.000    22314731.820 7  92907506.162 7     -2923.618          43.000
R08  19342577.742 8 103578624.274 8      -931.961          50.000    19342577.820 7  80561152.404 7      -724.859          47.000
R10  19362277.602 8 103211822.240 8     -1324.254          49.000
R11  20636944.898 8 110277639.510 8      2932.422          51.000    20636947.164 7  85771466.903 7      2280.773          46.000
C05  39787053.789 5 207181629.579 5         9.238          35.000    39787052.945 6 160205964.216 6         7.147          40.000
C20  22147813.773 8 115329466.420 8     -1173.359          51.000
E01  24228511.258 8 127321681.228 8      1747.895          51.000    24228514.125 8  97558244.428 8      1339.242          51.000
E19  24682213.625 8 129705899.575 8     -1539.062          51.000    24682214.398 8  99385043.923 8     -1179.300          49.000
E21  24283465.508 7 127610501.023 7     -1105.652          45.000    24283467.555 6  97779505.756 6      -847.131          41.000
> 2020 05 07 04 12 30.0000000  0 13        .000000000000
G05  21233265.406 8 111581557.422 8     -2071.797          51.000    21233264.766 8  86946651.684 8     -1614.384          51.000
G07  23455207.023 6 123257922.302 6     -2743.285          37.000    23455198.156 5  96045146.794 5     -2137.616          33.000
G28  21105541.680 8 110910408.517 8      1209.344          49.000    21105540.781 7  86423693.725 7       942.346          45.000
G30  21100173.891 7 110882180.943 7     -1763.875          47.000    21100174.703 8  86401719.994 8     -1374.448          48.000
R07  22335821.867 7 119565393.863 7     -3768.953          47.000    22335825.281 7  92995328.615 7     -2931.408          43.000
R08  19347858.883 8 103606906.111 8      -953.578          51.000    19347858.055 7  80583145.708 7      -741.672          47.000
R10  19369788.039 8 103251857.554 8     -1344.910          49.000
R11  20620528.086 8 110189909.200 8      2916.156          51.000    20620530.641 8  85703232.238 8      2268.122          48.000
C05  39786999.906 5 207181348.796 5         9.672          35.000    39786999.016 6 160205746.702 6         7.274          41.000
C20  22154614.969 8 115364883.102 8     -1187.902          51.000
E01  24218566.211 8 127269415.189 8      1736.383          51.000    24218568.195 8  97518196.424 8      1330.436          51.000
E19  24691023.648 8 129752195.855 8     -1547.465          51.000    24691024.781 8  99420517.667 8     -1185.747          50.000
E21  24289811.414 7 127643847.479 7     -1117.688          45.000    24289812.367 6  97805056.925 6      -856.326          41.000
> 2020 05 07 04 13  0.0000000  0 14        .000000000000
G05  21245139.070 8 111643952.129 8     -2087.559          51.000    21245137.633 8  86995270.934 8     -1626.672          51.000
G07  23470879.695 5 123340282.443 5     -2746.926          34.000    23470872.547 5  96109323.499 5     -2140.465          32.000
G15  22412040.586 6 117776065.705 6      2884.383          36.000
G28  21098687.039 8 110874390.804 8      1192.082          48.000    21098686.664 7  86395627.962 7       928.898          45.000
G30  21110270.438 7 110935238.377 7     -1772.902          45.000    21110271.094 7  86443063.462 7     -1381.482          45.000
R07  22356972.477 8 119678610.219 8     -3778.555          49.000    22356974.781 7  93083385.706 7     -2938.879          42.000
R08  19353261.016 8 103635831.131 8      -974.961          51.000    19353260.352 7  80605645.736 7      -758.303          46.000
R10  19377414.172 8 103292509.107 8     -1364.941          49.000
R11  20604202.977 8 110102668.627 8      2900.074          51.000    20604205.914 8  85635378.465 8      2255.613          49.000
C05  39786944.398 5 207181059.458 5         9.629          35.000    39786943.688 6 160205523.693 6         7.950          40.000
C20  22161499.711 8 115400735.251 8     -1202.027          51.000
E01  24208685.891 8 127217490.830 8      1725.434          51.000    24208687.000 8  97478410.227 8      1322.050          51.000
E19  24699881.016 8 129798741.179 8     -1555.336          51.000    24699882.492 8  99456182.236 8     -1191.727          50.000
E21  24296224.516 7 127677548.034 7     -1129.047          44.000    24296225.586 7  97830879.432 7      -864.991          42.000
> 2020 05 07 04 13 30.0000000  0 14        .000000000000
G05  21257107.469 8 111706844.909 8     -2104.449          51.000    21257105.148 8  87044278.287 8     -1639.831          51.000
G07  23486578.359 5 123422786.585 5     -2750.816          31.000    23486568.391 5  96173571.008 5     -2143.493          31.000
G15  22395599.266 5 117689666.662 5      2876.605          32.000
G28  21091936.828 8 110838917.975 8      1173.590          50.000    21091936.047 7  86367986.805 7       914.486          43.000
G30  21120423.875 7 110988594.523 7     -1783.039          44.000    21120424.492 7  86484639.701 7     -1389.381          45.000
R07  22378181.602 8 119792139.985 8     -3789.297          48.000    22378182.188 6  93171686.573 6     -2947.234          41.000
R08  19358787.977 8 103665427.853 8      -997.430          50.000    19358787.352 7  80628664.912 7      -775.779          45.000
R10  19385158.086 8 103333787.741 8     -1386.074          50.000
R11  20587972.359 8 110015933.516 8      2883.082          51.000    20587974.977 8  85567917.825 8      2242.397          48.000
C05  39786890.312 5 207180777.673 5         9.422          35.000    39786889.578 6 160205305.803 6         7.355          41.000
C20  22168470.664 8 115437036.046 8     -1217.215          51.000
E01  24198872.977 8 127165922.595 8      1713.297          51.000    24198873.438 8  97438896.916 8      1312.816          51.000
E19  24708788.188 8 129845549.019 8     -1564.422          50.000    24708789.844 8  99492047.959 8     -1198.686          50.000
E21  24302707.352 7 127711615.197 7     -1141.383          45.000    24302709.203 7  97856982.863 7      -874.608          42.000
> 2020 05 07 04 14  0.0000000  0 15        .000000000000
G05  21269122.898 8 111769985.263 8     -2116.273          51.000    21269120.086 8  87093478.559 8     -1649.047          51.000
G07  23502240.445 5 123505107.093 5     -2749.031          33.000    23502237.750 5  96237729.597 5     -2142.108          35.000
G15  22379149.281 5 117603227.130 5      2874.531          35.000
G28  21085243.828 8 110803742.985 8      1160.043          51.000    21085241.805 7  86340577.744 7       903.930          42.000
G30  21130586.656 7 111042000.032 7     -1788.402          45.000    21130587.203 7  86526254.401 7     -1393.560          45.000
R07  22399401.078 8 119905741.859 8     -3794.816          48.000    22399402.430 7  93260028.629 7     -2951.527          44.000
R08  19364392.289 8 103695440.127 8     -1014.953          48.000    19364391.180 7  80652007.792 7      -789.408          46.000
R09  21735920.438 5 116068515.853 5     -3599.105          34.000
R10  19392971.859 8 103375439.498 8     -1402.246          49.000
R11  20571788.508 8 109929453.536 8      2870.730          50.000    20571790.617 7  85500655.616 7      2232.790          47.000
C05  39786790.359 5 207180257.745 5        13.887          35.000    39786789.570 6 160204902.961 6        10.805          41.000
C20  22175480.547 8 115473539.429 8     -1227.574          51.000
E01  24189080.195 8 127114463.229 8      1705.934          51.000    24189080.586 8  97399467.030 8      1307.135          51.000
E19  24717697.891 8 129892371.249 8     -1568.500          48.000    24717699.719 8  99527924.742 8     -1201.898          51.000
E21  24309212.555 7 127745799.832 7     -1149.098          44.000    24309214.891 7  97883176.290 7      -880.468          43.000
> 2020 05 07 04 14 30.0000000  0 15        .000000000000
G05  21281292.633 8 111833937.557 8     -2135.676          51.000    21281289.914 8  87143311.517 8     -1664.163          51.000
G15  22362800.945 6 117517315.939 6      2864.223          36.000
G28  21078715.391 8 110769432.902 8      1138.832          51.000    21078712.414 7  86313842.668 7       887.405          43.000
G30  21140866.289 7 111096019.706 7     -1801.133          46.000    21140866.773 7  86568347.637 7     -1403.480          47.000
R07  22420740.000 8 120019966.942 8     -3808.098          49.000    22420741.219 7  93348866.218 7     -2961.854          45.000
R08  19370180.758 7 103726443.270 7     -1040.184          46.000    19370181.828 7  80676121.347 7      -809.032          47.000
R09  21756208.742 5 116176934.745 5     -3610.910          32.000
R10  19400963.016 8 103418036.123 8     -1425.898          49.000
R11  20555759.172 8 109843806.329 8      2850.727          49.000    20555761.719 7  85434041.083 7      2217.232          46.000
C05  39786752.266 5 207180058.771 5        10.598          35.000    39786751.438 6 160204749.074 6         8.418          41.000
C20  22182637.273 8 115510805.960 8     -1245.453          51.000
C23  25659311.086 5 133614752.129 5     -2987.801          32.000
E01  24179415.711 8 127063679.639 8      1691.160          51.000    24179416.656 8  97360554.949 8      1295.842          51.000
E19  24726717.367 7 129939774.179 7     -1580.094          47.000    24726719.836 8  99564246.467 8     -1210.766          50.000
E21  24315847.578 7 127780666.820 7     -1163.969          44.000    24315849.703 7  97909892.571 7      -891.884          43.000
> 2020 05 07 04 15  0.0000000  0 15        .000000000000
G05  21293546.664 8 111898334.301 8     -2154.086          51.000    21293544.828 8  87193490.770 8     -1678.509          51.000
G15  22346484.008 5 117431569.030 5      2856.039          33.000
G28  21072282.188 8 110735623.577 8      1118.531          51.000    21072278.648 7  86287497.795 7       871.583          44.000
G30  21151192.992 7 111150286.535 7     -1813.020          45.000    21151193.539 7  86610633.459 7     -1412.742          45.000
R07  22442125.047 7 120134446.536 7     -3820.305          47.000    22442127.141 7  93437905.893 7     -2971.348          46.000
R08  19376085.156 7 103758065.001 7     -1064.574          46.000    19376087.711 8  80700716.045 8      -828.002          48.000
R10  19409061.117 8 103461204.153 8     -1448.559          48.000
R11  20539818.117 8 109758622.048 8      2831.527          51.000    20539820.297 7  85367786.659 7      2202.302          47.000
C05  39786706.172 5 207179818.492 5         8.559          35.000    39786705.461 6 160204564.046 6         6.591          40.000
C19  22757421.203 6 118503875.191 6      1823.039          37.000
C20  22189871.250 8 115548473.054 8     -1262.344          51.000
C23  25676542.609 5 133704488.211 5     -2992.152          33.000
E01  24169810.609 8 127013206.971 8      1677.121          51.000    24169812.094 8  97321881.102 8      1285.094          51.000
E19  24735777.906 7 129987392.036 7     -1590.906          47.000    24735780.805 8  99600732.885 8     -1218.982          50.000
E21  24322542.680 7 127815849.465 7     -1178.094          44.000    24322544.000 7  97936850.688 7      -902.626          43.000
> 2020 05 07 04 15 30.0000000  0 16        .000000000000
G05  21305883.555 8 111963166.243 8     -2171.648          51.000    21305882.383 8  87244009.131 8     -1692.194          51.000
G07  23549500.508 5 123753460.397 5     -2765.039          34.000
G15  22330197.188 5 117345977.833 5      2846.566          33.000
G28  21065942.781 8 110702308.766 8      1098.914          51.000    21065939.195 7  86261538.243 7       856.297          45.000
G30  21161565.008 7 111204791.712 7     -1824.180          44.000    21161565.500 7  86653105.007 7     -1421.439          44.000
R07  22463556.047 7 120249174.575 7     -3831.801          46.000    22463559.656 7  93527138.810 7     -2980.289          47.000
R08  19382104.414 7 103790297.832 7     -1088.125          47.000    19382107.516 8  80725786.060 8      -846.319          50.000
R10  19417264.641 8 103504933.315 8     -1470.398          48.000
R11  20523963.172 8 109673894.623 8      2813.156          51.000    20523964.672 8  85301887.585 8      2188.013          48.000
C05  39786651.109 5 207179531.746 5         6.785          35.000    39786650.484 6 160204342.295 6         5.431          40.000
C19  22746950.641 6 118449342.979 6      1808.820          37.000
C20  22197180.539 8 115586532.983 8     -1278.547          51.000
C23  25693778.289 5 133794241.257 5     -2995.734          35.000
E01  24160263.914 8 126963038.595 8      1663.824          51.000    24160265.328 8  97283440.415 8      1274.908          51.000
E19  24744878.578 7 130035217.680 7     -1600.902          47.000    24744881.461 8  99637378.518 8     -1226.713          50.000
E21  24329296.273 7 127851339.119 7     -1191.426          44.000    24329297.641 7  97964044.077 7      -912.917          44.000
> 2020 05 07 04 16  0.0000000  0 16        .000000000000
G05  21318308.406 8 112028459.202 8     -2180.453          51.000    21318307.273 8  87294886.761 8     -1699.054          51.000
G15  22313945.422 5 117260572.211 5      2846.918          34.000
G28  21059702.641 8 110669516.957 8      1088.070          51.000    21059699.352 7  86235986.194 7       847.847          47.000
G30  21171987.344 7 111259561.711 7     -1826.520          44.000    21171987.797 7  86695782.930 7     -1423.262          45.000
R07  22485038.469 7 120364177.600 7     -3834.281          46.000    22485043.766 7  93616585.615 7     -2982.219          46.000
R08  19388243.266 8 103823170.131 8     -1102.738          48.000    19388246.742 8  80751353.405 8      -857.685          49.000
R09  21817280.289 5 116503060.245 5     -3630.617          30.000    21817287.398 4  90613501.878 4     -2823.816          28.000
R10  19425578.016 8 103549248.711 8     -1483.211          48.000
R11  20508199.406 8 109589654.522 8      2803.590          51.000    20508200.531 8  85236367.519 8      2180.570          48.000
C05  39786592.172 5 207179225.105 5        14.082          35.000    39786591.555 6 160204105.157 6        10.922          41.000
C19  22736542.562 5 118395151.205 5      1804.098          33.000
C20  22204570.430 8 115625012.911 8     -1286.117          51.000
C23  25711022.594 5 133884037.528 5     -2990.383          35.000
E01  24150780.773 8 126913203.023 8      1659.305          51.000    24150781.898 8  97245254.737 8      1271.400          51.000
E19  24754024.516 7 130083278.703 7     -1602.344          47.000    24754027.164 8  99674204.473 8     -1227.788          49.000
E21  24336113.188 7 127887162.446 7     -1196.074          45.000    24336115.469 7  97991493.114 7      -916.472          45.000
> 2020 05 07 04 16 30.0000000  0 15        .000000000000
G05  21330831.672 8 112094269.551 8     -2200.039          51.000    21330830.391 8  87346167.546 8     -1714.316          51.000
G15  22297741.758 6 117175422.167 6      2836.512          39.000
G28  21053573.258 8 110637308.055 8      1066.113          51.000    21053570.711 8  86210888.344 8       830.738          48.000
G30  21182471.016 7 111314653.811 7     -1839.570          44.000    21182471.641 7  86738711.814 7     -1433.431          43.000
R07  22506582.898 7 120479512.594 7     -3847.730          45.000    22506589.422 7  93706290.604 7     -2992.679          44.000
R08  19394513.172 8 103856741.920 8     -1128.492          49.000    19394516.398 8  80777464.789 8      -877.716          49.000
R10  19434012.398 8 103594207.778 8     -1507.016          49.000
R11  20492537.992 8 109505963.075 8      2782.824          51.000    20492538.992 8  85171274.160 8      2164.419          49.000
C05  39786540.602 5 207178957.203 5        10.602          35.000    39786540.008 6 160203897.609 6         8.068          40.000
C19  22726209.352 5 118341359.724 5      1789.094          31.000
C20  22212051.719 8 115663970.493 8     -1304.285          51.000
C23  25728286.172 6 133973933.736 6     -2996.219          36.000
E01  24141372.094 8 126863759.605 8      1643.734          51.000    24141373.273 8  97207369.542 8      1259.488          51.000
E19  24763226.594 8 130131633.889 8     -1614.633          48.000    24763228.453 8  99711255.830 8     -1237.081          48.000
E21  24343004.703 7 127923376.823 7     -1211.449          44.000    24343006.961 7  98019241.779 7      -928.146          45.000
> 2020 05 07 04 17  0.0000000  0 15        .000000000000
G05  21343450.242 8 112160581.075 8     -2216.957          50.000    21343449.148 8  87397838.848 8     -1727.502          50.000
G15  22281584.109 6 117090508.530 6      2828.105          39.000
G28  21047552.281 8 110605668.584 8      1046.785          51.000    21047550.484 8  86186234.203 8       815.677          49.000
G30  21193012.547 7 111370052.090 7     -1850.105          42.000    21193013.977 7  86781879.318 7     -1441.641          42.000
R07  22528186.844 7 120595163.143 7     -3858.613          46.000    22528193.094 7  93796240.966 7     -3001.144          42.000
R08  19400910.922 8 103890998.284 8     -1151.559          49.000    19400913.609 8  80804108.631 8      -895.657          48.000
R10  19442563.961 7 103639792.866 7     -1528.188          47.000
