     3.02           OBSERVATION DATA    M (MIXED)           RINEX VERSION / TYPE
SAVERINEX           SC600               20200501 175931 LCL PGM / RUN BY / DATE
       G = GPS       R = GLONASS       C = COMPASS          COMMENT
       S = SBAS      J = QZSS          E = GALILEO          COMMENT
BEAN                                                        MARKER NAME
1                                                           MARKER NUMBER
GEODETIC                                                    MARKER TYPE
Unige DICCA         GTER                                    OBSERVER / AGENCY
SC60291900056       SC600               2.12(191226)        REC # / TYPE / VERS
                    HEMA45          NONE                    ANT # / TYPE
  4509407.8091   693652.4678  4442337.6214                  APPROX POSITION XYZ
        0.0000        0.0000        0.0000                  ANTENNA: DELTA H/E/N
G    8 C1C L1C D1C S1C C2Y L2Y D2Y S2Y                      SYS / # / OBS TYPES
R    8 C1C L1C D1C S1C C2P L2P D2P S2P                      SYS / # / OBS TYPES
C    8 C1I L1I D1I S1I C7I L7I D7I S7I                      SYS / # / OBS TYPES
E    8 C1C L1C D1C S1C C7Q L7Q D7Q S7Q                      SYS / # / OBS TYPES
DBHZ                                                        COMMENT
     30.000                                                 INTERVAL
  2020    05    01    15    00    0.0000000     GPS         TIME OF FIRST OBS
  2020    05    01    15    59   30.0000000     GPS         TIME OF LAST OBS
     0                                                      RCV CLOCK OFFS APPL
G L1C  0.00000                                              SYS / PHASE SHIFT
G L2Y  0.00000                                              SYS / PHASE SHIFT
R L1C  0.00000                                              SYS / PHASE SHIFT
R L2P  0.25000                                              SYS / PHASE SHIFT
C L1I  0.00000                                              SYS / PHASE SHIFT
C L7I  0.00000                                              SYS / PHASE SHIFT
E L1C  0.50000                                              SYS / PHASE SHIFT
E L7Q -0.25000                                              SYS / PHASE SHIFT
 14 R02 -4 R03  5 R04  6 R05  1 R09 -2 R10 -7 R14 -7 R15  0 GLONASS SLOT / FRQ #
    R16 -1 R17  4 R18 -3 R19  3 R20  2 R21  4               GLONASS SLOT / FRQ #
 C1C   71.950 C2C   71.950 C2P   71.950                     GLONASS COD/PHS/BIS
    18                                                      LEAP SECONDS
*** Above antenna height is from mark to ANTENNA BOTTOM.    COMMENT
    17     4        0.0000        ANT MEASURE TYPE/HEIGT    COMMENT
    0.0000    0.0000    0.0458    0.0405    0.0000          COMMENT
                    BASE STATION                            COMMENT
                                                            END OF HEADER
> 2020 05 01 15 00  0.0000000  0 13        .000000000000
G18  20997260.289 7 110341401.056 7     -1867.211          45.000    20997259.781 7  85980345.248 7     -1454.970          42.000
G20  21934083.492 8 115264426.520 8      2384.781          48.000    21934085.117 7  89816490.574 7      1858.271          47.000
G21  21291041.859 8 111885203.935 8     -1634.660          49.000    21291040.375 8  87183232.324 8     -1273.761          49.000
G26  20356024.609 8 106971638.111 8      -694.305          51.000    20356026.789 8  83354505.750 8      -541.017          51.000
R09  20149423.375 8 107596797.075 8     -2693.688          48.000    20149425.742 7  83686373.096 7     -2095.090          46.000
C05  39609868.438 5 206258978.959 5        18.762          35.000    39609871.328 5 159492536.246 5        14.459          35.000
C26  23075209.180 5 120158639.901 5        89.832          30.000
C29  22033308.422 8 114733244.693 8     -1183.777          51.000
E11  25737017.477 7 135248947.859 7      2404.484          45.000    25737019.977 7 103632317.591 7      1842.628          47.000
E12  21612388.320 8 113573901.911 8       454.707          49.000    21612387.266 8  87024111.763 8       348.355          51.000
E24  22046417.820 8 115854713.831 8       129.742          48.000    22046431.789 8  88771833.664 8        99.509          49.000
E31  25029529.562 8 131531059.855 8     -2482.457          49.000    25029532.922 8 100783542.165 8     -1902.220          49.000
E33  24837492.672 7 130521963.770 7     -1892.395          47.000    24837492.867 7 100010337.315 7     -1450.038          44.000
> 2020 05 01 15 00 30.0000000  0 14        .000000000000
G18  21007986.633 7 110397768.119 7     -1898.219          45.000    21007986.281 7  86024267.629 7     -1479.131          43.000
G20  21920536.383 7 115193239.551 7      2353.445          46.000    21920537.984 7  89761020.227 7      1833.853          45.000
G21  21300430.852 8 111934544.072 8     -1662.312          50.000    21300429.352 8  87221679.182 8     -1295.308          49.000
G26  20360068.016 8 106992887.329 8      -729.875          51.000    20360070.656 8  83371063.565 8      -568.734          51.000
R03  22922943.352 6 122708295.264 6      -151.254          38.000    22922942.633 4  95439792.555 4      -117.648          29.000
R09  20164645.969 8 107678089.367 8     -2733.395          48.000    20164649.109 8  83749600.415 8     -2125.974          48.000
C05  39609787.828 5 206258559.152 5         1.594          34.000    39609790.609 5 159492212.654 5         1.260          35.000
C26  23074761.211 5 120156352.161 5        54.516          30.000
C29  22040176.961 8 114769009.956 8     -1208.145          51.000
E11  25723332.977 7 135177033.733 7      2382.086          47.000    25723335.344 7 103577214.610 7      1825.265          47.000
E12  21609845.586 8 113560540.337 8       428.156          49.000    21609844.695 8  87013873.681 8       328.086          51.000
E24  22045744.773 8 115851177.892 8        98.184          48.000    22045758.602 8  88769124.306 8        75.250          48.000
E31  25043755.008 8 131605813.861 8     -2508.906          51.000    25043758.430 8 100840821.191 8     -1922.406          50.000
E33  24848336.164 8 130578946.247 8     -1914.289          48.000    24848336.125 7 100053999.205 7     -1466.841          44.000
> 2020 05 01 15 01  0.0000000  0 14        .000000000000
G18  21018881.164 7 110455019.206 7     -1909.016          45.000    21018880.734 7  86068878.853 7     -1487.548          43.000
G20  21907158.906 7 115122945.680 7      2342.207          47.000    21907160.586 7  89706245.775 7      1825.096          45.000
G21  21309969.805 8 111984671.480 8     -1669.898          50.000    21309968.219 8  87260739.482 8     -1301.220          49.000
G26  20364305.766 8 107015157.785 8      -745.180          51.000    20364308.672 8  83388417.166 8      -580.659          51.000
R03  22923879.180 5 122713336.766 5      -175.027          31.000    22923879.352 4  95443696.886 4      -136.138          26.000
R09  20180083.453 8 107760524.643 8     -2752.480          50.000    20180086.773 8  83813716.709 8     -2140.818          49.000
C05                                                                  39609803.523 5 159492264.560 5         2.628          35.000
C26  23074494.352 5 120154974.279 5        40.129          31.000
C29  22047177.906 8 114805464.945 8     -1212.637          51.000
E11  25709769.945 7 135105757.593 7      2379.418          47.000    25709771.797 7 103522600.488 7      1823.193          46.000
E12  21607446.898 8 113547935.962 8       421.715          49.000    21607446.203 8  87004215.798 8       323.099          51.000
E24  22045244.133 8 115848546.906 8        86.801          49.000    22045257.547 8  88767108.365 8        66.423          49.000
E31  25058123.703 8 131681320.353 8     -2515.211          50.000    25058127.820 8 100898676.783 8     -1927.255          51.000
E33  24859297.969 7 130636550.735 7     -1916.328          47.000    24859297.836 7 100098137.707 7     -1468.430          43.000
> 2020 05 01 15 01 30.0000000  0 12        .000000000000
G18  21029818.242 7 110512493.290 7     -1921.613          46.000    21029817.961 7  86113663.830 7     -1497.361          44.000
G20  21893827.328 8 115052889.106 8      2329.078          49.000    21893829.016 7  89651656.241 7      1814.869          44.000
G21  21319532.789 8 112034925.528 8     -1679.320          50.000    21319531.406 8  87299898.488 8     -1308.561          49.000
G26  20368612.547 8 107037790.514 8      -762.496          51.000    20368615.766 8  83406053.043 8      -594.153          51.000
R09  20195609.633 8 107843429.989 8     -2773.410          51.000    20195612.422 8  83878198.598 8     -2157.100          49.000
C05  39609781.750 5 206258527.313 5         4.145          34.000    39609784.648 5 159492189.093 5         2.921          35.000
C29  22054185.773 8 114841956.118 8     -1219.055          51.000
E11  25696202.805 7 135034460.864 7      2374.656          45.000    25696203.922 7 103467970.564 7      1819.605          46.000
E12  21605066.758 8 113535429.388 8       413.156          48.000    21605066.305 8  86994632.838 8       316.604          51.000
E24  22044790.695 8 115846162.484 8        73.305          50.000    22044803.859 8  88765281.334 8        56.210          50.000
E31  25072509.773 8 131756919.144 8     -2523.496          50.000    25072514.672 8 100956603.100 8     -1933.570          51.000
E33  24870252.477 7 130694117.236 7     -1920.316          45.000    24870252.453 7 100142247.096 7     -1471.354          43.000
> 2020 05 01 15 02  0.0000000  0 15        .000000000000
G10  24029373.055 6 126275207.213 6      3470.820          37.000
G18  21040805.625 7 110570231.679 7     -1922.324          47.000    21040805.445 7  86158654.758 7     -1497.915          44.000
G20  21880550.398 8 114983115.744 8      2327.602          51.000    21880551.086 7  89597287.406 7      1813.716          43.000
G21  21329127.875 8 112085348.076 8     -1676.902          50.000    21329126.555 8  87339188.775 8     -1306.677          48.000
G26  20372996.461 8 107060828.762 8      -768.133          51.000    20372999.852 8  83424004.893 8      -598.545          51.000
R03  22926101.328 6 122725111.701 6      -212.105          37.000    22926103.836 5  95452949.305 5      -164.971          30.000
R09  20211232.148 8 107926846.149 8     -2782.309          51.000    20211233.867 8  83943077.793 8     -2164.018          49.000
C05                                                                  39609742.062 5 159492017.404 5        12.635          35.000
C26  23074220.578 5 120153521.679 5        17.617          32.000
C29  22061208.719 8 114878525.837 8     -1213.766          51.000
E11  25682639.781 7 134963187.224 7      2381.910          45.000    25682640.062 7 103413358.357 7      1825.040          45.000
E12  21602713.289 8 113523063.430 8       416.449          48.000    21602713.211 8  86985157.626 8       319.085          51.000
E24  22044392.602 8 115844068.512 8        71.516          50.000    22044405.656 8  88763676.865 8        54.756          50.000
E31  25086921.273 8 131832652.368 8     -2520.039          49.000    25086926.969 8 101014632.424 8     -1930.999          51.000
E33  24881207.820 7 130751688.072 7     -1912.512          45.000    24881207.930 7 100186359.794 7     -1465.425          43.000
> 2020 05 01 15 02 30.0000000  0 15        .000000000000
G10  24009606.719 6 126171362.765 6      3457.547          36.000    24009619.531 6  98315348.954 6      2694.198          36.000
G18  21051863.391 7 110628340.339 7     -1946.023          46.000    21051862.953 7  86203934.220 7     -1516.382          46.000
G20  21867348.867 8 114913736.280 8      2303.109          51.000    21867347.703 7  89543225.528 7      1794.634          43.000
G21  21338775.195 8 112136044.922 8     -1697.277          50.000    21338773.711 8  87378692.801 8     -1322.554          49.000
G26  20377478.055 8 107084380.422 8      -796.445          51.000    20377481.281 8  83442356.822 8      -620.607          51.000
R03  22927406.625 6 122732099.930 6      -247.969          37.000    22927409.156 4  95458384.586 4      -192.865          24.000
R09  20226970.461 8 108010879.712 8     -2814.285          51.000    20226971.438 8  84008437.210 8     -2188.891          50.000
C05                                                                  39609696.312 5 159491833.357 5         4.452          35.000
C26  23074208.023 5 120153461.833 5        -8.855          30.000
C29  22068267.008 8 114915280.559 8     -1231.004          51.000
E11  25669101.727 7 134892045.041 7      2366.441          45.000    25669101.078 7 103358846.855 7      1813.283          45.000
E12  21600407.211 8 113510945.621 8       397.055          48.000    21600407.336 8  86975872.546 8       304.252          51.000
E24  22044069.930 8 115842373.576 8        47.082          49.000    22044083.117 8  88762378.130 8        36.073          50.000
E31  25101378.469 8 131908626.789 8     -2539.328          48.000    25101385.062 8 101072846.577 8     -1945.680          51.000
E33  24892184.359 7 130809370.223 7     -1927.422          46.000    24892184.836 7 100230557.788 7     -1476.775          43.000
> 2020 05 01 15 03  0.0000000  0 14        .000000000000
G10  23989887.242 6 126067738.967 6      3453.605          37.000    23989904.047 5  98234603.134 5      2691.115          35.000
G18  21063019.523 7 110686966.895 7     -1959.672          46.000    21063019.195 7  86249617.234 7     -1527.017          46.000
G20  21854251.367 8 114844903.218 8      2288.473          51.000    21854248.164 7  89489589.416 7      1783.228          43.000
G21  21348503.000 8 112187164.855 8     -1707.793          50.000    21348501.359 8  87418526.517 8     -1330.748          49.000
G26  20382085.828 8 107108595.045 8      -815.109          51.000    20382088.984 8  83461225.329 8      -635.150          51.000
R03  22928879.703 5 122739979.782 5      -274.355          30.000
R09  20242850.812 8 108095679.567 8     -2836.137          48.000    20242852.461 8  84074392.626 8     -2205.884          50.000
C05  39609672.977 5 206257960.721 5         4.406          34.000
C29  22075389.133 8 114952368.111 8     -1238.660          51.000
E11  25655617.359 7 134821184.372 7      2360.598          45.000    25655615.812 7 103304551.085 7      1808.865          45.000
E12  21598176.930 8 113499225.160 8       387.250          48.000    21598177.023 8  86966891.936 8       296.742          51.000
E24  22043851.617 8 115841227.880 8        32.184          49.000    22043864.867 8  88761500.242 8        24.690          50.000
E31  25115910.094 8 131984990.870 8     -2548.773          48.000    25115916.852 8 101131359.327 8     -1952.956          51.000
E33  24903210.516 7 130867312.410 7     -1932.492          45.000    24903211.266 7 100274955.030 7     -1480.843          42.000
> 2020 05 01 15 03 30.0000000  0 14        .000000000000
G10  23970174.086 5 125964157.335 5      3450.906          34.000    23970194.914 5  98153890.212 5      2689.018          33.000
G18  21074239.219 7 110745927.962 7     -1971.977          47.000    21074239.469 7  86295560.911 7     -1536.605          46.000
G20  21841223.273 8 114776437.024 8      2275.023          51.000    21841219.156 7  89436239.202 7      1772.749          43.000
G21  21358276.250 8 112238523.841 8     -1716.855          50.000    21358274.742 8  87458546.506 8     -1337.806          48.000
G26  20386785.320 8 107133291.082 8      -832.230          51.000    20386788.195 8  83480468.972 8      -648.491          51.000
G29  23989601.234 5 126066200.386 5     -2892.855          31.000
R03  22930480.930 5 122748566.650 5      -298.457          32.000    22930485.234 4  95471208.055 4      -232.136          28.000
R09  20258834.312 7 108181057.494 7     -2856.523          42.000    20258841.609 8  84140797.746 8     -2221.737          49.000
C29  22082540.609 8 114989608.191 8     -1244.828          51.000
E11  25642152.297 7 134750424.234 7      2356.195          45.000    25642150.102 7 103250332.349 7      1805.352          44.000
E12  21595987.562 8 113487720.163 8       378.926          48.000    21595987.711 8  86958076.433 8       290.388          51.000
E24  22043703.414 8 115840450.556 8        18.816          49.000    22043717.109 8  88760904.626 8        14.412          50.000
E31  25130481.641 8 132061562.087 8     -2556.773          50.000    25130487.930 8 101190030.751 8     -1959.101          51.000
E33  24914251.508 7 130925332.220 7     -1936.102          45.000    24914252.188 7 100319411.775 7     -1483.692          42.000
> 2020 05 01 15 04  0.0000000  0 14        .000000000000
G10  23950485.844 6 125860706.273 6      3447.738          36.000    23950505.930 6  98073279.035 6      2686.555          36.000
G18  21085538.492 7 110805306.961 7     -1984.480          47.000    21085539.047 7  86341830.257 7     -1546.348          46.000
G20  21828281.289 8 114708426.052 8      2261.086          50.000    21828277.148 7  89383243.702 7      1761.885          44.000
G21  21368110.930 8 112290205.298 8     -1726.348          50.000    21368109.633 8  87498817.778 8     -1345.206          48.000
G26  20391592.602 8 107158553.900 8      -849.723          51.000    20391594.891 8  83500154.265 8      -662.122          51.000
R03  22932231.344 4 122758047.955 4      -324.293          29.000    22932235.594 5  95478477.104 5      -252.228          31.000
R09  20274945.789 8 108267097.799 8     -2877.203          48.000    20274953.656 7  84207717.975 7     -2237.828          47.000
C05  39609621.312 5 206257691.553 5         4.602          34.000    39609624.469 5 159491543.386 5         4.042          35.000
C29  22089737.523 8 115027084.973 8     -1251.398          51.000
E11  25628722.555 7 134679850.494 7      2351.145          45.000    25628720.188 7 103196256.431 7      1801.469          45.000
E12  21593855.305 8 113476515.643 8       370.312          48.000    21593855.414 8  86949491.159 8       283.719          51.000
E24  22043641.852 8 115840127.605 8         4.977          50.000    22043655.844 8  88760657.158 8         3.834          51.000
E31  25145108.898 8 132138424.650 8     -2565.125          51.000    25145114.266 8 101248925.399 8     -1965.443          51.000
E33  24925323.297 7 130983514.156 7     -1940.273          45.000    24925323.633 7 100363992.719 7     -1486.706          42.000
> 2020 05 01 15 04 30.0000000  0 14        .000000000000
G10  23930815.367 5 125757346.381 5      3445.148          34.000    23930834.039 5  97992738.865 5      2684.528          33.000
G18  21096908.930 7 110865059.501 7     -1996.859          47.000    21096909.133 7  86388390.645 7     -1555.994          45.000
G20  21815417.852 8 114640830.436 8      2247.246          48.000    21815414.391 7  89330571.827 7      1751.101          44.000
G21  21377998.789 8 112342166.162 8     -1735.613          50.000    21377997.430 8  87539306.763 8     -1352.426          48.000
G26  20396499.469 8 107184340.952 8      -867.227          51.000    20396501.156 8  83520248.062 8      -675.761          51.000
R09  20291175.219 8 108353753.955 8     -2897.723          51.000    20291179.680 7  84275117.102 7     -2253.787          45.000
C05  39609598.477 5 206257572.787 5         4.703          35.000    39609601.367 5 159491450.802 5         3.851          35.000
C26  23075244.781 4 120158807.388 4       -77.617          29.000
C29  22096971.828 8 115064755.937 8     -1257.867          51.000
E11  25615320.086 7 134609421.102 7      2346.207          45.000    25615318.109 7 103142291.104 7      1797.614          45.000
E12  21591772.297 8 113465568.770 8       361.629          48.000    21591772.148 8  86941103.293 8       277.038          51.000
E24  22043658.859 8 115840217.223 8        -8.895          49.000    22043672.859 8  88760725.836 8        -6.782          51.000
E31  25159783.148 8 132215534.973 8     -2573.395          51.000    25159787.680 8 101308009.885 8     -1971.852          51.000
E33  24936417.461 7 131041814.829 7     -1944.293          45.000    24936417.438 7 100408664.673 7     -1489.903          42.000
> 2020 05 01 15 05  0.0000000  0 12        .000000000000
G18  21108344.086 8 110925151.365 8     -2007.801          48.000    21108344.180 7  86435215.469 7     -1564.520          44.000
G20  21802627.242 7 114573620.387 7      2234.781          47.000    21802625.219 7  89278200.369 7      1741.388          45.000
G21  21387933.156 8 112394371.450 8     -1743.328          50.000    21387931.648 8  87579986.214 8     -1358.438          48.000
G26  20401500.109 8 107210619.953 8      -883.172          51.000    20401501.711 8  83540725.181 8      -688.189          51.000
R09  20307513.320 8 108440989.911 8     -2916.520          51.000    20307514.508 7  84342967.163 7     -2268.407          46.000
R21  23621151.023 6 126401552.067 6      3192.441          38.000    23621178.664 4  98312325.722 4      2483.013          25.000
C29  22104237.336 8 115102588.738 8     -1262.836          51.000
E11  25601938.922 7 134539104.324 7      2342.812          45.000    25601937.805 7 103088412.062 7      1795.154          45.000
E12  21589732.086 8 113454846.914 8       354.512          48.000    21589731.906 8  86932887.840 8       271.687          51.000
E24  22043748.156 8 115840687.790 8       -21.066          49.000    22043762.586 8  88761086.380 8       -16.181          51.000
E31  25174497.852 8 132292859.728 8     -2580.133          51.000    25174501.945 8 101367258.656 8     -1977.003          51.000
E33  24947527.828 7 131100201.216 7     -1946.645          45.000    24947527.500 6 100453402.263 6     -1491.606          41.000
> 2020 05 01 15 05 30.0000000  0 13        .000000000000
G18  21119843.656 8 110985581.492 8     -2022.574          49.000    21119843.797 7  86482303.875 7     -1576.032          43.000
G20  21789911.328 8 114506799.311 8      2218.227          50.000    21789909.977 7  89226132.000 7      1728.491          45.000
G21  21397914.016 8 112446820.848 8     -1754.996          51.000    21397912.727 8  87620855.867 8     -1367.529          48.000
G26  20406594.664 8 107237391.585 8      -903.277          51.000    20406596.469 8  83561586.165 8      -703.852          51.000
R09  20323959.094 8 108528803.250 8     -2939.371          51.000    20323959.445 8  84411266.373 8     -2286.178          48.000
R21  23603270.617 6 126305866.030 6      3184.867          38.000
C05                                                                  39609534.438 5 159491181.479 5         3.395          35.000
C29  22111533.875 8 115140583.769 8     -1271.766          50.000
E11  25588579.531 7 134468901.469 7      2335.488          45.000    25588579.117 7 103034620.320 7      1789.518          46.000
E12  21587734.711 8 113444350.497 8       343.395          49.000    21587734.625 8  86924845.146 8       263.162          51.000
E24  22043910.328 8 115841540.696 8       -37.465          50.000    22043925.070 8  88761739.873 8       -28.692          51.000
E31  25189252.969 8 132370398.574 8     -2590.863          51.000    25189256.750 8 101426671.471 8     -1985.198          51.000
E33  24958654.539 7 131158673.236 7     -1953.223          45.000    24958654.148 6 100498205.454 6     -1496.422          41.000
> 2020 05 01 15 06  0.0000000  0 14        .000000000000
G18  21131420.727 8 111046418.935 8     -2034.453          49.000    21131420.633 7  86529709.643 7     -1585.288          43.000
G20  21777283.898 8 114440441.102 8      2204.527          51.000    21777283.000 7  89174424.358 7      1717.814          46.000
G21  21407954.641 8 112499584.422 8     -1763.660          51.000    21407953.539 8  87661970.336 8     -1374.281          48.000
G26  20411796.578 8 107264726.719 8      -920.285          51.000    20411798.195 8  83582886.270 8      -717.102          51.000
R03  22940626.180 5 122802910.364 5      -425.137          35.000    22940630.492 4  95513398.702 4      -330.662          28.000
R09  20340524.797 8 108617262.680 8     -2959.035          49.000    20340526.328 8  84480068.121 8     -2301.472          50.000
R21  23585425.750 6 126210371.763 6      3180.293          38.000
C05  39609502.148 5 206257071.090 5         5.164          35.000    39609504.422 5 159491060.101 5         3.857          35.000
C29  22118874.828 8 115178810.980 8     -1277.734          50.000
E11  25575255.656 7 134398883.985 7      2331.277          46.000    25575255.617 7 102980970.615 7      1786.363          46.000
E12  21585793.852 8 113434150.178 8       335.391          49.000    21585793.555 8  86917029.321 8       256.958          51.000
E24  22044159.109 8 115842847.504 8       -50.816          50.000    22044173.336 8  88762741.189 8       -38.907          51.000
E31  25204061.836 8 132448221.357 8     -2598.508          51.000    25204065.492 8 101486301.864 8     -1991.103          51.000
E33  24969810.914 7 131217300.983 7     -1956.367          43.000    24969810.484 6 100543128.036 6     -1499.163          41.000
> 2020 05 01 15 06 30.0000000  0 17        .000000000000
G10  23852286.805 6 125344616.267 6      3445.301          40.000    23852293.039 6  97671143.893 6      2684.653          39.000
G18  21143050.734 8 111107535.074 8     -2032.070          49.000    21143050.438 7  86577332.596 7     -1583.431          43.000
G20  21764721.047 8 114374421.419 8      2204.719          51.000    21764720.484 7  89122980.486 7      1717.966          46.000
G21  21418030.492 8 112552533.407 8     -1758.328          51.000    21418029.281 7  87703229.275 7     -1370.126          47.000
G26  20417081.602 8 107292498.591 8      -923.285          51.000    20417083.148 8  83604526.714 8      -719.440          51.000
R03  22943055.461 4 122815974.023 4      -435.766          27.000    22943062.180 5  95523555.004 5      -338.923          30.000
R09  20357185.203 7 108706236.176 7     -2964.477          47.000    20357189.156 8  84549269.762 8     -2305.704          50.000
R21  23567593.094 6 126114940.938 6      3189.918          37.000    23567600.789 4  98089427.833 4      2481.050          27.000
C05  39609455.062 5 206256826.476 5        19.117          35.000    39609457.219 5 159490870.169 5        14.846          35.000
C13  40025495.945 4 208423233.647 4     -1039.832          29.000
C26  23077787.508 4 120172075.483 4      -131.953          29.000
C29  22126236.266 8 115217144.473 8     -1269.949          50.000
E11  25561942.867 7 134328925.717 7      2341.027          45.000    25561943.570 7 102927366.293 7      1793.571          46.000
E12  21583885.156 8 113424118.882 8       341.367          49.000    21583884.594 8  86909343.002 8       261.579          51.000
E24  22044470.398 8 115844482.177 8       -50.094          51.000    22044483.961 8  88763993.734 8       -38.410          51.000
E31  25218900.414 8 132526200.315 8     -2592.062          51.000    25218904.258 8 101546051.937 8     -1986.114          51.000
E33  24980972.250 6 131275957.009 6     -1945.910          41.000    24980972.305 6 100588072.264 6     -1490.887          40.000
> 2020 05 01 15 07  0.0000000  0 16        .000000000000
G10  23832733.750 7 125241872.046 7      3427.215          42.000    23832740.508 7  97591083.509 7      2670.557          42.000
G18  21154792.898 8 111169240.619 8     -2058.809          50.000    21154792.414 7  86625414.835 7     -1604.266          43.000
G20  21752282.625 8 114309055.655 8      2175.746          51.000    21752282.328 7  89072046.156 7      1695.387          47.000
G21  21428200.672 8 112605978.062 8     -1781.895          50.000    21428199.234 8  87744874.443 8     -1388.489          48.000
G26  20422509.188 8 107321019.750 8      -955.309          51.000    20422511.211 8  83626750.975 8      -744.399          51.000
G31  24795052.820 4 130298885.878 4     -3357.449          29.000
R09  20374001.656 8 108796038.210 8     -2999.094          49.000    20374006.633 8  84619115.819 8     -2332.628          50.000
R21  23549832.336 5 126019892.716 5      3169.965          34.000    23549835.242 5  98015501.557 5      2465.528          31.000
C05  39609450.203 5 206256800.933 5         4.934          35.000    39609452.430 5 159490850.442 5         3.887          35.000
C13  40031588.914 4 208454962.488 4     -1053.539          29.000
C29  22133677.625 8 115255893.658 8     -1290.836          50.000
E11  25548700.547 7 134259339.841 7      2321.387          44.000    25548702.312 7 102874047.304 7      1778.593          45.000
E12  21582067.906 8 113414568.915 8       318.164          49.000    21582067.461 8  86902025.500 8       243.770          51.000
E24  22044903.492 8 115846757.974 8       -78.719          50.000    22044917.047 8  88765737.508 8       -60.287          51.000
E31  25233828.141 8 132604646.958 8     -2614.809          51.000    25233832.312 8 101606160.379 8     -2003.552          51.000
E33  24992198.250 7 131334953.131 7     -1964.074          42.000    24992198.961 6 100633277.097 6     -1505.129          40.000
> 2020 05 01 15 07 30.0000000  0 16        .000000000000
G10  23813176.914 7 125139105.971 7      3423.492          42.000    23813182.758 7  97511006.086 7      2667.659          42.000
G18  21166578.977 8 111231176.926 8     -2070.785          51.000    21166578.453 7  86673676.867 7     -1613.602          43.000
G20  21739900.719 8 114243989.448 8      2161.516          50.000    21739900.898 7  89021345.265 7      1684.301          46.000
G21  21438397.078 8 112659560.803 8     -1790.750          50.000    21438395.789 8  87786627.222 8     -1395.390          48.000
G26  20428011.711 8 107349933.255 8      -972.750          51.000    20428013.781 8  83649280.973 8      -757.987          51.000
R03  22948407.336 5 122844590.947 5      -500.543          32.000    22948407.406 4  95545804.043 4      -389.317          29.000
R09  20390908.516 8 108886312.942 8     -3018.949          51.000    20390910.000 8  84689361.690 8     -2348.072          49.000
R21  23532073.406 5 125924864.613 5      3164.746          34.000    23532077.445 5  97941590.866 5      2461.469          32.000
C05  39609419.734 5 206256642.149 5         4.863          35.000    39609421.852 5 159490727.617 5         4.567          35.000
C13  40037651.992 5 208486536.192 5     -1051.891          30.000
C29  22141130.906 8 115294704.631 8     -1297.078          49.000
E11  25535461.281 7 134189770.068 7      2316.219          45.000    25535463.695 7 102820740.620 7      1774.735          45.000
E12  21580274.203 8 113405143.136 8       309.660          49.000    21580274.055 8  86894803.154 8       237.254          51.000
E24  22045390.523 8 115849318.667 8       -92.559          50.000    22045404.031 8  88767699.583 8       -70.916          51.000
E31  25248776.938 8 132683203.406 8     -2622.840          51.000    25248781.172 8 101666352.972 8     -2009.679          51.000
E33  25003421.430 7 131393931.821 7     -1968.355          42.000    25003422.703 6 100678468.517 6     -1507.969          40.000
> 2020 05 01 15 08  0.0000000  0 15        .000000000000
G10  23793648.586 7 125036488.017 7      3418.910          42.000    23793654.742 7  97431044.094 7      2664.089          42.000
G18  21178440.414 8 111293508.924 8     -2083.367          50.000    21178439.961 7  86722247.231 7     -1623.403          44.000
G20  21727607.758 8 114179392.376 8      2146.219          48.000    21727608.242 7  88971009.913 7      1672.378          47.000
G21  21448651.180 8 112713446.999 8     -1800.305          49.000    21448650.266 8  87828616.464 8     -1402.835          49.000
G26  20433620.664 8 107379405.783 8      -990.906          51.000    20433622.547 8  83672246.577 8      -772.135          51.000
R03  22951284.742 5 122860030.422 5      -526.055          32.000    22951288.836 5  95557806.237 5      -409.154          30.000
R09  20407930.227 8 108977206.646 8     -3039.352          51.000    20407930.078 7  84760056.726 7     -2363.943          47.000
R21  23514341.773 5 125830026.804 5      3159.023          30.000    23514352.836 5  97867811.569 5      2457.018          32.000
C05  39609395.516 5 206256516.633 5         4.504          34.000    39609397.664 5 159490630.843 5         3.567          35.000
C29  22148627.625 8 115333742.340 8     -1304.164          48.000
E11  25522257.484 7 134120383.663 7      2310.516          46.000    25522259.539 7 102767574.447 7      1770.401          45.000
E12  21578535.945 8 113396007.989 8       300.578          49.000    21578535.797 8  86887803.501 8       230.313          51.000
E24  22045963.852 8 115852331.678 8      -107.066          51.000    22045976.844 8  88770008.250 8       -82.062          51.000
E31  25263778.352 8 132762035.399 8     -2631.449          51.000    25263782.289 8 101726756.681 8     -2016.305          51.000
E33  25014673.219 6 131453058.986 6     -1972.684          40.000    25014675.055 6 100723773.724 6     -1511.336          40.000
> 2020 05 01 15 08 30.0000000  0 16        .000000000000
G10  23774142.492 7 124933986.849 7      3414.789          42.000    23774149.234 6  97351173.104 6      2660.875          41.000
G18  21190370.195 8 111356200.281 8     -2095.781          50.000    21190370.000 7  86771097.631 7     -1633.076          45.000
G20  21715397.281 7 114115232.444 7      2131.242          45.000    21715398.727 7  88921015.167 7      1660.708          45.000
G21  21458956.250 8 112767600.391 8     -1809.680          50.000    21458955.297 8  87870813.888 8     -1410.143          49.000
G26  20439329.203 8 107409402.798 8     -1008.691          51.000    20439330.891 8  83695620.859 8      -785.993          51.000
R03  22954301.812 4 122876193.101 4      -551.750          28.000    22954306.609 4  95570377.629 4      -429.139          27.000
R09  20425062.070 8 109068691.055 8     -3059.371          51.000    20425060.875 7  84831211.181 7     -2379.514          47.000
R21  23496659.266 5 125735368.799 5      3153.535          34.000    23496656.109 5  97794162.927 5      2452.750          30.000
C05                                                                  39609373.078 5 159490531.856 5         2.978          35.000
C13  40049777.125 4 208549698.216 4     -1051.152          28.000
C29  22156161.406 8 115372972.363 8     -1310.840          48.000
E11  25509082.516 7 134051146.672 7      2305.340          46.000    25509083.883 7 102714522.788 7      1766.384          45.000
E12  21576846.281 8 113387128.767 8       291.719          49.000    21576846.117 8  86880999.940 8       223.471          51.000
E24  22046617.211 8 115855763.178 8      -121.406          51.000    22046630.008 8  88772637.577 8       -93.032          51.000
E31  25278825.633 8 132841107.397 8     -2639.742          51.000    25278829.266 8 101787344.294 8     -2022.716          51.000
E33  25025947.047 6 131512299.493 6     -1976.570          39.000    25025949.242 6 100769165.819 6     -1514.635          40.000
> 2020 05 01 15 09  0.0000000  0 15        .000000000000
G10  23754656.578 7 124831591.244 7      3411.934          42.000    23754663.664 7  97271384.358 7      2658.650          43.000
G18  21202365.250 8 111419234.739 8     -2106.312          51.000    21202365.250 7  86820215.372 7     -1641.282          45.000
G20  21703268.055 7 114051497.891 7      2117.715          46.000    21703270.016 7  88871351.832 7      1650.167          44.000
G21  21469309.219 8 112822005.163 8     -1817.277          50.000    21469308.094 8  87913207.190 8     -1416.060          49.000
G26  20445134.555 8 107439909.741 8     -1024.977          51.000    20445136.156 8  83719392.489 8      -798.683          51.000
R09  20442300.750 8 109160748.064 8     -3077.605          50.000    20442300.703 8  84902811.010 8     -2393.696          48.000
R21  23478999.305 5 125640829.889 5      3149.281          33.000    23478984.898 4  97720633.174 4      2449.444          28.000
C05  39609343.438 5 206256245.024 5         5.484          35.000    39609345.484 5 159490419.817 5         4.105          35.000
C13  40055831.430 4 208581223.160 4     -1049.961          28.000
C29  22163729.523 7 115412380.109 7     -1316.074          47.000
E11  25495933.492 7 133982045.267 7      2301.641          47.000    25495934.492 7 102661575.019 7      1763.595          45.000
E12  21575202.219 8 113378490.733 8       284.273          49.000    21575202.344 8  86874381.185 8       217.847          51.000
E24  22047347.523 8 115859599.374 8      -134.281          51.000    22047360.328 8  88775576.979 8      -102.852          51.000
E31  25293915.750 8 132920403.911 8     -2646.508          51.000    25293918.984 8 101848103.922 8     -2027.865          51.000
E33  25037239.211 6 131571638.161 6     -1979.207          39.000    25037242.008 6 100814633.102 6     -1516.395          40.000
> 2020 05 01 15 09 30.0000000  0 17        .000000000000
G10  23735192.734 7 124729310.453 7      3409.039          42.000    23735199.938 6  97191685.061 6      2656.394          41.000
G18  21214426.352 8 111482616.492 8     -2116.863          50.000    21214426.297 7  86869603.761 7     -1649.504          46.000
G20  21691222.711 8 113988197.587 8      2104.340          48.000    21691224.031 7  88822026.976 7      1639.748          44.000
G21  21479710.773 8 112876665.730 8     -1824.633          48.000    21479709.938 8  87955799.862 8     -1421.789          48.000
G26  20451037.789 8 107470932.574 8     -1041.035          51.000    20451039.484 8  83743566.103 8      -811.196          51.000
R03  22960755.180 5 122910695.743 5      -598.660          34.000
R09  20459647.180 8 109253380.525 8     -3095.543          48.000    20459649.031 8  84974858.449 8     -2407.645          49.000
R21  23461361.922 5 125546508.892 5      3144.219          31.000    23461348.188 4  97647231.624 4      2445.510          29.000
C05  39609314.109 5 206256092.181 5         6.707          35.000    39609316.102 5 159490302.621 5         5.201          35.000
C13  40061879.320 4 208612717.172 4     -1046.574          28.000
C26  23084607.141 5 120207577.520 5      -245.203          32.000
C29  22171332.836 7 115451971.347 7     -1321.160          47.000
E11  25482811.406 7 133913086.133 7      2297.938          46.000    25482812.383 7 102608736.259 7      1760.847          45.000
E12  21573605.398 8 113370099.655 8       277.199          49.000    21573605.602 8  86867951.652 8       212.423          51.000
E24  22048156.102 8 115863846.982 8      -146.816          51.000    22048168.305 8  88778831.630 8      -112.508          51.000
E31  25309049.469 8 132999929.967 8     -2653.074          51.000    25309052.359 8 101909039.412 8     -2032.809          51.000
E33  25048551.008 6 131631080.441 6     -1981.582          39.000    25048553.750 6 100860179.784 6     -1518.355          39.000
> 2020 05 01 15 10  0.0000000  0 15        .000000000000
G10  23715764.500 6 124627215.347 6      3401.387          41.000    23715771.609 6  97112130.451 6      2650.431          41.000
G18  21226566.141 8 111546411.488 8     -2131.828          51.000    21226565.984 7  86919314.146 7     -1661.165          45.000
G20  21679273.750 8 113925401.868 8      2086.363          51.000    21679273.609 7  88773095.309 7      1625.738          42.000
G21  21490173.531 8 112931648.144 8     -1836.555          50.000    21490172.984 8  87998643.304 8     -1431.082          48.000
G26  20457051.930 8 107502538.866 8     -1061.777          51.000    20457053.875 8  83768194.365 8      -827.359          51.000
R03  22964202.977 5 122929152.357 5      -627.250          33.000
R09  20477113.688 8 109346654.076 8     -3118.098          48.000    20477117.281 8  85047404.566 8     -2425.184          50.000
C05  39609295.906 5 206255997.535 5         3.887          35.000    39609297.938 5 159490229.423 5         2.930          35.000
C13  40067933.836 5 208644245.757 5     -1050.352          30.000
C29  22178984.102 7 115491812.910 7     -1330.719          47.000
E11  25469729.164 7 133844337.571 7      2289.625          46.000    25469730.367 7 102556058.838 7      1754.370          45.000
E12  21572068.594 8 113362023.025 8       265.578          50.000    21572068.727 8  86861763.053 8       203.528          51.000
E24  22049055.930 8 115868574.310 8      -164.012          51.000    22049067.586 8  88782453.860 8      -125.674          51.000
E31  25324239.547 8 133079752.226 8     -2664.035          51.000    25324242.055 8 101970201.865 8     -2041.259          51.000
E33  25059895.352 6 131690693.286 6     -1988.328          38.000    25059897.383 6 100905857.166 6     -1523.725          39.000
> 2020 05 01 15 10 30.0000000  0 17        .000000000000
G10  23696354.219 7 124525211.996 7      3398.023          42.000    23696360.812 7  97032647.354 7      2647.810          42.000
G18  21238765.812 8 111610520.786 8     -2142.758          51.000    21238765.758 7  86969269.421 7     -1669.681          45.000
G20  21667402.945 8 113863016.055 8      2072.160          51.000    21667401.688 7  88724483.031 7      1614.670          43.000
G21  21500678.867 8 112986854.065 8     -1844.449          50.000    21500678.133 8  88041660.889 8     -1437.233          48.000
G26  20463158.508 8 107534631.317 8     -1078.340          51.000    20463160.805 8  83793201.449 8      -840.265          51.000
R03  22967785.789 5 122948322.222 5      -651.746          35.000
R09  20494681.938 8 109440466.602 8     -3136.551          50.000    20494686.383 8  85120369.880 8     -2439.539          50.000
R10  19916793.750 5 106167749.705 5      -124.496          30.000
R21  23426171.930 5 125358203.388 5      3132.520          32.000    23426175.312 4  97500823.640 4      2436.410          26.000
C05  39609270.445 5 206255865.072 5         4.922          34.000    39609272.508 5 159490126.010 5         3.465          35.000
C13  40073976.141 4 208675708.970 4     -1047.457          28.000
C29  22186664.898 7 115531808.294 7     -1336.215          47.000
E11  25456668.375 7 133775702.992 7      2285.207          46.000    25456669.859 7 102503468.740 7      1751.015          45.000
E12  21570573.078 8 113354163.378 8       257.883          50.000    21570573.078 8  86855740.728 8       197.664          51.000
E24  22050028.625 8 115873684.865 8      -177.258          51.000    22050040.211 8  88786369.713 8      -135.812          51.000
E31  25339466.945 8 133159772.529 8     -2671.109          51.000    25339469.289 8 102031516.043 8     -2046.709          51.000
E33  25071253.766 6 131750378.963 6     -1991.395          38.000    25071254.555 6 100951590.277 6     -1525.766          39.000
> 2020 05 01 15 11  0.0000000  0 17        .000000000000
G10  23676970.477 6 124423345.184 6      3393.094          41.000    23676976.141 6  96953270.683 6      2643.972          41.000
G18  21251032.852 8 111674984.114 8     -2154.914          51.000    21251032.977 7  87019500.571 7     -1679.157          45.000
G20  21655618.266 8 113801084.017 8      2056.500          51.000    21655617.047 7  88676224.354 7      1602.471          44.000
G21  21511234.305 8 113042323.592 8     -1853.594          49.000    21511233.500 8  88084883.897 8     -1444.359          48.000
G26  20469365.398 8 107567251.423 8     -1096.414          51.000    20469368.195 8  83818619.680 8      -854.349          51.000
R03  22971510.047 5 122968247.500 5      -676.816          33.000    22971512.008 4  95642001.334 4      -526.413          28.000
R09  20512359.164 8 109534857.228 8     -3156.266          51.000    20512363.406 8  85193784.782 8     -2454.876          50.000
R10  19917568.742 5 106171894.587 5      -152.371          34.000
R21  23408621.852 5 125264319.013 5      3125.793          31.000
C05  39609245.773 5 206255736.482 5         3.742          34.000    39609247.883 5 159490027.571 5         3.172          35.000
C19  25607355.367 6 133344212.364 6      3083.238          38.000
C29  22194383.062 7 115571998.520 7     -1343.277          46.000
E11  25443637.125 7 133707224.568 7      2279.668          45.000    25443638.953 7 102450998.287 7      1746.791          46.000
E12  21569126.758 8 113346562.082 8       248.852          50.000    21569126.516 8  86849916.364 8       190.720          51.000
E24  22051082.336 8 115879220.843 8      -191.816          51.000    22051093.664 8  88790611.559 8      -146.967          51.000
E31  25354739.383 8 133240031.398 8     -2679.465          50.000    25354741.945 8 102093013.023 8     -2053.090          51.000
E33  25082633.250 6 131810178.236 6     -1995.223          39.000    25082633.305 6 100997410.521 6     -1529.088          38.000
> 2020 05 01 15 11 30.0000000  0 14        .000000000000
G10  23657619.258 6 124321649.278 6      3386.809          41.000    23657623.602 6  96874027.192 6      2639.075          41.000
G18  21263372.859 8 111739830.856 8     -2168.223          51.000    21263372.773 7  87070030.489 7     -1689.527          45.000
G20  21643926.016 8 113739640.000 8      2039.652          51.000    21643925.266 7  88628345.935 7      1589.343          46.000
G21  21521845.539 8 113098086.372 8     -1863.941          49.000    21521844.836 8  88128335.422 8     -1452.422          48.000
G26  20475678.859 8 107600430.078 8     -1115.539          51.000    20475681.867 8  83844473.169 8      -869.251          51.000
R09  20530149.594 8 109629854.090 8     -3176.770          51.000    20530153.312 8  85267671.194 8     -2470.824          48.000
C05  39609227.797 5 206255642.914 5         1.848          35.000    39609229.961 5 159489955.185 5         2.072          35.000
C19  25589600.883 6 133251760.062 6      3080.359          41.000
C29  22202144.359 7 115612414.214 7     -1351.230          46.000
E11  25430641.695 7 133638933.986 7      2273.082          45.000    25430643.789 7 102398671.773 7      1741.766          46.000
E12  21567735.453 8 113339250.011 8       238.695          50.000    21567735.039 8  86844313.616 8       182.908          51.000
E24  22052222.625 8 115885213.992 8      -207.641          51.000    22052234.062 8  88795203.709 8      -159.077          51.000
E31  25370062.445 8 133320558.912 8     -2689.000          48.000    25370065.922 8 102154715.873 8     -2060.352          51.000
E33  25094039.602 6 131870121.733 6     -2000.523          38.000    25094039.328 6 101043341.236 6     -1532.902          37.000
> 2020 05 01 15 12  0.0000000  0 17        .000000000000
G10  23638290.445 6 124220073.009 6      3385.926          39.000    23638293.633 6  96794877.001 6      2638.390          40.000
G18  21275775.055 8 111805004.733 8     -2175.785          51.000    21275774.711 7  87120815.317 7     -1695.417          45.000
G20  21632316.406 8 113678631.994 8      2028.383          50.000    21632316.234 7  88580807.258 7      1580.558          45.000
G21  21532502.086 8 113154086.901 8     -1868.492          50.000    21532501.312 7  88171972.172 7     -1455.968          46.000
G26  20482088.461 8 107634112.702 8     -1129.031          51.000    20482091.320 8  83870719.376 8      -879.765          51.000
R03  22979380.594 5 123010395.828 5      -724.820          31.000
R09  20548042.172 8 109725398.322 8     -3191.809          50.000    20548044.938 7  85341983.327 7     -2482.521          47.000
R10  19919600.984 5 106182774.562 5      -205.098          30.000
C05  39609206.188 5 206255530.712 5         6.348          34.000    39609208.414 5 159489868.476 5         5.044          35.000
C19  25571848.766 7 133159321.838 7      3083.066          42.000
C26  23092984.711 5 120251228.007 5      -330.949          30.000
C29  22209938.656 7 115653001.178 7     -1353.668          46.000
E11  25417671.883 7 133570777.444 7      2271.898          46.000    25417673.914 7 102346447.976 7      1740.901          46.000
E12  21566388.625 8 113332172.471 8       234.176          50.000    21566388.203 8  86838890.576 8       179.430          51.000
E24  22053439.445 8 115891610.489 8      -217.809          51.000    22053451.531 8  88800104.907 8      -166.874          51.000
E31  25385425.539 7 133401299.602 7     -2692.754          46.000    25385430.508 8 102216582.094 8     -2063.273          51.000
E33  25105462.953 6 131930154.350 6     -2000.375          38.000    25105462.203 6 101089340.274 6     -1532.839          37.000
> 2020 05 01 15 12 30.0000000  0 17        .000000000000
G10  23618975.445 6 124118571.637 6      3377.941          36.000    23618978.109 6  96715785.191 6      2632.168          37.000
G18  21288229.922 8 111870455.935 8     -2190.000          51.000    21288229.742 7  87171816.246 7     -1706.494          45.000
G20  21620780.750 8 113618014.573 8      2010.289          49.000    21620781.273 7  88533572.927 7      1566.462          45.000
G21  21543194.367 8 113210275.136 8     -1879.812          49.000    21543193.445 7  88215755.200 7     -1464.789          46.000
G26  20488584.828 8 107668251.088 8     -1149.242          51.000    20488587.617 8  83897320.717 8      -895.513          51.000
R03  22983517.977 6 123032521.188 6      -752.555          36.000
R09  20566027.266 8 109821438.038 8     -3213.328          50.000    20566028.664 7  85416680.821 7     -2499.258          45.000
R21  23356168.148 4 124983593.101 4      3109.781          29.000
C05  39609171.930 5 206255351.628 5         3.438          35.000    39609174.195 5 159489730.791 5         2.534          35.000
C19  25554090.156 7 133066852.914 7      3079.148          42.000
C26  23094946.859 5 120261419.263 5      -350.363          32.000
C29  22217756.531 7 115693711.640 7     -1362.691          46.000
E11  25404718.797 7 133502707.507 7      2264.047          46.000    25404720.297 7 102294290.541 7      1734.643          46.000
E12  21565077.156 8 113325281.185 8       222.879          50.000    21565076.719 8  86833610.246 8       170.750          51.000
E24  22054724.141 8 115898362.899 8      -234.715          51.000    22054736.805 8  88805278.830 8      -179.870          51.000
E31  25400819.953 7 133482204.399 7     -2703.277          46.000    25400826.055 8 102278574.085 8     -2071.294          51.000
E33  25116893.930 6 131990227.416 6     -2006.922          37.000    25116893.180 6 101135370.282 6     -1537.927          36.000
> 2020 05 01 15 13  0.0000000  0 16        .000000000000
G10  23599700.422 6 124017288.734 6      3373.316          36.000    23599704.430 6  96636863.508 6      2628.558          36.000
G18  21300763.945 8 111936323.022 8     -2201.043          51.000    21300764.000 7  87223141.229 7     -1715.098          45.000
G20  21609346.703 8 113557930.532 8      1995.430          50.000    21609347.398 7  88486754.194 7      1554.880          44.000
G21  21553948.805 8 113266790.074 8     -1887.805          50.000    21553947.695 7  88259792.796 7     -1471.017          45.000
G26  20495194.617 8 107702985.374 8     -1166.293          51.000    20495197.602 8  83924386.375 8      -908.800          51.000
R09  20584130.664 8 109918112.291 8     -3231.516          48.000    20584131.828 7  85491871.806 7     -2513.404          46.000
R21  23338755.773 4 124890380.185 4      3105.035          29.000
C05  39609151.805 5 206255247.167 5         4.055          35.000    39609154.164 5 159489650.051 5         2.818          35.000
C19  25536353.367 7 132974495.263 7      3078.309          42.000
C26  23097024.906 4 120272190.829 4      -367.184          29.000
C29  22225624.641 7 115734684.453 7     -1368.828          44.000
E11  25391808.945 7 133434865.074 7      2259.090          46.000    25391809.945 7 102242307.423 7      1730.985          46.000
E12  21563827.812 8 113318716.237 8       214.887          50.000    21563827.273 8  86828579.959 8       164.650          51.000
E24  22056103.461 8 115905612.147 8      -248.410          51.000    22056116.422 8  88810833.436 8      -190.388          51.000
E31  25416272.984 8 133563412.620 8     -2710.566          48.000    25416279.258 8 102340798.558 8     -2076.820          50.000
E33  25128359.758 6 132050480.665 6     -2009.887          37.000    25128358.570 5 101181538.293 5     -1540.061          34.000
> 2020 05 01 15 13 30.0000000  0 16        .000000000000
G10  23580460.461 6 123916192.542 6      3369.039          37.000    23580465.938 6  96558087.346 6      2625.228          37.000
G18  21313370.234 8 112002569.397 8     -2211.945          51.000    21313370.227 7  87274761.763 7     -1723.594          44.000
G20  21598008.391 8 113498347.559 8      1980.219          50.000    21598008.953 7  88440325.928 7      1543.031          44.000
G21  21564758.562 8 113323595.537 8     -1895.820          50.000    21564757.203 7  88304056.763 7     -1477.263          44.000
G26  20501911.227 8 107738280.533 8     -1183.273          51.000    20501914.180 8  83951889.080 8      -922.031          51.000
R09  20602345.875 8 110015382.230 8     -3249.617          50.000    20602347.781 7  85567526.184 7     -2527.480          47.000
R10  19923814.562 5 106205122.056 5      -291.406          33.000
R21  23321380.562 5 124797370.580 5      3099.555          30.000
C05  39609139.352 5 206255182.196 5         3.848          34.000    39609141.555 5 159489599.772 5         3.419          35.000
C19  25518632.055 6 132882217.162 6      3077.078          41.000
C29  22233536.367 7 115775884.941 7     -1374.633          44.000
E11  25378935.594 7 133367215.924 7      2254.211          46.000    25378935.977 7 102190472.402 7      1727.184          45.000
E12  21562633.906 8 113312442.574 8       206.836          50.000    21562633.383 8  86823772.871 8       158.476          51.000
E24  22057571.125 8 115913324.009 8      -262.180          51.000    22057583.906 8  88816742.533 8      -200.939          51.000
E31  25431777.672 8 133644888.427 8     -2717.695          50.000    25431783.266 8 102403228.043 8     -2082.390          50.000
E33  25139853.242 6 132110878.581 6     -2012.957          38.000    25139851.836 5 101227817.206 5     -1542.372          34.000
> 2020 05 01 15 14  0.0000000  0 18        .000000000000
G10  23561235.711 6 123815167.751 6      3362.590          39.000    23561241.508 6  96479366.818 6      2620.206          38.000
G18  21326025.820 8 112069074.573 8     -2224.598          51.000    21326025.758 7  87326583.960 7     -1733.453          44.000
G20  21586743.461 8 113439149.703 8      1963.395          50.000    21586743.609 7  88394197.780 7      1529.918          45.000
G21  21575600.695 8 113380571.463 8     -1905.492          48.000    21575599.234 7  88348453.584 7     -1484.799          44.000
G26  20508712.008 8 107774017.609 8     -1202.023          51.000    20508714.672 8  83979736.140 8      -936.642          51.000
G27  22088309.766 5 116074889.733 5      2389.949          33.000
R03  22996803.164 5 123103640.246 5      -828.359          31.000
R09  20620650.297 8 110113124.152 8     -3269.309          51.000    20620652.656 8  85643547.626 8     -2542.799          48.000
R10  19925521.969 6 106214233.402 6      -320.062          36.000
C05  39609111.930 5 206255039.452 5         2.574          34.000    39609114.031 5 159489488.439 5         1.773          35.000
C19  25500903.508 6 132789903.852 6      3074.141          40.000
C26  23101449.758 5 120295316.660 5      -401.934          31.000
C29  22241469.422 7 115817195.285 7     -1382.016          43.000
E11  25366076.461 7 133299641.983 7      2247.621          46.000    25366076.125 7 102138695.011 7      1722.287          44.000
E12  21561472.820 8 113306341.270 8       197.000          50.000    21561472.406 8  86819097.849 8       150.966          51.000
E24  22059104.352 8 115921380.386 8      -277.742          51.000    22059117.078 8  88822915.597 8      -212.759          51.000
E31  25447310.867 8 133726512.060 8     -2726.609          51.000    25447315.250 8 102465770.766 8     -2089.172          49.000
E33  25151350.977 6 132171301.892 6     -2017.699          39.000    25151351.406 5 101274115.601 5     -1546.080          34.000
> 2020 05 01 15 14 30.0000000  0 18        .000000000000
G10  23542044.469 6 123714314.281 6      3359.293          38.000    23542049.719 6  96400779.770 6      2617.634          38.000
G18  21338748.758 8 112135933.437 8     -2234.207          51.000    21338748.852 7  87378681.760 7     -1740.941          45.000
G20  21575570.773 8 113380436.100 8      1949.398          50.000    21575571.039 7  88348446.968 7      1519.012          46.000
G21  21586493.328 8 113437813.151 8     -1912.000          49.000    21586491.859 7  88393057.495 7     -1489.870          43.000
G26  20515615.125 8 107810293.042 8     -1217.828          51.000    20515617.562 8  84008002.697 8      -948.957          51.000
R03  23001502.383 5 123128796.706 5      -851.273          31.000
R09  20639061.125 8 110211432.491 8     -3286.055          51.000    20639063.422 8  85720009.615 8     -2555.823          48.000
R10  19927392.258 6 106224193.071 6      -345.988          37.000
R21  23286684.688 5 124611767.373 5      3088.617          31.000
C05  39609088.031 5 206254915.027 5         4.008          35.000    39609090.203 5 159489392.177 5         3.495          35.000
C19  25483187.258 7 132697653.971 7      3074.012          42.000
C26  23103806.367 5 120307584.657 5      -416.875          33.000
C29  22249442.297 7 115858711.222 7     -1386.957          44.000
E11  25353250.539 7 133232240.454 7      2244.293          47.000    25353248.883 7 102087049.727 7      1719.773          43.000
E12  21560362.906 8 113300508.732 8       190.391          50.000    21560362.562 8  86814628.762 8       145.923          51.000
E24  22060721.469 8 115929878.512 8      -290.168          51.000    22060734.625 8  88829427.135 8      -222.381          51.000
E31  25462890.383 8 133808379.151 8     -2732.480          51.000    25462893.766 8 102528500.035 8     -2093.728          49.000
E33  25162871.922 6 132231846.767 6     -2019.621          38.000    25162875.492 5 101320507.136 5     -1547.813          33.000
> 2020 05 01 15 15  0.0000000  0 16        .000000000000
G10  23522897.305 6 123613689.037 6      3350.434          37.000    23522901.055 6  96322370.551 6      2610.731          37.000
G18  21351548.875 8 112203197.891 8     -2248.812          51.000    21351548.938 7  87431095.595 7     -1752.321          45.000
G20  21564500.945 8 113322262.880 8      1930.059          50.000    21564500.930 7  88303117.185 7      1503.942          46.000
G21  21597446.594 8 113495372.970 8     -1923.938          49.000    21597445.578 7  88437909.302 7     -1499.172          42.000
G26  20522630.531 8 107847160.274 8     -1238.773          51.000    20522632.906 8  84036730.377 8      -965.278          51.000
R09  20657587.516 8 110310358.696 8     -3307.773          51.000    20657589.547 8  85796952.185 8     -2572.716          48.000
R10  19929430.367 5 106235055.415 5      -377.199          35.000
R21  23269391.039 5 124519261.544 5      3079.598          32.000
C05  39609077.906 5 206254862.517 5          .262          34.000    39609080.031 5 159489351.614 5          .390          35.000
C19  25465494.469 7 132605523.578 7      3069.152          42.000
C29  22257464.828 7 115900485.656 7     -1396.832          44.000
E11  25340468.117 7 133165065.618 7      2235.688          47.000    25340464.625 7 102035578.156 7      1712.946          42.000
E12  21559314.289 8 113294998.378 8       178.363          50.000    21559313.961 8  86810406.549 8       136.638          51.000
E24  22062432.930 8 115938872.595 8      -308.055          51.000    22062446.562 8  88836318.685 8      -236.051          51.000
