     3.02           OBSERVATION DATA    M (MIXED)           RINEX VERSION / TYPE
SAVERINEX           SC600               20200502 165930 LCL PGM / RUN BY / DATE
       G = GPS       R = GLONASS       C = COMPASS          COMMENT
       S = SBAS      J = QZSS          E = GALILEO          COMMENT
BEAN                                                        MARKER NAME
1                                                           MARKER NUMBER
GEODETIC                                                    MARKER TYPE
Unige DICCA         GTER                                    OBSERVER / AGENCY
SC60291900056       SC600               2.12(191226)        REC # / TYPE / VERS
                    HEMA45          NONE                    ANT # / TYPE
  4509407.8091   693652.4678  4442337.6214                  APPROX POSITION XYZ
        0.0000        0.0000        0.0000                  ANTENNA: DELTA H/E/N
G    8 C1C L1C D1C S1C C2Y L2Y D2Y S2Y                      SYS / # / OBS TYPES
R    8 C1C L1C D1C S1C C2P L2P D2P S2P                      SYS / # / OBS TYPES
C    4 C1I L1I D1I S1I                                      SYS / # / OBS TYPES
E    8 C1C L1C D1C S1C C7Q L7Q D7Q S7Q                      SYS / # / OBS TYPES
DBHZ                                                        COMMENT
     30.000                                                 INTERVAL
  2020    05    02    14    00    0.0000000     GPS         TIME OF FIRST OBS
  2020    05    02    14    59   30.0000000     GPS         TIME OF LAST OBS
     0                                                      RCV CLOCK OFFS APPL
G L1C  0.00000                                              SYS / PHASE SHIFT
G L2Y  0.00000                                              SYS / PHASE SHIFT
R L1C  0.00000                                              SYS / PHASE SHIFT
R L2P  0.25000                                              SYS / PHASE SHIFT
C L1I  0.00000                                              SYS / PHASE SHIFT
E L1C  0.50000                                              SYS / PHASE SHIFT
E L7Q -0.25000                                              SYS / PHASE SHIFT
 13 R04  6 R05  1 R06 -4 R07  5 R09 -2 R10 -7 R11  0 R15  0 GLONASS SLOT / FRQ #
    R16 -1 R18 -3 R19  3 R20  2 R21  4                      GLONASS SLOT / FRQ #
 C1C   71.950 C2C   71.950 C2P   71.950                     GLONASS COD/PHS/BIS
    18                                                      LEAP SECONDS
*** Above antenna height is from mark to ANTENNA BOTTOM.    COMMENT
    17     4        0.0000        ANT MEASURE TYPE/HEIGT    COMMENT
    0.0000    0.0000    0.0458    0.0405    0.0000          COMMENT
                    BASE STATION                            COMMENT
                                                            END OF HEADER
> 2020 05 02 14 00  0.0000000  0 17        .000000000000
G18  20348036.672 8 106929742.382 8       -11.133          51.000    20348037.688 8  83321868.177 8        -8.675          50.000
G20  23803959.023 6 125090654.046 6      3292.129          39.000    23803959.539 4  97473238.225 4      2565.304          29.000
G21  20673149.367 8 108638155.092 8      -184.277          51.000    20673147.648 8  84653154.557 8      -143.593          50.000
G25  24493527.859 5 128714326.855 5     -3524.352          31.000    24493534.227 5 100296881.686 5     -2746.248          31.000
G29  22166949.898 6 116488120.668 6     -2439.078          37.000    22166956.547 6  90769936.819 6     -1900.580          38.000
G31  22526201.328 8 118375970.096 8     -2718.227          49.000    22526200.078 8  92241003.904 8     -2118.099          49.000
R09  21065215.773 8 112487079.453 8     -3715.316          51.000    21065218.812 8  87489954.620 8     -2889.691          50.000
R10  19404113.000 8 103434850.394 8     -1054.547          51.000
R20  19512795.766 5 104343686.979 5      -938.430          31.000    19512800.461 6  81156236.428 6      -729.890          38.000
R21  21359170.680 7 114297260.556 7      2756.742          43.000    21359176.062 6  88897881.617 6      2144.130          41.000
C27  23569249.508 5 122731212.320 5     -2392.629          33.000
C29  24148811.305 7 125749214.592 7      2413.328          44.000
C30  21512502.047 8 112021315.926 8        65.785          51.000
E13  23116144.727 8 121476177.685 8       -57.117          51.000    23116146.289 8  93079228.291 8       -43.741          51.000
E21  23505134.039 8 123520317.859 8      -150.668          51.000    23505136.680 8  94645441.042 8      -115.471          51.000
E26  24483779.156 8 128663114.315 8      2341.062          49.000    24483780.133 8  98586105.428 8      1793.753          50.000
E27  25363801.977 8 133287651.482 8     -2573.855          51.000    25363803.789 7 102129511.061 7     -1972.097          46.000
> 2020 05 02 14 00 30.0000000  0 16        .000000000000
G18  20348157.531 8 106930377.979 8       -31.570          51.000    20348158.648 8  83322363.440 8       -24.600          51.000
G20  23785176.344 6 124991950.080 6      3287.449          40.000    23785177.016 4  97396320.093 4      2561.643          29.000
G21  20674249.703 8 108643936.553 8      -201.523          51.000    20674247.945 8  84657659.589 8      -157.031          51.000
G25  24513661.789 5 128820138.929 5     -3530.316          31.000    24513669.570 5 100379332.643 5     -2750.899          32.000
G29  22180891.078 6 116561384.179 6     -2445.289          38.000    22180896.547 6  90827025.185 6     -1905.420          38.000
G31  22541753.844 8 118457700.351 8     -2730.879          49.000    22541753.500 8  92304689.782 8     -2127.958          50.000
R09  21086133.250 8 112598775.397 8     -3731.383          51.000    21086136.305 8  87576829.219 8     -2902.187          50.000
R10  19410124.375 8 103466892.899 8     -1081.984          51.000
R20  19518111.961 5 104372111.313 5      -956.488          32.000    19518117.031 6  81178344.259 6      -743.935          40.000
R21  21343755.320 7 114214767.354 7      2742.613          45.000    21343760.188 6  88833720.262 6      2133.147          39.000
C29  24134930.297 7 125676923.806 7      2406.012          44.000
C30  21512154.844 8 112019506.451 8        54.520          51.000
E13  23116504.586 8 121478068.279 8       -69.336          51.000    23116506.086 8  93080676.932 8       -53.107          51.000
E21  23506033.844 8 123525044.954 8      -164.797          51.000    23506036.562 8  94649063.095 8      -126.267          51.000
E26  24470437.461 8 128593007.744 8      2332.383          49.000    24470438.711 8  98532387.428 8      1787.144          49.000
E27  25378520.359 8 133364994.930 8     -2582.648          51.000    25378519.641 7 102188774.116 7     -1978.897          44.000
> 2020 05 02 14 01  0.0000000  0 17        .000000000000
G18  20348384.633 8 106931571.806 8       -48.273          51.000    20348385.984 8  83323293.715 8       -37.616          51.000
G20  23766409.266 6 124893328.214 6      3286.801          41.000    23766411.016 4  97319471.997 4      2561.150          29.000
G21  20675438.375 8 108650182.401 8      -215.137          51.000    20675436.742 8  84662526.500 8      -167.636          51.000
G25  24533817.188 5 128926080.136 5     -3531.012          34.000    24533825.227 5 100461866.969 5     -2751.441          34.000
G29  22194861.172 6 116634797.704 6     -2448.613          36.000    22194863.219 6  90884230.507 6     -1908.013          36.000
G31  22557367.109 8 118539751.197 8     -2739.531          49.000    22557367.633 8  92368625.474 8     -2134.703          49.000
R09  21107130.867 8 112710898.768 8     -3743.695          51.000    21107133.484 8  87664036.231 8     -2911.766          48.000
R10  19416279.289 8 103499703.137 8     -1105.605          51.000
R20  19523517.844 5 104401016.042 5      -970.883          32.000    19523522.023 6  81200825.723 6      -755.131          38.000
R21  21328408.906 7 114132640.348 7      2732.398          46.000    21328411.812 6  88769843.793 6      2125.205          39.000
C27  23596864.391 4 122875056.626 4     -2400.109          29.000
C29  24121080.844 7 125604799.229 7      2402.207          44.000
C30  21511862.359 8 112017982.772 8        46.824          51.000
E13  23116924.242 8 121480273.852 8       -77.828          51.000    23116925.594 8  93082366.926 8       -59.644          51.000
E21  23507004.375 8 123530144.673 8      -175.328          51.000    23507007.297 8  94652970.660 8      -134.366          51.000
E26  24457135.320 8 128523107.233 8      2327.410          49.000    24457137.125 8  98478827.311 8      1783.346          49.000
E27  25393278.859 8 133442550.576 8     -2587.863          51.000    25393275.773 7 102248199.782 7     -1982.938          44.000
> 2020 05 02 14 01 30.0000000  0 17        .000000000000
G18  20348719.148 8 106933330.067 8       -68.230          51.000    20348720.305 8  83324663.784 8       -53.167          51.000
G20  23747659.617 6 124794798.259 6      3282.172          41.000    23747661.453 4  97242702.567 4      2557.533          25.000
G21  20676716.492 8 108656898.657 8      -231.953          51.000    20676714.766 8  84667759.952 8      -180.743          50.000
G25  24553995.516 6 129032111.975 6     -3536.168          39.000    24554002.242 6 100544489.051 6     -2755.459          39.000
G26  20498865.656 6 107722258.851 6      1114.844          37.000    20498865.344 6  83939419.526 6       868.700          37.000
G29  22208861.000 5 116708367.926 5     -2455.320          35.000    22208859.602 5  90941557.923 5     -1913.234          35.000
G31  22573042.039 8 118622126.488 8     -2751.465          50.000    22573042.742 8  92432813.950 8     -2143.999          49.000
R09  21128208.930 8 112823453.122 8     -3759.090          51.000    21128210.641 7  87751578.434 7     -2923.740          46.000
R10  19422579.328 8 103533286.929 8     -1132.590          50.000
R20  19529014.586 5 104430405.979 5      -987.371          32.000    19529017.812 6  81223684.543 6      -767.955          40.000
R21  21313131.109 7 114050887.169 7      2718.457          44.000    21313133.422 6  88706258.087 6      2114.359          40.000
C29  24107264.125 7 125532847.871 7      2395.328          45.000
C30  21511625.938 8 112016751.039 8        35.965          51.000
E13  23117404.945 8 121482800.470 8       -89.812          51.000    23117406.023 8  93084302.906 8       -68.805          51.000
E21  23508047.109 8 123535624.300 8      -189.250          51.000    23508050.125 8  94657169.325 8      -144.998          51.000
E26  24443874.000 8 128453420.130 8      2319.129          49.000    24443876.922 8  98425430.718 8      1777.025          50.000
E27  25408078.656 8 133520324.249 8     -2596.332          51.000    25408074.758 7 102307792.516 7     -1989.376          45.000
> 2020 05 02 14 02  0.0000000  0 19        .000000000000
G18  20349158.141 8 106935637.207 8       -86.363          51.000    20349159.070 8  83326461.556 8       -67.296          51.000
G20  23728924.859 6 124696347.892 6      3279.957          40.000    23728926.000 4  97165988.226 4      2555.798          28.000
G21  20678081.031 8 108664069.135 8      -246.895          51.000    20678079.203 8  84673347.343 8      -192.385          51.000
G25  24574192.469 7 129138240.167 7     -3539.391          43.000    24574197.062 7 100627186.162 7     -2757.976          43.000
G26  20492539.664 6 107689016.928 6      1100.387          39.000    20492539.242 6  83913516.691 6       857.444          39.000
G29  22222887.320 5 116782078.315 5     -2459.125          35.000    22222885.914 5  90998994.524 5     -1916.201          35.000
G31  22588775.516 8 118704808.690 8     -2761.516          49.000    22588775.852 8  92497241.596 8     -2151.830          49.000
R09  21149363.680 8 112936419.801 8     -3772.680          50.000    21149364.953 7  87839441.338 7     -2934.309          45.000
R10  19429021.375 8 103567628.749 8     -1157.641          49.000
R20  19534598.344 5 104460263.998 5     -1003.270          32.000    19534601.844 6  81246907.483 6      -780.321          39.000
R21  21297919.547 7 113969493.385 7      2706.828          42.000    21297923.828 7  88642951.833 7      2105.311          42.000
C27  23624558.180 5 123019253.587 5     -2407.969          35.000
C29  24093477.688 7 125461055.237 7      2390.152          42.000
C30  21511442.609 8 112015795.865 8        26.914          51.000
E13  23117943.914 8 121485632.451 8       -99.734          51.000    23117944.750 8  93086472.854 8       -76.408          51.000
E15  25417149.625 5 133568022.843 5     -2373.863          33.000
E21  23509159.438 8 123541469.416 8      -201.238          51.000    23509162.312 8  94661648.049 8      -154.139          51.000
E26  24430650.469 8 128383932.070 8      2312.609          49.000    24430654.680 8  98372186.648 8      1771.984          50.000
E27  25422916.703 8 133598300.061 8     -2602.832          51.000    25422914.070 7 102367540.167 7     -1994.420          47.000
> 2020 05 02 14 02 30.0000000  0 19        .000000000000
G18  20349698.047 8 106938474.452 8      -102.906          51.000    20349698.898 8  83328672.390 8       -80.187          51.000
G20  23710202.094 6 124597962.020 6      3279.051          40.000    23710203.688 4  97089320.149 4      2555.105          26.000
G21  20679528.320 8 108671674.739 8      -260.227          51.000    20679526.727 8  84679273.798 8      -202.774          51.000
G25  24594403.992 7 129244445.085 7     -3540.938          45.000    24594405.594 7 100709943.063 7     -2759.178          45.000
G26  20486293.133 6 107656187.333 6      1087.891          40.000    20486290.469 6  83887935.229 6       847.707          40.000
G29  22236937.031 6 116855909.721 6     -2462.121          39.000    22236935.445 5  91056525.497 5     -1918.533          32.000
G31  22604563.664 8 118787777.278 8     -2769.770          49.000    22604563.672 8  92561892.380 8     -2158.265          49.000
R09  21170591.492 8 113049777.398 8     -3784.586          50.000    21170593.391 7  87927608.299 7     -2943.567          44.000
R10  19435602.133 8 103602709.099 8     -1181.184          49.000
R20  19540265.797 5 104490569.336 5     -1016.543          32.000    19540268.516 6  81270478.285 6      -790.645          39.000
R21  21282772.398 6 113888441.420 6      2696.781          40.000    21282777.656 6  88579911.433 6      2097.500          41.000
C27  23638437.359 5 123091503.545 5     -2409.352          33.000
C29  24079716.914 6 125389403.730 6      2386.352          37.000
C30  21511308.359 8 112015098.651 8        19.496          51.000
E13  23118537.320 8 121488750.848 8      -108.176          51.000    23118538.320 8  93088862.281 8       -82.900          51.000
E15  25430700.742 5 133639234.327 5     -2374.770          32.000
E21  23510337.969 8 123547662.380 8      -211.809          51.000    23510340.570 8  94666393.313 8      -162.256          51.000
E26  24417461.695 8 128314625.547 8      2307.637          49.000    24417467.008 8  98319081.650 8      1768.228          50.000
E27  25437789.125 8 133676458.832 8     -2607.836          48.000    25437788.992 8 102427428.049 8     -1998.194          49.000
> 2020 05 02 14 03  0.0000000  0 17        .000000000000
G18  20350365.133 8 106941979.655 8      -123.875          51.000    20350365.773 8  83331403.717 8       -96.526          51.000
G20  23691518.945 7 124499782.028 7      3273.480          42.000    23691520.461 4  97012816.379 4      2550.770          28.000
G21  20681084.523 8 108679852.867 8      -278.004          51.000    20681083.164 8  84685646.380 8      -216.626          50.000
G25  24614655.867 7 129350863.939 7     -3546.711          45.000    24614654.484 7 100792866.655 7     -2763.680          43.000
G26  20480150.398 6 107623910.325 6      1070.391          38.000    20480149.508 6  83862784.337 6       834.068          38.000
G31  22620432.492 8 118871168.076 8     -2782.562          50.000    22620432.305 8  92626872.153 8     -2168.234          50.000
R09  21191918.586 8 113163663.090 8     -3800.750          50.000    21191920.797 7  88016186.015 7     -2956.139          44.000
R10  19442347.672 7 103638667.620 7     -1209.023          46.000
R20  19546042.578 5 104521460.922 5     -1035.480          33.000    19546045.453 6  81294505.082 6      -805.371          40.000
R21  21267715.883 6 113807873.184 6      2681.586          40.000    21267720.773 6  88517247.258 6      2085.678          39.000
C27  23652350.016 5 123163969.258 5     -2414.883          31.000
C29  24066004.484 5 125318031.047 5      2378.746          34.000
C30  21511249.797 8 112014796.108 8         7.605          51.000
E13  23119211.312 8 121492293.471 8      -121.023          51.000    23119212.539 8  93091576.769 8       -92.783          51.000
E21  23511609.000 8 123554342.228 8      -226.648          51.000    23511611.523 8  94671511.640 8      -173.612          51.000
E26  24404334.352 8 128245639.597 8      2298.414          50.000    24404340.523 8  98266222.307 8      1761.069          50.000
E27  25452722.117 8 133754938.194 8     -2617.199          48.000    25452724.930 8 102487561.596 8     -2005.345          51.000
> 2020 05 02 14 03 30.0000000  0 16        .000000000000
G18  20351128.898 8 106945992.788 8      -143.586          51.000    20351129.336 8  83334530.838 8      -111.885          51.000
G20  23672845.641 7 124401651.679 7      3268.879          43.000    23672846.797 5  96936351.288 5      2547.181          33.000
G21  20682719.219 8 108688443.447 8      -294.520          51.000    20682717.742 8  84692340.328 8      -229.496          51.000
G25  24634917.305 7 129457336.097 7     -3551.516          44.000    24634915.406 7 100875831.765 7     -2767.421          43.000
G26  20474082.203 5 107592027.938 5      1054.512          35.000    20474083.867 5  83837940.953 5       821.700          35.000
G31  22636350.977 8 118954818.891 8     -2794.047          50.000    22636350.555 8  92692054.548 8     -2177.182          50.000
R09  21213313.570 8 113277911.527 8     -3815.680          50.000    21213315.953 7  88105045.842 7     -2967.754          44.000
R10  19449227.469 7 103675341.907 7     -1235.801          47.000
R20  19551898.258 5 104552774.358 5     -1051.664          32.000    19551901.469 6  81318859.983 6      -817.961          39.000
R21  21252719.164 6 113727627.124 6      2668.262          39.000    21252723.812 6  88454833.639 6      2075.315          39.000
C29  24052319.883 6 125246779.531 6      2371.828          38.000
C30  21511236.797 8 112014729.784 8        -3.082          51.000
E13  23119935.906 8 121496100.256 8      -132.648          51.000    23119936.750 8  93094493.651 8      -101.697          51.000
E21  23512942.375 8 123561350.139 8      -240.570          51.000    23512944.922 8  94676881.336 8      -184.345          51.000
E26  24391238.062 8 128176815.473 8      2290.012          51.000    24391244.352 8  98213486.982 8      1754.660          50.000
E27  25467686.070 7 133833577.862 7     -2625.379          47.000    25467691.406 8 102547817.979 8     -2011.678          51.000
> 2020 05 02 14 04  0.0000000  0 16        .000000000000
G18  20352002.359 8 106950582.685 8      -161.777          51.000    20352002.688 8  83338107.392 8      -126.057          51.000
G20  23654195.969 7 124303643.312 7      3265.711          43.000    23654196.039 6  96859981.240 6      2544.713          37.000
G21  20684445.289 8 108697514.813 8      -309.523          51.000    20684444.102 8  84699408.931 8      -241.187          51.000
G25  24655201.094 7 129563929.575 7     -3554.230          42.000    24655201.055 7 100958891.444 7     -2769.536          42.000
G26  20468102.039 5 107560611.329 5      1040.156          33.000    20468106.102 5  83813460.416 5       810.508          33.000
G31  22652331.656 8 119038796.646 8     -2803.805          49.000    22652330.773 8  92757491.702 8     -2184.783          49.000
R09  21234789.094 8 113392589.940 8     -3828.953          49.000    21234791.477 7  88194240.092 7     -2978.078          44.000
R10  19456255.328 7 103712801.715 7     -1260.902          47.000
R20  19557844.844 5 104584577.969 5     -1067.902          31.000    19557848.883 6  81343596.121 6      -830.594          40.000
R21  21237797.758 6 113647774.745 6      2655.969          41.000    21237801.797 6  88392726.199 6      2065.753          39.000
C29  24038674.227 7 125175718.322 7      2366.398          42.000
C30  21511282.414 8 112014967.925 8       -12.246          51.000
E13  23120723.555 8 121500239.916 8      -142.711          51.000    23120724.406 8  93097665.598 8      -109.392          51.000
E21  23514351.656 8 123568756.080 8      -252.754          51.000    23514353.844 8  94682556.004 8      -193.696          51.000
E26  24378186.031 8 128108223.214 8      2283.270          51.000    24378191.211 8  98160929.311 8      1749.503          49.000
E27  25482694.180 7 133912446.384 7     -2632.031          47.000    25482701.102 8 102608249.689 8     -2016.706          51.000
> 2020 05 02 14 04 30.0000000  0 17        .000000000000
G18  20352979.250 8 106955715.831 8      -180.621          51.000    20352979.602 8  83342107.252 8      -140.744          51.000
G20  23635563.812 7 124205726.721 7      3261.836          43.000    23635563.023 6  96783682.722 6      2541.693          38.000
G21  20686256.453 8 108707032.853 8      -325.145          51.000    20686255.648 8  84706825.597 8      -253.359          51.000
G25  24675500.711 6 129670610.341 6     -3558.145          40.000    24675503.602 6 101042019.174 6     -2772.583          40.000
G26  20462205.375 6 107529629.265 6      1025.605          37.000    20462210.117 6  83789318.498 6       799.173          38.000
G29  22293506.078 5 117153116.227 5     -2486.281          34.000
G31  22668367.484 8 119123065.602 8     -2814.324          48.000    22668366.328 8  92823155.803 8     -2192.980          48.000
R09  21256338.344 8 113507661.764 8     -3842.789          49.000    21256340.688 7  88283740.355 7     -2988.839          45.000
R10  19463424.312 8 103751012.584 8     -1286.789          48.000
R20  19563877.094 4 104616836.254 4     -1082.469          29.000    19563881.898 6  81368685.894 6      -841.920          39.000
R21  21222944.156 6 113568283.350 6      2643.430          40.000    21222947.219 6  88330899.609 6      2056.001          37.000
C29  24025059.891 7 125104815.395 7      2360.121          44.000
C30  21511380.289 8 112015477.487 8       -22.020          51.000
E13  23121568.008 8 121504678.896 8      -153.496          51.000    23121569.336 8  93101066.905 8      -117.644          51.000
E21  23515830.711 8 123576527.725 8      -265.723          51.000    23515832.117 8  94688510.905 8      -203.597          51.000
E26  24365171.859 8 128039830.605 8      2275.895          51.000    24365175.992 8  98108524.622 8      1743.882          49.000
E27  25497739.578 7 133991510.022 7     -2639.312          46.000    25497747.430 8 102668830.891 8     -2022.294          51.000
> 2020 05 02 14 05  0.0000000  0 18        .000000000000
G18  20354064.398 8 106961417.654 8      -199.074          51.000    20354064.672 8  83346550.226 8      -155.123          51.000
G20  23616954.523 7 124107931.176 7      3258.039          43.000    23616953.016 6  96707478.518 6      2538.738          41.000
G21  20688157.375 8 108717022.968 8      -340.453          50.000    20688156.570 8  84714610.104 8      -265.288          50.000
G25  24695821.961 6 129777403.138 6     -3561.172          41.000    24695826.938 6 101125234.185 6     -2774.942          41.000
G26  20456397.234 6 107499109.294 6      1010.133          39.000    20456401.250 6  83765536.744 6       787.116          39.000
G29  22307710.836 5 117227764.827 5     -2490.844          34.000    22307712.398 5  91346365.317 5     -1940.926          33.000
G31  22684462.977 8 119207649.237 8     -2824.387          49.000    22684462.039 8  92889065.135 8     -2200.821          49.000
R09  21277965.570 8 113623150.127 8     -3856.117          48.000    21277967.789 7  88373564.615 7     -2999.205          47.000
R10  19470738.805 8 103789999.794 8     -1312.051          48.000
R20  19569998.055 5 104649576.872 5     -1099.559          30.000    19570004.031 6  81394148.453 6      -855.212          39.000
R21  21208162.156 6 113489180.356 6      2630.910          40.000    21208162.914 5  88269375.081 5      2046.263          35.000
C27  23708182.305 5 123454714.370 5     -2429.707          31.000
C29  24011481.109 7 125034096.927 7      2354.723          44.000
C30  21511534.906 8 112016283.753 8       -31.410          51.000
E13  23122474.555 8 121509442.604 8      -163.668          51.000    23122475.992 8  93104717.009 8      -125.405          51.000
E21  23517384.602 8 123584691.708 8      -278.238          51.000    23517385.219 8  94694766.424 8      -213.121          51.000
E26  24352200.266 8 127971664.359 8      2268.949          50.000    24352204.172 8  98056293.389 8      1738.531          49.000
E27  25512826.656 7 134070793.894 7     -2645.883          46.000    25512835.438 8 102729580.832 8     -2027.389          51.000
> 2020 05 02 14 05 30.0000000  0 17        .000000000000
G18  20355253.180 8 106967664.062 8      -216.246          51.000    20355253.344 8  83351417.558 8      -168.503          51.000
G20  23598364.203 6 124010236.420 6      3255.734          41.000    23598362.367 6  96631352.853 6      2536.939          40.000
G21  20690143.422 8 108727460.376 8      -354.340          50.000    20690142.562 8  84722743.158 8      -276.109          50.000
G25  24716160.445 6 129884283.252 6     -3563.125          41.000    24716166.656 6 101208517.271 6     -2776.467          41.000
G26  20450673.336 6 107469029.686 6       996.039          37.000    20450676.641 6  83742098.097 6       776.134          37.000
G31  22700613.648 8 119292521.637 8     -2832.828          50.000    22700613.219 8  92955199.436 8     -2207.399          51.000
R09  21299665.383 7 113739028.066 7     -3868.168          46.000    21299668.219 8  88463691.876 8     -3008.572          48.000
R10  19478193.461 8 103829738.718 8     -1336.188          49.000
R20  19576205.367 5 104682767.743 5     -1113.180          31.000    19576210.883 6  81419963.569 6      -865.806          39.000
R21  21193449.859 7 113410442.845 7      2619.594          42.000    21193448.281 6  88208134.835 6      2037.465          37.000
C27  23722190.305 5 123527660.361 5     -2432.039          31.000
C29  23997932.891 7 124963540.161 7      2350.090          42.000
C30  21511742.219 8 112017363.035 8       -39.605          51.000
E13  23123438.172 8 121514506.888 8      -172.797          51.000    23123439.578 8  93108597.426 8      -132.382          51.000
E21  23519008.828 8 123593225.159 8      -289.621          51.000    23519009.039 8  94701305.033 8      -221.888          51.000
E26  24339267.039 8 127903701.670 8      2262.969          50.000    24339270.445 8  98004218.118 8      1734.011          48.000
E27  25527951.125 7 134150273.701 7     -2651.539          47.000    25527960.391 8 102790480.906 8     -2031.738          51.000
> 2020 05 02 14 06  0.0000000  0 16        .000000000000
G18  20356537.641 8 106974413.013 8      -239.891          51.000    20356537.680 8  83356676.483 8      -186.928          51.000
G20  23579785.555 6 123912604.117 6      3246.684          40.000    23579783.039 6  96555275.825 6      2529.886          40.000
G21  20692206.578 8 108738303.033 8      -374.695          50.000    20692206.070 8  84731191.996 8      -291.970          50.000
G25  24736507.820 6 129991208.052 6     -3571.488          40.000    24736514.594 6 101291835.154 6     -2782.981          40.000
G26  20445026.008 6 107439350.534 6       976.246          36.000    20445029.547 5  83718971.447 5       760.711          35.000
G31  22716811.055 8 119377638.449 8     -2847.867          51.000    22716811.359 8  93021524.163 8     -2219.120          51.000
R09  21321429.188 7 113855249.827 7     -3886.484          46.000    21321433.297 8  88554086.595 8     -3022.821          48.000
R10  19485781.328 8 103870186.806 8     -1366.766          50.000
R20  19582489.234 5 104716367.562 5     -1133.938          31.000    19582493.797 6  81446096.780 6      -881.948          39.000
R21  21178797.586 6 113332029.229 6      2601.730          40.000    21178795.922 6  88147146.498 6      2023.568          39.000
C29  23984406.984 6 124893104.495 6      2339.328          41.000
C30  21511994.039 8 112018673.815 8       -54.090          51.000
E13  23124450.844 8 121519829.682 8      -188.254          51.000    23124452.453 8  93112675.935 8      -144.291          51.000
E21  23520695.383 8 123602087.207 8      -307.457          51.000    23520695.477 8  94708095.427 8      -235.587          51.000
E26  24326364.805 8 127835901.795 8      2250.695          50.000    24326367.531 8  97952267.596 8      1724.616          49.000
E27  25543105.305 8 134229907.128 8     -2663.609          49.000    25543114.102 8 102851498.672 8     -2040.870          51.000
> 2020 05 02 14 06 30.0000000  0 16        .000000000000
G18  20357946.906 8 106981818.672 8      -255.445          51.000    20357946.852 8  83362447.137 8      -199.048          51.000
G20  23561248.484 7 123815192.233 7      3245.559          42.000    23561245.484 6  96479370.529 6      2529.010          41.000
G21  20694375.992 8 108749704.441 8      -387.086          49.000    20694375.773 8  84740076.213 8      -301.625          49.000
G25  24756893.320 6 130098331.170 6     -3571.938          41.000    24756899.930 6 101375307.564 6     -2783.334          41.000
G26  20439484.695 6 107410228.413 6       963.586          38.000    20439488.422 6  83696278.893 6       750.849          39.000
G31  22733084.016 8 119463152.158 8     -2854.754          51.000    22733085.156 8  93088158.159 8     -2224.487          51.000
R09  21343287.211 8 113971969.894 8     -3896.660          50.000    21343291.742 7  88644868.820 7     -3030.739          47.000
R10  19493531.195 8 103911500.049 8     -1389.242          50.000
R20  19588878.984 5 104750532.016 5     -1145.785          31.000    19588882.805 6  81472669.109 6      -891.169          38.000
R21  21164234.336 6 113254098.138 6      2592.039          40.000    21164233.922 6  88086533.526 6      2016.033          38.000
C29  23970932.852 6 124822943.939 6      2336.176          37.000
C30  21512319.273 8 112020369.102 8       -60.629          51.000
E13  23125542.273 8 121525565.230 8      -195.781          51.000    23125544.117 8  93117070.699 8      -150.026          51.000
E21  23522473.820 8 123611433.316 8      -317.312          51.000    23522473.906 8  94715256.716 8      -243.165          51.000
E26  24313523.320 8 127768420.281 8      2246.371          50.000    24313525.742 8  97900561.038 8      1721.183          49.000
E27  25558318.172 8 134309848.209 8     -2667.547          50.000    25558325.547 8 102912752.174 8     -2044.018          49.000
> 2020 05 02 14 07  0.0000000  0 17        .000000000000
G18  20359453.039 8 106989732.961 8      -271.812          50.000    20359452.820 8  83368614.099 8      -211.805          50.000
G20  23542725.727 6 123717855.874 6      3243.871          41.000    23542722.336 6  96403524.108 6      2527.695          41.000
G21  20696623.445 8 108761515.936 8      -400.086          49.000    20696623.102 8  84749279.972 8      -311.755          49.000
G25  24777288.070 7 130205503.920 7     -3572.973          42.000    24777294.422 7 101458818.624 7     -2784.141          42.000
G26  20434021.719 6 107381517.445 6       950.598          41.000    20434025.516 6  83673906.692 6       740.725          41.000
G31  22749403.898 8 119548912.633 8     -2862.270          51.000    22749405.688 8  93154984.433 8     -2230.340          51.000
R09  21365210.562 8 114089034.944 8     -3907.340          50.000    21365214.062 7  88735919.318 7     -3039.048          46.000
R10  19501415.172 8 103953527.632 8     -1412.383          50.000
R20  19595347.180 4 104785099.078 4     -1159.359          29.000    19595350.438 6  81499549.017 6      -901.724          39.000
R21  21149733.242 6 113176500.426 6      2581.699          39.000    21149732.680 6  88026179.838 6      2007.991          36.000
C27  23764339.609 6 123747146.653 6     -2442.488          36.000
C29  23957482.289 6 124752912.804 6      2332.598          37.000
C30  21512690.680 8 112022302.288 8       -67.910          51.000
E13  23126684.133 8 121531565.395 8      -204.000          51.000    23126686.078 8  93121668.226 8      -156.321          51.000
E21  23524316.391 8 123621116.568 8      -328.078          51.000    23524316.633 8  94722676.351 8      -251.295          51.000
E26  24300714.180 8 127701110.317 8      2241.199          50.000    24300716.805 8  97848985.905 8      1717.253          49.000
E27  25573561.133 8 134389948.600 8     -2672.277          50.000    25573566.547 7 102974127.733 7     -2047.538          47.000
> 2020 05 02 14 07 30.0000000  0 17        .000000000000
G18  20361057.602 8 106998165.473 8      -282.719          50.000    20361057.391 8  83375184.902 8      -220.300          50.000
G20  23524219.453 6 123620608.703 6      3247.270          38.000    23524216.477 6  96327747.187 6      2530.343          37.000
G21  20698950.875 8 108773747.606 8      -407.699          49.000    20698950.688 8  84758811.139 8      -317.688          49.000
G25  24797694.047 7 130312735.406 7     -3568.270          43.000    24797699.867 7 101542375.444 7     -2780.476          42.000
G26  20428639.109 6 107353229.563 6       943.008          40.000    20428642.672 6  83651864.187 6       734.814          41.000
G29  22379131.281 6 117603084.666 6     -2506.219          36.000    22379105.922 6  91638725.053 6     -1952.889          36.000
G31  22765772.180 8 119634927.649 8     -2864.383          51.000    22765774.195 8  93222009.062 8     -2231.987          51.000
R09  21387199.516 8 114206452.190 8     -3912.582          50.000    21387202.148 7  88827243.750 7     -3043.122          46.000
R10  19509434.969 8 103996279.445 8     -1429.977          49.000
R21  21135295.766 6 113099247.443 6      2576.312          37.000    21135295.844 6  87966094.229 6      2003.802          37.000
C27  23778427.656 6 123820466.105 6     -2438.105          39.000
C29  23944059.172 6 124683021.751 6      2334.117          39.000
C30  21513109.805 8 112024483.201 8       -69.898          51.000
E13  23127878.164 8 121537839.871 8      -206.832          51.000    23127880.086 8  93126475.936 8      -158.485          51.000
E21  23526225.172 8 123631147.869 8      -333.289          51.000    23526225.750 8  94730362.666 8      -255.326          51.000
E26  24287939.945 8 127633982.938 8      2241.488          50.000    24287943.094 8  97797550.652 8      1717.459          50.000
E27  25588836.219 8 134470217.763 8     -2671.551          50.000    25588839.195 7 103035632.600 7     -2047.089          46.000
> 2020 05 02 14 08  0.0000000  0 16        .000000000000
G18  20362771.812 8 107007174.298 8      -314.254          50.000    20362771.422 8  83382204.763 8      -244.873          49.000
G20  23505738.727 5 123523512.921 5      3230.004          33.000    23505739.531 4  96252088.156 4      2516.880          29.000
G21  20701369.141 8 108786456.666 8      -435.949          49.000    20701369.188 8  84768714.306 8      -339.701          49.000
G25  24818121.852 7 130420083.133 7     -3584.496          42.000    24818127.062 7 101626022.833 7     -2793.123          42.000
G26  20423348.188 6 107325425.191 6       914.062          38.000    20423351.500 6  83630198.464 6       712.253          39.000
G31  22782199.656 8 119721253.279 8     -2887.039          51.000    22782201.164 8  93289275.739 8     -2249.641          51.000
R09  21409264.797 8 114324278.095 8     -3938.844          49.000    21409267.211 7  88918886.050 7     -3063.548          47.000
R10  19517601.422 8 104039813.794 8     -1468.672          49.000
R21  21120934.266 6 113022399.630 6      2550.152          38.000    21120936.164 6  87906323.761 6      1983.452          39.000
C27  23792537.305 4 123893985.554 4     -2454.293          29.000
C29  23930675.719 6 124613329.396 6      2315.281          38.000
C30  21513587.336 8 112026969.574 8       -92.402          51.000
E13  23129135.609 8 121544446.749 8      -230.195          51.000    23129137.328 8  93131538.343 8      -176.434          51.000
E21  23528211.531 8 123641586.545 8      -359.184          51.000    23528212.469 8  94738361.130 8      -275.237          51.000
E26  24275212.039 8 127567097.491 8      2220.957          51.000    24275216.133 8  97746300.809 8      1701.787          50.000
E27  25604154.484 8 134550713.639 8     -2691.395          51.000    25604155.688 7 103097311.178 7     -2062.267          46.000
> 2020 05 02 14 08 30.0000000  0 17        .000000000000
G18  20364606.016 8 107016814.419 8      -328.660          50.000    20364605.719 8  83389716.542 8      -256.099          50.000
G20  23487298.328 6 123426627.187 6      3229.242          38.000    23487302.367 6  96176592.777 6      2516.293          36.000
G21  20703888.750 8 108799698.005 8      -446.859          48.000    20703888.641 8  84779032.225 8      -348.202          48.000
G25  24838581.750 6 130527601.520 6     -3583.754          40.000    24838586.664 6 101709803.191 6     -2792.542          40.000
G26  20418159.539 6 107298161.626 6       903.230          38.000    20418163.602 6  83608954.078 6       703.813          38.000
G29  22407885.609 6 117754273.125 6     -2524.785          37.000    22407889.039 6  91756536.822 6     -1967.365          36.000
G31  22798696.477 8 119807942.769 8     -2892.402          51.000    22798696.961 8  93356825.941 8     -2253.823          51.000
R09  21431416.352 8 114442565.945 8     -3947.266          49.000    21431419.164 8  89010887.642 8     -3070.095          48.000
R10  19525925.320 8 104084186.044 8     -1489.688          48.000
R20  19615253.648 4 104891611.343 4     -1205.840          29.000    19615260.469 5  81582364.544 5      -937.875          35.000
R21  21106657.836 5 112946014.634 5      2541.727          32.000    21106662.516 6  87846913.204 6      1976.898          37.000
C29  23917341.430 5 124543891.503 5      2313.492          35.000
C30  21514134.383 8 112029816.167 8       -97.613          51.000
E13  23130466.844 8 121551441.119 8      -236.320          51.000    23130468.375 8  93136897.656 8      -181.032          51.000
E21  23530286.078 8 123652488.804 8      -367.871          51.000    23530287.562 8  94746714.788 8      -281.854          51.000
E26  24262541.219 8 127500510.357 8      2217.875          51.000    24262545.289 8  97695279.545 8      1699.390          49.000
E27  25619526.242 8 134631491.055 8     -2693.949          51.000    25619526.875 7 103159205.504 7     -2064.189          47.000
> 2020 05 02 14 09  0.0000000  0 16        .000000000000
G18  20366541.938 8 107026989.479 8      -347.941          50.000    20366542.156 8  83397645.170 8      -271.123          50.000
G20  23468883.648 7 123329858.760 7      3223.828          43.000    23468887.672 6  96101188.934 6      2512.080          40.000
G21  20706491.297 8 108813374.887 8      -463.008          48.000    20706491.000 8  84789689.536 8      -360.785          48.000
G25  24859054.602 5 130635193.709 5     -3587.434          35.000    24859060.773 5 101793641.120 5     -2795.406          35.000
G26  20413056.078 6 107271344.800 6       886.645          40.000    20413060.758 6  83588057.828 6       690.892          41.000
G31  22815243.891 8 119894897.882 8     -2902.844          50.000    22815242.984 8  93424583.116 8     -2261.959          50.000
R09  21453635.711 8 114561215.224 8     -3960.887          49.000    21453638.664 7  89103170.337 7     -3080.690          47.000
R10  19534387.914 7 104129297.540 7     -1515.926          47.000
R21  21092454.758 5 112869953.302 5      2528.023          35.000    21092452.078 5  87787742.656 5      1966.240          34.000
C27  23820809.594 5 124041204.347 5     -2457.508          32.000
C29  23904037.703 5 124474613.725 5      2306.516          34.000
C30  21514732.164 8 112032927.809 8      -108.016          51.000
E13  23131853.320 8 121558726.664 8      -247.543          51.000    23131854.852 8  93142480.102 8      -189.664          51.000
E21  23532430.883 8 123663759.610 8      -381.695          51.000    23532432.750 8  94755350.845 8      -292.456          51.000
E26  24249909.000 8 127434126.606 8      2209.535          51.000    24249912.406 8  97644414.131 8      1693.107          49.000
E27  25634933.305 8 134712453.519 8     -2701.609          51.000    25634934.344 8 103221241.626 8     -2070.052          48.000
> 2020 05 02 14 09 30.0000000  0 16        .000000000000
G18  20368574.766 8 107037672.484 8      -364.801          51.000    20368575.164 8  83405969.597 8      -284.260          50.000
G20  23450487.781 7 123233184.500 7      3220.738          45.000    23450491.039 6  96025858.442 6      2509.672          37.000
G21  20709171.578 8 108827460.176 8      -476.637          48.000    20709171.445 8  84800665.101 8      -371.405          48.000
G25  24879536.414 6 130742832.218 6     -3588.570          37.000    24879544.422 6 101877515.191 6     -2796.295          37.000
G26  20408033.180 6 107244950.053 6       872.543          41.000    20408037.734 6  83567490.488 6       679.904          41.000
G31  22831836.023 8 119982089.484 8     -2910.664          49.000    22831833.562 8  93492524.572 8     -2268.053          48.000
R09  21475916.992 8 114680196.174 8     -3971.773          48.000    21475920.070 7  89195710.993 7     -3089.160          46.000
R10  19542984.414 8 104175121.040 8     -1539.641          48.000
R21  21078314.875 6 112794274.911 6      2516.773          38.000    21078311.312 5  87728881.793 5      1957.490          34.000
C27  23834973.828 5 124114958.992 5     -2459.438          34.000
C29  23890759.266 5 124405470.573 5      2302.051          35.000
C30  21515375.391 8 112036278.019 8      -115.906          51.000
E13  23133290.031 8 121566276.487 8      -256.301          51.000    23133291.398 8  93148265.045 8      -196.365          51.000
E21  23534641.078 8 123675373.241 8      -393.090          51.000    23534642.891 8  94764249.593 8      -301.220          51.000
E26  24237310.625 8 127367920.705 8      2203.723          51.000    24237313.500 8  97593684.990 8      1688.513          49.000
E27  25650370.453 8 134793573.903 8     -2706.816          51.000    25650372.141 8 103283398.764 8     -2074.060          50.000
> 2020 05 02 14 10  0.0000000  0 16        .000000000000
G18  20370696.758 8 107048823.800 8      -383.586          51.000    20370697.289 8  83414658.949 8      -298.895          50.000
G20  23432103.352 7 123136568.599 7      3215.480          45.000    23432105.430 6  95950573.450 6      2505.572          37.000
G21  20711921.945 8 108841913.242 8      -491.910          49.000    20711921.523 8  84811927.235 8      -383.307          49.000
G26  20403083.852 7 107218940.124 7       856.258          42.000    20403087.359 7  83547222.999 7       667.214          42.000
G29  22451238.961 5 117982096.579 5     -2538.766          35.000    22451229.555 5  91934035.811 5     -1978.250          35.000
G31  22848464.672 7 120069476.206 7     -2920.125          47.000    22848461.227 7  93560618.073 7     -2275.425          47.000
R09  21498251.273 7 114799465.898 7     -3984.445          45.000    21498255.203 7  89288476.303 7     -3099.016          45.000
R10  19551707.086 7 104221615.697 7     -1565.160          47.000
R21  21064226.656 5 112718898.305 5      2503.043          33.000    21064229.516 6  87670255.611 6      1946.811          38.000
C27  23849141.703 4 124188728.964 4     -2464.617          29.000
C29  23877499.617 5 124336424.094 5      2296.004          33.000
C30  21516057.211 8 112039827.843 8      -125.664          51.000
E13  23134769.617 8 121574051.079 8      -266.852          51.000    23134770.578 8  93154222.200 8      -204.498          51.000
E21  23536909.016 8 123687291.349 8      -406.355          51.000    23536911.023 8  94773381.641 8      -311.390          51.000
E26  24224738.367 8 127301854.430 8      2195.801          50.000    24224741.352 8  97543062.822 8      1682.545          49.000
E27  25665830.078 8 134874812.466 8     -2713.980          50.000    25665832.445 8 103345646.479 8     -2079.526          51.000
> 2020 05 02 14 10 30.0000000  0 15        .000000000000
G18  20372959.922 8 107060716.312 8      -401.477          51.000    20372960.508 8  83423925.849 8      -312.839          51.000
G20  23413782.508 7 123040287.951 7      3211.004          45.000    23413781.914 5  95875549.727 5      2502.087          34.000
G21  20714794.484 8 108857007.511 8      -506.586          49.000    20714793.453 8  84823689.019 8      -394.742          49.000
G26  20398260.367 7 107193590.228 7       841.152          44.000    20398262.859 7  83527469.854 7       655.446          44.000
G31  22865181.367 7 120157329.257 7     -2928.922          45.000    22865178.070 7  93629074.941 7     -2282.280          45.000
R09  21520690.836 7 114919298.989 7     -3996.496          47.000    21520695.336 7  89381679.729 7     -3108.389          44.000
R10  19560607.742 8 104269058.174 8     -1589.859          49.000
R21  21050244.430 4 112644111.223 4      2491.270          28.000    21050252.859 6  87612081.016 6      1937.666          36.000
C27  23863362.594 5 124262792.473 5     -2465.895          30.000
C29  23864311.086 5 124267745.861 5      2290.184          34.000
C30  21516829.062 8 112043848.046 8      -134.691          51.000
E13  23136343.703 8 121582323.449 8      -276.793          51.000    23136344.781 8  93160560.771 8      -212.055          51.000
E21  23539286.859 8 123699788.154 8      -418.973          51.000    23539289.586 8  94782957.096 8      -321.007          51.000
E26  24212244.781 8 127236202.056 8      2188.754          50.000    24212248.602 8  97492757.801 8      1677.151          50.000
E27  25681363.523 8 134956442.044 8     -2720.250          49.000    25681366.836 8 103408193.791 8     -2084.320          51.000
> 2020 05 02 14 11  0.0000000  0 16        .000000000000
G18  20375302.586 8 107073026.523 8      -417.719          51.000    20375303.055 8  83433518.235 8      -325.495          51.000
G20  23395464.406 7 122944023.053 7      3208.355          45.000    23395460.875 5  95800538.223 5      2500.023          34.000
G21  20717727.422 8 108872419.090 8      -519.336          50.000    20717726.211 8  84835698.054 8      -404.677          49.000
G26  20393501.234 7 107168579.199 7       827.562          44.000    20393503.367 7  83507980.749 7       644.854          44.000
G29  22480288.141 5 118134721.386 5     -2544.969          30.000    22480283.055 4  92053000.242 4     -1983.093          29.000
G31  22881925.109 7 120245323.164 7     -2935.617          44.000    22881922.992 7  93697641.551 7     -2287.497          44.000
R09  21543175.859 8 115039364.196 8     -4006.469          50.000    21543178.820 7  89475063.677 7     -3116.142          44.000
R10  19569624.789 8 104317119.514 8     -1612.773          49.000
R21  21036317.320 6 112569549.476 6      2480.184          37.000    21036316.875 5  87554115.414 5      1929.035          33.000
C27  23877577.555 4 124336813.245 4     -2467.344          28.000
C29  23851132.250 5 124199103.318 5      2286.074          34.000
C30  21517629.406 8 112048018.404 8      -141.938          51.000
E13  23137950.977 8 121590770.192 8      -284.828          51.000    23137952.367 8  93167032.959 8      -218.314          51.000
E21  23541713.570 8 123712541.417 8      -429.848          51.000    23541716.883 8  94792729.059 8      -329.340          51.000
E26  24199768.922 8 127170641.519 8      2183.395          50.000    24199773.414 8  97442523.159 8      1673.015          50.000
E27  25696909.641 8 135038138.994 8     -2724.730          49.000    25696913.961 8 103470792.721 8     -2087.757          51.000
> 2020 05 02 14 11 30.0000000  0 15        .000000000000
G18  20377754.680 8 107085912.072 8      -439.379          51.000    20377755.055 8  83443558.933 8      -342.373          51.000
G20  23377180.156 7 122847935.704 7      3199.609          46.000    23377175.727 6  95725665.063 6      2493.205          37.000
G21  20720750.766 8 108888305.776 8      -537.801          50.000    20720749.414 8  84848077.293 8      -419.066          50.000
G26  20388836.898 7 107144067.051 7       808.355          45.000    20388839.078 7  83488880.377 7       629.890          46.000
G31  22898725.898 7 120333614.072 7     -2948.312          44.000    22898725.570 7  93766439.613 7     -2297.389          44.000
R09  21565734.508 8 115159819.476 8     -4021.961          51.000    21565736.539 7  89568751.014 7     -3128.195          46.000
R10  19578787.203 8 104365959.108 8     -1641.379          49.000
R21  21022469.352 6 112495422.034 6      2463.664          38.000    21022465.836 5  87496460.802 5      1916.183          32.000
C27  23891816.281 4 124410954.322 4     -2474.012          29.000
C29  23837993.375 6 124130680.137 6      2277.062          37.000
C30  21518488.922 8 112052495.450 8      -154.738          51.000
E13  23139621.664 8 121599549.099 8      -298.527          51.000    23139622.953 8  93173759.647 8      -228.730          51.000
E21  23544219.273 8 123725710.064 8      -446.246          51.000    23544222.945 8  94802819.319 8      -341.941          51.000
E26  24187340.914 8 127105331.905 8      2172.398          50.000    24187345.289 8  97392480.769 8      1664.583          50.000
E27  25712498.867 8 135120060.886 8     -2734.863          49.000    25712503.555 8 103533564.015 8     -2095.461          51.000
> 2020 05 02 14 12  0.0000000  0 15        .000000000000
G18  20380310.531 8 107099342.568 8      -457.039          51.000    20380310.844 8  83454024.270 8      -356.134          51.000
G20  23358924.383 7 122751999.022 7      3195.105          46.000    23358921.078 6  95650909.285 6      2489.693          40.000
G21  20723858.484 8 108904636.063 8      -552.086          51.000    20723856.984 8  84860802.198 8      -430.197          50.000
G26  20384262.172 7 107120025.764 7       793.203          46.000    20384264.453 7  83470146.901 7       618.080          46.000
G31  22915577.578 7 120422169.733 7     -2956.609          44.000    22915578.969 7  93835443.983 7     -2303.855          44.000
R09  21588359.961 8 115280631.417 8     -4033.262          51.000    21588361.711 7  89662715.772 7     -3136.981          47.000
R10  19588089.797 8 104415545.840 8     -1665.637          50.000
R21  21008687.492 6 112421680.634 6      2451.156          38.000    21008685.203 5  87439106.286 5      1906.449          33.000
C27  23906073.492 6 124485187.605 6     -2476.207          36.000
C29  23824889.742 6 124062434.584 6      2271.449          39.000
C30  21519401.867 8 112057249.449 8      -163.395          51.000
E13  23141349.852 8 121608629.946 8      -308.016          51.000    23141350.906 8  93180717.690 8      -236.036          51.000
E21  23546798.414 8 123739265.076 8      -458.574          51.000    23546802.320 8  94813205.627 8      -351.342          51.000
E26  24174954.766 8 127040244.357 8      2165.500          49.000    24174959.109 8  97342608.521 8      1659.345          50.000
E27  25728125.141 8 135202177.325 8     -2740.797          49.000    25728129.836 8 103596484.366 8     -2100.043          51.000
> 2020 05 02 14 12 30.0000000  0 15        .000000000000
G18  20382969.344 8 107113314.314 8      -474.289          51.000    20382969.570 8  83464911.359 8      -369.576          51.000
G20  23340697.062 7 122656213.330 7      3190.637          47.000    23340695.258 6  95576271.137 6      2486.210          41.000
G21  20727049.945 8 108921406.164 8      -565.930          51.000    20727048.234 8  84873869.816 8      -440.981          51.000
G26  20379776.586 7 107096454.012 7       778.246          46.000    20379778.891 7  83451779.302 7       606.426          46.000
G31  22932478.758 7 120510984.325 7     -2964.273          44.000    22932481.547 7  93904650.110 7     -2309.827          44.000
R09  21611050.727 8 115401793.596 8     -4044.164          51.000    21611052.156 7  89756952.953 7     -3145.461          47.000
R10  19597531.461 8 104465875.048 8     -1689.641          50.000
R21  20994980.312 6 112348322.817 6      2439.145          40.000    20994975.992 5  87382050.149 5      1897.112          33.000
C27  23920347.172 4 124559508.688 4     -2478.641          29.000
C29  23811819.320 6 123994364.177 6      2266.660          37.000
C30  21520367.516 8 112062277.135 8      -171.746          51.000
E13  23143134.555 8 121618009.209 8      -317.266          51.000    23143135.867 8  93187904.390 8      -243.121          51.000
E21  23549450.422 8 123753204.060 8      -470.660          51.000    23549454.773 8  94823886.145 8      -360.627          51.000
E26  24162610.312 7 126975376.612 7      2158.824          47.000    24162614.836 8  97292904.679 8      1654.290          50.000
E27  25743787.719 8 135284484.557 8     -2746.371          50.000    25743792.469 8 103659550.872 8     -2104.389          51.000
> 2020 05 02 14 13  0.0000000  0 14        .000000000000
G18  20385717.617 8 107127756.585 8      -492.586          51.000    20385717.711 8  83476165.083 8      -383.833          51.000
G20  23322485.523 7 122560512.047 7      3185.266          47.000    23322485.141 7  95501698.755 7      2482.028          44.000
G21  20730311.547 8 108938545.375 8      -580.875          51.000    20730310.008 8  84887225.063 8      -452.630          51.000
G26  20375367.375 7 107073283.501 7       762.273          46.000    20375369.453 7  83433724.354 7       593.979          46.000
G31  22949415.625 7 120599985.579 7     -2973.352          44.000    22949419.266 7  93974001.679 7     -2316.897          43.000
R09  21633792.609 7 115523231.731 7     -4055.898          47.000    21633794.078 7  89851404.790 7     -3154.588          46.000
R10  19607098.758 8 104516875.051 8     -1714.547          50.000
R21  20981331.125 6 112275278.175 6      2425.992          41.000    20981326.688 5  87325237.782 5      1886.889          33.000
C29  23798768.039 5 123926400.249 5      2260.371          33.000
C30  21521372.469 8 112067508.875 8      -181.109          51.000
E13  23144962.570 8 121627616.361 8      -327.426          51.000    23144964.188 8  93195265.714 8      -250.891          51.000
E21  23552162.266 8 123767457.651 8      -483.789          51.000    23552167.203 8  94834807.710 8      -370.728          51.000
E26  24150295.000 8 126910659.437 8      2151.211          48.000    24150299.648 8  97243316.223 8      1648.372          51.000
E27  25759473.141 8 135366911.813 8     -2752.930          51.000    25759477.906 8 103722709.351 8     -2109.460          51.000
> 2020 05 02 14 13 30.0000000  0 13        .000000000000
G18  20388606.289 8 107142936.630 8      -511.418          51.000    20388606.398 8  83487993.694 8      -398.508          51.000
G20  23304341.547 7 122465166.475 7      3179.070          47.000    23304342.469 7  95427403.558 7      2477.201          44.000
G21  20733694.203 8 108956320.655 8      -596.184          51.000    20733692.828 8  84901075.937 8      -464.559          51.000
G26  20371085.688 7 107050783.810 7       745.656          47.000    20371087.836 7  83416192.127 7       581.028          47.000
G31  22966438.398 7 120689438.769 7     -2982.402          42.000    22966442.805 7  94043705.435 7     -2323.950          42.000
R09  21656634.914 6 115645215.012 6     -4068.227          41.000    21656637.797 7  89946280.651 7     -3164.176          43.000
R10  19616842.750 8 104568815.924 8     -1740.020          50.000
R21  20967790.438 6 112202820.669 6      2412.551          39.000    20967787.352 5  87268882.050 5      1876.428          35.000
C30  21522467.555 8 112073209.884 8      -191.066          51.000
E13  23146884.984 8 121637718.849 8      -338.191          51.000    23146886.523 8  93203006.577 8      -259.140          51.000
E21  23554985.469 8 123782294.428 8      -497.457          51.000    23554990.531 8  94846176.132 8      -381.153          51.000
E26  24138059.977 8 126846361.548 8      2143.059          48.000    24138064.680 8  97194049.045 8      1642.087          51.000
E27  25775232.281 8 135449726.286 8     -2760.059          50.000    25775236.898 8 103786164.564 8     -2114.886          51.000
> 2020 05 02 14 14  0.0000000  0 15        .000000000000
G18  20391581.711 8 107158572.331 8      -529.020          51.000    20391581.750 8  83500177.367 8      -412.223          50.000
G20  23286212.172 7 122369898.324 7      3174.000          47.000    23286213.992 7  95353168.689 7      2473.250          44.000
G21  20737144.023 8 108974449.530 8      -610.602          51.000    20737142.609 8  84915202.334 8      -475.793          51.000
G26  20366878.430 7 107028675.245 7       730.043          47.000    20366880.664 7  83398964.668 7       568.865          47.000
G31  22983493.133 7 120779060.258 7     -2990.375          42.000    22983498.344 7  94113540.382 7     -2330.162          42.000
R09  21679523.516 6 115767453.915 6     -4079.016          41.000    21679529.055 6  90041355.420 6     -3172.568          39.000
R10  19626709.195 8 104621411.225 8     -1764.441          50.000
R21  20954301.758 5 112130664.781 5      2399.547          35.000    20954303.805 5  87212760.743 5      1866.308          33.000
C27  23963278.383 5 124783070.422 5     -2488.340          30.000
C29  23772828.789 4 123791326.298 4      2246.723          29.000
C30  21523599.219 8 112079101.129 8      -199.914          51.000
E13  23148847.781 8 121648034.750 8      -347.781          51.000    23148849.344 8  93210910.981 8      -266.509          51.000
E21  23557866.414 8 123797433.621 8      -510.082          51.000    23557871.250 8  94857776.290 8      -390.815          51.000
E26  24125851.734 8 126782202.409 8      2135.938          48.000    24125856.477 8  97144888.164 8      1636.609          51.000
E27  25791011.039 8 135532645.927 8     -2766.102          50.000    25791015.445 8 103849700.357 8     -2119.447          51.000
> 2020 05 02 14 14 30.0000000  0 16        .000000000000
G18  20394645.148 8 107174670.183 8      -543.941          51.000    20394644.836 8  83512721.143 8      -423.850          49.000
G20  23268099.508 7 122274718.355 7      3171.430          47.000    23268101.961 7  95279002.541 7      2471.247          44.000
G21  20740662.289 8 108992938.189 8      -621.891          51.000    20740661.047 8  84929609.090 8      -484.587          51.000
G26  20362747.328 8 107006966.680 8       717.121          48.000    20362749.422 8  83382048.895 8       558.796          48.000
G29  22582750.359 5 118673153.708 5     -2575.988          34.000
G31  23000581.117 7 120868854.766 7     -2995.512          45.000    23000586.133 7  94183510.114 7     -2334.168          45.000
R09  21702463.086 7 115889952.997 7     -4087.176          44.000    21702468.836 4  90136645.000 4     -3178.914          28.000
R10  19636699.719 8 104674666.685 8     -1785.863          50.000
R21  20940874.797 5 112058818.381 5      2389.770          34.000    20940877.680 5  87156880.223 5      1858.716          33.000
C27  23977620.484 5 124857725.365 5     -2487.883          32.000
