     3.02           OBSERVATION DATA    M (MIXED)           RINEX VERSION / TYPE
SAVERINEX           SC600               20200507 015932 LCL PGM / RUN BY / DATE
       G = GPS       R = GLONASS       C = COMPASS          COMMENT
       S = SBAS      J = QZSS          E = GALILEO          COMMENT
BEAN                                                        MARKER NAME
1                                                           MARKER NUMBER
GEODETIC                                                    MARKER TYPE
Unige DICCA         GTER                                    OBSERVER / AGENCY
SC60291900056       SC600               2.12(191226)        REC # / TYPE / VERS
                    HEMA45          NONE                    ANT # / TYPE
  4509407.8091   693652.4678  4442337.6214                  APPROX POSITION XYZ
        0.0000        0.0000        0.0000                  ANTENNA: DELTA H/E/N
G    8 C1C L1C D1C S1C C2Y L2Y D2Y S2Y                      SYS / # / OBS TYPES
R    8 C1C L1C D1C S1C C2P L2P D2P S2P                      SYS / # / OBS TYPES
C    4 C1I L1I D1I S1I                                      SYS / # / OBS TYPES
E    8 C1C L1C D1C S1C C7Q L7Q D7Q S7Q                      SYS / # / OBS TYPES
DBHZ                                                        COMMENT
     30.000                                                 INTERVAL
  2020    05    06    23    00    0.0000000     GPS         TIME OF FIRST OBS
  2020    05    06    23    59   30.0000000     GPS         TIME OF LAST OBS
     0                                                      RCV CLOCK OFFS APPL
G L1C  0.00000                                              SYS / PHASE SHIFT
G L2Y  0.00000                                              SYS / PHASE SHIFT
R L1C  0.00000                                              SYS / PHASE SHIFT
R L2P  0.25000                                              SYS / PHASE SHIFT
C L1I  0.00000                                              SYS / PHASE SHIFT
E L1C  0.50000                                              SYS / PHASE SHIFT
E L7Q -0.25000                                              SYS / PHASE SHIFT
 14 R04  6 R05  1 R06 -4 R07  5 R10 -5 R13 -2 R14 -7 R15  0 GLONASS SLOT / FRQ #
    R16 -1 R18 -3 R19  3 R20  2 R21  4 R22 -3               GLONASS SLOT / FRQ #
 C1C   71.950 C2C   71.950 C2P   71.950                     GLONASS COD/PHS/BIS
    18                                                      LEAP SECONDS
*** Above antenna height is from mark to ANTENNA BOTTOM.    COMMENT
    17     4        0.0000        ANT MEASURE TYPE/HEIGT    COMMENT
    0.0000    0.0000    0.0458    0.0405    0.0000          COMMENT
                    BASE STATION                            COMMENT
                                                            END OF HEADER
> 2020 05 06 23 00  0.0000000  0 14        .000000000000
G01  24215589.359 6 127253760.720 6     -3717.418          39.000    24215595.117 6  99158779.306 6     -2896.689          40.000
G03  21403850.312 7 112478005.825 7     -1890.371          42.000    21403852.742 7  87645196.641 7     -1473.016          42.000
G04  20271220.594 8 106526052.125 8      -352.059          51.000    20271221.008 8  83007318.680 8      -274.331          51.000
G09  21037113.625 8 110550884.142 8      1945.234          51.000    21037115.156 8  86143499.946 8      1515.767          51.000
G17  23074918.086 8 121259492.151 8     -2349.551          51.000    23074916.719 7  94487904.687 7     -1830.819          45.000
G19  22579816.547 6 118657773.036 6     -1720.383          39.000
R21  19884932.031 6 106408294.201 6      -570.809          39.000    19884933.938 6  82762007.562 6      -443.959          36.000
C24  25337924.797 5 131941197.006 5      -366.781          33.000
C25  24598922.867 6 128093020.887 6      2216.199          37.000
C27  23342685.680 8 121551469.188 8     -2322.809          48.000
E07  24723721.438 5 129924033.113 5     -1807.352          32.000    24723725.734 7  99552201.447 7     -1384.977          43.000
E19  26624369.969 7 139911992.957 7      2222.008          45.000    26624368.156 7 107205316.479 7      1702.595          42.000
E26  24156869.648 8 126945202.337 8     -2655.605          50.000    24156873.516 8  97269707.096 8     -2034.776          51.000
E33  23960087.031 8 125911104.431 8      -147.617          49.000    23960086.758 7  96477349.623 7      -113.166          47.000
> 2020 05 06 23 00 30.0000000  0 15        .000000000000
G01  24236789.094 6 127365164.904 6     -3715.676          40.000    24236794.633 6  99245587.771 6     -2895.332          39.000
G03  21414630.984 6 112534659.772 6     -1892.602          38.000    21414633.055 6  87689342.608 6     -1474.754          38.000
G04  20273241.297 8 106536670.730 8      -361.949          51.000    20273241.719 8  83015592.932 8      -282.038          51.000
G09  21026013.000 8 110492550.685 8      1937.719          51.000    21026014.594 8  86098045.308 8      1509.911          51.000
G17  23088329.547 8 121329969.035 8     -2354.867          51.000    23088327.570 7  94542821.724 7     -1834.961          46.000
G19  22589667.969 5 118709511.798 5     -1731.902          34.000
R14  23058925.141 5 122917015.095 5     -1252.262          32.000    23058935.453 4  95602190.502 4      -973.978          28.000
R21  19888176.586 6 106425659.481 6      -592.945          40.000    19888177.938 5  82775513.879 5      -461.180          34.000
C24  25340055.828 4 131952318.699 4      -378.145          29.000
C25  24586150.094 6 128026514.296 6      2211.895          37.000
C27  23356068.008 8 121621153.407 8     -2328.789          48.000
E07  24734017.969 5 129978142.335 5     -1806.203          34.000    24734021.703 7  99593663.288 7     -1383.743          42.000
E19  26611665.688 7 139845231.080 7      2222.906          44.000    26611663.797 7 107154161.314 7      1703.332          42.000
E26  24172019.211 8 127024813.546 8     -2657.781          49.000    24172023.414 8  97330707.887 8     -2036.569          51.000
E33  23960936.750 8 125915570.442 8      -156.176          49.000    23960935.992 7  96480771.623 7      -119.622          47.000
> 2020 05 06 23 01  0.0000000  0 14        .000000000000
G01  24258016.391 7 127476713.408 7     -3717.004          42.000    24258021.977 6  99332508.685 6     -2896.367          41.000
G03  21425463.352 6 112591584.433 6     -1898.434          37.000    21425464.516 6  87733699.434 6     -1479.302          36.000
G04  20275356.602 8 106547786.351 8      -375.227          51.000    20275357.047 8  83024254.467 8      -292.384          51.000
G09  21014994.031 8 110434645.700 8      1926.602          51.000    21014995.594 8  86052924.543 8      1501.248          51.000
G17  23101808.891 8 121400803.398 8     -2363.602          50.000    23101807.055 7  94598017.309 7     -1841.767          46.000
R14  23066045.711 5 122954993.587 5     -1273.906          30.000    23066051.320 4  95631692.644 4      -990.822          24.000
R15  22191087.695 5 118582444.938 5      2081.113          32.000    22191092.805 4  92230797.894 4      1618.635          28.000
R21  19891581.594 6 106443884.394 6      -618.781          38.000    19891586.016 5  82789690.988 5      -481.274          35.000
C25  24573440.250 5 127960339.915 5      2203.918          35.000
C27  23369521.914 8 121691211.145 8     -2337.934          49.000
E07  24744344.055 6 130032405.626 6     -1807.875          37.000    24744346.727 6  99635241.617 6     -1385.138          41.000
E19  26598992.891 7 139778637.998 7      2220.660          43.000    26598991.969 7 107103135.477 7      1701.542          42.000
E26  24187218.812 8 127104689.010 8     -2663.312          48.000    24187223.289 8  97391911.156 8     -2040.690          51.000
E33  23961872.914 8 125920491.687 8      -168.020          49.000    23961872.414 7  96484542.440 7      -128.679          47.000
> 2020 05 06 23 01 30.0000000  0 15        .000000000000
G01  24279261.992 6 127588356.467 6     -3723.594          41.000    24279267.406 6  99419503.251 6     -2901.505          41.000
G03  21436338.219 6 112648731.353 6     -1909.297          37.000    21436339.703 6  87778229.534 6     -1487.764          38.000
G04  20277557.070 8 106559350.057 8      -393.688          51.000    20277557.680 8  83033265.169 8      -306.769          51.000
G09  21004047.812 8 110377122.065 8      1910.445          51.000    21004049.102 8  86008100.923 8      1488.659          51.000
G17  23115346.445 8 121471944.285 8     -2377.078          48.000    23115345.180 8  94653451.754 8     -1852.269          48.000
G19  22609630.000 4 118814407.586 4     -1766.930          28.000
R05  20830742.094 6 111352239.142 6     -2411.211          36.000    20830714.516 5  86607206.762 5     -1875.386          34.000
R15  22179479.555 5 118520408.521 5      2057.008          30.000
R21  19895144.992 6 106462928.737 6      -649.527          38.000    19895149.758 6  82804518.401 6      -505.191          36.000
C25  24560786.430 5 127894452.619 5      2190.820          33.000
C27  23383038.242 8 121761592.898 8     -2352.055          49.000
E07  24754690.312 6 130086772.139 6     -1814.508          37.000    24754691.953 6  99676899.069 6     -1390.382          41.000
E19  26586342.859 7 139712165.899 7      2213.164          42.000    26586342.922 7 107052202.352 7      1695.642          42.000
E26  24202459.016 8 127184779.438 8     -2673.883          48.000    24202464.039 8  97453279.168 8     -2048.804          51.000
E33  23962886.688 8 125925820.591 8      -185.035          50.000    23962886.734 8  96488625.626 8      -141.801          48.000
> 2020 05 06 23 02  0.0000000  0 16        .000000000000
G01  24300527.000 6 127700103.288 6     -3725.762          40.000    24300531.906 6  99506578.577 6     -2903.200          39.000
G03  21447257.617 6 112706111.578 6     -1915.543          36.000    21447258.102 6  87822941.381 6     -1492.631          37.000
G04  20279844.781 8 106571371.912 8      -407.250          51.000    20279845.562 8  83042632.843 8      -317.338          51.000
G09  20993176.734 8 110319991.670 8      1898.719          51.000    20993177.469 8  85963583.734 8      1479.521          51.000
G17  23128943.797 8 121543399.868 8     -2386.246          48.000    23128943.172 7  94709131.438 7     -1859.413          47.000
G19  22619768.039 5 118867674.445 5     -1782.879          31.000
G22  23481839.141 5 123397898.711 5     -2611.516          32.000
R05  20844282.133 5 111424641.482 5     -2415.285          34.000    20844261.344 5  86663519.651 5     -1878.558          35.000
R21  19898861.102 5 106482824.193 5      -676.020          35.000    19898864.883 5  82819992.711 5      -525.793          33.000
C24  25346998.844 4 131988477.714 4      -425.121          29.000
C25  24548190.148 6 127828865.761 6      2182.078          36.000
C27  23396618.570 8 121832307.575 8     -2361.707          50.000
E07  24765057.719 6 130141252.195 6     -1817.188          36.000    24765059.602 6  99718643.541 6     -1392.411          40.000
E19  26573718.234 7 139645826.329 7      2210.129          42.000    26573718.977 7 107001370.751 7      1693.508          42.000
E26  24217742.289 8 127265094.636 8     -2679.984          49.000    24217747.609 8  97514819.407 8     -2053.474          51.000
E33  23963980.703 8 125931568.599 8      -197.668          50.000    23963980.938 8  96493029.953 8      -151.499          49.000
> 2020 05 06 23 02 30.0000000  0 14        .000000000000
G01  24321810.375 6 127811948.928 6     -3729.082          38.000    24321815.852 6  99593730.942 6     -2905.775          38.000
G04  20282218.805 8 106583847.821 8      -422.836          51.000    20282219.766 8  83052354.338 8      -329.483          51.000
G09  20982379.992 8 110263252.115 8      1885.301          51.000    20982380.172 8  85919371.108 8      1469.066          51.000
G17  23142600.219 8 121615164.688 8     -2396.660          50.000    23142599.773 7  94765052.088 7     -1867.524          46.000
R05  20857856.344 5 111497212.703 5     -2421.551          34.000    20857835.766 5  86719963.907 5     -1883.425          32.000
R14  23088201.625 5 123073077.308 5     -1347.223          31.000    23088201.742 5  95723512.175 5     -1047.843          30.000
R20  22143202.414 4 118409650.862 4     -4285.703          28.000    22143209.289 6  92096413.390 6     -3333.325          37.000
R21  19902731.609 6 106503549.918 6      -703.434          36.000    19902736.680 5  82836112.707 5      -547.115          34.000
C25  24535653.414 5 127763578.821 5      2171.816          35.000
C27  23410261.422 8 121903350.012 8     -2373.004          50.000
E07  24775445.297 5 130195844.880 5     -1821.184          32.000    24775448.359 6  99760471.966 6     -1395.330          40.000
E19  26561118.680 6 139579616.657 6      2205.316          41.000    26561119.695 7 106950638.676 7      1689.914          42.000
E26  24233068.117 8 127345630.113 8     -2687.629          51.000    24233072.875 8  97576528.424 8     -2059.439          51.000
E33  23965153.898 8 125937732.930 8      -211.887          49.000    23965154.461 8  96497753.250 8      -162.358          49.000
> 2020 05 06 23 03  0.0000000  0 16        .000000000000
G01  24343127.383 6 127923969.449 6     -3736.422          36.000    24343132.734 5  99681019.664 5     -2911.498          35.000
G03  21469242.031 5 112821628.293 5     -1935.465          33.000
G04  20284693.906 8 106596854.714 8      -442.105          51.000    20284694.641 8  83062489.575 8      -344.498          51.000
G09  20971672.109 8 110206982.165 8      1868.191          51.000    20971672.398 8  85875524.406 8      1455.734          51.000
G17  23156330.156 8 121687314.264 8     -2410.945          51.000    23156329.289 7  94821272.530 7     -1878.659          46.000
G19  22640345.086 5 118975803.192 5     -1821.105          32.000
R05  20871458.320 5 111569905.100 5     -2430.672          32.000
R20  22167298.031 4 118538487.621 4     -4299.703          28.000    22167302.516 6  92196634.835 6     -3344.214          36.000
R21  19906775.492 6 106525198.715 6      -735.828          36.000    19906780.609 5  82852937.748 5      -572.311          35.000
C24  25352112.352 5 132015041.119 5      -460.637          32.000
C25  24523189.812 5 127698671.281 5      2157.621          34.000
C27  23423981.188 8 121974795.381 8     -2387.910          50.000
E07                                                                  24785871.977 6  99802443.496 6     -1401.097          39.000
E19  26548558.789 6 139513614.874 6      2196.855          40.000    26548559.500 6 106900065.895 6      1683.332          41.000
E26  24248450.836 8 127426462.499 8     -2699.000          51.000    24248454.477 8  97638464.916 8     -2068.101          51.000
E33  23966421.062 8 125944391.832 8      -229.891          49.000    23966421.836 8  96502855.512 8      -176.183          50.000
> 2020 05 06 23 03 30.0000000  0 15        .000000000000
G01  24364450.812 5 128036022.621 5     -3738.008          35.000    24364455.797 5  99768333.812 5     -2912.730          35.000
G03  21480321.289 4 112879849.871 4     -1940.000          29.000
G04  20287243.117 8 106610251.156 8      -455.262          51.000    20287243.984 8  83072928.353 8      -354.749          51.000
G09  20961026.820 8 110151042.185 8      1856.867          51.000    20961027.297 8  85831934.816 8      1446.909          51.000
G17  23170105.992 8 121759704.985 8     -2419.168          50.000    23170104.820 7  94877680.847 7     -1885.066          45.000
G19  22650772.930 6 119030596.415 6     -1836.449          37.000
G22  23526702.352 5 123633633.280 5     -2626.043          33.000    23526685.562 5  96337844.169 5     -2046.267          33.000
R21  19910966.430 6 106547598.768 6      -761.785          38.000    19910966.523 5  82870360.005 5      -592.497          35.000
C24  25354794.359 5 132029011.154 5      -474.199          32.000
C25  24510773.898 5 127634006.413 5      2149.324          32.000
C27  23437751.078 8 122046502.469 8     -2396.809          50.000
E07                                                                  24796303.789 6  99844449.962 6     -1402.537          37.000
E19  26536011.945 6 139447681.080 6      2194.441          40.000    26536012.367 6 106849545.195 6      1681.461          41.000
E26  24263863.047 8 127507450.039 8     -2704.430          51.000    24263865.734 8  97700520.282 8     -2072.210          51.000
E33  23967755.719 8 125951405.247 8      -241.988          49.000    23967756.352 8  96508229.421 8      -185.417          50.000
> 2020 05 06 23 04  0.0000000  0 14        .000000000000
G01  24385808.367 6 128148256.287 6     -3742.410          36.000    24385813.070 6  99855788.620 6     -2916.167          36.000
G03  21491408.453 5 112938120.393 5     -1950.359          35.000
G04  20289894.789 8 106624185.914 8      -471.578          51.000    20289895.797 8  83083786.610 8      -367.463          51.000
G09  20950472.992 8 110095582.655 8      1842.289          51.000    20950473.539 8  85788719.618 8      1435.550          51.000
G17  23183955.523 8 121832484.047 8     -2430.648          48.000    23183954.250 7  94934391.795 7     -1894.012          45.000
G19  22661312.391 6 119085975.472 6     -1853.719          41.000    22661312.820 5  92794288.741 5     -1444.450          31.000
R07  23078173.609 5 123539256.606 5      3012.496          31.000
R21  19915323.062 6 106570915.952 6      -790.602          36.000    19915324.430 5  82888495.562 5      -614.915          35.000
C24  25357583.109 5 132043540.295 5      -492.316          30.000
C27  23451599.930 8 122118617.643 8     -2408.879          51.000
E07  24806771.891 5 130360463.660 5     -1835.055          33.000    24806772.555 6  99886605.453 6     -1405.979          36.000
E19  26523506.562 6 139381965.173 6      2188.688          39.000    26523507.023 6 106799191.465 6      1677.133          41.000
E26  24279332.773 8 127588741.119 8     -2713.070          51.000    24279335.125 8  97762808.239 8     -2078.828          51.000
E33  23969186.242 8 125958923.229 8      -257.344          50.000    23969187.008 8  96513989.954 8      -197.105          51.000
> 2020 05 06 23 04 30.0000000  0 15        .000000000000
G01  24407177.477 6 128260549.631 6     -3744.613          37.000    24407181.461 6  99943289.964 6     -2917.877          36.000
G03  21502561.680 6 112996717.405 6     -1957.219          36.000    21502560.297 6  88049384.625 6     -1525.102          36.000
G04  20292626.047 8 106638538.956 8      -486.164          51.000    20292626.859 8  83094970.801 8      -378.829          51.000
G09  20939987.875 8 110040485.296 8      1829.820          51.000    20939988.766 8  85745786.653 8      1425.837          51.000
G17  23197855.391 7 121905529.358 7     -2439.918          46.000    23197854.102 7  94991310.239 7     -1901.232          45.000
G19  22671939.070 6 119141819.076 6     -1870.117          41.000    22671939.250 5  92837803.246 5     -1457.231          34.000
G22  23556753.922 5 123791592.128 5     -2635.918          34.000
R05  20912500.406 5 111789284.732 5     -2446.629          33.000    20912511.742 5  86947275.047 5     -1902.937          33.000
R07  23061295.625 5 123448934.968 5      3007.184          31.000
R21  19919830.281 6 106595028.068 6      -817.973          39.000    19919830.203 5  82907249.410 5      -636.201          35.000
C27  23465504.773 8 122191020.922 8     -2418.973          51.000
E07                                                                  24817255.625 5  99928818.269 5     -1408.715          35.000
E19  26511020.336 6 139316348.558 6      2184.688          38.000    26511020.852 6 106748913.787 6      1674.227          41.000
E26  24294837.047 8 127670215.394 8     -2719.691          51.000    24294839.430 8  97825236.558 8     -2083.904          51.000
E33  23970690.031 8 125966827.036 8      -270.684          49.000    23970691.172 8  96520046.141 8      -207.371          51.000
> 2020 05 06 23 05  0.0000000  0 16        .000000000000
G01  24428573.039 6 128372982.285 6     -3749.969          37.000    24428576.352 6 100030899.880 6     -2922.054          36.000
G03  21513764.828 5 113055592.657 5     -1966.891          34.000    21513762.820 5  88095261.411 5     -1532.642          33.000
G04  20295452.195 8 106653390.643 8      -503.055          51.000    20295453.000 8  83106543.556 8      -391.991          51.000
G09  20929587.477 8 109985832.327 8      1814.590          51.000    20929588.922 8  85703199.950 8      1413.966          51.000
G17  23211821.070 7 121978920.193 7     -2451.957          46.000    23211819.602 7  95048497.871 7     -1910.616          46.000
G19  22682668.398 6 119198206.218 6     -1888.484          41.000    22682668.492 5  92881741.190 5     -1471.549          31.000
G22  23571820.641 4 123870752.001 4     -2642.148          29.000
R05  20926265.039 5 111862852.208 5     -2453.996          34.000    20926261.117 5  87004458.837 5     -1908.661          34.000
R07  23044464.484 5 123358811.886 5      3000.883          32.000
R15  22101529.734 5 118103916.237 5      1906.617          30.000
R21  19924501.523 6 106620017.384 6      -847.320          39.000    19924501.086 5  82926685.518 5      -659.027          35.000
C27  23479480.266 8 122263790.874 8     -2431.461          51.000
E07  24827769.203 5 130470802.862 5     -1843.926          32.000    24827768.586 5  99971150.191 5     -1412.755          35.000
E19  26498568.445 6 139250913.026 6      2178.336          39.000    26498569.227 6 106698774.896 6      1668.953          40.000
E26  24310391.031 8 127751952.934 8     -2728.758          51.000    24310393.719 8  97887866.619 8     -2090.890          51.000
E33  23972282.500 8 125975198.457 8      -286.641          48.000    23972284.469 8  96526460.614 8      -219.595          51.000
> 2020 05 06 23 05 30.0000000  0 14        .000000000000
G01  24449995.688 6 128485558.991 6     -3752.664          38.000    24449998.773 6 100118622.016 6     -2924.154          38.000
G03  21525020.406 6 113114752.365 6     -1974.621          37.000    21525020.023 6  88141359.795 6     -1538.669          37.000
G04  20298374.328 8 106668746.596 8      -518.141          51.000    20298375.070 8  83118509.227 8      -403.746          51.000
G09  20919273.375 8 109931631.162 8      1801.375          51.000    20919275.195 8  85660965.288 8      1403.669          51.000
G17  23225853.383 7 122052660.331 7     -2461.527          47.000    23225852.031 7  95105957.661 7     -1918.076          45.000
G19  22693502.148 6 119255140.963 6     -1904.625          41.000    22693502.664 5  92926105.869 5     -1484.126          33.000
R05  20940052.508 4 111936582.502 4     -2459.281          29.000    20940054.883 5  87061810.770 5     -1912.777          31.000
R07  23027667.695 5 123268855.634 5      2996.539          33.000
R21  19929336.898 6 106645889.678 6      -874.980          38.000    19929337.094 5  82946808.379 5      -680.543          35.000
C27  23493526.625 8 122336932.039 8     -2442.090          51.000
E07  24838314.266 5 130526221.850 5     -1847.832          33.000    24838313.211 6 100013605.705 6     -1415.419          36.000
E19  26486153.117 6 139185665.617 6      2174.070          40.000    26486153.000 6 106648780.092 6      1665.711          40.000
E26  24325995.375 8 127833959.028 8     -2735.922          48.000    24325999.125 8  97950702.457 8     -2096.356          51.000
E33  23973965.328 8 125984044.424 8      -300.738          48.000    23973968.000 8  96533238.678 8      -230.442          51.000
> 2020 05 06 23 06  0.0000000  0 16        .000000000000
G01  24471425.180 6 128598170.577 6     -3758.504          37.000    24471427.898 6 100206371.278 6     -2928.704          37.000
G03  21536311.797 6 113174088.705 6     -1984.887          40.000    21536311.688 6  88187595.920 6     -1546.665          40.000
G04  20301371.844 8 106684498.311 8      -535.609          51.000    20301372.328 8  83130783.281 8      -417.358          51.000
G09  20909025.109 8 109877775.083 8      1785.609          51.000    20909026.570 8  85618999.524 8      1391.384          51.000
G17  23239931.234 7 122126639.825 7     -2473.902          46.000    23239930.555 7  95163603.984 7     -1927.716          46.000
G19  22704418.531 6 119312513.246 6     -1923.766          38.000    22704419.336 4  92970811.600 4     -1499.038          29.000
G22  23602040.086 5 124029556.830 5     -2652.398          31.000
R05  20953862.547 5 112010428.987 5     -2467.070          34.000    20953863.305 5  87119246.978 5     -1918.832          31.000
R21  19934315.586 6 106672534.556 6      -904.816          39.000    19934316.500 5  82967532.202 5      -703.743          34.000
C24  25369665.359 5 132106450.568 5      -558.730          32.000
C25  24449676.430 5 127315867.495 5      2091.680          31.000
C27  23507622.336 8 122410335.875 8     -2455.004          49.000
E07  24848868.492 5 130581685.001 5     -1853.145          31.000    24848868.320 5 100056101.977 5     -1420.517          35.000
E19  26473752.969 6 139120499.082 6      2166.945          38.000    26473752.805 6 106598847.355 6      1660.330          40.000
E26  24341629.344 7 127916124.918 7     -2745.418          46.000    24341634.883 8  98013660.766 8     -2103.593          51.000
E33  23975718.562 8 125993257.743 8      -317.164          50.000    23975721.070 8  96540298.231 8      -243.007          51.000
> 2020 05 06 23 06 30.0000000  0 16        .000000000000
G01  24492882.297 6 128710926.059 6     -3760.531          38.000    24492884.766 6 100294232.625 6     -2930.287          39.000
G03  21547657.578 5 113233712.446 5     -1991.570          34.000    21547658.852 5  88234055.836 5     -1551.882          35.000
G04  20304465.430 8 106700755.645 8      -550.059          51.000    20304465.930 8  83143451.346 8      -428.617          51.000
G09  20898863.805 8 109824375.668 8      1772.617          51.000    20898864.375 8  85577389.586 8      1381.260          51.000
G17  23254075.000 7 122200966.400 7     -2483.109          44.000    23254075.523 7  95221520.821 7     -1934.887          44.000
G19  22715437.898 5 119370431.615 5     -1939.621          35.000    22715441.531 4  93015942.962 4     -1511.372          29.000
G22  23617187.984 5 124109161.845 5     -2657.336          32.000
R05  20967716.195 5 112084495.241 5     -2472.496          33.000    20967718.844 5  87176854.103 5     -1923.056          31.000
R15  22069967.859 5 117935208.005 5      1839.434          31.000
R21  19939458.125 6 106700064.249 6      -932.227          36.000    19939460.234 5  82988944.164 5      -725.068          34.000
C25  24437651.414 5 127253249.420 5      2081.230          35.000
C27  23521788.305 7 122484110.076 7     -2465.059          46.000
E07                                                                  24859453.906 5 100098723.327 5     -1422.507          34.000
E19  26461389.219 6 139055524.810 6      2162.766          38.000    26461388.406 6 106549061.923 6      1657.118          38.000
E26  24357314.703 7 127998560.053 7     -2752.047          47.000    24357321.977 8  98076825.417 8     -2108.828          51.000
E33  23977563.156 8 126002949.550 8      -330.828          51.000    23977565.148 8  96547724.422 8      -253.504          51.000
> 2020 05 06 23 07  0.0000000  0 16        .000000000000
G01  24514361.469 6 128823798.843 6     -3763.293          40.000    24514364.195 6 100382185.437 6     -2932.436          40.000
G03  21559053.609 6 113293598.725 6     -1999.156          39.000    21559054.609 6  88280720.339 6     -1557.784          39.000
G04  20307650.383 8 106717492.831 8      -564.789          51.000    20307650.812 8  83156493.315 8      -440.095          51.000
G09  20888784.867 8 109771408.928 8      1759.410          51.000    20888784.922 8  85536116.786 8      1370.969          51.000
G17  23268279.258 7 122275612.734 7     -2492.363          44.000    23268281.133 7  95279686.842 7     -1942.101          45.000
G19  22726557.289 6 119428869.000 6     -1955.301          37.000    22726562.828 5  93061478.527 5     -1523.608          33.000
R07  22977399.117 5 122999834.899 5      2980.590          31.000    22977433.141 4  95666632.650 4      2318.230          24.000
R16  23546821.102 6 125782896.510 6      4067.828          39.000    23546828.109 6  97831157.604 6      3163.866          39.000
R20  22361864.344 4 119578932.273 4     -4372.047          29.000
R21  19944762.766 6 106728452.425 6      -959.117          39.000    19944765.391 5  83011023.826 5      -745.980          34.000
C25  24425695.680 5 127190988.037 5      2070.016          34.000
C27  23536021.102 7 122558228.164 7     -2475.301          46.000
E07                                                                  24870066.227 5 100141450.341 5     -1425.315          34.000
E19  26449056.875 6 138990717.976 6      2158.363          36.000    26449055.000 6 106499404.821 6      1653.901          39.000
E26  24373047.297 7 128081238.514 7     -2758.992          47.000    24373055.555 8  98140176.467 8     -2113.994          51.000
E33  23979494.125 8 126013095.414 8      -344.684          51.000    23979495.781 8  96555498.511 8      -264.081          51.000
> 2020 05 06 23 07 30.0000000  0 19        .000000000000
G01  24535844.438 6 128936690.520 6     -3770.836          40.000    24535847.094 6 100470153.022 6     -2938.311          40.000
G03  21570481.398 6 113353650.455 6     -2012.367          40.000    21570481.188 6  88327513.885 6     -1568.081          40.000
G04  20310908.039 8 106734612.269 8      -584.637          50.000    20310908.320 8  83169833.142 8      -455.561          49.000
G09  20878770.102 8 109718779.004 8      1741.133          51.000    20878770.242 8  85495106.462 8      1356.727          51.000
G17  23282526.039 7 122350480.001 7     -2506.809          47.000    23282528.078 7  95338024.992 7     -1953.357          43.000
G19  22737757.602 6 119487725.931 6     -1976.641          38.000    22737764.242 5  93107341.129 5     -1540.239          31.000
R05  20995526.547 5 112233121.337 5     -2488.066          34.000    20995529.961 5  87292441.911 5     -1935.163          30.000
R07  22960708.703 6 122910456.966 6      2970.301          36.000
R15  22049527.766 5 117826016.867 5      1792.500          34.000
R16  23523972.688 6 125660841.378 6      4060.957          39.000    23523979.109 6  97736225.791 6      3158.522          41.000
R20  22386404.539 4 119710138.114 4     -4385.266          29.000    22386407.742 4  93107919.200 4     -3410.762          28.000
R21  19950209.523 6 106757600.002 6      -991.758          40.000    19950212.062 5  83033694.115 5      -771.364          34.000
C24  25379714.062 5 132158819.134 5      -610.297          32.000
C25  24413788.297 4 127128989.343 4      2055.406          29.000
C27  23550302.484 8 122632592.351 8     -2490.410          48.000
E07                                                                  24880686.789 5 100184208.404 5     -1431.492          32.000
E19  26436738.562 5 138925982.749 5      2149.121          35.000    26436735.656 6 106449802.543 6      1646.855          38.000
E26  24388808.258 8 128164062.328 8     -2770.820          48.000    24388816.727 8  98203638.901 8     -2123.138          51.000
E33  23981492.938 8 126023599.047 8      -363.652          50.000    23981494.523 8  96563546.722 8      -278.592          51.000
> 2020 05 06 23 08  0.0000000  0 15        .000000000000
G01  24557363.281 6 129049772.094 6     -3770.324          41.000    24557366.297 6 100558268.568 6     -2937.915          41.000
G03  21581973.273 6 113414040.373 6     -2016.441          40.000    21581973.062 6  88374570.870 6     -1571.256          40.000
G04  20314271.203 8 106752285.605 8      -596.090          50.000    20314271.359 8  83183604.573 8      -464.486          50.000
G09  20868852.336 8 109666659.378 8      1731.020          51.000    20868852.914 8  85454493.788 8      1348.849          51.000
G17  23296847.102 7 122425737.623 7     -2512.895          47.000    23296848.516 6  95396667.276 6     -1958.100          41.000
G19  22749070.633 6 119547172.804 6     -1989.172          39.000    22749078.430 5  93153663.329 5     -1550.001          33.000
R07  22944065.477 6 122821336.650 6      2968.832          36.000
R16  23501158.703 6 125538970.141 6      4061.430          40.000    23501164.531 6  97641437.067 6      3158.890          41.000
R21  19955830.586 6 106787681.339 6     -1016.156          36.000    19955832.789 5  83057090.707 5      -790.347          34.000
C24  25383266.805 4 132177290.290 4      -623.711          29.000
C25  24401962.641 5 127067428.194 5      2046.211          31.000
C27  23564664.562 8 122707371.772 8     -2497.402          49.000
E19  26424466.695 6 138861492.325 6      2148.000          37.000    26424462.594 6 106400387.803 6      1645.574          38.000
E26  24404629.914 8 128247202.962 8     -2774.445          48.000    24404637.945 8  98267344.083 8     -2125.916          51.000
E33  23983592.891 8 126034633.447 8      -374.590          51.000    23983594.141 8  96572001.631 8      -286.949          51.000
> 2020 05 06 23 08 30.0000000  0 18        .000000000000
G01  24578891.602 6 129162904.493 6     -3771.602          39.000    24578895.180 6 100646423.678 6     -2938.913          40.000
G03  21593503.312 7 113474630.817 7     -2022.469          42.000    21593503.781 7  88421784.125 7     -1575.950          42.000
G04  20317713.477 8 106770374.473 8      -609.449          51.000    20317713.688 8  83197699.803 8      -474.895          51.000
G09  20859005.312 8 109614913.477 8      1719.070          51.000    20859006.336 8  85414172.317 8      1339.538          51.000
G17  23311215.781 7 122501245.804 7     -2520.727          46.000    23311215.719 6  95455504.770 6     -1964.203          40.000
G19  22760468.961 6 119607069.608 6     -2003.375          39.000    22760477.180 5  93200336.148 5     -1561.071          31.000
R05  21023459.094 6 112382461.268 6     -2493.102          36.000    21023455.148 4  87408580.673 4     -1939.082          26.000
R07  22927443.523 5 122732334.499 5      2965.238          35.000
R15  22029622.797 5 117719595.478 5      1752.852          34.000    22029633.156 4  91559732.701 4      1363.332          28.000
R16  23478353.805 7 125417147.261 7      4060.555          42.000    23478358.820 6  97546685.976 6      3158.209          41.000
R21  19961599.836 6 106818555.737 6     -1041.793          40.000    19961601.758 5  83081104.074 5      -810.283          35.000
C24  25386895.633 5 132196206.746 5      -637.453          34.000
C25  24390197.742 5 127006168.919 5      2038.086          32.000
C27  23579079.906 8 122782428.269 8     -2506.020          50.000
E07  24902015.008 5 130860950.302 5     -1870.359          35.000
E19  26412214.883 5 138797125.643 5      2144.547          33.000    26412211.164 6 106351055.584 6      1643.610          39.000
E26  24420485.516 8 128330521.734 8     -2779.719          48.000    24420492.656 8  98331185.725 8     -2129.935          50.000
E33  23985767.898 8 126046061.506 8      -387.055          51.000    23985768.805 8  96580758.206 8      -296.497          51.000
> 2020 05 06 23 09  0.0000000  0 16        .000000000000
G01  24600431.688 6 129276097.180 6     -3768.762          40.000    24600435.391 6 100734625.780 6     -2936.697          40.000
G03  21605073.789 7 113535432.950 7     -2024.996          43.000    21605075.438 7  88469162.384 7     -1577.922          43.000
G04  20321236.688 8 106788889.123 8      -618.996          51.000    20321236.961 8  83212126.793 8      -482.335          51.000
G09  20849231.391 8 109563553.272 8      1710.824          51.000    20849232.797 8  85374151.398 8      1333.113          51.000
G17  23325633.836 7 122577013.077 7     -2524.613          46.000    23325631.766 6  95514544.196 6     -1967.231          39.000
G19  22771954.344 6 119667425.320 6     -2014.176          41.000    22771950.734 5  93247331.317 5     -1569.488          32.000
R07  22910845.680 5 122643462.628 5      2965.695          34.000    22910856.719 4  95389467.168 4      2306.649          27.000
R14  23198224.758 5 123659591.110 5     -1651.273          32.000
R15  22019849.102 4 117667355.292 4      1735.730          29.000    22019849.602 4  91519086.937 4      1350.010          28.000
R16  23455560.688 6 125295389.349 6      4062.586          40.000    23455565.375 6  97451985.378 6      3159.789          39.000
R21  19967519.805 6 106850233.562 6     -1063.641          39.000    19967521.859 6  83105742.350 6      -827.276          36.000
C24  25390616.055 6 132215579.512 6      -647.781          36.000
C27  23593549.914 8 122857770.923 8     -2510.941          50.000
E19  26399985.891 5 138732862.271 5      2145.422          33.000    26399982.969 6 106301814.883 6      1643.778          38.000
E26  24436376.805 8 128414028.602 8     -2781.395          49.000    24436382.297 8  98395171.470 8     -2131.133          48.000
E33  23988019.875 8 126057894.807 8      -395.914          51.000    23988020.844 8  96589825.279 8      -303.333          51.000
> 2020 05 06 23 09 30.0000000  0 16        .000000000000
G01  24621983.633 6 129389353.389 6     -3787.602          39.000    24621988.023 6 100822877.397 6     -2951.375          39.000
G03  21616684.891 6 113596451.687 6     -2049.180          39.000    21616689.484 6  88516709.382 6     -1596.769          39.000
G04  20324841.688 8 106807833.572 8      -650.137          50.000    20324841.945 8  83226888.709 8      -506.600          51.000
G09  20839531.883 8 109512584.658 8      1680.824          51.000    20839533.750 8  85334435.629 8      1309.733          51.000
G17  23340101.734 7 122653042.068 7     -2550.246          46.000    23340098.695 6  95573787.561 6     -1987.205          39.000
G19  22783527.344 6 119728242.625 6     -2046.176          39.000    22783524.906 5  93294725.488 5     -1594.423          30.000
R15  22010207.133 5 117615773.406 5      1696.312          31.000
R16  23432780.328 6 125173705.855 6      4043.285          40.000    23432785.781 6  97357342.640 6      3144.777          37.000
R21  19973590.367 6 106882718.912 6     -1107.820          38.000    19973592.250 6  83131008.750 6      -861.638          38.000
C24  25394425.633 5 132235413.596 5      -680.488          35.000
C25  24366854.969 5 126884609.329 5      2004.012          32.000
C27  23608074.828 8 122933402.756 8     -2537.375          50.000
E07  24923416.000 5 130973462.023 5     -1888.973          33.000
E19                                                                  26387778.109 6 106252669.812 6      1627.409          39.000
E26  24452304.695 8 128497727.318 8     -2804.691          50.000    24452307.555 7  98459304.232 7     -2149.085          47.000
E33  23990350.008 8 126070138.711 8      -426.547          51.000    23990350.852 8  96599206.968 8      -326.862          51.000
> 2020 05 06 23 10  0.0000000  0 18        .000000000000
G01  24643576.773 6 129502828.002 6     -3780.195          36.000    24643582.836 5 100911299.210 5     -2945.604          35.000
G03  21628367.188 6 113657843.292 6     -2046.684          41.000    21628372.016 6  88564547.070 6     -1594.812          39.000
G04  20328558.055 8 106827363.344 8      -655.020          51.000    20328558.359 8  83242106.736 8      -510.405          51.000
G09  20829936.883 8 109462164.696 8      1677.246          51.000    20829939.266 8  85295147.359 8      1306.945          51.000
G17  23354648.680 7 122729486.640 7     -2549.262          47.000    23354645.859 6  95633354.716 6     -1986.438          40.000
G19  22795217.383 6 119789674.970 6     -2052.238          39.000    22795211.836 5  93342564.704 5     -1599.141          33.000
R15  22000714.484 5 117565009.272 5      1684.125          34.000
R16  23410044.148 6 125052260.632 6      4049.754          40.000    23410049.664 6  97262885.235 6      3149.812          37.000
R20  22509831.953 4 120370195.664 4     -4418.719          29.000    22509833.469 5  93621273.355 5     -3436.784          35.000
R21  19979841.211 6 106916169.800 6     -1125.105          39.000    19979844.125 6  83157026.059 6      -875.082          40.000
C24  25398351.891 5 132255863.786 5      -685.930          33.000
C25  24355307.234 5 126824470.928 5      2002.172          34.000
C27  23622683.586 8 123009476.731 8     -2537.461          50.000
C30  23737023.406 5 123604936.362 5       175.090          34.000
E07  24934167.070 5 131029930.756 5     -1881.195          33.000
E19                                                                  26375625.938 6 106203740.377 6      1631.910          38.000
E26  24468298.844 8 128581773.127 8     -2801.543          51.000    24468299.367 8  98523702.934 8     -2146.637          48.000
E33  23992788.102 8 126082949.949 8      -430.719          51.000    23992788.516 8  96609023.361 8      -330.043          51.000
> 2020 05 06 23 10 30.0000000  0 17        .000000000000
G01  24665169.305 5 129616301.492 5     -3785.059          34.000    24665176.781 5 100999720.277 5     -2949.378          32.000
G03  21640079.086 6 113719389.934 6     -2056.402          37.000    21640090.062 6  88612505.539 6     -1602.398          38.000
G04  20332344.133 8 106847259.661 8      -671.738          50.000    20332344.461 8  83257610.357 8      -523.432          50.000
G09  20820405.352 8 109412076.559 8      1661.586          51.000    20820407.977 8  85256117.638 8      1294.742          51.000
G17  23369232.750 7 122806126.183 7     -2560.391          47.000    23369230.867 6  95693073.775 6     -1995.110          41.000
G19  22806982.383 6 119851502.264 6     -2069.648          39.000    22806977.703 5  93390741.886 5     -1612.707          33.000
R05  21079735.680 5 112683249.783 5     -2517.484          30.000
R16  23387313.305 6 124930837.244 6      4044.609          41.000    23387317.742 6  97168444.872 6      3145.810          37.000
R20  22534645.805 4 120502890.169 4     -4428.895          29.000    22534645.742 5  93724480.174 5     -3444.699          33.000
R21  19986231.164 6 106950363.508 6     -1154.738          41.000    19986233.656 6  83183621.169 6      -898.130          39.000
C24  25402353.711 5 132276714.230 5      -704.078          34.000
C25  24343811.125 6 126764600.926 6      1989.066          36.000
C27  23637335.008 8 123085775.116 8     -2549.340          50.000
E07  24944928.586 5 131086481.814 5     -1887.629          32.000
E19                                                                  26363485.906 6 106154860.491 6      1626.783          39.000
E26  24484317.469 8 128665947.072 8     -2810.262          51.000    24484316.977 8  98588199.821 8     -2153.323          49.000
E33  23995292.680 8 126096111.119 8      -446.902          51.000    23995292.836 8  96619107.886 8      -342.456          51.000
> 2020 05 06 23 11  0.0000000  0 17        .000000000000
G01  24686772.727 5 129729867.206 5     -3786.805          30.000    24686780.023 4 101088184.376 4     -2950.757          29.000
G03  21651831.664 6 113781149.697 6     -2064.047          39.000    21651843.953 6  88660630.341 6     -1608.345          37.000
G04  20336210.750 8 106867579.533 8      -686.332          50.000    20336211.172 8  83273444.032 8      -534.804          51.000
G09  20810948.352 8 109362378.999 8      1648.160          51.000    20810950.516 8  85217392.282 8      1284.284          51.000
G17  23383864.633 8 122883015.978 8     -2568.957          48.000    23383863.438 7  95752987.853 7     -2001.785          42.000
G19  22818833.266 6 119913780.395 6     -2085.469          38.000    22818830.289 5  93439270.232 5     -1625.047          34.000
G22  23754758.047 4 124832095.504 4     -2697.816          27.000
R16  23364599.195 7 124809499.374 7      4041.270          42.000    23364602.766 6  97074071.008 6      3143.210          38.000
R20  22559497.984 4 120635771.867 4     -4435.207          28.000    22559497.781 5  93827821.158 5     -3449.602          33.000
R21  19992771.766 6 106985357.819 6     -1182.070          41.000    19992772.492 6  83210838.966 6      -919.388          39.000
C24  25406443.305 5 132298022.241 5      -720.008          31.000
C25  24332377.961 5 126705058.980 5      1977.332          35.000
C27  23652039.836 8 123162353.471 8     -2559.141          49.000
E07  24955704.945 5 131143113.656 5     -1890.695          32.000
E19                                                                  26351370.148 6 106106074.684 6      1623.311          38.000
E26  24500371.180 8 128750305.948 8     -2817.008          51.000    24500370.586 8  98652838.419 8     -2158.510          50.000
E33  23997875.016 8 126109680.544 8      -461.121          51.000    23997875.102 8  96629505.232 8      -353.300          51.000
> 2020 05 06 23 11 30.0000000  0 14        .000000000000
G03  21663642.703 6 113843215.430 6     -2072.059          37.000    21663650.477 6  88708993.238 6     -1614.591          38.000
G04  20340175.758 8 106888415.323 8      -701.238          51.000    20340176.180 8  83289679.710 8      -546.419          51.000
G09  20801583.602 8 109313166.105 8      1634.129          51.000    20801584.477 8  85179044.598 8      1273.347          51.000
G17  23398561.320 7 122960246.838 7     -2578.289          47.000    23398560.812 7  95813167.740 7     -2009.056          44.000
G19  22830787.469 5 119976599.933 5     -2101.273          34.000    22830786.844 5  93488220.505 5     -1637.356          33.000
R15  21972927.609 5 117416665.773 5      1614.020          34.000
R16  23341920.180 7 124688346.893 7      4037.074          43.000    23341923.203 6  96979841.323 6      3139.947          39.000
R21  19999479.484 6 107021246.374 6     -1209.016          41.000    19999478.273 6  83238752.285 6      -940.349          39.000
C24  25410638.820 5 132319880.103 5      -735.953          31.000
C25  24321021.664 5 126645939.801 5      1965.477          31.000
C27  23666815.758 8 123239302.225 8     -2569.270          49.000
E19                                                                  26339296.070 6 106057455.039 6      1619.648          39.000
E26  24516477.266 8 128834941.774 8     -2823.875          51.000    24516476.750 8  98717689.230 8     -2163.718          51.000
E33  24000552.750 8 126123751.784 8      -475.477          51.000    24000552.828 8  96640287.105 8      -364.305          51.000
> 2020 05 06 23 12  0.0000000  0 15        .000000000000
G03  21675496.133 5 113905501.434 5     -2078.953          33.000    21675500.188 5  88757527.698 5     -1619.973          33.000
G04  20344222.367 8 106909680.078 8      -715.469          51.000    20344222.695 8  83306249.663 8      -557.505          50.000
G09  20792294.789 8 109264352.683 8      1620.941          51.000    20792294.734 8  85141008.172 8      1263.071          51.000
G17  23413305.797 7 123037730.404 7     -2586.449          45.000    23413306.273 7  95873544.522 7     -2015.415          45.000
G19  22842827.586 5 120039872.353 5     -2115.980          31.000    22842827.930 5  93537523.742 5     -1648.813          32.000
R05  21122212.688 5 112910397.556 5     -2532.824          30.000    21122224.312 5  87819182.936 5     -1969.974          33.000
R15  21963926.766 5 117368573.548 5      1591.621          31.000
R16  23319260.055 6 124567297.125 6      4033.621          41.000    23319263.164 6  96885691.507 6      3137.261          39.000
R21  20006337.266 7 107057940.601 7     -1236.203          43.000    20006334.930 6  83267292.239 6      -961.491          40.000
C24  25414923.867 5 132342202.425 5      -751.258          31.000
C27  23681646.812 8 123316534.152 8     -2578.551          50.000
E07  24977356.945 5 131256875.736 5     -1897.672          33.000
E19  26327251.797 6 138350621.701 6      2109.051          38.000    26327248.750 6 106008936.005 6      1616.005          41.000
E26  24532618.703 8 128919767.391 8     -2830.188          50.000    24532618.852 8  98782685.479 8     -2168.540          51.000
E33  24003309.320 8 126138239.234 8      -489.258          51.000    24003309.602 8  96651387.880 8      -374.931          51.000
> 2020 05 06 23 12 30.0000000  0 15        .000000000000
G03  21687391.836 5 113968011.825 5     -2089.570          35.000    21687393.984 5  88806237.026 5     -1628.237          33.000
G04  20348351.250 8 106931377.121 8      -732.566          51.000    20348351.523 8  83323156.472 8      -570.831          51.000
G09  20783082.859 8 109215943.825 8      1604.836          51.000    20783083.117 8  85103286.984 8      1250.522          51.000
G17  23428098.555 6 123115468.493 6     -2597.586          41.000    23428100.133 6  95934119.622 6     -2024.093          41.000
G19  22854954.234 5 120103599.542 5     -2134.777          30.000    22854954.797 4  93587218.249 4     -1663.478          28.000
R07  22795504.703 5 122026153.386 5      2918.871          34.000    22795505.141 4  94909214.822 4      2270.236          27.000
R15  21955072.078 5 117321247.324 5      1565.848          32.000
R16  23296620.320 6 124446359.190 6      4027.121          39.000    23296623.711 6  96791628.663 6      3132.202          39.000
R21  20013345.594 7 107095443.596 7     -1265.703          44.000    20013343.672 6  83296461.219 6      -984.436          40.000
C24  25419301.281 5 132364993.415 5      -769.883          30.000
C27  23696533.203 8 123394051.601 8     -2590.812          50.000
E07  24988200.203 5 131313879.064 5     -1903.102          32.000    24988211.586 5 100617173.541 5     -1458.502          31.000
E19  26315236.430 6 138287436.122 6      2101.719          38.000    26315227.234 6 105960521.060 6      1610.525          40.000
E26  24548796.234 8 129004785.885 8     -2839.258          50.000    24548797.789 8  98847829.530 8     -2175.562          51.000
E33  24006145.688 8 126153147.501 8      -506.156          51.000    24006146.641 8  96662811.083 8      -387.813          51.000
> 2020 05 06 23 13  0.0000000  0 17        .000000000000
G01  24773370.836 5 130184954.286 5     -3795.867          34.000    24773374.555 5 101442816.359 5     -2957.816          34.000
G03  21699331.898 6 114030755.799 6     -2094.793          38.000    21699333.461 6  88855128.439 6     -1632.303          38.000
G04  20352563.992 8 106953514.815 8      -744.750          50.000    20352564.234 8  83340406.623 8      -580.325          50.000
G09  20773949.711 8 109167949.689 8      1593.277          51.000    20773950.836 8  85065888.961 8      1241.515          51.000
G17  23442941.039 6 123193467.244 6     -2603.637          41.000    23442943.242 6  95994897.870 6     -2028.805          41.000
G19  22867169.586 6 120167788.361 6     -2146.809          36.000    22867168.922 5  93637235.453 5     -1672.838          34.000
R05  21150703.883 5 113062633.746 5     -2542.629          34.000    21150708.977 5  87937614.153 5     -1977.597          31.000
R14  23277048.031 5 124079783.633 5     -1841.117          32.000
R15  21946325.500 6 117274499.201 6      1544.914          36.000
R16  23274003.180 6 124325547.432 6      4025.156          37.000    23274007.406 6  96697663.934 6      3130.677          37.000
R21  20020506.461 7 107133763.504 7     -1290.535          42.000    20020505.164 6  83326265.579 6     -1003.747          41.000
C24  25423771.852 5 132388249.255 5      -783.254          30.000
C27  23711476.117 8 123471861.870 8     -2598.133          51.000
E07  24999063.141 5 131370962.328 5     -1904.074          34.000
E19  26303246.844 6 138224396.594 6      2099.191          36.000    26303233.031 6 105912218.048 6      1608.645          40.000
E26  24565011.906 8 129090005.420 8     -2843.645          49.000    24565015.039 8  98913127.615 8     -2178.864          51.000
E33  24009064.367 8 126168486.215 8      -518.102          51.000    24009065.695 8  96674564.117 8      -396.990          51.000
> 2020 05 06 23 13 30.0000000  0 17        .000000000000
G01  24795056.805 5 130298902.253 5     -3799.629          33.000    24795060.789 5 101531634.163 5     -2960.747          34.000
G03  21711321.891 6 114093763.775 6     -2103.746          38.000    21711323.125 6  88904225.492 6     -1639.286          38.000
G04  20356865.945 8 106976122.627 8      -760.562          50.000    20356866.359 8  83358023.116 8      -592.643          49.000
G09  20764901.469 8 109120401.463 8      1578.293          51.000    20764902.961 8  85028838.408 8      1229.839          51.000
G17  23457838.891 7 123271755.172 7     -2613.547          45.000    23457840.758 7  96055901.450 7     -2036.530          45.000
G19  22879478.148 6 120232466.563 6     -2163.496          37.000    22879476.414 5  93687634.013 5     -1685.847          32.000
R05  21164998.461 6 113139037.098 6     -2548.844          37.000    21165000.867 5  87997038.895 5     -1982.437          31.000
R14  23287481.711 5 124135397.805 5     -1864.844          30.000
R16  23251415.469 6 124204897.893 6      4019.914          38.000    23251420.945 5  96603825.400 5      3126.600          35.000
R21  20027824.797 7 107172929.892 7     -1318.965          42.000    20027824.672 7  83356728.293 7     -1025.865          43.000
C24  25428338.406 5 132412025.729 5      -800.285          31.000
C25  24276293.219 5 126413047.522 5      1916.871          34.000
C27  23726481.078 8 123549993.161 8     -2608.914          51.000
E07  25009950.297 5 131428186.341 5     -1908.977          33.000    25009939.352 5 100704685.003 5     -1462.737          33.000
E19                                                                  26291270.562 6 105864050.360 6      1603.772          38.000
E26  24581272.008 8 129175455.217 8     -2851.371          51.000    24581276.164 8  98978602.150 8     -2184.838          51.000
E33  24012070.945 8 126184286.108 8      -533.621          51.000    24012072.250 8  96686670.540 8      -408.819          51.000
> 2020 05 06 23 14  0.0000000  0 16        .000000000000
G01  24816756.641 5 130412937.034 5     -3802.043          31.000    24816760.594 4 101620489.840 4     -2962.625          27.000
G03  21723357.922 7 114157015.814 7     -2112.773          42.000    21723358.930 7  88953512.782 7     -1646.314          42.000
G04  20361253.422 8 106999179.618 8      -776.387          50.000    20361254.133 8  83375989.595 8      -604.977          50.000
G09  20755934.594 8 109073279.904 8      1563.438          51.000    20755936.039 8  84992120.332 8      1218.266          51.000
G17  23472787.391 7 123350309.295 7     -2623.227          47.000    23472788.164 7  96117112.451 7     -2044.073          43.000
G19  22891875.148 6 120297612.091 6     -2179.969          37.000    22891874.242 5  93738396.780 5     -1698.674          35.000
R05  21179323.695 6 113215603.830 6     -2555.133          38.000    21179323.039 4  88056590.672 4     -1987.335          28.000
R14  23298034.648 4 124191634.154 4     -1888.648          29.000
R16  23228855.992 6 124084395.012 6      4014.062          39.000    23228862.148 6  96510100.957 6      3122.049          36.000
R21  20035297.445 7 107212921.026 7     -1347.152          44.000    20035298.219 7  83387832.515 7     -1047.782          43.000
C24  25432998.703 5 132436289.808 5      -817.598          32.000
C25  24265278.695 4 126355673.182 4      1904.312          29.000
C27  23741543.500 8 123628423.671 8     -2619.539          51.000
E19                                                                  26279336.297 6 105816003.135 6      1599.504          39.000
E26  24597572.547 8 129261114.112 8     -2859.113          51.000    24597577.188 8  99044236.892 8     -2190.743          51.000
E33  24015161.477 8 126200527.480 8      -549.121          51.000    24015162.922 8  96699115.228 8      -420.722          51.000
> 2020 05 06 23 14 30.0000000  0 15        .000000000000
G03  21735440.352 6 114220510.262 6     -2119.777          41.000    21735441.594 7  89002988.959 7     -1651.775          42.000
G04  20365725.844 8 107022683.224 8      -789.949          49.000    20365726.836 8  83394304.094 8      -615.545          49.000
G09  20747049.000 8 109026584.308 8      1550.195          51.000    20747050.414 8  84955734.155 8      1207.944          51.000
G17  23487785.680 7 123429125.497 7     -2630.832          45.000    23487785.031 7  96178527.670 7     -2049.999          42.000
G19  22904360.602 6 120363220.562 6     -2194.219          37.000    22904360.562 5  93789520.322 5     -1709.775          33.000
R05  21193679.359 6 113292331.104 6     -2559.359          37.000    21193673.734 4  88116267.497 4     -1990.610          28.000
R15  21920915.156 5 117138697.517 5      1473.504          32.000
R16  23206326.031 6 123964042.137 6      4009.742          41.000    23206332.250 6  96416493.210 6      3118.688          37.000
R21  20042924.172 7 107253733.951 7     -1373.242          45.000    20042925.242 7  83419575.925 7     -1068.077          44.000
C24  25437752.617 5 132461039.837 5      -832.574          33.000
C25  24254350.305 5 126298740.741 5      1891.918          33.000
C27  23756662.109 8 123707149.930 8     -2628.293          49.000
E19  26267431.336 5 138036291.729 5      2082.645          33.000    26267432.195 6 105768075.834 6      1596.131          39.000
E26  24613912.703 8 129346979.392 8     -2864.797          51.000    24613917.383 8  99110029.769 8     -2195.098          51.000
E33  24018335.891 8 126217209.067 8      -562.531          51.000    24018337.758 8  96711897.225 8      -431.069          51.000
> 2020 05 06 23 15  0.0000000  0 16        .000000000000
G03  21747567.031 7 114284237.988 7     -2127.582          42.000    21747567.734 7  89052646.905 7     -1657.859          42.000
G04  20370281.375 8 107046623.385 8      -804.680          50.000    20370282.414 8  83412958.765 8      -627.023          50.000
G09  20738242.797 8 108980306.313 8      1536.160          51.000    20738244.539 8  84919673.380 8      1197.008          51.000
G17  23502831.383 7 123508192.181 7     -2639.277          43.000    23502829.828 7  96240138.048 7     -2056.583          43.000
G19  22916931.984 6 120429280.286 6     -2208.992          41.000    22916931.812 5  93840995.380 5     -1721.296          33.000
R05  21208062.203 5 113369209.309 5     -2564.926          35.000    21208058.320 4  88176061.628 4     -1994.939          27.000
R07  22714063.789 5 121590131.938 5      2892.613          33.000    22714063.891 4  94570154.536 4      2249.816          24.000
R16  23183823.883 7 123843834.874 7      4004.930          42.000    23183829.062 5  96322998.700 5      3114.945          35.000
R21  20050702.719 7 107295357.965 7     -1400.477          46.000    20050704.414 7  83451950.162 7     -1089.260          45.000
C24  25442597.898 6 132486266.582 6      -847.719          36.000
C25  24243491.734 5 126242175.673 5      1879.625          34.000
C27  23771834.297 7 123786160.922 7     -2637.938          47.000
E07  25042725.930 5 131600414.448 5     -1919.484          33.000    25042726.844 5 100836679.680 5     -1470.606          32.000
E19  26255556.500 5 137973885.001 5      2078.633          34.000    26255556.273 6 105720261.626 6      1592.321          39.000
E26  24630290.172 8 129433040.767 8     -2871.492          51.000    24630294.633 8  99175972.892 8     -2200.210          51.000
E33  24021592.281 8 126234322.080 8      -577.051          51.000    24021594.508 8  96725009.769 8      -442.204          51.000
> 2020 05 06 23 15 30.0000000  0 15        .000000000000
