     3.02           OBSERVATION DATA    M (MIXED)           RINEX VERSION / TYPE
SAVERINEX           SC600               20200503 215931 LCL PGM / RUN BY / DATE
       G = GPS       R = GLONASS       C = COMPASS          COMMENT
       S = SBAS      J = QZSS          E = GALILEO          COMMENT
BEAN                                                        MARKER NAME
1                                                           MARKER NUMBER
GEODETIC                                                    MARKER TYPE
Unige DICCA         GTER                                    OBSERVER / AGENCY
SC60291900056       SC600               2.12(191226)        REC # / TYPE / VERS
                    HEMA45          NONE                    ANT # / TYPE
  4509407.8091   693652.4678  4442337.6214                  APPROX POSITION XYZ
        0.0000        0.0000        0.0000                  ANTENNA: DELTA H/E/N
G    8 C1C L1C D1C S1C C2Y L2Y D2Y S2Y                      SYS / # / OBS TYPES
R    8 C1C L1C D1C S1C C2P L2P D2P S2P                      SYS / # / OBS TYPES
C    8 C1I L1I D1I S1I C7I L7I D7I S7I                      SYS / # / OBS TYPES
E    8 C1C L1C D1C S1C C7Q L7Q D7Q S7Q                      SYS / # / OBS TYPES
DBHZ                                                        COMMENT
     30.000                                                 INTERVAL
  2020    05    03    19    00    0.0000000     GPS         TIME OF FIRST OBS
  2020    05    03    19    59   30.0000000     GPS         TIME OF LAST OBS
     0                                                      RCV CLOCK OFFS APPL
G L1C  0.00000                                              SYS / PHASE SHIFT
G L2Y  0.00000                                              SYS / PHASE SHIFT
R L1C  0.00000                                              SYS / PHASE SHIFT
R L2P  0.25000                                              SYS / PHASE SHIFT
C L1I  0.00000                                              SYS / PHASE SHIFT
C L7I  0.00000                                              SYS / PHASE SHIFT
E L1C  0.50000                                              SYS / PHASE SHIFT
E L7Q -0.25000                                              SYS / PHASE SHIFT
 13 R01  1 R02 -4 R06 -4 R07  5 R08  6 R10 -5 R11  0 R12 -1 GLONASS SLOT / FRQ #
    R13 -2 R14 -7 R21  4 R22 -3 R23  3                      GLONASS SLOT / FRQ #
 C1C   71.950 C2C   71.950 C2P   71.950                     GLONASS COD/PHS/BIS
    18                                                      LEAP SECONDS
*** Above antenna height is from mark to ANTENNA BOTTOM.    COMMENT
    17     4        0.0000        ANT MEASURE TYPE/HEIGT    COMMENT
    0.0000    0.0000    0.0458    0.0405    0.0000          COMMENT
                    BASE STATION                            COMMENT
                                                            END OF HEADER
> 2020 05 03 19 00  0.0000000  0 19        .000000000000
G03  23529713.281 6 123649483.786 6      3384.117          38.000    23529710.609 6  96350221.049 6      2636.981          37.000
G08  20680627.992 8 108677438.107 8     -1460.438          51.000    20680630.859 8  84683723.452 8     -1138.003          51.000
G10  23341755.500 5 122661740.594 5     -3069.629          34.000    23341761.711 5  95580606.973 5     -2391.919          32.000
G11  19986238.664 8 105028403.842 8       848.254          48.000    19986236.422 7  81840303.268 7       660.977          43.000
G14  22538587.594 7 118441112.429 7      1898.000          43.000    22538587.852 6  92291787.563 6      1478.961          36.000
G22  21685951.469 8 113960527.059 8      2175.160          49.000    21685950.117 7  88800378.128 7      1694.933          46.000
G27  22541205.266 7 118454814.275 7     -3193.188          47.000    22541207.789 8  92302456.778 8     -2488.195          48.000
G32  22057315.312 5 115911971.083 5       556.418          32.000
R01  19679536.438 8 105198426.938 8      2124.445          48.000    19679541.227 7  81821033.301 7      1652.346          43.000
R08  19896387.844 8 106544310.652 8     -1529.348          49.000    19896389.102 7  82867802.984 7     -1189.493          46.000
R23  19472843.156 8 104166574.455 8      -720.203          51.000    19472848.609 7  81018464.245 7      -560.158          42.000
C05  39643431.289 5 206433749.387 5       -31.223          35.000    39643428.531 6 159627659.576 6       -24.001          37.000
C19  24619335.125 7 128199409.408 7      3210.543          43.000
C20  22103120.680 8 115096852.114 8      1055.820          51.000
C29  21605249.203 7 112504225.684 7       710.863          46.000
C30  22928728.078 8 119395887.265 8     -2218.938          51.000
E03  24401127.945 7 128228865.226 7       230.496          46.000    24401133.883 6  98253254.206 6       176.650          39.000
E08  23488959.453 8 123435335.014 8      2693.965          51.000    23488960.656 8  94580327.344 8      2064.186          50.000
E15  23409563.898 8 123018063.195 8      -745.965          51.000    23409566.953 8  94260625.918 8      -571.619          51.000
> 2020 05 03 19 00 30.0000000  0 19        .000000000000
G03  23510377.750 6 123547872.594 6      3381.547          38.000    23510375.953 6  96271043.623 6      2634.975          39.000
G08  20688975.836 8 108721305.490 8     -1472.504          51.000    20688978.875 8  84717905.835 8     -1147.406          51.000
G10  23359254.758 6 122753700.656 6     -3069.656          36.000    23359259.719 5  95652264.057 5     -2391.946          33.000
G11  19981403.602 8 105002995.574 8       837.391          48.000    19981401.406 7  81820504.611 7       652.512          43.000
G14  22527753.484 6 118384185.628 6      1888.520          41.000    22527753.406 6  92247428.999 6      1471.577          36.000
G22  21673531.805 8 113895260.090 8      2167.695          51.000    21673529.820 7  88749520.784 7      1689.113          45.000
G27  22559424.562 8 118550557.808 8     -3197.891          48.000    22559427.711 8  92377062.155 8     -2491.863          48.000
G32  22054162.125 5 115895420.842 5       541.754          32.000
R01  19667641.617 8 105134844.134 8      2105.801          48.000    19667646.641 7  81771580.029 7      1637.845          43.000
R08  19904985.641 8 106590350.162 8     -1548.473          49.000    19904987.062 7  82903611.500 7     -1204.368          46.000
R23  19476891.578 8 104188230.040 8      -732.078          51.000    19476897.133 7  81035307.462 7      -569.394          42.000
C05  39643573.992 5 206434492.518 5       -26.219          35.000    39643571.156 6 159628234.240 6       -20.591          37.000
C19  24600817.125 7 128102984.473 7      3209.594          42.000
C20  22097044.195 8 115065212.256 8      1045.195          51.000
C29  21601152.281 7 112482893.528 7       702.965          47.000
C30  22941502.008 8 119462406.134 8     -2223.949          50.000
E03  24399816.258 8 128221970.902 8       220.734          48.000    24399821.898 6  98247971.597 6       169.122          40.000
E08  23473563.414 8 123354430.985 8      2691.172          49.000    23473563.578 8  94518336.025 8      2062.118          49.000
E15  23413804.656 8 123040347.668 8      -748.082          51.000    23413807.602 8  94277701.016 8      -573.197          51.000
> 2020 05 03 19 01  0.0000000  0 19        .000000000000
G03  23491092.406 5 123446525.032 5      3375.594          35.000    23491090.828 5  96192071.603 5      2630.336          35.000
G08  20697429.797 8 108765732.551 8     -1488.809          51.000    20697433.148 8  84752524.305 8     -1160.111          51.000
G10  23376794.484 6 122845873.801 6     -3073.922          36.000    23376796.586 6  95724087.243 6     -2395.264          36.000
G11  19976668.070 8 104978110.667 8       822.250          48.000    19976665.898 7  81801113.776 7       640.714          43.000
G14  22517011.227 7 118327738.528 7      1875.215          43.000    22517010.234 5  92203444.314 5      1461.209          34.000
G22  21661192.328 8 113830413.705 8      2156.004          51.000    21661189.898 7  88698991.161 7      1680.006          45.000
G27  22577708.820 8 118646640.505 8     -3206.961          48.000    22577712.062 8  92451931.783 8     -2498.934          48.000
G32  22051117.086 6 115879437.731 6       523.617          37.000    22051131.680 5  90295740.305 5       408.026          33.000
R01  19655889.406 8 105072023.757 8      2082.750          49.000    19655894.477 7  81722719.770 7      1619.917          43.000
R08  19913728.242 8 106637164.820 8     -1571.855          49.000    19913729.273 7  82940022.903 7     -1222.554          46.000
R23  19481044.336 8 104210444.837 8      -748.289          51.000    19481049.695 6  81052585.604 6      -582.003          41.000
C05                                                                  39643725.297 6 159628855.032 6       -20.374          37.000
C19  24582342.680 6 128006789.179 6      3203.867          40.000
C20  22091066.914 8 115034087.272 8      1030.391          51.000
C29  21597137.062 7 112461984.579 7       691.418          47.000
C30  22954342.562 8 119529271.869 8     -2233.164          50.000
E03  24398597.766 7 128215566.002 7       206.695          47.000    24398601.547 6  98243063.929 6       158.458          41.000
E08  23458220.125 8 123273807.163 8      2684.203          48.000    23458220.305 8  94456559.364 8      2056.805          49.000
E15  23418095.109 8 123062894.149 8      -754.465          51.000    23418098.195 8  94294976.872 8      -578.126          51.000
> 2020 05 03 19 01 30.0000000  0 19        .000000000000
G03  23471843.914 5 123345369.379 5      3368.449          34.000    23471841.406 5  96113249.146 5      2624.772          34.000
G08  20705976.102 8 108810644.942 8     -1505.586          51.000    20705979.594 8  84787520.936 8     -1173.187          51.000
G10  23394360.398 6 122938184.865 6     -3079.754          38.000    23394361.258 6  95796017.900 6     -2399.811          37.000
G11  19972018.484 8 104953677.207 8       806.445          48.000    19972016.422 7  81782074.697 7       628.399          44.000
G14  22506347.445 7 118271700.077 7      1860.543          42.000    22506346.523 5  92159778.079 5      1449.777          33.000
G22  21648918.836 8 113765915.108 8      2143.676          50.000    21648916.508 7  88648732.527 7      1670.397          45.000
G27  22596043.258 8 118742987.233 8     -3216.527          50.000    22596046.453 8  92527007.112 8     -2506.385          50.000
G32  22048182.133 6 115864010.789 6       504.492          40.000    22048180.891 6  90283719.253 6       393.108          39.000
R01  19644266.414 8 105009892.777 8      2059.062          50.000    19644271.234 7  81674395.715 7      1601.493          42.000
R08  19922600.508 8 106684676.953 8     -1595.809          50.000    19922601.672 7  82976976.786 7     -1241.188          46.000
R23  19485287.945 8 104233144.536 8      -765.270          51.000    19485292.945 7  81070240.910 7      -595.213          42.000
C05  39643879.898 5 206436085.106 5       -26.617          35.000    39643876.922 6 159629465.742 6       -20.202          37.000
C19  24563898.297 6 127910752.469 6      3198.359          40.000
C20  22085174.938 8 115003404.897 8      1014.922          51.000
C29  21593189.695 8 112441427.469 8       678.930          48.000
C30  22967236.320 8 119596411.191 8     -2242.945          51.000
E03  24397458.398 7 128209577.152 7       192.289          47.000    24397461.305 7  98238475.119 7       147.314          43.000
E08  23442916.719 8 123193391.839 8      2676.598          49.000    23442917.672 8  94394942.483 8      2050.888          50.000
E15  23422421.617 8 123085629.657 8      -761.375          51.000    23422424.688 8  94312397.568 8      -583.412          51.000
> 2020 05 03 19 02  0.0000000  0 18        .000000000000
G08  20714617.453 8 108856055.610 8     -1520.168          51.000    20714620.656 8  84822905.852 8     -1184.546          51.000
G10  23411954.797 6 123030645.446 6     -3082.516          37.000    23411954.922 6  95868065.048 6     -2401.963          36.000
G11  19967457.680 8 104929709.922 8       793.020          49.000    19967455.750 7  81763398.878 7       617.937          45.000
G14  22495764.633 7 118216085.721 7      1848.637          45.000    22495764.578 6  92116442.273 6      1440.496          39.000
G22  21636713.883 8 113701778.524 8      2133.691          50.000    21636711.812 7  88598755.960 7      1662.614          45.000
G27  22614430.250 8 118839609.492 8     -3223.504          51.000    22614433.180 8  92602297.184 8     -2511.821          51.000
G32  22045354.078 6 115849153.996 6       487.719          39.000    22045353.992 6  90272142.689 6       380.047          39.000
R01  19632775.836 8 104948467.123 8      2037.637          50.000    19632780.211 6  81626620.212 6      1584.829          41.000
R08  19931605.219 8 106732897.383 8     -1617.207          50.000    19931606.625 7  83014481.565 7     -1257.828          46.000
R23  19489624.836 8 104256343.989 8      -779.746          51.000    19489629.930 7  81088284.900 7      -606.469          42.000
C05  39644031.602 5 206436875.364 5       -24.777          35.000    39644028.625 6 159630076.821 6       -18.818          37.000
C19  24545488.047 6 127814889.351 6      3194.168          40.000
C20  22079370.562 8 114973178.823 8      1001.680          51.000
C29  21589312.750 8 112421236.698 8       668.645          49.000
C30  22980185.078 8 119663836.859 8     -2250.434          50.000
E03  24396400.977 7 128204017.938 7       180.066          47.000    24396403.820 7  98234215.481 7       137.871          43.000
E08  23427656.938 8 123113200.101 8      2671.160          51.000    23427658.250 8  94333496.906 8      2046.763          51.000
E15  23426786.836 8 123108568.077 8      -766.145          51.000    23426789.570 8  94329973.748 8      -587.043          51.000
> 2020 05 03 19 02 30.0000000  0 18        .000000000000
G08  20723350.523 8 108901947.417 8     -1538.848          51.000    20723353.703 8  84858665.671 8     -1199.105          51.000
G10  23429574.469 5 123123237.013 5     -3089.777          35.000    23429574.414 5  95940214.343 5     -2407.619          34.000
G11  19962982.719 8 104906193.533 8       775.289          50.000    19962980.875 7  81745074.419 7       604.121          45.000
G14  22485260.328 7 118160881.438 7      1831.980          46.000    22485260.055 6  92073425.940 6      1427.514          38.000
G22  21624575.047 8 113637988.082 8      2119.438          51.000    21624572.539 7  88549049.134 7      1651.510          45.000
G27  22632866.125 8 118936488.960 8     -3234.719          51.000    22632868.742 8  92677787.672 8     -2520.560          51.000
G32  22042632.078 6 115834852.068 6       465.750          40.000    22042633.203 6  90260998.336 6       362.925          40.000
R01  19621414.156 8 104887732.058 8      2011.773          49.000    19621418.578 6  81579381.857 6      1564.716          41.000
R08  19940738.789 8 106781806.934 8     -1642.887          50.000    19940739.984 7  83052522.310 7     -1277.801          46.000
R23  19494052.281 8 104280026.598 8      -798.664          51.000    19494056.953 7  81106704.685 7      -621.180          42.000
C05  39644180.297 5 206437649.576 5       -26.602          35.000    39644177.172 6 159630675.542 6       -20.615          37.000
C19  24527109.469 6 127719184.933 6      3186.242          40.000
C20  22073650.383 8 114943392.903 8       984.375          51.000
C29  21585502.906 8 112401397.077 8       654.328          49.000
C30  22993184.938 8 119731531.860 8     -2262.086          49.000
E03  24395421.375 7 128198871.737 7       163.445          44.000    24395424.570 7  98230272.307 7       125.243          43.000
E08  23412437.391 8 123033217.083 8      2661.406          51.000    23412439.039 8  94272211.272 8      2039.313          51.000
E15  23431187.445 8 123131693.253 8      -775.105          51.000    23431189.648 8  94347693.043 8      -593.936          51.000
> 2020 05 03 19 03  0.0000000  0 17        .000000000000
G08  20732190.328 8 108948399.744 8     -1564.980          51.000    20732193.445 8  84894862.274 8     -1219.465          51.000
G11  19958609.070 8 104883210.009 8       750.031          49.000    19958607.336 7  81727165.174 7       584.440          46.000
G14  22474849.016 7 118106169.970 7      1808.352          43.000    22474849.492 6  92030793.620 6      1409.102          40.000
G22  21612517.734 8 113574625.066 8      2097.645          51.000    21612514.258 7  88499675.387 7      1634.531          44.000
G27  22651365.875 8 119033704.242 8     -3253.348          51.000    22651367.859 8  92753539.840 8     -2535.079          51.000
G32  22040030.406 6 115821185.788 6       437.422          41.000    22040029.102 6  90250349.409 6       340.848          39.000
R01  19610196.984 8 104827771.135 8      1978.340          50.000    19610201.508 6  81532745.644 6      1538.712          41.000
R08  19950015.844 8 106831484.581 8     -1676.121          49.000    19950017.172 7  83091160.494 7     -1303.647          46.000
R23  19498585.297 8 104304275.293 8      -825.121          51.000    19498589.844 6  81125564.771 6      -641.764          41.000
C05                                                                  39644338.055 6 159631323.577 6       -28.170          37.000
C19  24508777.633 6 127623720.661 6      3170.906          41.000
C20  22068030.133 8 114914127.239 8       959.680          51.000
C29  21581776.086 8 112381989.505 8       632.504          49.000
C30  23006251.047 8 119799575.290 8     -2281.160          49.000
E03  24394536.133 7 128194219.019 7       139.547          44.000    24394538.703 7  98226707.261 7       106.854          42.000
E08  23397273.062 8 122953524.878 8      2644.234          51.000    23397274.977 8  94211148.461 8      2026.075          51.000
E15  23435638.953 8 123155086.028 8      -791.516          51.000    23435640.969 8  94365617.369 8      -606.489          51.000
> 2020 05 03 19 03 30.0000000  0 18        .000000000000
G03  23395256.961 5 122942904.323 5      3341.266          32.000
G08  20741125.242 8 108995352.367 8     -1570.547          51.000    20741128.141 8  84931448.726 8     -1223.803          51.000
G11  19954325.750 8 104860701.497 8       745.051          49.000    19954324.062 7  81709626.073 7       580.556          47.000
G14  22464519.766 6 118051894.132 6      1804.785          41.000    22464521.680 6  91988500.736 6      1406.326          39.000
G22  21600530.570 8 113511631.442 8      2096.453          51.000    21600526.414 7  88450589.496 7      1633.600          45.000
G27  22669917.852 8 119131194.367 8     -3251.359          51.000    22669918.977 8  92829506.147 8     -2533.530          51.000
G32  22037539.547 7 115808097.258 7       429.625          42.000    22037535.977 6  90240150.488 6       334.773          39.000
R01  19599114.000 8 104768526.247 8      1965.852          51.000    19599118.586 7  81486666.330 7      1528.996          42.000
R08  19959423.992 8 106881867.280 8     -1688.188          50.000    19959425.750 7  83130347.046 7     -1313.035          45.000
R23  19503212.898 8 104329030.807 8      -830.719          50.000    19503217.664 7  81144819.047 7      -646.115          42.000
C05  39644503.195 5 206439330.797 5       -25.195          35.000    39644500.109 6 159631975.602 6       -19.606          37.000
C19  24490480.984 6 127528439.470 6      3175.949          41.000
C20  22062498.492 8 114885323.486 8       955.238          51.000
C29  21578121.305 8 112362956.580 8       631.043          50.000
C30  23019373.344 8 119867907.932 8     -2279.734          50.000
E03  24393733.883 7 128190000.626 7       136.543          42.000    24393735.492 6  98223475.000 6       104.256          41.000
E08  23382152.773 8 122874066.088 8      2647.582          51.000    23382154.828 8  94150264.491 8      2028.622          51.000
E15  23440130.133 8 123178687.647 8      -787.371          51.000    23440132.648 8  94383701.720 8      -603.292          51.000
> 2020 05 03 19 04  0.0000000  0 18        .000000000000
G03  23376209.938 5 122842828.190 5      3331.621          33.000    23376213.172 5  95721675.440 5      2596.068          32.000
G08  20750151.688 8 109042787.014 8     -1589.234          51.000    20750154.273 8  84968410.764 8     -1238.367          51.000
G11  19950129.641 8 104838651.152 8       727.383          49.000    19950128.023 8  81692443.973 8       566.792          48.000
G14  22454271.188 7 117998038.134 7      1788.160          44.000    22454273.055 6  91946534.962 6      1393.372          37.000
G22  21588609.820 8 113448989.441 8      2082.160          49.000    21588606.258 7  88401777.569 7      1622.466          46.000
G27  22688518.289 8 119228939.525 8     -3262.297          50.000    22688518.039 8  92905671.166 8     -2542.053          50.000
G32  22035155.562 6 115795568.969 6       408.031          39.000    22035152.891 6  90230388.299 6       317.949          38.000
R01  19588161.938 8 104709980.925 8      1939.809          50.000    19588166.828 7  81441131.116 7      1508.740          43.000
R08  19968960.547 8 106932934.292 8     -1713.645          50.000    19968961.820 7  83170065.817 7     -1332.835          45.000
R23  19507931.977 8 104354275.678 8      -849.723          50.000    19507937.242 7  81164453.935 7      -660.895          42.000
C05  39644662.609 6 206440161.531 6       -27.656          36.000    39644659.641 6 159632618.014 6       -21.570          37.000
C19  24472215.688 6 127433325.270 6      3167.559          41.000
C20  22057051.938 8 114856964.120 8       937.875          51.000
C29  21574535.180 8 112344281.689 8       616.520          50.000
C30  23032548.523 8 119936511.397 8     -2291.273          51.000
E03  24393009.656 6 128186198.554 6       119.859          38.000    24393010.969 6  98220561.687 6        91.780          40.000
E08  23367073.422 8 122794824.346 8      2637.801          51.000    23367075.695 8  94089546.812 8      2021.157          51.000
E15  23444657.719 8 123202480.549 8      -796.270          51.000    23444660.773 8  94401932.637 8      -610.090          51.000
> 2020 05 03 19 04 30.0000000  0 17        .000000000000
G08  20759255.398 8 109090627.315 8     -1604.875          51.000    20759257.359 8  85005688.899 8     -1250.552          51.000
G11  19946006.664 8 104816984.921 8       712.418          50.000    19946005.117 8  81675561.197 8       555.131          48.000
G14  22444089.219 7 117944528.918 7      1774.426          44.000    22444090.289 6  91904839.507 6      1382.672          38.000
G22  21576741.836 8 113386624.515 8      2070.754          50.000    21576739.266 7  88353181.527 7      1613.574          47.000
G27  22707152.258 8 119326862.490 8     -3270.301          49.000    22707151.219 8  92981974.706 8     -2548.289          49.000
G32  22032863.578 6 115783526.503 6       390.051          39.000    22032861.750 6  90221004.559 6       303.936          39.000
R01  19577326.875 8 104652060.675 8      1916.703          50.000    19577332.070 7  81396082.063 7      1490.769          43.000
R08  19978609.711 8 106984605.813 8     -1735.930          50.000    19978611.164 7  83210254.800 7     -1350.168          45.000
R23  19512727.969 8 104379933.671 8      -865.617          49.000    19512733.562 7  81184410.146 7      -673.258          42.000
C05  39644805.312 5 206440904.026 5       -27.027          34.000    39644802.375 6 159633192.923 6       -20.875          37.000
C19  24453967.641 6 127338304.931 6      3162.496          40.000
C20  22051676.453 8 114828974.692 8       923.391          51.000
C29  21571003.594 8 112325891.296 8       604.809          51.000
C30  23045761.727 8 120005310.351 8     -2300.023          51.000
E03  24392350.180 5 128182737.472 5       106.301          34.000    24392351.938 6  98217909.595 6        81.520          39.000
E08  23352021.375 8 122715725.937 8      2630.750          51.000    23352023.695 8  94028938.964 8      2015.734          51.000
E15  23449207.492 8 123226389.739 8      -802.426          51.000    23449210.648 8  94420252.656 8      -614.807          51.000
> 2020 05 03 19 05  0.0000000  0 17        .000000000000
G08  20768466.273 8 109139030.356 8     -1621.480          51.000    20768467.492 8  85043405.542 8     -1263.491          51.000
G11  19941987.227 8 104795862.575 8       696.367          50.000    19941985.672 8  81659102.224 8       542.624          48.000
G14  22434003.844 7 117891526.848 7      1759.535          45.000    22434003.828 6  91863539.229 6      1371.069          36.000
G22  21564957.336 8 113324695.597 8      2058.336          51.000    21564954.750 7  88304925.231 7      1603.898          46.000
G27  22725849.359 7 119425119.601 7     -3279.414          47.000    22725848.164 7  93058538.647 7     -2555.391          47.000
G32  22030694.766 6 115772128.683 6       369.988          37.000    22030693.859 6  90212123.173 6       288.303          38.000
R01  19566639.336 8 104594927.905 8      1892.547          50.000    19566644.211 7  81351645.470 7      1471.981          43.000
R08  19988401.547 8 107037040.148 8     -1759.152          50.000    19988403.000 7  83251037.054 7     -1368.230          45.000
R23  19517631.938 8 104406166.579 8      -882.680          51.000    19517637.664 7  81204813.514 7      -686.526          42.000
C05  39644961.281 5 206441717.127 5       -26.809          35.000    39644958.531 6 159633821.699 6       -21.032          37.000
C19  24435767.250 6 127243536.874 6      3155.773          38.000
C20  22046402.695 8 114801512.231 8       907.930          51.000
C29  21567556.984 8 112307943.279 8       592.141          51.000
C30  23059042.109 8 120074460.902 8     -2309.633          51.000
E03  24391785.914 5 128179700.297 5        91.457          33.000    24391788.570 6  98215639.904 6        70.242          39.000
E08  23337027.148 8 122636930.688 8      2622.730          50.000    23337029.133 8  93968563.415 8      2009.690          51.000
E15  23453809.477 8 123250573.815 8      -809.457          51.000    23453812.570 8  94438783.310 8      -620.233          51.000
> 2020 05 03 19 05 30.0000000  0 19        .000000000000
G03  23319292.312 5 122543697.802 5      3310.109          35.000    23319307.883 5  95488650.448 5      2579.303          33.000
G08  20777759.094 8 109187864.408 8     -1639.566          51.000    20777759.672 8  85081458.044 8     -1277.581          51.000
G10  23535890.703 5 123681917.546 5     -3119.691          35.000    23535902.828 4  96375568.582 4     -2430.922          27.000
G11  19938046.539 8 104775154.115 8       678.785          50.000    19938045.023 8  81642965.764 8       528.923          48.000
G14  22423990.188 7 117838902.838 7      1743.078          43.000    22423988.633 5  91822533.591 5      1358.246          32.000
G22  21553231.039 8 113263072.049 8      2044.410          51.000    21553227.992 7  88256906.874 7      1593.047          46.000
G27  22744584.164 7 119523577.920 7     -3289.891          45.000    22744583.859 7  93135259.351 7     -2563.551          46.000
G32  22028623.570 6 115761245.019 6       349.680          39.000    22028623.039 6  90203642.446 6       272.478          38.000
R01  19556074.492 8 104538450.975 8      1866.832          48.000    19556078.711 7  81307718.973 7      1451.980          43.000
R08  19998310.266 8 107090101.017 8     -1783.754          50.000    19998312.086 7  83292306.638 7     -1387.364          45.000
R23  19522618.648 8 104432842.002 8      -901.305          51.000    19522624.609 7  81225561.040 7      -701.018          43.000
C05  39645105.625 5 206442468.013 5       -28.801          35.000    39645103.195 6 159634403.854 6       -22.165          37.000
C19  24417589.766 5 127148892.731 5      3148.301          34.000
C20  22041205.281 8 114774447.065 8       890.926          51.000
C29  21564170.477 8 112290308.969 8       577.957          51.000
C30  23072364.383 8 120143832.461 8     -2320.707          50.000
E03  24391292.266 6 128177105.939 6        75.516          40.000    24391294.625 6  98213651.999 6        58.078          38.000
E08  23322065.984 8 122558309.156 8      2613.086          51.000    23322067.750 8  93908320.995 8      2002.277          51.000
E15  23458438.898 8 123274902.086 8      -818.062          51.000    23458442.148 8  94457424.437 8      -626.779          51.000
> 2020 05 03 19 06  0.0000000  0 19        .000000000000
G03  23300413.461 6 122444475.540 6      3304.031          39.000    23300426.711 6  95411334.420 6      2574.573          39.000
G08  20787156.320 8 109237248.496 8     -1653.832          50.000    20787157.422 8  85119939.111 8     -1288.703          50.000
G10  23553703.609 5 123775522.409 5     -3122.043          35.000    23553723.633 4  96448507.630 4     -2432.767          27.000
G11  19934207.641 8 104754980.552 8       664.934          50.000    19934206.117 8  81627246.106 8       518.133          49.000
G14  22414071.297 6 117786779.134 6      1730.543          39.000    22414067.469 5  91781917.756 5      1348.475          31.000
G22  21541585.633 8 113201874.616 8      2034.199          51.000    21541582.219 7  88209220.575 7      1585.090          46.000
G27  22763379.766 7 119622355.354 7     -3296.605          44.000    22763381.039 7  93212228.738 7     -2568.783          44.000
G32  22026673.234 7 115750996.204 7       332.316          42.000    22026671.867 5  90195656.284 5       258.945          35.000
R01  19545654.820 7 104482753.828 7      1845.027          47.000    19545659.203 7  81264399.002 7      1435.021          43.000
R08  20008358.336 8 107143907.269 8     -1804.480          50.000    20008360.039 7  83334155.949 7     -1403.485          45.000
R23  19527711.023 8 104460082.169 8      -915.934          51.000    19527716.812 7  81246747.811 7      -712.393          42.000
C05  39645261.320 5 206443279.362 5       -26.574          35.000    39645259.086 6 159635031.252 6       -20.404          37.000
C19  24399459.375 5 127054492.971 5      3144.074          35.000
C20  22036106.781 8 114747898.133 8       877.746          51.000
C29  21560867.297 8 112273108.216 8       567.516          51.000
C30  23085751.070 8 120213543.115 8     -2327.949          48.000
E03  24390891.742 7 128174999.165 7        63.633          44.000    24390893.609 6  98212037.738 6        48.934          38.000
E08  23307161.094 8 122479982.819 8      2607.410          51.000    23307162.992 8  93848304.762 8      1997.913          51.000
E15  23463118.672 8 123299494.757 8      -822.746          51.000    23463122.164 8  94476268.160 8      -630.407          51.000
> 2020 05 03 19 06 30.0000000  0 20        .000000000000
G03  23281572.703 6 122345460.539 6      3296.527          40.000    23281578.727 6  95334180.083 6      2568.735          40.000
G08  20796644.500 8 109287110.084 8     -1670.371          51.000    20796646.578 8  85158792.233 8     -1301.588          51.000
G10  23571538.375 5 123869246.744 5     -3126.465          34.000    23571551.219 5  96521539.601 5     -2436.209          34.000
G11  19930457.094 8 104735271.790 8       648.793          50.000    19930455.578 8  81611888.642 8       505.553          49.000
G14  22404233.398 6 117735086.326 6      1715.367          37.000    22404229.453 5  91741637.657 5      1336.662          33.000
G22  21530007.750 8 113141032.462 8      2021.809          51.000    21530004.391 7  88161811.154 7      1575.435          47.000
G27  22782222.609 7 119721378.594 7     -3305.094          42.000    22782225.758 7  93289389.687 7     -2575.401          43.000
G32  22024829.508 6 115741311.246 6       312.727          38.000    22024830.281 5  90188109.460 5       243.680          33.000
R01  19535367.836 8 104427765.439 8      1820.676          49.000    19535372.289 7  81221630.270 7      1416.084          42.000
R08  20018531.391 8 107198383.753 8     -1827.516          50.000    20018532.945 7  83376526.552 7     -1421.401          46.000
R23  19532895.984 8 104487815.406 8      -933.043          51.000    19532901.445 7  81268318.093 7      -725.703          42.000
R24  19812501.305 5 105946372.052 5      1836.980          31.000
C05  39645414.844 5 206444078.473 5       -26.785          35.000    39645412.555 6 159635649.207 6       -20.682          37.000
C19  24381364.062 6 126960268.279 6      3137.191          37.000
C20  22031094.352 8 114721794.869 8       862.320          51.000
C29  21557633.836 8 112256271.385 8       554.746          51.000
C30  23099188.688 8 120283521.394 8     -2337.461          49.000
E03  24390570.516 7 128173308.450 7        49.023          46.000    24390571.992 6  98210742.268 6        37.551          37.000
E08  23292299.078 8 122401881.835 8      2599.273          51.000    23292301.195 8  93788461.204 8      1991.657          51.000
E15  23467835.273 8 123324280.773 8      -829.793          51.000    23467839.000 8  94495260.027 8      -635.854          51.000
> 2020 05 03 19 07  0.0000000  0 20        .000000000000
G03  23262774.062 6 122246672.490 6      3290.008          41.000    23262773.992 7  95257202.603 7      2563.649          42.000
G08  20806227.281 8 109337466.582 8     -1686.156          51.000    20806229.633 8  85198031.060 8     -1313.888          51.000
G10  23589398.695 5 123963106.804 5     -3130.207          35.000    23589409.094 5  96594677.267 5     -2439.128          34.000
G11  19926798.672 8 104716047.408 8       633.328          50.000    19926797.250 8  81596908.609 8       493.502          49.000
G14  22394481.352 5 117683844.503 5      1701.234          35.000    22394478.266 5  91701708.914 5      1325.631          33.000
G22  21518500.969 8 113080564.819 8      2009.980          51.000    21518497.820 7  88114693.566 7      1566.222          47.000
G27  22801115.773 7 119820663.901 7     -3313.070          43.000    22801120.453 7  93366754.863 7     -2581.613          43.000
G32  22023096.570 6 115732208.875 6       294.270          40.000    22023099.883 5  90180916.340 5       229.298          33.000
R01  19525217.328 8 104373505.653 8      1797.156          49.000    19525221.641 7  81179428.238 7      1397.791          42.000
R08  20028832.539 8 107253545.553 8     -1849.383          50.000    20028834.102 7  83419430.182 7     -1438.409          46.000
R23  19538176.227 8 104516060.637 8      -949.410          51.000    19538181.547 7  81290286.573 7      -738.430          42.000
R24  19802241.297 5 105891459.956 5      1824.461          35.000
C05  39645569.578 5 206444884.340 5       -26.461          35.000    39645567.031 6 159636271.594 6       -20.238          37.000
C19  24363307.414 6 126866238.118 6      3131.609          38.000
C20  22026170.961 8 114696155.435 8       847.652          51.000
C29  21554473.844 8 112239817.583 8       542.684          51.000
C30  23112681.914 8 120353784.636 8     -2346.203          51.000
E03  24390331.945 7 128172051.693 7        35.441          44.000    24390332.844 6  98209779.320 6        27.067          36.000
E08  23277483.523 8 122324025.993 8      2591.797          51.000    23277486.164 8  93728805.472 8      1985.895          51.000
E15  23472592.203 8 123349278.638 8      -836.129          51.000    23472596.008 8  94514414.223 8      -640.649          51.000
> 2020 05 03 19 07 30.0000000  0 20        .000000000000
G03  23244016.992 6 122148104.069 6      3281.875          41.000    23244019.492 6  95180396.153 6      2557.308          41.000
G08  20815902.047 8 109388307.960 8     -1702.730          50.000    20815904.984 8  85237647.736 8     -1326.803          50.000
G10  23607283.875 6 124057091.815 6     -3134.543          36.000    23607292.352 6  96667912.292 6     -2442.504          36.000
G11  19923230.875 8 104697299.553 8       616.988          50.000    19923229.758 8  81582299.887 8       480.770          49.000
G14  22384814.695 6 117633047.088 6      1685.875          40.000    22384813.070 6  91662126.614 6      1313.666          36.000
G22  21507063.875 8 113020463.212 8      1997.410          51.000    21507060.617 7  88067861.181 7      1556.427          46.000
G27  22820056.875 7 119920200.511 7     -3322.016          43.000    22820062.867 7  93444315.851 7     -2588.584          43.000
G32  22021473.039 6 115723681.033 6       274.637          40.000    22021477.102 6  90174271.288 6       214.003          38.000
R01  19515201.984 8 104319967.345 8      1772.598          49.000    19515206.328 7  81137787.397 7      1378.687          42.000
R08  20039259.578 8 107309380.904 8     -1872.320          49.000    20039260.602 7  83462857.661 7     -1456.249          46.000
R23  19543550.625 8 104544809.295 8      -966.699          51.000    19543555.891 7  81312646.622 7      -751.877          42.000
R24  19792039.484 4 105836928.599 4      1811.625          29.000
C05                                                                  39645720.906 6 159636891.680 6       -20.446          37.000
C19  24345287.633 6 126772395.380 6      3125.188          40.000
C20  22021334.719 8 114670971.220 8       831.863          51.000
C29  21551386.070 8 112223739.128 8       529.762          51.000
C30  23126228.922 8 120424323.383 8     -2355.867          51.000
E03  24390173.703 8 128171219.968 8        20.887          48.000    24390173.789 5  98209142.066 5        15.881          35.000
E08  23262712.844 8 122246408.003 8      2583.293          50.000    23262716.125 8  93669331.971 8      1979.496          51.000
E15  23477387.812 8 123374479.889 8      -843.332          51.000    23477391.602 8  94533724.255 8      -646.210          51.000
> 2020 05 03 19 08  0.0000000  0 19        .000000000000
G03  23225302.555 6 122049761.818 6      3274.609          41.000    23225306.734 6  95103765.843 6      2551.641          41.000
G08  20825669.531 8 109439638.748 8     -1719.160          49.000    20825673.258 8  85277645.782 8     -1339.605          49.000
G10  23625193.633 6 124151205.277 6     -3139.055          36.000    23625200.297 6  96741247.435 6     -2446.017          37.000
G11  19919755.086 8 104679034.800 8       600.773          50.000    19919754.086 8  81568067.616 8       468.135          50.000
G14  22375234.586 7 117582701.341 7      1670.609          42.000    22375234.672 6  91622896.234 6      1301.777          37.000
G22  21495697.820 8 112960733.496 8      1984.844          51.000    21495693.953 7  88021318.565 7      1546.631          46.000
G27  22839046.742 7 120019991.756 7     -3330.754          44.000    22839053.117 7  93522075.283 7     -2595.390          44.000
G32  22019960.297 6 115715733.243 6       255.031          37.000    22019963.320 5  90168078.235 5       198.729          35.000
R01  19505322.992 8 104267157.494 8      1748.215          48.000    19505326.930 6  81096713.097 6      1359.723          41.000
R08  20049812.336 8 107365892.148 8     -1894.848          49.000    20049813.961 7  83506810.867 7     -1473.770          47.000
R23  19549020.062 8 104574067.871 8      -983.777          51.000    19549025.430 7  81335403.266 7      -765.160          42.000
C05                                                                  39645875.375 6 159637513.510 6       -20.646          37.000
C19  24327305.312 6 126678746.864 6      3118.254          37.000
C20  22016586.828 8 114646247.542 8       816.602          51.000
C29  21548371.477 8 112208042.341 8       516.961          51.000
C30  23139829.625 8 120495142.146 8     -2365.176          51.000
E03  24390097.625 8 128170818.441 8         6.223          48.000    24390096.766 5  98208834.404 5         4.615          35.000
E08  23247988.586 8 122169034.703 8      2575.078          49.000    23247992.555 8  93610045.948 8      1973.133          51.000
E15  23482223.227 8 123399890.131 8      -850.418          51.000    23482226.773 8  94553194.427 8      -651.604          51.000
> 2020 05 03 19 08 30.0000000  0 19        .000000000000
G03  23206630.531 7 121951640.693 7      3267.059          43.000    23206635.344 7  95027307.853 7      2545.763          43.000
G08  20835528.930 8 109491451.019 8     -1734.840          50.000    20835533.117 8  85318018.990 8     -1351.823          50.000
G10  23643125.891 6 124245438.570 6     -3142.906          36.000    23643131.070 6  96814675.980 6     -2449.018          36.000
G11  19916370.234 8 104661247.757 8       584.992          50.000    19916369.352 8  81554207.575 8       455.838          50.000
G14  22365739.680 6 117532802.570 6      1655.984          41.000    22365740.977 6  91584014.063 6      1290.377          36.000
G22  21484401.266 8 112901369.118 8      1972.809          51.000    21484396.938 7  87975060.620 7      1537.256          46.000
G27  22858083.594 7 120120029.090 7     -3338.742          44.000    22858089.648 7  93600026.443 7     -2601.620          44.000
R01  19495578.945 7 104215070.634 7      1724.238          47.000    19495582.898 7  81056201.111 7      1341.074          42.000
R08  20060489.672 8 107423069.458 8     -1916.832          49.000    20060491.648 7  83551282.102 7     -1490.869          47.000
R23  19554583.781 8 104603830.033 8     -1000.348          51.000    19554589.125 7  81358551.604 7      -778.048          42.000
R24  19771863.656 5 105729092.178 5      1785.688          34.000
C05  39646031.406 5 206447289.152 5       -26.242          34.000    39646029.062 6 159638131.977 6       -20.353          37.000
C19  24309359.094 5 126585287.487 5      3112.250          34.000
C20  22011926.148 8 114621977.969 8       801.559          51.000
C29  21545429.242 8 112192721.741 8       504.598          51.000
C30  23153482.133 8 120566233.572 8     -2374.117          51.000
E03  24390101.891 7 128170840.146 7        -7.609          47.000    24390102.328 5  98208851.098 5        -5.825          33.000
E08  23233310.086 8 122091901.023 8      2567.363          49.000    23233314.312 8  93550943.536 8      1967.224          51.000
E15  23487097.336 8 123425503.066 8      -856.895          51.000    23487100.602 8  94572819.914 8      -656.629          51.000
> 2020 05 03 19 09  0.0000000  0 19        .000000000000
G03  23188003.305 7 121853755.135 7      3259.332          42.000    23188008.148 7  94951033.483 7      2539.745          42.000
G08  20845482.617 8 109543757.020 8     -1751.508          51.000    20845486.781 8  85358776.914 8     -1364.811          51.000
G10  23661082.789 5 124339803.083 5     -3147.348          33.000    23661088.367 5  96888206.677 5     -2452.485          32.000
G11  19913079.055 8 104643952.512 8       568.484          50.000    19913078.352 8  81540730.758 8       442.975          50.000
G14  22356332.422 6 117483365.649 6      1640.367          40.000    22356334.008 6  91545491.781 6      1278.211          36.000
G22  21473176.844 8 112842384.152 8      1959.980          51.000    21473172.578 7  87929098.309 7      1527.258          47.000
G27  22877169.602 7 120220323.685 7     -3347.184          45.000    22877174.922 7  93678178.031 7     -2608.195          45.000
R01  19485972.672 7 104163722.012 7      1699.480          46.000    19485977.258 7  81016263.324 7      1321.821          43.000
R08  20071293.398 8 107480922.947 8     -1939.500          48.000    20071295.086 7  83596279.256 7     -1508.500          47.000
R23  19560244.391 8 104634109.551 8     -1017.656          51.000    19560249.711 7  81382102.312 7      -791.510          42.000
R24  19761875.211 4 105675637.094 4      1772.359          27.000
C05  39646186.727 5 206448097.674 5       -26.734          34.000    39646184.438 6 159638757.192 6       -20.803          37.000
C19  24291451.000 4 126492031.822 4      3106.203          28.000
C20  22007355.141 8 114598175.562 8       785.891          51.000
C29  21542561.922 8 112177791.414 8       491.316          51.000
C30  23167189.211 8 120637609.920 8     -2383.668          50.000
E03  24390189.281 8 128171298.104 8       -22.281          48.000    24390190.891 4  98209202.089 4       -17.240          29.000
E08  23218680.523 8 122015021.694 8      2558.559          51.000    23218684.320 8  93492036.023 8      1960.436          51.000
E15  23492012.469 8 123451332.197 8      -864.398          51.000    23492015.859 8  94592611.051 8      -662.256          51.000
> 2020 05 03 19 09 30.0000000  0 19        .000000000000
G03  23169432.266 6 121756167.692 6      3242.609          41.000    23169435.594 6  94874991.424 6      2526.712          41.000
G08  20855541.781 8 109596616.857 8     -1776.809          51.000    20855545.633 8  85399966.392 8     -1384.526          51.000
G10  23679081.469 5 124434410.049 5     -3160.527          35.000    23679082.758 5  96961875.845 5     -2462.749          35.000
G11  19909893.391 8 104627211.300 8       543.238          50.000    19909892.664 8  81527685.664 8       423.303          50.000
G14  22347024.594 6 117434454.009 6      1615.957          39.000    22347026.797 6  91507378.823 6      1259.187          37.000
G22  21462036.375 8 112783840.403 8      1938.559          51.000    21462032.227 8  87883479.816 8      1510.568          48.000
G27  22896315.820 7 120320934.669 7     -3364.746          44.000    22896320.008 7  93756576.175 7     -2621.880          44.000
G32  22016099.445 6 115695443.490 6       188.039          41.000    22016099.711 6  90152238.050 6       146.518          41.000
R01  19476516.398 7 104113174.962 7      1665.852          46.000    19476521.320 7  80976948.945 7      1295.659          43.000
R08  20082234.320 8 107539512.054 8     -1970.938          49.000    20082236.211 8  83641848.564 8     -1532.951          48.000
R23  19566013.539 8 104664969.344 8     -1043.914          51.000    19566018.750 7  81406104.346 7      -811.933          43.000
R24  19751975.562 5 105622730.049 5      1750.035          33.000
C05  39646355.234 5 206448975.387 5       -36.109          34.000    39646353.133 6 159639435.884 6       -27.445          37.000
C20  22002885.375 8 114574900.948 8       761.492          51.000
C29  21539781.383 8 112163312.933 8       469.535          51.000
C30  23180961.836 8 120709330.956 8     -2401.867          48.000
E03  24390371.344 7 128172253.168 7       -45.719          46.000
E08  23204111.539 8 121938459.322 8      2541.156          51.000    23204114.234 8  93433371.400 8      1947.090          50.000
E15  23496980.430 8 123477438.925 8      -880.410          51.000    23496984.039 8  94612614.884 8      -674.600          51.000
> 2020 05 03 19 10  0.0000000  0 19        .000000000000
G03  23150902.273 5 121658800.840 5      3242.828          35.000    23150905.305 5  94799121.218 5      2526.882          34.000
G08  20865691.078 8 109649950.692 8     -1784.848          51.000    20865694.531 8  85441525.216 8     -1390.790          51.000
G10  23697095.602 6 124529074.535 6     -3156.109          38.000    23697094.703 6  97035640.347 6     -2459.303          37.000
G11  19906798.320 8 104610946.506 8       535.055          50.000    19906797.562 8  81515011.803 8       416.926          50.000
G14  22337802.102 6 117385990.686 6      1608.582          40.000    22337804.336 6  91469615.193 6      1253.434          38.000
G22  21450964.812 8 112725659.276 8      1934.148          51.000    21450960.844 8  87838143.900 8      1507.132          49.000
G27  22915505.867 6 120421781.091 6     -3364.641          41.000    22915509.594 6  93835157.782 6     -2621.798          41.000
G32  22015039.195 6 115689877.473 6       177.004          37.000    22015041.734 6  90147900.958 6       137.931          37.000
R01  19467195.305 7 104063350.548 7      1649.684          46.000    19467200.922 7  80938196.632 7      1283.090          44.000
R08  20093297.492 8 107598753.360 8     -1984.652          48.000    20093299.352 8  83687925.137 8     -1543.615          48.000
R23  19571875.906 8 104696329.408 8     -1052.738          51.000    19571881.086 7  81430495.467 7      -818.799          43.000
C05                                                                  39646519.945 6 159640107.593 6       -21.697          37.000
C19  24255754.016 4 126306068.330 4      3090.848          29.000
C20  21998502.102 8 114552075.894 8       754.215          51.000
C29  21537072.766 8 112149209.104 8       464.770          51.000
C30  23194784.883 8 120781317.660 8     -2403.211          48.000
E03  24390632.703 7 128173626.059 7       -51.914          45.000
E08  23189588.312 8 121862136.496 8      2540.867          51.000    23189588.906 8  93374890.354 8      1946.925          48.000
E15  23501986.219 8 123503744.601 8      -879.312          51.000    23501989.938 8  94632771.170 8      -673.738          51.000
> 2020 05 03 19 10 30.0000000  0 19        .000000000000
G03  23132406.875 6 121561612.664 6      3236.594          36.000    23132411.102 5  94723390.159 5      2522.021          35.000
G08  20875921.859 8 109703713.464 8     -1799.312          51.000    20875924.781 8  85483418.273 8     -1402.062          51.000
G10  23715119.188 6 124623803.418 6     -3158.758          38.000    23715121.867 6  97109455.077 6     -2461.367          37.000
G11  19903785.820 8 104595116.007 8       520.430          50.000    19903785.117 8  81502676.361 8       405.530          49.000
G14  22328657.516 6 117337934.064 6      1595.074          41.000    22328658.734 5  91432168.454 5      1242.918          35.000
G22  21439953.820 8 112667797.948 8      1923.312          51.000    21439950.359 8  87793057.193 8      1498.688          48.000
G27  22934731.641 7 120522817.623 7     -3370.988          43.000    22934735.375 7  93913887.567 7     -2626.744          43.000
G32  22014080.469 7 115684839.272 7       159.066          42.000    22014080.266 7  90143975.081 7       123.948          42.000
R01  19458001.609 8 104014206.290 8      1626.766          48.000    19458007.367 7  80899973.351 7      1265.262          44.000
R08  20104473.102 8 107658599.355 8     -2005.031          49.000    20104475.328 8  83734472.026 8     -1559.469          48.000
R23  19577823.758 8 104728145.964 8     -1068.266          51.000    19577828.992 7  81455241.659 7      -830.873          43.000
C05  39646678.734 5 206450659.608 5       -26.711          34.000    39646676.664 6 159640739.043 6       -20.223          37.000
C19  24237964.305 5 126213414.996 5      3085.801          33.000
C20  21994197.031 8 114529657.511 8       740.473          51.000
C29  21534428.070 8 112135438.038 8       453.371          51.000
C30  23208651.930 8 120853526.368 8     -2410.656          50.000
E03  24390965.383 7 128175373.273 7       -64.465          43.000    24390964.977 5  98212302.873 5       -49.368          34.000
E08  23175102.602 8 121786011.372 8      2534.160          51.000    23175101.547 8  93316560.812 8      1941.744          49.000
E15  23507021.648 8 123530206.258 8      -884.746          51.000    23507025.461 8  94653046.971 8      -677.910          51.000
> 2020 05 03 19 11  0.0000000  0 19        .000000000000
G03  23113955.406 7 121464648.004 7      3227.961          42.000    23113960.000 7  94647833.330 7      2515.294          42.000
G08  20886242.594 8 109757948.468 8     -1816.152          51.000    20886244.867 8  85525679.302 8     -1415.184          51.000
G10  23733164.242 6 124718638.464 6     -3163.266          40.000    23733170.172 6  97183352.520 6     -2464.882          40.000
G11  19900864.570 8 104579764.411 8       503.273          50.000    19900863.781 8  81490714.071 8       392.161          50.000
G14  22319599.461 7 117290329.796 7      1578.895          44.000    22319599.547 5  91395074.253 5      1230.310          34.000
G22  21429012.117 8 112610301.112 8      1909.938          51.000    21429009.547 8  87748254.490 8      1488.266          48.000
G27  22954002.453 7 120624086.034 7     -3380.012          45.000    22954005.609 7  93992797.999 7     -2633.775          45.000
G32  22013230.172 6 115680372.802 6       138.742          41.000    22013231.938 6  90140494.803 6       108.114          41.000
R01  19448943.938 8 103965787.835 8      1601.324          48.000    19448949.250 7  80862314.542 7      1245.474          43.000
R08  20115769.695 8 107719091.445 8     -2027.539          49.000    20115771.805 8  83781521.437 8     -1576.975          48.000
R23  19583865.203 8 104760464.328 8     -1086.164          51.000    19583870.234 7  81480378.160 7      -844.794          43.000
C05  39646833.875 5 206451467.446 5       -27.336          34.000    39646831.750 6 159641363.781 6       -21.395          37.000
C19  24220209.578 5 126120954.034 5      3078.008          34.000
C20  21989978.227 8 114507689.118 8       724.336          51.000
C29  21531855.961 8 112122043.995 8       439.707          51.000
C30  23222570.438 8 120925999.613 8     -2420.629          51.000
E03  24391377.180 6 128177538.168 6       -79.781          40.000    24391378.359 6  98213961.708 6       -61.017          37.000
E08  23160662.875 8 121710129.222 8      2524.828          51.000    23160662.289 8  93258417.405 8      1934.630          51.000
E15  23512095.141 8 123556867.847 8      -892.523          51.000    23512098.938 8  94673475.963 8      -683.852          51.000
> 2020 05 03 19 11 30.0000000  0 19        .000000000000
G03  23095528.367 7 121367810.553 7      3221.047          43.000    23095532.211 7  94572375.638 7      2509.910          43.000
G08  20896634.211 8 109812556.498 8     -1831.195          51.000    20896636.086 8  85568230.967 8     -1426.908          51.000
G10  23751211.281 6 124813480.172 6     -3166.125          40.000    23751219.469 6  97257255.143 6     -2467.113          40.000
G11  19898016.016 8 104564794.899 8       487.855          50.000    19898015.156 8  81479049.519 8       380.150          50.000
G14  22310609.375 7 117243082.214 7      1564.414          43.000    22310608.711 6  91358257.991 6      1219.027          37.000
G22  21418121.492 8 112553071.184 8      1898.438          51.000    21418119.633 8  87703659.755 8      1479.302          49.000
G27  22973299.102 8 120725486.611 8     -3386.949          48.000    22973300.680 8  94071811.342 8     -2639.184          48.000
G32  22012470.289 7 115676380.848 7       120.355          43.000    22012473.148 7  90137384.230 7        93.783          43.000
R01  19440003.727 8 103917996.989 8      1577.758          48.000    19440008.992 7  80825143.911 7      1227.145          43.000
R08  20127167.734 8 107780126.417 8     -2048.270          49.000    20127169.406 8  83828993.066 8     -1593.099          48.000
R23  19589981.812 8 104793185.090 8     -1102.281          51.000    19589986.914 7  81505827.634 7      -857.330          43.000
C05  39646968.672 5 206452169.704 5       -26.273          34.000    39646966.469 6 159641906.796 6       -20.286          37.000
C19  24202472.758 5 126028590.008 5      3072.402          34.000
C20  21985827.211 8 114486073.825 8       709.922          51.000
C29  21529338.086 8 112108931.140 8       427.703          51.000
C30  23236520.578 8 120998639.703 8     -2428.770          51.000
E03  24391850.312 6 128180022.686 6       -93.043          38.000    24391852.586 6  98215865.430 6       -71.245          40.000
E08  23146250.602 8 121634393.776 8      2517.258          50.000    23146251.742 8  93200386.398 8      1928.796          51.000
E15  23517188.203 8 123583631.961 8      -898.633          51.000    23517191.914 8  94693983.515 8      -688.569          51.000
> 2020 05 03 19 12  0.0000000  0 19        .000000000000
G03  23077172.750 7 121271349.271 7      3212.070          43.000    23077175.227 7  94497211.066 7      2502.912          42.000
G08  20907143.969 8 109867783.895 8     -1848.102          51.000    20907145.523 8  85611265.245 8     -1440.082          51.000
G10  23769306.844 6 124908574.231 6     -3171.004          39.000    23769316.250 6  97331354.419 6     -2470.909          39.000
G11  19895287.531 8 104550456.381 8       470.574          50.000    19895286.578 8  81467876.656 8       366.681          50.000
G14  22301733.914 7 117196440.448 7      1547.523          42.000    22301733.086 6  91321913.841 6      1205.862          36.000
G22  21407329.039 8 112496356.206 8      1885.043          51.000    21407327.180 8  87659466.299 8      1468.868          48.000
G27  22992667.711 8 120827264.865 8     -3395.852          49.000    22992666.438 8  94151118.976 8     -2646.121          49.000
G32  22011847.969 6 115673111.159 6        99.969          36.000    22011849.383 6  90134836.460 6        77.901          36.000
R01  19431228.570 8 103871087.077 8      1552.113          49.000    19431233.367 7  80788658.446 7      1207.199          42.000
R08  20138713.508 8 107841953.591 8     -2070.965          48.000    20138715.328 8  83877080.886 8     -1610.750          48.000
R23  19596220.688 8 104826561.148 8     -1120.336          50.000    19596226.297 7  81531786.787 7      -871.372          42.000
C05  39647130.188 5 206453010.535 5       -27.094          34.000    39647128.109 6 159642557.774 6       -20.902          37.000
C19  24184800.680 5 125936569.774 5      3065.172          33.000
C20  21981791.219 8 114465056.946 8       693.613          51.000
C29  21526921.359 8 112096345.792 8       413.777          51.000
C30  23250549.227 8 121071691.098 8     -2438.785          51.000
E03  24392431.906 6 128183074.153 6      -108.098          39.000    24392434.195 7  98218203.510 7       -82.738          42.000
E08  23131913.055 7 121559054.154 7      2507.797          47.000    23131916.297 8  93142658.652 8      1921.562          51.000
E15  23522348.000 8 123610746.476 8      -906.582          51.000    23522351.430 8  94714759.553 8      -694.609          51.000
> 2020 05 03 19 12 30.0000000  0 19        .000000000000
G03  23058857.203 7 121175098.465 7      3206.551          43.000    23058859.008 7  94422210.488 7      2498.611          43.000
G08  20917739.656 8 109923462.086 8     -1861.789          51.000    20917740.398 8  85654650.802 8     -1450.748          51.000
G10  23787418.703 6 125003751.748 6     -3172.418          38.000    23787428.391 6  97405518.729 6     -2472.011          38.000
G11  19892647.438 8 104536582.792 8       456.289          49.000    19892646.547 8  81457066.067 8       355.550          49.000
G14  22292941.969 6 117150239.567 6      1534.395          40.000    22292941.711 6  91285913.160 6      1195.635          38.000
G22  21396602.945 8 112439989.543 8      1874.793          51.000    21396599.969 8  87615544.273 8      1460.878          48.000
G27  23012075.820 8 120929251.761 8     -3401.406          49.000    23012073.602 8  94230589.219 8     -2650.446          49.000
G32  22011331.539 5 115670396.982 5        82.633          35.000    22011333.555 5  90132721.547 5        64.389          35.000
R01  19422586.906 8 103824889.162 8      1529.664          50.000    19422591.023 7  80752726.746 7      1189.739          42.000
R08  20150374.805 8 107904399.989 8     -2090.199          49.000    20150376.727 8  83925650.303 8     -1625.714          49.000
R23  19602550.672 8 104860422.612 8     -1135.207          51.000    19602556.117 6  81558123.488 6      -882.939          41.000
C05  39647286.898 5 206453826.445 5       -24.512          34.000    39647284.703 6 159643188.745 6       -19.558          37.000
C19  24167165.281 6 125844729.304 6      3059.949          37.000
C20  21977838.031 8 114444472.869 8       680.555          51.000
C29  21524574.180 8 112084123.403 8       402.949          51.000
C30  23264624.664 8 121144987.494 8     -2445.719          51.000
