     3.02           OBSERVATION DATA    M (MIXED)           RINEX VERSION / TYPE
SAVERINEX           SC600               20200503 105931 LCL PGM / RUN BY / DATE
       G = GPS       R = GLONASS       C = COMPASS          COMMENT
       S = SBAS      J = QZSS          E = GALILEO          COMMENT
BEAN                                                        MARKER NAME
1                                                           MARKER NUMBER
GEODETIC                                                    MARKER TYPE
Unige DICCA         GTER                                    OBSERVER / AGENCY
SC60291900056       SC600               2.12(191226)        REC # / TYPE / VERS
                    HEMA45          NONE                    ANT # / TYPE
  4509407.8091   693652.4678  4442337.6214                  APPROX POSITION XYZ
        0.0000        0.0000        0.0000                  ANTENNA: DELTA H/E/N
G    8 C1C L1C D1C S1C C2Y L2Y D2Y S2Y                      SYS / # / OBS TYPES
R    8 C1C L1C D1C S1C C2P L2P D2P S2P                      SYS / # / OBS TYPES
C    8 C1I L1I D1I S1I C7I L7I D7I S7I                      SYS / # / OBS TYPES
E    8 C1C L1C D1C S1C C7Q L7Q D7Q S7Q                      SYS / # / OBS TYPES
DBHZ                                                        COMMENT
     30.000                                                 INTERVAL
  2020    05    03    08    00    0.0000000     GPS         TIME OF FIRST OBS
  2020    05    03    08    59   30.0000000     GPS         TIME OF LAST OBS
     0                                                      RCV CLOCK OFFS APPL
G L1C  0.00000                                              SYS / PHASE SHIFT
G L2Y  0.00000                                              SYS / PHASE SHIFT
R L1C  0.00000                                              SYS / PHASE SHIFT
R L2P  0.25000                                              SYS / PHASE SHIFT
C L1I  0.00000                                              SYS / PHASE SHIFT
C L7I  0.00000                                              SYS / PHASE SHIFT
E L1C  0.50000                                              SYS / PHASE SHIFT
E L7Q -0.25000                                              SYS / PHASE SHIFT
 14 R03  5 R04  6 R05  1 R06 -4 R07  5 R09 -2 R10 -5 R14 -7 GLONASS SLOT / FRQ #
    R15  0 R16 -1 R17  4 R18 -3 R19  3 R23  3               GLONASS SLOT / FRQ #
 C1C   71.950 C2C   71.950 C2P   71.950                     GLONASS COD/PHS/BIS
    18                                                      LEAP SECONDS
*** Above antenna height is from mark to ANTENNA BOTTOM.    COMMENT
    17     4        0.0000        ANT MEASURE TYPE/HEIGT    COMMENT
    0.0000    0.0000    0.0458    0.0405    0.0000          COMMENT
                    BASE STATION                            COMMENT
                                                            END OF HEADER
> 2020 05 03 08 00  0.0000000  0 15        .000000000000
G12  21066680.336 8 110706157.782 8      2209.000          51.000    21066678.469 8  86264536.454 8      1721.302          51.000
G13  23799076.672 6 125064949.071 6     -3726.258          38.000    23799080.070 5  97453268.423 5     -2903.578          34.000
G15  22291363.688 7 117141908.766 7     -3153.898          44.000    22291364.094 7  91279396.393 7     -2457.580          44.000
G24  20197925.031 8 106140848.415 8       486.902          50.000    20197926.992 8  82707140.216 8       379.404          50.000
G25  23534124.086 7 123672661.764 7      3323.172          44.000    23534127.781 7  96368314.544 7      2589.485          43.000
R06  20697293.070 7 110444741.132 7     -2561.969          45.000
R09  22467772.109 5 119976683.536 5      2844.570          33.000    22467776.844 4  93315178.018 4      2212.456          29.000
R15  22007458.602 6 117601152.761 6     -2791.051          37.000    22007462.211 4  91467608.502 4     -2170.808          28.000
R18  21798894.266 5 116364042.216 5      3183.172          35.000
C11  24248587.281 7 126268800.556 7      2703.316          45.000    24248593.633 8  97639052.207 8      2090.433          51.000
C23  23073679.250 4 120150724.387 4      1713.320          29.000
C25  22033022.648 8 114731717.493 8      -716.203          51.000
E05  25049041.852 8 131633605.472 8     -2400.559          50.000    25049048.133 8 100862111.216 8     -1839.395          51.000
E24  22272870.297 8 117044723.179 8     -1262.449          51.000    22272883.766 8  89683662.764 8      -967.289          51.000
E25  24134839.430 5 126829443.923 5      1089.305          35.000    24134845.734 7  97181019.529 7       834.668          42.000
> 2020 05 03 08 00 30.0000000  0 14        .000000000000
G12  21054105.680 8 110640078.246 8      2194.508          51.000    21054104.516 8  86213045.907 8      1710.006          51.000
G13  23820361.898 6 125176794.033 6     -3731.992          40.000    23820363.250 5  97540420.242 5     -2908.052          33.000
G15  22309394.875 8 117236663.165 8     -3164.945          48.000    22309395.844 8  91353230.968 8     -2466.191          48.000
G24  20195179.969 8 106126422.886 8       472.922          50.000    20195181.352 8  82695899.550 8       368.511          50.000
G25  23515170.398 7 123573060.300 7      3315.262          43.000    23515174.695 7  96290703.036 7      2583.321          43.000
R06  20711756.055 7 110521916.416 7     -2584.934          47.000
R09  22451799.648 5 119891411.772 5      2838.648          34.000    22451807.227 4  93248855.591 4      2207.841          28.000
R15  22023145.250 4 117685008.721 4     -2795.867          28.000    22023143.344 4  91532768.283 4     -2174.566          29.000
R18  21781050.844 6 116268798.430 6      3164.488          37.000    21781059.562 4  90431249.356 4      2461.275          27.000
C11  24233037.938 7 126187827.330 7      2693.000          47.000    24233044.148 8  97576438.579 8      2082.365          51.000
C25  22037169.195 8 114753309.554 8      -725.113          51.000
E05  25062770.477 8 131705750.959 8     -2410.961          49.000    25062776.781 8 100917391.512 8     -1847.324          51.000
E24  22280090.180 8 117082663.873 8     -1268.777          51.000    22280103.711 8  89712734.197 8      -972.183          51.000
E25  24128636.539 6 126796849.794 6      1081.637          40.000    24128644.211 7  97156044.750 7       828.742          42.000
> 2020 05 03 08 01  0.0000000  0 13        .000000000000
G12  21041612.500 8 110574428.107 8      2180.418          51.000    21041611.789 8  86161889.940 8      1699.030          50.000
G13  23841681.234 6 125288818.983 6     -3737.809          40.000    23841680.930 5  97627712.358 5     -2912.581          31.000
G15  22327488.867 8 117331744.238 8     -3175.547          50.000    22327489.805 8  91427320.062 8     -2474.455          50.000
G24  20192513.484 8 106112410.724 8       459.418          50.000    20192514.539 8  82684980.970 8       357.985          50.000
G25  23496259.867 7 123473686.507 7      3307.965          43.000    23496264.055 7  96213268.905 7      2577.635          43.000
R06  20726346.375 7 110599771.793 7     -2607.211          46.000
R15  22038834.070 5 117768828.788 5     -2800.605          35.000
R18  21763311.539 5 116174099.140 5      3146.941          34.000
C11  24217548.016 8 126107162.424 8      2682.852          48.000    24217553.133 8  97514063.368 8      2074.645          51.000
C25  22041365.953 8 114775163.191 8      -733.574          51.000
E05  25076556.508 8 131778199.572 8     -2420.797          48.000    25076562.484 8 100972904.089 8     -1854.881          51.000
E24  22287344.969 8 117120787.731 8     -1274.633          51.000    22287358.320 8  89741945.976 8      -976.661          51.000
E25  24122478.383 7 126764482.335 7      1074.398          43.000    24122485.703 6  97131243.715 6       823.106          41.000
> 2020 05 03 08 01 30.0000000  0 15        .000000000000
G12  21029188.320 8 110509138.871 8      2168.805          51.000    21029187.352 8  86111015.223 8      1689.978          51.000
G13  23863020.953 6 125400953.173 6     -3741.551          37.000    23863020.602 6  97715089.619 6     -2915.497          36.000
G15  22345631.609 8 117427080.884 8     -3183.680          51.000    22345632.383 8  91501608.309 8     -2480.789          51.000
G24  20189912.711 8 106098743.501 8       448.293          51.000    20189913.789 8  82674331.191 8       349.319          51.000
G25  23477379.930 7 123374472.889 7      3303.031          44.000    23477383.305 7  96135959.599 7      2573.791          44.000
R06  20741049.719 7 110678233.578 7     -2626.984          45.000
R09  22419943.516 5 119721228.078 5      2829.914          32.000
R17  21621432.430 4 115700581.615 4      -305.578          29.000
R18  21745659.984 5 116079879.671 5      3131.117          31.000    21745666.906 5  90284309.455 5      2435.313          32.000
C11  24202104.641 8 126026740.225 8      2675.250          50.000    24202107.727 8  97451875.832 8      2068.588          50.000
C23  23044227.445 5 119997336.702 5      1695.059          31.000
C25  22045599.906 8 114797210.219 8      -739.645          51.000
E05  25090386.828 8 131850881.087 8     -2428.059          48.000    25090392.180 8 101028595.113 8     -1860.446          51.000
E24  22294621.391 8 117159025.381 8     -1277.965          51.000    22294634.422 8  89771244.943 8      -979.223          51.000
E25  24116350.992 7 126732272.660 7      1069.551          43.000    24116355.672 6  97106563.559 6       819.376          40.000
> 2020 05 03 08 02  0.0000000  0 12        .000000000000
G12  21016841.914 8 110444256.267 8      2154.406          51.000    21016841.062 8  86060457.371 8      1678.758          51.000
G15  22363830.891 8 117522715.360 8     -3194.309          51.000    22363831.508 8  91576128.637 8     -2489.072          51.000
G24  20187386.336 8 106085466.754 8       434.434          51.000    20187387.398 8  82663985.680 8       338.520          51.000
G25  23458539.344 7 123275465.176 7      3295.492          45.000    23458541.539 7  96058810.765 7      2567.916          45.000
R06  20755875.406 7 110757343.749 7     -2649.461          46.000
R17  21623212.781 5 115710131.744 5      -334.164          31.000
R18  21728102.500 5 115986092.091 5      3112.883          32.000    21728109.719 5  90211445.932 5      2421.128          32.000
C11  24186716.508 8 125946607.476 8      2664.711          49.000    24186717.219 7  97389912.049 7      2060.599          47.000
C25  22049879.469 8 114819494.729 8      -748.348          51.000
E05  25104270.148 8 131923838.608 8     -2438.074          49.000    25104274.484 8 101084497.611 8     -1868.120          51.000
E24  22301927.742 8 117197420.707 8     -1284.016          51.000    22301940.445 8  89800664.719 8      -983.826          51.000
E25  24110261.906 7 126700265.152 7      1061.938          42.000    24110263.375 6  97082038.361 6       813.785          38.000
> 2020 05 03 08 02 30.0000000  0 14        .000000000000
G12  21004572.812 8 110379780.572 8      2164.965          51.000    21004572.227 8  86010216.580 8      1686.986          51.000
G15  22382085.953 8 117618644.819 8     -3179.953          51.000    22382086.570 8  91650878.834 8     -2477.886          51.000
G24  20184934.367 8 106072581.279 8       445.547          51.000    20184935.406 8  82653945.048 8       347.179          51.000
G25  23439738.180 7 123176664.153 7      3312.363          44.000    23439739.500 7  95981823.015 7      2581.065          44.000
R06  20770821.812 7 110837098.154 7     -2646.242          46.000
R15  22086051.188 6 118021144.755 6     -2786.406          36.000
R18  21710651.633 5 115892934.452 5      3118.969          35.000    21710655.250 5  90138990.095 5      2425.874          31.000
C11  24171383.539 7 125866766.078 7      2678.801          47.000    24171383.602 7  97328173.601 7      2071.419          43.000
C23  23024756.852 5 119895957.156 5      1707.086          31.000
C24  25691425.945 5 133781991.132 5     -2545.059          31.000
C25  22054204.570 8 114842016.327 8      -732.371          51.000
E05  25118206.039 8 131997070.221 8     -2422.965          51.000    25118209.422 8 101140610.126 8     -1856.614          51.000
E24  22309263.789 8 117235972.692 8     -1265.090          51.000    22309276.344 8  89830204.541 8      -969.298          51.000
E25  24104210.281 7 126668459.188 7      1079.504          42.000    24104210.219 6  97057667.593 6       827.410          36.000
> 2020 05 03 08 03  0.0000000  0 15        .000000000000
G12  20992343.555 8 110315515.062 8      2116.766          51.000    20992342.602 8  85960139.552 8      1649.428          51.000
G13  23927171.141 5 125738137.879 5     -3767.336          35.000    23927176.914 5  97977789.270 5     -2935.586          31.000
G15  22400358.617 8 117714668.904 8     -3224.320          50.000    22400359.391 8  91725702.777 8     -2512.457          50.000
G24  20182519.141 8 106059889.370 8       397.855          51.000    20182520.297 8  82644055.243 8       310.017          51.000
G25  23420938.977 7 123077873.299 7      3270.961          45.000    23420939.844 7  95904843.143 7      2548.801          45.000
R06  20785850.062 7 110917292.602 7     -2702.816          45.000
R15  22101813.086 4 118105369.673 4     -2824.863          29.000    22101820.891 4  91859777.081 4     -2197.113          27.000
R17  21627211.523 5 115731600.079 5      -399.934          32.000
R18  21693264.031 6 115800113.716 6      3066.414          38.000    21693265.930 5  90066796.305 5      2384.998          31.000
C11  24156069.383 7 125787022.783 7      2634.785          47.000    24156068.109 5  97266511.069 5      2037.733          30.000
C24  25706187.680 4 133858870.178 4     -2582.230          28.000
C25  22058537.648 8 114864578.955 8      -774.594          51.000
E05  25132156.484 8 132070376.652 8     -2466.711          51.000    25132159.266 8 101196779.959 8     -1890.101          51.000
E24  22316591.805 8 117274482.906 8     -1304.938          51.000    22316604.531 8  89859712.362 8      -999.857          51.000
E25  24098158.922 7 126636656.876 7      1038.125          42.000    24098157.453 6  97033299.682 6       795.354          36.000
> 2020 05 03 08 03 30.0000000  0 14        .000000000000
G12  20980260.234 8 110252017.853 8      2118.184          50.000    20980258.070 8  85910661.189 8      1650.533          50.000
G13  23948653.961 6 125851027.070 6     -3757.082          37.000    23948657.438 5  98065752.860 5     -2927.593          33.000
G15  22418754.734 8 117811343.049 8     -3218.789          49.000    22418755.648 8  91801033.253 8     -2508.147          50.000
G24  20180247.000 8 106047949.970 8       399.848          51.000    20180248.430 8  82634751.813 8       311.570          51.000
G25  23402248.008 7 122979651.436 7      3279.117          46.000    23402249.250 7  95828306.637 7      2555.156          46.000
R06  20801066.047 7 110998489.242 7     -2708.488          46.000
R09  22356559.000 6 119382787.845 6      2813.742          37.000
R17  21629491.797 5 115743805.076 5      -411.551          34.000
R18  21676047.383 6 115708200.827 6      3063.293          37.000    21676045.562 5  89995308.571 5      2382.561          30.000
C11  24140880.758 7 125707932.626 7      2639.609          47.000    24140874.617 6  97205276.968 6      2041.204          38.000
C25  22062984.672 8 114887735.206 8      -767.402          51.000
E05  25146227.086 8 132144314.047 8     -2460.691          51.000    25146229.352 8 101253433.262 8     -1885.435          51.000
E24  22324017.875 8 117313508.416 8     -1295.016          51.000    22324031.031 8  89889615.021 8      -992.303          51.000
E25  24092213.016 6 126605415.618 6      1046.805          37.000    24092211.203 6  97009361.650 6       801.962          38.000
> 2020 05 03 08 04  0.0000000  0 17        .000000000000
G12  20968182.281 8 110188549.123 8      2119.090          49.000    20968179.836 8  85861205.053 8      1651.239          49.000
G13  23970091.172 6 125963678.300 6     -3747.289          37.000    23970090.102 5  98153510.002 5     -2919.981          32.000
G15  22437133.289 8 117907923.860 8     -3213.840          50.000    22437133.961 8  91876290.998 8     -2504.291          50.000
G17  23004844.859 5 120891213.068 5     -1896.125          34.000    23004845.891 5  94200985.205 5     -1477.500          32.000
G24  20177977.188 8 106036022.931 8       401.281          51.000    20177978.914 8  82625458.010 8       312.687          51.000
G25  23383524.547 7 122881259.016 7      3286.543          46.000    23383526.375 7  95751637.256 7      2560.943          46.000
R06  20816328.539 7 111079932.403 7     -2714.855          46.000
R09  22340745.211 5 119298327.160 5      2822.973          30.000    22340736.875 4  92787557.518 4      2195.645          25.000
R15  22133415.039 5 118274295.422 5     -2802.082          32.000    22133426.328 4  91991133.164 4     -2179.400          29.000
R17  21631857.406 6 115756451.871 6      -425.473          36.000    21631856.352 4  90032772.005 4      -330.923          29.000
R18  21658859.797 5 115616447.588 5      3059.398          34.000    21658858.938 5  89923905.038 5      2379.541          33.000
C11  24125677.094 7 125628764.070 7      2644.160          46.000    24125675.227 7  97144058.803 7      2044.753          45.000
C23  22995753.359 5 119744927.311 5      1684.699          31.000
C25  22067404.609 8 114910751.054 8      -760.961          51.000
E05  25160276.477 8 132218140.169 8     -2454.980          51.000    25160278.133 8 101310001.297 8     -1881.059          51.000
E24  22331401.055 8 117352307.838 8     -1285.512          51.000    22331414.562 8  89919344.447 8      -984.970          51.000
E25  24086232.094 6 126573994.558 6      1054.754          36.000    24086231.438 6  96985285.765 6       807.835          39.000
> 2020 05 03 08 04 30.0000000  0 17        .000000000000
G12  20956210.461 8 110125637.639 8      2083.352          51.000    20956209.508 8  85812183.130 8      1623.391          51.000
G13  23991582.984 6 126076617.459 6     -3773.812          37.000
G15  22455594.406 8 118004936.990 8     -3245.246          51.000    22455594.859 8  91951885.619 8     -2528.763          51.000
G17  23015805.273 5 120948872.031 5     -1934.008          32.000    23015796.781 4  94245874.368 4     -1507.050          24.000
G19  21570022.164 5 113351249.127 5      -283.746          33.000
G24  20175810.266 8 106024636.547 8       366.195          51.000    20175812.312 8  82616585.503 8       285.347          51.000
G25  23364869.477 7 122783225.231 7      3257.590          47.000    23364871.672 7  95675247.350 7      2538.382          47.000
R06  20831736.984 7 111162154.457 7     -2758.051          45.000
R09  22324989.250 5 119214168.049 5      2795.770          34.000
R15  22149242.586 5 118358895.849 5     -2829.535          33.000    22149256.805 4  92056933.275 4     -2200.762          26.000
R18  21641802.750 5 115525394.834 5      3018.711          34.000    21641804.203 5  89853086.288 5      2347.889          34.000
C11  24110559.352 7 125550042.780 7      2612.219          46.000    24110560.500 8  97083186.524 8      2019.870          48.000
C23  22986138.930 5 119694922.769 5      1655.555          32.000
C25  22071897.961 8 114934149.669 8      -790.656          51.000
E05  25174404.352 8 132292381.489 8     -2485.949          51.000    25174405.945 8 101366887.479 8     -1904.797          51.000
E24  22338841.711 8 117391408.574 8     -1312.695          51.000    22338855.367 8  89949304.757 8     -1005.894          51.000
E25  24080317.484 6 126542921.600 6      1025.742          38.000    24080319.352 6  96961476.521 6       785.773          40.000
> 2020 05 03 08 05  0.0000000  0 14        .000000000000
G12  20944358.828 8 110063356.535 8      2071.840          51.000    20944359.242 8  85763652.399 8      1614.421          51.000
G13  24013143.508 5 126189914.610 5     -3775.508          31.000
G15  22474151.188 8 118102452.297 8     -3252.527          51.000    22474151.477 8  92027871.552 8     -2534.437          51.000
G24  20173760.430 8 106013865.112 8       355.086          51.000    20173762.703 8  82608192.165 8       276.690          51.000
G25  23346296.766 7 122685623.762 7      3252.504          47.000    23346299.188 7  95599194.295 7      2534.419          47.000
R06  20847304.594 7 111245225.034 7     -2776.629          45.000
R09  22309298.883 4 119130384.335 4      2792.512          29.000
R18  21624891.328 6 115435120.716 6      3002.930          37.000    21624893.906 5  89782873.144 5      2335.612          34.000
C11  24095541.680 7 125471843.128 7      2604.355          46.000    24095544.438 8  97022717.559 8      2013.798          49.000
C23  22976618.227 5 119645343.765 5      1652.637          30.000
C25  22076478.641 8 114958002.806 8      -796.422          51.000
E05  25188624.109 8 132367108.919 8     -2492.652          51.000    25188626.430 8 101424146.151 8     -1909.984          51.000
E24  22346353.477 8 117430882.435 8     -1315.660          51.000    22346367.039 8  89979550.960 8     -1008.106          51.000
E25  24074485.062 7 126512268.816 7      1021.301          42.000    24074487.641 6  96937989.260 6       782.411          41.000
> 2020 05 03 08 05 30.0000000  0 12        .000000000000
G12  20932535.445 8 110001224.138 8      2066.008          50.000    20932535.625 8  85715237.575 8      1609.876          51.000
G15  22492711.250 8 118199984.926 8     -3253.941          51.000    22492711.562 8  92103870.986 8     -2535.542          51.000
G24  20171735.914 8 106003226.136 8       349.836          51.000    20171738.156 8  82599902.044 8       272.596          51.000
G25  23327714.586 7 122587970.380 7      3253.113          47.000
R06  20862938.828 7 111328650.606 7     -2789.449          46.000
R15  22181018.523 5 118528644.799 5     -2825.930          35.000    22181017.062 5  92188942.834 5     -2197.942          30.000
R18  21608034.742 5 115345139.661 5      2992.227          31.000    21608037.750 5  89712887.864 5      2327.284          31.000
C11  24080532.320 7 125393689.559 7      2601.699          44.000    24080536.914 8  96962284.219 8      2011.908          51.000
C25  22081054.812 8 114981832.419 8      -796.574          50.000
E05  25202844.039 8 132441838.539 8     -2493.520          50.000    25202847.266 8 101481406.482 8     -1910.661          51.000
E24  22353844.391 8 117470246.407 8     -1312.918          51.000    22353857.750 8  90009712.953 8     -1005.933          51.000
E25  24068641.688 7 126481553.591 7      1022.148          42.000    24068642.758 6  96914454.248 6       783.079          39.000
> 2020 05 03 08 06  0.0000000  0 14        .000000000000
G12  20920809.297 8 109939603.864 8      2048.090          50.000    20920807.836 8  85667221.831 8      1595.917          50.000
G13  24056266.336 5 126416532.562 5     -3781.289          32.000
G15  22511343.000 8 118297895.246 8     -3267.309          50.000    22511343.305 8  92180164.718 8     -2545.955          50.000
G19  21575350.305 5 113379243.402 5      -344.246          32.000    21575351.148 5  88347451.974 5      -268.247          32.000
G24  20169805.781 8 105993082.768 8       332.426          51.000    20169807.891 8  82591998.123 8       259.033          51.000
G25  23309191.828 7 122490634.704 7      3241.781          46.000    23309195.039 7  95447251.198 7      2526.066          46.000
R06  20878707.547 7 111412795.586 7     -2814.035          45.000
R15  22196922.531 5 118613626.118 5     -2833.332          34.000
R17  21643009.859 5 115816085.180 5      -551.551          35.000    21643018.875 4  90079204.111 4      -428.981          26.000
C11  24065601.531 7 125315943.664 7      2587.250          45.000    24065607.562 8  96902166.177 8      2000.692          51.000
C25  22085695.406 8 115005997.686 8      -808.449          50.000
E05  25217132.945 8 132516931.294 8     -2506.496          50.000    25217137.344 8 101538945.085 8     -1920.544          51.000
E24  22361383.258 8 117509862.405 8     -1322.090          51.000    22361396.469 8  90040068.062 8     -1013.048          51.000
E25  24062855.086 6 126451138.269 6      1011.473          41.000    24062853.664 6  96891149.079 6       774.860          37.000
> 2020 05 03 08 06 30.0000000  0 15        .000000000000
G12  20909144.641 8 109878306.254 8      2037.070          50.000    20909143.320 8  85619457.458 8      1587.328          50.000
G15  22530009.922 8 118395990.493 8     -3273.652          50.000    22530010.219 8  92256602.544 8     -2550.898          50.000
G19  21577368.508 5 113389843.098 5      -363.832          35.000    21577365.758 6  88355711.506 6      -283.509          36.000
G24  20167934.078 8 105983246.153 8       321.984          51.000    20167936.055 8  82584333.224 8       250.897          51.000
G25  23290692.688 7 122393424.887 7      3237.371          43.000    23290695.992 7  95371503.327 7      2522.627          43.000
R06  20894574.148 7 111497462.984 7     -2831.688          47.000
R15  22212831.484 5 118698635.828 5     -2834.781          32.000
R17  21646175.562 5 115833041.498 5      -576.613          33.000
R18  21574654.078 5 115166988.590 5      2952.332          34.000    21574677.867 4  89574390.094 4      2296.258          25.000
C11  24050714.000 7 125238419.609 7      2579.543          47.000    24050720.242 8  96842219.674 8      1994.612          51.000
C23  22948133.766 5 119496936.732 5      1640.777          31.000
C25  22090364.234 8 115030310.222 8      -813.723          50.000
E05  25231454.531 8 132592195.549 8     -2512.496          50.000    25231460.180 8 101596615.082 8     -1925.201          51.000
E24  22368933.672 8 117549539.691 8     -1324.422          51.000    22368946.875 8  90070470.137 8     -1014.814          51.000
E25  24057088.375 6 126420832.541 6      1007.645          38.000    24057085.430 5  96867927.868 5       771.915          35.000
> 2020 05 03 08 07  0.0000000  0 15        .000000000000
G12  20897564.406 8 109817450.578 8      2022.391          51.000    20897564.242 8  85572037.444 8      1575.889          51.000
G15  22548734.047 8 118494386.796 8     -3283.656          49.000    22548734.539 8  92333274.954 8     -2558.696          49.000
G19  21579518.297 6 113401143.921 6      -386.719          37.000    21579516.672 6  88364517.330 6      -301.342          37.000
G24  20166143.430 8 105973835.665 8       307.785          51.000    20166145.297 8  82577000.364 8       239.830          51.000
G25  23272240.539 6 122296460.838 6      3229.195          40.000    23272243.781 6  95295946.867 6      2516.253          40.000
R06  20910561.000 8 111582769.342 8     -2852.797          48.000
R15  22228767.844 5 118783733.650 5     -2839.418          31.000
R17  21649489.500 5 115850729.586 5      -605.707          34.000
R18  21558129.312 6 115078766.853 6      2932.773          37.000    21558133.961 4  89505719.537 4      2281.046          27.000
C11  24035892.305 8 125161237.408 8      2568.285          48.000    24035898.117 8  96782537.517 8      1985.916          51.000
C23  22938707.352 4 119447860.847 4      1633.398          28.000
C25  22095084.031 8 115054887.564 8      -822.441          51.000
E05  25245831.508 8 132667748.418 8     -2521.941          51.000    25245837.734 8 101654506.226 8     -1932.415          51.000
E24  22376518.078 8 117589396.343 8     -1330.348          51.000    22376531.227 8  90101009.647 8     -1019.348          51.000
E25  24051364.469 6 126390755.084 6       999.934          36.000    24051362.461 6  96844881.500 6       766.374          37.000
> 2020 05 03 08 07 30.0000000  0 15        .000000000000
G12  20886049.773 8 109756939.263 8      2007.340          51.000    20886050.117 8  85524885.770 8      1564.161          51.000
G15  22567496.484 8 118592983.711 8     -3293.895          50.000    22567496.938 8  92410103.685 8     -2566.674          50.000
G19  21581783.375 6 113413047.210 6      -410.789          37.000    21581781.305 6  88373792.608 6      -320.092          36.000
G24  20164415.250 8 105964753.234 8       293.270          51.000    20164417.070 8  82569923.135 8       228.522          51.000
G25  23253817.266 7 122199645.293 7      3220.859          44.000    23253820.766 7  95220506.198 7      2509.761          44.000
R06  20926648.344 8 111668611.512 8     -2874.168          48.000
R09  22231049.805 5 118712549.629 5      2771.562          35.000    22231048.969 5  92331987.304 5      2155.660          33.000
R15  22244704.312 5 118868918.574 5     -2844.145          34.000
R17  21652952.266 6 115869286.817 6      -633.672          36.000    21652950.484 4  90120579.360 4      -492.856          25.000
R18  21541696.227 5 114991036.749 5      2912.121          34.000    21541707.148 5  89437484.972 5      2264.977          30.000
C11  24021118.070 7 125084302.244 7      2556.520          47.000    24021123.023 8  96723046.388 8      1976.848          51.000
C25  22099836.227 8 115079632.417 8      -831.543          51.000
E05  25260245.148 8 132743490.171 8     -2531.805          51.000    25260250.805 8 101712542.079 8     -1939.918          51.000
E24  22384117.719 8 117629333.530 8     -1336.500          51.000    22384130.781 8  90131610.864 8     -1024.107          51.000
E25                                                                  24045665.844 6  96821934.553 6       760.203          38.000
> 2020 05 03 08 08  0.0000000  0 13        .000000000000
G12  20874622.547 8 109696888.117 8      1995.664          51.000    20874622.477 8  85478092.711 8      1555.063          51.000
G15  22586318.711 8 118691893.722 8     -3300.812          50.000    22586318.836 8  92487176.381 8     -2572.065          50.000
G19  21584184.672 6 113425667.493 6      -431.352          38.000    21584182.352 6  88383626.639 6      -336.118          38.000
G24  20162771.688 8 105956115.482 8       281.945          51.000    20162773.578 8  82563192.420 8       219.698          51.000
G25  23235444.531 7 122103094.487 7      3215.207          46.000    23235448.227 7  95145271.849 7      2505.359          46.000
R06  20942856.453 7 111755102.007 7     -2892.516          46.000
R09  22215482.523 5 118629435.220 5      2768.207          32.000    22215481.141 5  92267342.765 5      2153.053          30.000
R17  21656572.125 5 115888673.966 5      -659.727          32.000
C11  24006413.648 8 125007730.483 8      2547.727          48.000    24006417.117 8  96663836.270 8      1969.979          49.000
C25  22104642.539 8 115104658.680 8      -837.453          51.000
E05  25274716.539 8 132819534.242 8     -2538.430          51.000    25274721.094 8 101770809.572 8     -1945.046          51.000
E24  22391754.461 8 117669465.661 8     -1339.566          51.000    22391767.367 8  90162361.454 8     -1026.436          50.000
E25  24040011.391 6 126331098.169 6       987.395          36.000    24040015.883 6  96799174.956 6       756.797          40.000
> 2020 05 03 08 08 30.0000000  0 12        .000000000000
G12  20863269.102 8 109637224.836 8      1982.887          51.000    20863268.148 8  85431601.871 8      1545.107          51.000
G15  22605185.914 8 118791040.966 8     -3308.070          49.000    22605185.711 8  92564433.932 8     -2577.720          48.000
G19  21586708.984 6 113438931.662 6      -452.480          38.000    21586707.438 6  88393962.313 6      -352.582          38.000
G24  20161198.812 8 105947849.599 8       269.988          51.000    20161200.812 8  82556751.455 8       210.380          51.000
G25  23217108.312 7 122006736.484 7      3209.305          46.000    23217112.109 7  95070187.730 7      2500.757          46.000
R06  20959170.516 7 111842162.345 7     -2911.016          45.000
R09  22199945.789 4 118546462.466 4      2764.293          29.000    22199939.953 4  92202796.797 4      2150.015          29.000
C11  23991765.586 8 124931452.090 8      2538.340          48.000    23991767.312 7  96604852.988 7      1962.872          47.000
C25  22109488.812 8 115129893.888 8      -843.996          51.000
E05  25289231.227 8 132895805.942 8     -2545.523          51.000    25289234.359 8 101829251.474 8     -1950.490          51.000
E24  22399414.336 8 117709719.053 8     -1343.137          51.000    22399426.914 8  90193204.945 8     -1029.181          49.000
E25  24034394.578 6 126301566.196 6       982.066          37.000    24034397.797 6  96776546.544 6       752.573          41.000
> 2020 05 03 08 09  0.0000000  0 15        .000000000000
G12  20851985.070 8 109577926.664 8      1970.074          51.000    20851983.977 8  85385395.509 8      1535.123          51.000
G13  24186129.109 6 127098956.215 6     -3801.500          37.000
G15  22624093.055 8 118890399.854 8     -3316.043          49.000    22624092.523 8  92641856.396 8     -2583.930          49.000
G19  21589351.016 5 113452815.730 5      -474.426          35.000    21589349.062 5  88404781.107 5      -369.679          35.000
G24  20159692.320 8 105939932.621 8       257.492          51.000    20159694.289 8  82550582.384 8       200.643          51.000
G25  23198804.719 7 121910549.064 7      3202.938          47.000    23198807.852 7  94995236.520 7      2495.798          47.000
R06  20975586.523 7 111929765.970 7     -2929.684          44.000
R09  22184424.992 5 118463577.969 5      2760.504          34.000    22184418.172 4  92138331.233 4      2147.065          27.000
R15  22292653.547 5 119125173.436 5     -2850.984          32.000    22292667.031 3  92652974.135 3     -2217.432          23.000
R18  21493059.969 5 114731414.116 5      2856.816          31.000    21493054.945 5  89235528.832 5      2221.971          32.000
C11  23977169.797 8 124855446.402 8      2528.332          48.000    23977169.859 7  96546080.606 7      1955.142          47.000
C25  22114370.539 8 115155314.899 8      -850.996          51.000
E05  25303784.281 8 132972280.328 8     -2553.121          51.000    25303786.180 8 101887848.687 8     -1956.303          51.000
E24  22407092.859 8 117750069.722 8     -1347.293          51.000    22407105.188 8  90224122.986 8     -1032.344          49.000
E25  24028804.758 6 126272181.842 6       976.547          39.000    24028806.570 6  96754031.226 6       748.111          41.000
> 2020 05 03 08 09 30.0000000  0 16        .000000000000
G12  20840779.641 8 109519044.261 8      1955.492          49.000    20840779.117 8  85339513.105 8      1523.760          49.000
G13  24207843.484 5 127213073.090 5     -3806.773          35.000
G15  22643049.414 8 118990017.762 8     -3325.250          49.000    22643048.414 8  92719480.706 8     -2591.104          48.000
G19  21592120.742 6 113467369.353 6      -496.594          38.000    21592118.680 6  88416121.625 6      -386.953          37.000
G24  20158261.859 8 105932415.596 8       243.543          51.000    20158263.688 8  82544724.949 8       189.774          51.000
G25  23180543.305 7 121814583.623 7      3194.668          47.000    23180545.375 7  94920458.306 7      2489.355          47.000
R06  20992113.672 7 112017958.506 7     -2949.949          46.000
R09  22168932.617 6 118380848.708 6      2754.480          36.000
R15  22308670.297 5 119210753.599 5     -2854.637          30.000
R18  21477053.570 5 114646000.380 5      2837.297          33.000    21477057.492 5  89169095.932 5      2206.793          34.000
C11  23962636.391 7 124779765.611 7      2516.926          47.000    23962635.078 8  96487559.507 8      1946.283          48.000
C23  22892049.531 5 119204902.957 5      1605.656          33.000
C25  22119297.617 8 115180971.401 8      -859.461          51.000
E05  25318384.922 8 133049005.986 8     -2562.137          51.000    25318386.305 8 101946638.449 8     -1963.145          51.000
E24  22414799.344 8 117790567.294 8     -1352.691          51.000    22414811.812 8  90255153.585 8     -1036.604          49.000
E25  24023251.312 6 126242995.146 6       969.453          38.000    24023252.500 6  96731667.359 6       742.771          41.000
> 2020 05 03 08 10  0.0000000  0 17        .000000000000
G12  20829651.648 8 109460568.459 8      1943.387          50.000    20829651.086 8  85293947.559 8      1514.327          50.000
G13  24229577.125 5 127327295.792 5     -3808.555          34.000
G15  22662052.836 8 119089882.678 8     -3331.828          49.000    22662051.359 8  92797297.472 8     -2596.230          49.000
G19  21595015.898 6 113482582.188 6      -517.082          40.000    21595013.961 5  88427975.746 5      -402.921          33.000
G24  20156905.812 8 105925289.696 8       231.992          51.000    20156907.547 8  82539172.288 8       180.773          51.000
G25  23162322.352 7 121718831.350 7      3188.980          47.000    23162323.852 7  94845846.201 7      2484.923          47.000
R06  21008749.133 7 112106727.078 7     -2967.414          46.000
R09  22153458.297 5 118298246.791 5      2750.172          30.000
R17  21672550.453 5 115974172.247 5      -765.980          30.000
R18  21461157.023 6 114561174.287 6      2818.406          38.000    21461166.961 4  89103120.402 4      2192.106          29.000
C11  23948163.672 7 124704402.351 7      2507.766          45.000    23948161.422 8  96429283.903 8      1939.173          48.000
C23  22882820.133 5 119156818.738 5      1600.949          35.000
C24  25914550.156 5 134943863.092 5     -2594.688          30.000
C25  22124268.078 8 115206853.634 8      -865.461          51.000
E05  25333031.094 8 133125971.520 8     -2568.457          51.000    25333032.367 8 102005612.011 8     -1968.015          51.000
E24  22422531.844 8 117831201.335 8     -1355.719          51.000    22422544.602 8  90286288.740 8     -1038.824          49.000
E25  24017732.469 6 126213996.049 6       964.336          38.000    24017733.922 6  96709447.264 6       739.062          40.000
> 2020 05 03 08 10 30.0000000  0 15        .000000000000
G12  20818599.344 8 109402487.490 8      1947.395          51.000    20818598.461 8  85248689.677 8      1517.450          51.000
G15  22681100.656 8 119189979.367 8     -3322.383          50.000    22681099.016 8  92875294.834 8     -2588.873          50.000
G17  23154047.328 5 121675343.933 5     -2086.023          35.000    23154044.695 5  94811940.662 5     -1625.473          30.000
G19  21598034.148 6 113498441.398 6      -521.234          38.000    21598030.727 5  88440333.485 5      -406.160          32.000
G24  20155621.938 8 105918542.905 8       236.625          51.000    20155623.477 8  82533915.045 8       184.383          51.000
G25  23144139.641 7 121623281.047 7      3199.453          47.000    23144140.977 7  94771391.447 7      2493.080          46.000
R06  21025488.617 7 112196054.691 7     -2968.387          44.000
R09  22138021.148 5 118215767.381 5      2764.266          33.000    22138029.305 4  91945637.440 4      2149.978          29.000
R18  21445373.664 6 114476927.760 6      2816.512          37.000    21445388.641 4  89037604.611 4      2190.629          28.000
C11  23933749.375 7 124629346.851 7      2514.656          44.000    23933747.727 8  96371246.229 8      1944.410          51.000
C24  25929508.914 4 135021754.040 4     -2578.477          29.000
C25  22129279.508 8 115232949.310 8      -855.484          51.000
E05  25347720.070 8 133203162.959 8     -2558.723          51.000    25347721.461 8 102064758.681 8     -1960.640          51.000
E24  22430287.836 8 117871958.867 8     -1342.523          51.000    22430300.961 8  90317518.519 8     -1028.645          50.000
E25  24012244.992 6 126185171.912 6       975.871          36.000    24012248.008 6  96687361.257 6       747.847          38.000
> 2020 05 03 08 11  0.0000000  0 15        .000000000000
G12  20807597.344 8 109344670.063 8      1913.316          51.000    20807596.664 8  85203637.129 8      1490.896          51.000
G15  22700167.102 8 119290173.667 8     -3350.809          50.000    22700165.922 8  92953368.280 8     -2611.020          50.000
G17  23166071.859 5 121738544.107 5     -2119.867          35.000    23166070.516 5  94861187.405 5     -1651.854          33.000
G19  21601149.969 6 113514814.100 6      -564.062          37.000
G24  20154385.211 8 105912043.876 8       203.059          51.000    20154386.461 8  82528850.866 8       158.227          51.000
G25  23125970.273 7 121527801.614 7      3172.020          46.000    23125971.469 7  94696991.904 7      2471.704          46.000
R06  21042307.578 7 112285802.907 7     -3008.227          43.000
R15  22356794.969 4 119467971.132 4     -2864.965          28.000
R18  21429674.930 5 114393130.319 5      2776.688          32.000    21429688.641 5  88972428.874 5      2159.649          32.000
C11  23919369.023 7 124554470.316 7      2483.340          44.000    23919369.070 8  96313346.938 8      1920.454          51.000
C24  25944451.008 4 135099544.319 4     -2600.836          29.000
C25  22134306.836 8 115259127.404 8      -883.309          51.000
E05  25362426.453 8 133280446.477 8     -2587.070          51.000    25362428.281 8 102123975.892 8     -1982.280          51.000
E24  22438041.992 8 117912707.097 8     -1367.613          51.000    22438055.461 8  90348741.179 8     -1047.932          50.000
E25  24006764.562 5 126156408.376 5       949.305          34.000    24006769.109 6  96665307.936 6       727.374          36.000
> 2020 05 03 08 11 30.0000000  0 15        .000000000000
G12  20796761.609 8 109287727.004 8      1895.980          51.000    20796761.000 8  85159265.908 8      1477.387          51.000
G13  24294928.914 5 127670706.304 5     -3825.559          33.000
G15  22719367.719 8 119391073.517 8     -3362.602          50.000    22719367.273 8  93031991.516 8     -2620.209          50.000
G17  23178268.430 5 121802639.474 5     -2138.812          33.000    23178268.320 5  94911131.779 5     -1666.610          31.000
G19  21604479.961 6 113532310.356 6      -589.473          40.000
G24  20153311.891 8 105906403.473 8       186.094          51.000    20153313.023 8  82524455.743 8       145.008          51.000
G25  23107930.797 7 121433004.570 7      3161.184          46.000    23107931.914 7  94623124.109 7      2463.263          45.000
R06  21059321.430 7 112376587.999 7     -3030.730          44.000
R17  21686144.211 5 116046937.699 5      -853.172          30.000
R18  21414192.758 5 114310456.340 5      2752.121          35.000    21414184.367 4  88908084.063 4      2140.533          29.000
C11  23905140.141 7 124480379.993 7      2468.922          45.000    23905141.484 8  96256055.606 8      1909.070          51.000
C25  22139466.148 8 115285992.741 8      -894.691          51.000
E05  25377265.930 8 133358430.870 8     -2598.645          49.000    25377268.703 8 102183730.155 8     -1991.232          51.000
E24  22445910.555 8 117954055.843 8     -1375.859          51.000    22445924.031 8  90380423.987 8     -1054.275          51.000
E25  24001410.453 6 126128279.780 6       939.020          39.000    24001413.375 6  96643754.831 6       719.643          36.000
> 2020 05 03 08 12  0.0000000  0 15        .000000000000
G12  20785915.992 8 109230732.629 8      1903.895          51.000    20785914.836 8  85114854.703 8      1483.554          51.000
G13  24316712.172 5 127785186.259 5     -3806.457          34.000
G15  22738525.688 8 119491749.381 8     -3348.883          50.000    22738525.906 8  93110440.217 8     -2609.522          50.000
G17  23190459.305 5 121866701.595 5     -2131.195          32.000    23190458.562 4  94961050.550 4     -1660.629          27.000
G24  20152225.984 8 105900696.720 8       194.582          51.000    20152227.094 8  82520008.912 8       151.622          51.000
G25  23089845.172 7 121337964.728 7      3175.641          45.000    23089846.078 7  94549067.142 7      2474.528          45.000
R06  21076351.039 6 112467464.910 6     -3027.453          40.000
R09  22091868.797 5 117969344.303 5      2746.352          31.000    22091864.727 4  91753912.108 4      2136.060          29.000
R17  21690951.594 5 116072613.116 5      -858.094          35.000
C11  23890886.891 7 124406160.398 7      2479.383          46.000    23890888.898 8  96198664.328 8      1917.107          51.000
C23  22846219.594 4 118966262.366 4      1591.152          28.000
C25  22144581.195 8 115312627.296 8      -880.719          51.000
E05  25392062.156 8 133436188.157 8     -2584.918          49.000    25392065.680 8 102243310.406 8     -1980.624          51.000
E24  22453716.945 8 117995078.159 8     -1358.711          51.000    22453730.383 8  90411856.662 8     -1041.117          51.000
E25  23996005.969 6 126099877.319 6       954.801          40.000    23996007.094 6  96621991.920 6       731.508          37.000
> 2020 05 03 08 12 30.0000000  0 16        .000000000000
G12  20775201.867 8 109174429.920 8      1872.395          50.000    20775200.203 8  85070982.504 8      1459.012          51.000
G13  24338569.609 5 127900053.911 5     -3827.465          33.000
G15  22757782.023 8 119592941.866 8     -3374.539          50.000    22757782.578 8  93189291.470 8     -2629.511          50.000
G19  21611396.328 5 113568682.157 5      -628.879          35.000
G24  20151268.727 8 105895665.940 8       163.625          51.000    20151269.602 8  82516088.818 8       127.500          51.000
G25  23071854.727 7 121243425.881 7      3150.332          43.000    23071856.023 7  94475400.525 7      2454.804          43.000
R06  21093538.383 6 112559184.190 6     -3064.027          41.000
R09  22076568.719 5 117887625.330 5      2723.566          32.000    22076564.938 4  91690355.058 4      2118.336          27.000
R15  22405168.594 5 119726384.051 5     -2875.031          31.000
R17  21695958.570 5 116099383.356 5      -902.906          32.000
R18  21383407.594 5 114146061.409 5      2714.918          32.000    21383416.688 4  88780309.072 4      2111.603          29.000
C11  23876751.047 7 124332549.926 7      2450.812          47.000    23876752.953 8  96141744.061 8      1895.039          51.000
C25  22149793.328 8 115339767.130 8      -905.922          51.000
E05  25406956.500 8 133514459.519 8     -2610.352          49.000    25406960.359 8 102303284.565 8     -2000.056          51.000
E24  22461602.398 8 118036516.251 8     -1380.934          51.000    22461615.883 8  90443607.906 8     -1058.034          51.000
E25  23990691.188 6 126071943.693 6       930.332          38.000    23990692.445 6  96600588.226 6       712.995          40.000
> 2020 05 03 08 13  0.0000000  0 12        .000000000000
G12  20764534.391 8 109118373.576 8      1859.422          50.000    20764533.086 8  85027302.268 8      1448.900          50.000
G15  22777051.328 8 119694202.376 8     -3381.555          50.000    22777052.102 8  93268195.724 8     -2634.981          50.000
G24  20150355.414 8 105890866.273 8       151.086          51.000    20150356.094 8  82512348.812 8       117.729          51.000
G25  23053874.930 7 121148943.001 7      3143.137          42.000    23053877.211 7  94401777.510 7      2449.200          42.000
R06  21110799.055 7 112651287.847 7     -3081.594          43.000
R09  22061263.992 5 117805887.620 5      2719.895          30.000    22061263.016 4  91626781.239 4      2115.470          25.000
R17  21701084.750 5 116126793.281 5      -929.598          32.000
C11  23862647.891 7 124259108.859 7      2440.297          47.000    23862649.500 8  96084954.814 8      1886.893          51.000
C25  22155017.578 8 115366970.129 8      -912.773          51.000
E05  25421863.773 8 133592797.167 8     -2617.320          49.000    25421867.633 8 102363309.515 8     -2005.545          51.000
E24  22469481.977 8 118077923.405 8     -1384.789          51.000    22469495.391 8  90475335.456 8     -1061.093          51.000
E25  23985380.312 6 126044032.455 6       924.895          38.000    23985383.008 6  96579201.683 6       708.712          41.000
> 2020 05 03 08 13 30.0000000  0 11        .000000000000
G12  20753971.250 8 109062865.527 8      1840.543          49.000    20753970.648 8  84984049.231 8      1434.189          49.000
G15  22796390.289 8 119795829.825 8     -3394.230          50.000    22796391.336 8  93347385.932 8     -2644.852          50.000
G17  23227627.195 5 122062003.992 5     -2196.004          31.000
G24  20149543.477 8 105886599.615 8       132.805          51.000    20149544.141 8  82509024.145 8       103.484          51.000
G25  23035963.844 7 121054818.637 7      3131.020          45.000    23035966.430 7  94328433.850 7      2439.755          45.000
R06  21128188.320 7 112744078.727 7     -3104.973          43.000
C11  23848634.906 7 124186138.247 7      2424.000          45.000    23848636.094 8  96028529.355 8      1874.448          51.000
C25  22160311.273 8 115394535.009 8      -925.355          51.000
E05  25436840.836 8 133671500.942 8     -2630.074          50.000    25436844.336 8 102423614.992 8     -2015.270          51.000
E24  22477412.898 8 118119600.499 8     -1394.277          51.000    22477426.102 8  90507269.848 8     -1068.357          51.000
E25  23980131.070 6 126016444.907 6       913.645          40.000    23980134.930 7  96558063.145 7       700.062          42.000
> 2020 05 03 08 14  0.0000000  0 13        .000000000000
G12  20743470.297 8 109007683.516 8      1835.238          49.000    20743470.164 8  84941050.253 8      1430.056          49.000
G15  22815755.969 8 119897598.686 8     -3393.305          48.000    22815757.484 8  93426686.336 8     -2644.134          48.000
G19  21622737.766 5 113628253.388 5      -691.410          32.000
G24  20148790.695 8 105882644.239 8       127.949          51.000    20148791.555 8  82505942.030 8        99.701          51.000
G25  23018079.133 7 120960831.032 7      3131.895          46.000    23018081.266 7  94255196.785 7      2440.440          46.000
R06  21145662.594 7 112837326.177 7     -3114.617          42.000
R09  22030766.195 5 117643070.163 5      2712.754          30.000    22030769.570 4  91500166.684 4      2109.923          27.000
R17  21711794.836 4 116184199.165 4      -979.785          28.000
C11  23834670.344 7 124113419.748 7      2421.062          46.000    23834671.375 8  95972298.846 8      1872.032          51.000
C25  22165631.969 8 115422240.912 8      -924.629          51.000
E05  25451844.922 8 133750346.430 8     -2629.281          51.000    25451847.773 8 102484029.034 8     -2014.665          51.000
E24  22485352.570 8 118161324.144 8     -1390.312          51.000    22485365.523 8  90539239.906 8     -1065.358          51.000
E25  23974900.680 6 125988958.064 6       915.922          39.000    23974905.336 7  96537001.749 7       701.664          43.000
> 2020 05 03 08 14 30.0000000  0 14        .000000000000
G12  20733035.828 8 108952850.136 8      1816.469          50.000    20733035.742 8  84898322.960 8      1415.430          50.000
G15  22835152.359 8 119999528.630 8     -3405.816          49.000    22835154.109 8  93506112.267 8     -2653.883          49.000
G19  21626725.758 6 113649209.538 6      -717.949          36.000
G24  20148101.477 8 105879022.485 8       109.703          51.000    20148102.531 8  82503119.876 8        85.483          51.000
G25  23000224.727 7 120867003.305 7      3119.480          47.000    23000226.812 7  94182084.320 7      2430.764          46.000
R06  21163226.414 7 112931048.482 7     -3137.562          43.000
R15  22469817.734 5 120071850.867 5     -2888.156          33.000
R18  21323255.414 5 113825015.447 5      2631.617          35.000    21323267.789 5  88530585.305 5      2046.822          31.000
C11  23820758.750 7 124040977.348 7      2404.645          46.000    23820759.969 8  95916281.795 8      1859.484          51.000
C23  22801261.008 4 118732184.448 4      1542.969          28.000
C25  22170983.766 8 115450109.664 8      -937.043          51.000
E05  25466879.938 8 133829353.928 8     -2641.730          51.000    25466881.906 8 102544567.211 8     -2024.261          51.000
E24  22493305.266 8 118203115.796 8     -1399.656          51.000    22493317.898 8  90571262.064 8     -1072.545          51.000
E25  23969692.820 6 125961593.609 6       904.520          37.000    23969698.391 7  96516034.167 7       693.199          42.000
> 2020 05 03 08 15  0.0000000  0 13        .000000000000
G12  20722691.000 8 108898487.474 8      1808.035          50.000    20722690.594 8  84855962.422 8      1408.859          50.000
G15  22854602.445 8 120101739.042 8     -3407.727          49.000    22854603.695 8  93585756.738 8     -2655.368          49.000
G24  20147499.086 8 105875856.642 8       101.832          51.000    20147500.234 8  82500652.985 8        79.350          51.000
G25  22982423.898 7 120773458.187 7      3117.223          45.000    22982426.391 7  94109192.053 7      2429.008          45.000
R06  21180901.875 7 113025365.362 7     -3149.789          45.000
R09  22000354.125 5 117480677.754 5      2703.176          31.000
R15  22486023.516 5 120158477.825 5     -2885.430          33.000
R18  21308516.344 6 113746318.879 6      2616.016          38.000    21308556.211 3  88469503.709 3      2034.688          22.000
C11  23806923.570 7 123968934.107 7      2398.527          45.000    23806925.273 8  95860573.421 8      1854.579          51.000
C25  22176390.031 8 115478261.828 8      -939.246          51.000
E05  25481968.781 8 133908643.555 8     -2643.863          51.000    25481969.633 8 102605321.542 8     -2025.787          50.000
E24  22501294.062 8 118245096.599 8     -1398.625          51.000    22501306.531 8  90603429.156 8     -1071.752          51.000
E25  23964531.320 6 125934473.097 6       903.523          39.000    23964537.281 7  96495253.535 7       692.624          42.000
> 2020 05 03 08 15 30.0000000  0 13        .000000000000
G12  20712419.242 8 108844506.980 8      1789.215          51.000    20712418.148 8  84813899.679 8      1394.193          51.000
G15  22874088.633 8 120204137.388 8     -3420.113          49.000    22874088.820 8  93665547.619 8     -2665.023          49.000
G24  20146966.586 8 105873057.604 8        83.465          51.000    20146967.742 8  82498471.913 8        65.038          51.000
G25  22964659.750 7 120680107.358 7      3104.820          45.000    22964662.992 7  94036451.147 7      2419.341          44.000
R06  21198670.664 7 113120181.295 7     -3172.551          46.000
R09  21985187.836 5 117399701.804 5      2693.176          34.000
R15  22502252.781 6 120245149.039 6     -2893.660          37.000
R18  21293881.609 4 113668181.709 4      2590.246          29.000    21293890.148 5  88408607.250 5      2014.642          33.000
C11  23793148.023 7 123897203.566 7      2382.156          44.000    23793150.016 8  95805106.793 8      1842.028          51.000
C25  22181833.516 8 115506608.634 8      -951.820          51.000
E05  25497093.859 8 133988124.060 8     -2656.059          51.000    25497093.609 8 102666222.133 8     -2035.219          50.000
E24  22509301.703 8 118287176.421 8     -1407.840          50.000    22509314.156 8  90635672.092 8     -1078.782          51.000
E25  23959399.562 6 125907506.731 6       892.555          38.000    23959404.836 6  96474591.005 6       684.067          40.000
> 2020 05 03 08 16  0.0000000  0 14        .000000000000
G12  20702237.719 8 108791000.170 8      1777.406          51.000    20702236.281 8  84772206.089 8      1384.995          51.000
G15  22893627.609 8 120306812.896 8     -3425.391          50.000    22893625.508 8  93745554.452 8     -2669.139          50.000
G19  21639535.539 4 113716525.614 4      -780.582          29.000    21639535.719 5  88610268.526 5      -608.252          31.000
G24  20146521.484 8 105870718.062 8        72.066          51.000    20146522.773 8  82496648.893 8        56.156          51.000
G25  22946950.109 7 120587043.217 7      3098.879          45.000    22946953.539 7  93963933.659 7      2414.711          45.000
R06  21216549.531 7 113215585.058 7     -3188.098          47.000
R09  21970064.711 5 117318937.677 5      2689.434          35.000
R15  22518499.117 5 120331970.904 5     -2895.359          32.000    22518497.812 4  93591543.987 4     -2251.949          25.000
R18  21279385.273 6 113590805.971 6      2570.203          38.000    21279388.320 5  88348412.832 5      1999.047          34.000
C11  23779449.922 7 123825878.579 7      2372.277          44.000    23779452.344 8  95749953.814 8      1834.374          51.000
C25  22187331.703 8 115535240.645 8      -957.504          51.000
E05  25512272.227 8 134067885.273 8     -2661.836          51.000    25512271.461 8 102727337.807 8     -2039.550          50.000
E24  22517345.406 8 118329446.151 8     -1410.477          49.000    22517357.938 8  90668060.555 8     -1080.788          51.000
E25  23954314.867 6 125880785.743 6       888.137          38.000    23954318.680 6  96454116.501 6       680.511          40.000
> 2020 05 03 08 16 30.0000000  0 15        .000000000000
G12  20692126.812 8 108737865.965 8      1764.828          51.000    20692125.742 8  84730802.834 8      1375.191          51.000
G15  22913199.430 8 120409661.843 8     -3431.168          50.000    22913194.438 8  93825696.373 8     -2673.643          49.000
G19  21644051.156 5 113740254.421 5      -801.422          31.000    21644048.109 5  88628765.866 5      -624.485          30.000
G24  20146144.570 8 105868737.095 8        59.973          51.000    20146145.984 8  82495105.277 8        46.732          51.000
G25  22929276.117 7 120494165.374 7      3092.762          46.000    22929279.086 7  93891561.349 7      2409.947          46.000
R06  21234518.461 7 113311469.368 7     -3204.031          46.000
R09  21954961.844 4 117238282.485 4      2686.598          29.000
R15  22534753.414 5 120418863.310 5     -2896.570          30.000
R17  21741195.570 5 116341508.137 5     -1114.551          32.000    21741200.023 4  90487875.013 4      -866.870          29.000
R18  21264993.695 6 113513999.460 6      2550.016          39.000    21264995.578 5  88288674.402 5      1983.342          34.000
C11  23765811.680 7 123754860.960 7      2362.176          47.000    23765813.625 8  95695038.553 8      1826.527          50.000
C25  22192865.539 8 115564057.383 8      -963.672          51.000
E05  25527484.000 8 134147824.080 8     -2667.559          50.000    25527483.703 8 102788589.563 8     -2044.039          50.000
E24  22525405.586 8 118371803.828 8     -1413.328          49.000    22525418.539 8  90700516.435 8     -1082.979          51.000
E25  23949257.922 6 125854208.529 6       883.535          40.000    23949259.609 6  96433752.145 6       677.042          40.000
> 2020 05 03 08 17  0.0000000  0 14        .000000000000
G12  20682091.844 8 108685131.982 8      1750.996          50.000    20682091.109 8  84689711.395 8      1364.413          50.000
G15  22932808.648 8 120512707.828 8     -3438.242          49.000    22932803.969 8  93905991.846 8     -2679.153          49.000
G19  21648687.758 5 113764616.642 5      -822.664          30.000    21648687.227 4  88647749.373 4      -641.040          27.000
G24  20145840.961 8 105867141.592 8        46.656          51.000    20145842.406 8  82493862.027 8        36.359          51.000
G25  22911643.086 7 120401501.771 7      3085.277          45.000    22911645.367 7  93819355.984 7      2404.115          45.000
R06  21252581.648 7 113407857.399 7     -3221.270          46.000
R15  22551024.195 5 120505806.269 5     -2899.793          33.000    22551028.375 5  93726754.454 5     -2255.398          33.000
R17  21747524.750 5 116375348.485 5     -1140.953          32.000    21747519.602 5  90514195.205 5      -887.408          30.000
