     3.02           OBSERVATION DATA    M (MIXED)           RINEX VERSION / TYPE
SAVERINEX           SC600               20200511 075930 LCL PGM / RUN BY / DATE
       G = GPS       R = GLONASS       C = COMPASS          COMMENT
       S = SBAS      J = QZSS          E = GALILEO          COMMENT
BEAN                                                        MARKER NAME
1                                                           MARKER NUMBER
GEODETIC                                                    MARKER TYPE
Unige DICCA         GTER                                    OBSERVER / AGENCY
SC60291900056       SC600               2.12(191226)        REC # / TYPE / VERS
                    HEMA45          NONE                    ANT # / TYPE
  4509407.8091   693652.4678  4442337.6214                  APPROX POSITION XYZ
        0.0000        0.0000        0.0000                  ANTENNA: DELTA H/E/N
G    8 C1C L1C D1C S1C C2Y L2Y D2Y S2Y                      SYS / # / OBS TYPES
R    8 C1C L1C D1C S1C C2P L2P D2P S2P                      SYS / # / OBS TYPES
C    8 C1I L1I D1I S1I C7I L7I D7I S7I                      SYS / # / OBS TYPES
E    8 C1C L1C D1C S1C C7Q L7Q D7Q S7Q                      SYS / # / OBS TYPES
DBHZ                                                        COMMENT
     30.000                                                 INTERVAL
  2020    05    11    05    00    0.0000000     GPS         TIME OF FIRST OBS
  2020    05    11    05    59   30.0000000     GPS         TIME OF LAST OBS
     0                                                      RCV CLOCK OFFS APPL
G L1C  0.00000                                              SYS / PHASE SHIFT
G L2Y  0.00000                                              SYS / PHASE SHIFT
R L1C  0.00000                                              SYS / PHASE SHIFT
R L2P  0.25000                                              SYS / PHASE SHIFT
C L1I  0.00000                                              SYS / PHASE SHIFT
C L7I  0.00000                                              SYS / PHASE SHIFT
E L1C  0.50000                                              SYS / PHASE SHIFT
E L7Q -0.25000                                              SYS / PHASE SHIFT
 12 R02 -4 R03  5 R04  6 R05  1 R10 -5 R13 -2 R14 -7 R15  0 GLONASS SLOT / FRQ #
    R16 -1 R17  4 R18 -3 R23  3                             GLONASS SLOT / FRQ #
 C1C   71.950 C2C   71.950 C2P   71.950                     GLONASS COD/PHS/BIS
    18                                                      LEAP SECONDS
*** Above antenna height is from mark to ANTENNA BOTTOM.    COMMENT
    17     4        0.0000        ANT MEASURE TYPE/HEIGT    COMMENT
    0.0000    0.0000    0.0458    0.0405    0.0000          COMMENT
                    BASE STATION                            COMMENT
                                                            END OF HEADER
> 2020 05 11 05 00  0.0000000  0 17        .000000000000
G05  23353422.672 6 122723058.382 6     -3490.582          40.000    23353423.750 6  95628330.830 6     -2719.934          39.000
G13  20150768.672 8 105892991.034 8      -115.590          50.000    20150767.078 8  82514009.202 8       -90.070          50.000
G17  24127541.875 6 126791130.281 6      2700.203          37.000    24127536.508 6  98798225.664 6      2104.051          36.000
G28  21079327.281 8 110772643.942 8     -1103.980          48.000    21079324.883 6  86316371.671 6      -860.245          41.000
R04  20965157.508 8 112267430.587 8     -3511.125          48.000    20965160.406 7  87319136.054 7     -2730.875          43.000
R05  19233637.086 8 102814831.444 8       289.438          51.000    19233639.273 8  79967072.570 8       225.118          49.000
R14  20927359.352 5 111554611.685 5     -3040.445          32.000    20927374.266 4  86764748.059 4     -2364.791          25.000
R15  19272629.789 8 102987083.735 8       310.918          51.000    19272632.117 7  80101078.014 7       241.825          46.000
R16  22295416.750 7 119098093.742 7      3425.145          43.000    22295421.297 6  92631868.565 6      2664.001          36.000
C05  39785780.156 6 207174995.857 6        22.168          36.000    39785778.672 6 160200821.980 6        17.075          39.000
C14  22158132.547 6 115383212.289 6       195.359          37.000    22158128.344 6  89221613.753 6       150.729          37.000
C21  25205138.164 6 131249739.280 6     -3386.211          41.000
C24  23215034.234 7 120886752.972 7      1990.777          47.000
C26  21423187.758 8 111556136.122 8      -576.316          51.000
E07  27115914.922 7 142495071.168 7     -2815.270          44.000    27115923.250 8 109184542.788 8     -2157.083          51.000
E21  24395625.516 8 128199924.152 8      1823.262          51.000    24395625.430 8  98231091.938 8      1397.012          51.000
E27  23537942.938 8 123692765.795 8      -928.160          51.000    23537945.094 8  94777517.234 8      -711.203          51.000
> 2020 05 11 05 00 30.0000000  0 17        .000000000000
G05  23373387.898 6 122827978.619 6     -3504.469          41.000    23373390.570 6  95710086.801 6     -2730.755          37.000
G13  20151493.633 8 105896801.199 8      -138.652          50.000    20151492.055 8  82516978.164 8      -108.041          50.000
G17  24112170.070 6 126710351.756 6      2685.184          40.000    24112166.266 6  98735281.413 6      2092.354          40.000
G24  23433752.312 5 123145198.830 5      2993.672          32.000
G28  21085701.484 8 110806140.561 8     -1129.207          49.000    21085699.250 6  86342472.925 6      -879.902          40.000
R04  20984896.141 8 112373128.101 8     -3535.586          50.000    20984898.164 7  87401345.205 7     -2749.900          42.000
R05  19232108.586 8 102806661.349 8       255.035          51.000    19232111.117 8  79960718.049 8       198.361          50.000
R15  19270961.625 8 102978169.021 8       283.305          51.000    19270963.727 7  80094144.350 7       220.348          46.000
R16  22276233.703 7 118995618.391 7      3406.422          43.000    22276237.594 5  92552165.559 5      2649.442          35.000
C05  39785676.344 6 207174455.355 6        13.543          36.000    39785674.828 6 160200404.031 6        10.545          39.000
C14  22157079.016 6 115377723.741 6       170.223          39.000    22157075.484 6  89217369.592 6       131.772          41.000
C21  25224681.312 6 131351505.013 6     -3398.438          40.000
C24  23203612.766 7 120827282.605 7      1973.562          45.000
C26  21426561.125 8 111573702.219 8      -595.023          51.000
E07  27132023.297 7 142579714.866 7     -2827.996          45.000    27132031.586 8 109249399.610 8     -2166.894          51.000
E21  24385268.438 8 128145498.892 8      1804.844          51.000    24385269.680 8  98189389.462 8      1382.917          51.000
E27  23543295.164 8 123720893.133 8      -947.250          51.000    23543297.406 8  94799069.341 8      -725.848          51.000
> 2020 05 11 05 01  0.0000000  0 16        .000000000000
G05  23393390.852 7 122933095.958 7     -3505.117          43.000    23393396.320 5  95791996.444 5     -2731.260          30.000
G13  20152309.609 8 105901089.629 8      -148.797          49.000    20152308.109 8  82520319.806 8      -115.946          49.000
G17  24096840.336 6 126629793.928 6      2683.852          40.000    24096838.734 6  98672509.102 6      2091.313          40.000
G28  21092177.891 8 110840174.124 8     -1141.199          48.000    21092176.070 6  86368992.586 6      -889.243          40.000
R04  21004729.648 8 112479332.484 8     -3546.371          51.000    21004730.695 7  87483948.557 7     -2758.292          42.000
R05  19230731.297 8 102799300.912 8       234.020          51.000    19230734.109 8  79954993.251 8       182.015          49.000
R15  19269407.461 8 102969862.824 8       268.992          51.000    19269409.266 7  80087683.958 7       209.216          47.000
R16  22257114.273 7 118893486.205 7      3400.836          42.000    22257116.945 5  92472729.421 5      2645.095          33.000
C05  39785580.422 6 207173955.287 6        17.863          36.000    39785578.773 6 160200017.315 6        14.414          39.000
C14  22156128.805 6 115372774.106 6       157.977          38.000    22156126.117 6  89213542.183 6       122.360          40.000
C21  25244254.805 6 131453428.111 6     -3397.777          40.000
C24  23192248.719 7 120768111.925 7      1969.547          46.000
C26  21430000.719 8 111591613.122 8      -600.668          51.000
E07  27148162.820 7 142664524.413 7     -2827.469          46.000    27148171.031 8 109314383.509 8     -2166.616          51.000
E21  24374975.750 8 128091411.029 8      1799.500          51.000    24374978.133 8  98147945.511 8      1378.799          51.000
E27  23548715.266 8 123749376.465 8      -953.223          51.000    23548717.531 8  94820894.211 8      -730.361          51.000
> 2020 05 11 05 01 30.0000000  0 17        .000000000000
G05  23413395.375 7 123038218.999 7     -3505.512          43.000    23413407.555 5  95873910.768 5     -2731.561          34.000
G13  20153180.766 8 105905668.030 8      -158.855          50.000    20153179.469 8  82523887.401 8      -123.780          50.000
G17  24081517.391 6 126549270.678 6      2681.910          41.000    24081517.273 6  98609763.754 6      2089.800          41.000
G28  21098720.102 8 110874554.082 8     -1153.137          49.000    21098718.750 6  86395782.176 6      -898.548          38.000
R04  21024621.422 8 112585847.841 8     -3557.051          51.000    21024622.008 7  87566793.784 7     -2766.598          43.000
R05  19229469.906 8 102792559.205 8       212.910          51.000    19229472.531 8  79949749.709 8       165.597          49.000
R14  20978969.961 5 111829672.605 5     -3065.426          31.000    20978971.750 4  86978673.805 4     -2384.220          24.000
R15  19267930.711 8 102961971.645 8       254.719          51.000    19267932.586 7  80081546.384 7       198.115          47.000
R16  22238023.461 7 118791506.371 7      3395.180          43.000    22238023.336 5  92393411.765 5      2640.698          33.000
C05  39785456.211 6 207173308.325 6        22.762          36.000    39785454.547 6 160199517.041 6        17.580          39.000
C14  22155246.008 6 115368176.551 6       146.191          39.000    22155243.812 6  89209987.103 6       113.054          40.000
C21  25263822.484 6 131555319.337 6     -3397.258          41.000
C24  23180907.633 8 120709053.845 8      1965.328          48.000
C26  21433470.523 8 111609680.602 8      -606.250          51.000
E07  27164297.539 7 142749309.938 7     -2827.145          46.000    27164305.633 8 109379348.990 8     -2166.200          51.000
E21  24364711.844 8 128037472.023 8      1794.141          51.000    24364714.391 8  98106615.594 8      1374.749          51.000
E27  23554166.914 8 123778025.548 8      -959.035          51.000    23554169.336 8  94842846.100 8      -734.827          51.000
> 2020 05 11 05 02  0.0000000  0 17        .000000000000
G05  23433451.812 7 123143613.757 7     -3525.344          44.000    23433465.172 6  95956036.709 6     -2747.018          38.000
G13  20154158.500 8 105910806.392 8      -188.484          49.000    20154157.359 8  82527891.326 8      -146.871          49.000
G17  24066253.000 6 126469054.776 6      2660.754          41.000    24066253.195 6  98547257.832 6      2073.315          41.000
G28  21105379.266 8 110909548.226 8     -1184.531          48.000    21105377.695 6  86423050.342 6      -923.011          38.000
R04  21044622.172 8 112692946.026 8     -3587.707          51.000    21044622.727 7  87650092.307 7     -2790.442          44.000
R05  19228375.516 8 102786711.242 8       171.859          51.000    19228378.375 8  79945201.275 8       133.668          48.000
R14  20996269.758 4 111921921.866 4     -3088.871          26.000
R15  19266582.516 8 102954768.683 8       220.609          51.000    19266584.695 7  80075944.083 7       171.585          47.000
R16  22219012.953 7 118689953.851 7      3369.910          44.000    22219010.422 5  92314426.508 5      2621.044          35.000
C05  39785354.961 6 207172782.435 6         7.875          36.000    39785353.398 6 160199109.621 6         5.944          39.000
C14  22154482.031 6 115364198.441 6       114.527          40.000    22154480.891 7  89206910.974 7        88.315          42.000
C21  25283434.859 6 131657443.676 6     -3415.934          40.000
C24  23169640.391 8 120650375.551 8      1941.805          48.000
C26  21437021.242 8 111628170.561 8      -631.254          50.000
E07  27180478.367 7 142834339.802 7     -2846.398          45.000    27180486.531 8 109444501.699 8     -2181.013          51.000
E21  24354527.734 8 127983951.532 8      1769.082          51.000    24354529.695 8  98065606.371 8      1355.432          51.000
E27  23559701.164 8 123807108.574 8      -984.625          51.000    23559703.727 8  94865130.491 8      -754.486          51.000
> 2020 05 11 05 02 30.0000000  0 16        .000000000000
G05  23453548.273 7 123249217.990 7     -3517.523          44.000    23453556.852 6  96038325.718 6     -2740.927          40.000
G13  20155231.602 8 105916446.123 8      -190.273          50.000    20155230.695 8  82532285.911 8      -148.265          50.000
G17  24051035.938 6 126389089.946 6      2667.227          40.000    24051036.164 6  98484947.583 6      2078.361          40.000
G28  21112143.578 7 110945095.382 7     -1188.023          47.000    21112141.617 6  86450749.439 6      -925.730          38.000
R04  21064719.484 8 112800563.455 8     -3589.613          51.000    21064720.016 7  87733794.703 7     -2791.924          43.000
R05  19227437.688 8 102781698.065 8       159.379          51.000    19227440.414 8  79941302.142 8       123.961          48.000
R15  19265351.539 8 102948192.098 8       214.980          50.000    19265354.062 7  80070828.957 7       167.207          47.000
R16  22200071.250 7 118588770.247 7      3372.648          44.000    22200069.562 6  92235728.181 6      2623.171          39.000
C05  39785265.531 6 207172316.723 6        20.230          36.000    39785263.977 6 160198749.458 6        16.072          39.000
C14  22153826.414 6 115360781.335 6       110.469          41.000    22153825.234 7  89204268.622 7        85.545          42.000
C21  25303080.008 6 131759740.344 6     -3406.793          39.000
C24  23158434.547 7 120592018.507 7      1945.984          46.000
C26  21440641.656 8 111647023.299 8      -628.387          51.000
E07  27196694.070 7 142919553.635 7     -2837.414          46.000    27196702.266 8 109509795.390 8     -2174.155          51.000
E21  24344411.609 8 127930790.590 8      1772.117          51.000    24344413.227 8  98024872.670 8      1357.853          51.000
E27  23565306.602 8 123836564.960 8      -981.996          51.000    23565309.211 8  94887700.959 8      -752.457          51.000
> 2020 05 11 05 03  0.0000000  0 16        .000000000000
G05  23473648.766 7 123354843.767 7     -3525.984          44.000    23473650.500 7  96120631.588 7     -2747.517          42.000
G13  20156365.203 8 105922402.765 8      -208.805          51.000    20156364.227 8  82536927.440 8      -162.705          51.000
G17  24035831.664 6 126309193.549 6      2657.020          39.000    24035832.359 6  98422690.690 6      2070.405          38.000
G28  21118977.656 7 110981008.766 7     -1207.977          47.000    21118976.195 6  86478733.904 6      -941.280          38.000
R04  21084877.352 8 112908508.324 8     -3608.555          50.000    21084877.727 7  87817751.736 7     -2806.657          43.000
R05  19226621.102 8 102777332.168 8       129.797          50.000    19226623.922 8  79937906.421 8       100.950          49.000
R15  19264202.211 8 102942052.483 8       192.371          50.000    19264205.234 7  80066053.727 7       149.622          47.000
R16  22181162.961 7 118487768.279 7      3358.824          43.000    22181164.195 7  92157171.106 7      2612.419          42.000
C05  39785152.578 6 207171728.537 6        16.863          36.000    39785151.109 6 160198294.678 6        12.816          40.000
C14  22153243.367 6 115357742.023 6        90.121          41.000    22153241.789 7  89201918.502 7        69.727          44.000
C21  25322722.625 6 131862023.760 6     -3414.590          39.000
C24  23147254.227 7 120533799.365 7      1933.523          45.000
C26  21444296.500 8 111666054.188 8      -642.141          51.000
E07  27212909.438 7 143004765.297 7     -2845.195          46.000    27212917.602 8 109575087.406 8     -2180.103          50.000
E21  24334327.891 8 127877804.319 8      1758.434          51.000    24334329.625 8  97984272.837 8      1347.296          51.000
E27  23570947.609 8 123866208.271 8      -996.176          51.000    23570950.328 8  94910414.635 8      -763.259          51.000
> 2020 05 11 05 03 30.0000000  0 17        .000000000000
G05  23493786.305 7 123460665.871 7     -3529.082          42.000    23493784.117 7  96203090.346 7     -2749.934          42.000
G13  20157593.148 8 105928854.673 8      -221.852          51.000    20157591.750 8  82541954.887 8      -172.871          51.000
G17  24020674.742 5 126229546.802 5      2651.824          35.000    24020676.117 6  98360628.320 6      2066.360          36.000
G28  21125915.156 7 111017464.964 7     -1222.883          47.000    21125913.789 6  86507141.375 6      -952.896          37.000
G30  22858837.711 5 120123988.626 5     -2675.848          33.000
R04  21105128.688 7 113016959.173 7     -3621.996          47.000    21105129.977 7  87902102.330 7     -2817.108          43.000
R05  19225959.562 8 102773795.831 8       105.543          50.000    19225962.219 8  79935155.927 8        82.089          48.000
R15  19263168.703 8 102936529.626 8       175.398          50.000    19263171.789 7  80061758.137 7       136.421          46.000
R16  22162322.781 7 118387130.470 7      3349.949          42.000    22162326.742 7  92078897.233 7      2605.516          42.000
C05  39785050.047 6 207171194.497 6        18.770          36.000    39785048.703 6 160197881.707 6        14.432          39.000
C14  22152766.727 7 115355257.483 7        75.008          42.000    22152765.703 7  89199997.258 7        58.116          45.000
C21  25342395.359 5 131964468.580 5     -3416.363          34.000
C24  23136134.031 7 120475894.915 7      1926.242          43.000
C26  21448019.195 8 111685438.787 8      -650.578          51.000
E07  27229158.500 8 143090152.023 8     -2847.551          48.000    27229166.180 8 109640513.563 8     -2181.845          50.000
E21  24324311.008 8 127825171.300 8      1750.145          50.000    24324313.586 8  97943943.650 8      1341.014          51.000
E27  23576657.695 8 123896215.406 8     -1004.789          51.000    23576660.531 8  94933407.123 8      -769.843          51.000
> 2020 05 11 05 04  0.0000000  0 17        .000000000000
G05  23513943.750 6 123566594.605 6     -3531.477          41.000    23513940.312 6  96285632.161 6     -2751.800          41.000
G13  20158898.836 8 105935715.527 8      -234.234          51.000    20158896.984 8  82547300.993 8      -182.520          50.000
G15  20676088.789 5 108653585.662 5      1438.348          32.000
G17  24005549.617 6 126150065.615 6      2647.402          36.000    24005551.688 6  98298694.921 6      2062.911          37.000
G28  21132938.867 8 111054374.378 8     -1236.449          48.000    21132936.766 5  86535901.970 5      -963.467          34.000
R04  21125456.680 8 113125823.981 8     -3634.320          48.000    21125460.375 7  87986774.957 7     -2826.694          45.000
R05  19225436.844 8 102771001.495 8        82.082          50.000    19225439.445 8  79932982.549 8        63.839          48.000
R15  19262233.461 8 102931533.416 8       159.156          50.000    19262236.898 7  80057872.200 7       123.788          45.000
R16  22143534.039 6 118286769.071 6      3342.094          41.000    22143540.055 7  92000838.322 7      2599.403          42.000
C05  39784941.312 6 207170627.915 6        20.750          36.000    39784939.961 6 160197443.568 6        16.245          39.000
C14  22152380.078 7 115353241.413 7        60.543          42.000    22152379.328 7  89198438.283 7        47.033          43.000
C21  25362080.594 5 132066986.178 5     -3417.188          33.000
C24  23125057.078 6 120418218.785 6      1919.957          41.000
C26  21451793.000 8 111705089.523 8      -658.168          51.000
E07  27245424.406 8 143175625.396 8     -2849.152          49.000    27245431.148 8 109706006.118 8     -2183.093          50.000
E21  24314345.453 8 127772804.440 8      1742.469          51.000    24314349.070 8  97903818.396 8      1335.204          51.000
E27  23582420.414 8 123926497.782 8     -1012.586          51.000    23582422.812 8  94956610.496 8      -775.827          51.000
> 2020 05 11 05 04 30.0000000  0 16        .000000000000
G05  23534131.656 6 123672686.030 6     -3538.023          37.000    23534128.523 6  96368300.730 6     -2756.904          37.000
G13  20160293.562 8 105943044.639 8      -251.254          51.000    20160291.609 8  82553011.977 8      -195.782          50.000
G17  23990467.656 5 126070811.410 5      2639.000          35.000    23990471.016 5  98236938.428 5      2056.361          34.000
G28  21140059.922 7 111091794.932 7     -1254.926          46.000    21140057.703 5  86565060.864 5      -977.864          35.000
R04  21145874.078 8 113235159.835 8     -3651.367          49.000    21145878.664 7  88071813.972 7     -2839.952          46.000
R05  19225064.273 8 102769010.167 8        53.883          49.000    19225067.047 8  79931433.724 8        41.906          48.000
R15  19261408.328 8 102927122.904 8       138.254          50.000    19261411.406 7  80054441.795 7       107.531          44.000
R16  22124808.211 6 118186745.986 6      3329.527          38.000    22124815.016 6  91923042.531 6      2589.629          40.000
C05  39784837.609 6 207170087.395 6        18.859          36.000    39784836.094 6 160197025.601 6        14.514          39.000
C14  22152094.180 6 115351752.695 6        41.660          40.000    22152093.242 7  89197287.128 7        32.399          42.000
C21  25381791.547 5 132169633.224 5     -3422.715          32.000
C24  23114035.250 7 120360829.816 7      1909.012          43.000
C26  21455629.086 8 111725063.974 8      -670.203          51.000
E07  27261717.578 8 143261243.500 8     -2855.457          49.000    27261723.453 8 109771609.561 8     -2187.816          50.000
E21  24304442.594 8 127720763.196 8      1730.266          51.000    24304446.633 8  97863942.651 8      1325.818          51.000
E27  23588246.492 8 123957113.298 8     -1025.074          51.000    23588248.555 8  94980069.134 8      -785.432          51.000
> 2020 05 11 05 05  0.0000000  0 16        .000000000000
G05  23554338.914 5 123778885.372 5     -3540.090          32.000    23554337.766 5  96451053.420 5     -2758.515          33.000
G13  20161767.680 8 105950790.851 8      -263.535          51.000    20161765.711 8  82559047.975 8      -205.352          50.000
G17  23975420.336 5 125991736.104 5      2634.414          35.000    23975423.805 5  98175321.315 5      2052.790          35.000
G28  21147267.875 7 111129673.463 7     -1268.859          44.000    21147266.031 6  86594576.657 6      -988.719          38.000
R04  21166369.891 8 113344911.115 8     -3663.723          50.000    21166374.250 7  88157176.096 7     -2849.562          46.000
R05  19224832.430 8 102767770.329 8        30.438          49.000    19224835.227 8  79930469.409 8        23.674          48.000
R15  19260682.703 8 102923244.045 8       121.996          49.000    19260684.953 7  80051424.903 7        94.886          44.000
R16  22106137.664 6 118087010.037 6      3321.387          41.000    22106142.133 6  91845470.110 6      2583.301          39.000
C05  39784728.773 6 207169521.748 6        20.453          36.000    39784727.453 6 160196588.184 6        15.961          39.000
C14  22151899.398 6 115350740.594 6        27.328          41.000    22151898.555 7  89196504.525 7        21.071          43.000
C21  25401519.094 5 132272356.549 5     -3424.344          31.000
C24  23103060.094 7 120303676.904 7      1902.586          45.000
C26  21459517.242 8 111745310.019 8      -677.805          51.000
E07  27278027.664 8 143346953.819 8     -2856.949          48.000    27278033.133 8 109837283.676 8     -2189.100          49.000
E21  24294592.094 8 127668996.236 8      1722.566          51.000    24294596.125 8  97824277.071 8      1319.856          51.000
E27  23594125.633 8 123988009.083 8     -1032.930          51.000    23594127.805 8  95003742.530 8      -791.484          51.000
> 2020 05 11 05 05 30.0000000  0 16        .000000000000
G05  23574570.867 4 123885192.569 4     -3541.941          29.000    23574573.781 5  96533936.322 5     -2759.954          30.000
G13  20163330.242 8 105959002.442 8      -276.109          51.000    20163328.422 8  82565446.595 8      -215.153          50.000
G17  23960416.469 5 125912889.881 5      2629.832          33.000    23960419.398 5  98113882.679 5      2049.220          33.000
G28  21154571.648 7 111168055.480 7     -1282.539          44.000    21154569.539 6  86624484.720 6      -999.378          39.000
R04  21186952.023 8 113455123.106 8     -3675.871          51.000    21186955.344 7  88242896.524 7     -2859.011          46.000
R05  19224750.391 8 102767331.078 8         6.742          49.000    19224753.109 8  79930127.778 8         5.244          48.000
R15  19260065.359 8 102919943.939 8       105.859          49.000    19260067.664 7  80048858.177 7        82.335          44.000
R16  22087530.523 7 117987610.336 7      3313.105          42.000    22087532.711 6  91768159.277 6      2576.863          40.000
C05  39784624.359 6 207168977.879 6        23.215          36.000    39784623.031 6 160196167.622 6        17.791          39.000
C14  22151805.469 7 115350252.274 7        12.977          42.000    22151804.531 7  89196126.895 7         9.971          43.000
C21  25421270.727 5 132375201.192 5     -3424.977          32.000
C24  23092139.680 7 120246807.339 7      1896.328          45.000
C26  21463466.203 8 111765873.592 8      -685.453          51.000
E07  27294363.422 7 143432802.729 7     -2858.535          46.000    27294369.367 8 109903063.972 8     -2190.339          50.000
E21  24284802.945 8 127617551.348 8      1714.902          51.000    24284806.641 8  97784858.268 8      1313.989          51.000
E27  23600067.016 8 124019231.319 8     -1040.789          51.000    23600069.023 8  95027666.046 8      -797.455          51.000
> 2020 05 11 05 06  0.0000000  0 17        .000000000000
G13  20164970.609 8 105967622.709 8      -290.254          51.000    20164968.820 8  82572163.658 8      -226.175          49.000
G17  23945446.008 5 125834217.897 5      2623.754          33.000    23945447.406 5  98052579.903 5      2044.484          33.000
G28  21161959.789 7 111206881.532 7     -1297.586          43.000    21161957.734 6  86654738.805 6     -1011.103          39.000
G30  22935503.062 5 120526881.244 5     -2692.266          31.000
R04  21207608.617 8 113565734.251 8     -3689.531          50.000    21207610.852 7  88328927.386 7     -2869.635          45.000
R05  19224807.398 8 102767635.089 8       -18.473          50.000    19224810.344 8  79930364.227 8       -14.368          48.000
R14  21136285.133 5 112668298.622 5     -3134.508          32.000
R15  19259545.117 8 102917162.921 8        88.055          49.000    19259547.062 7  80046695.130 7        68.484          44.000
R16  22068975.266 7 117888489.995 7      3303.305          42.000    22068976.844 6  91691065.712 6      2569.237          41.000
C05  39784513.141 6 207168398.894 6        23.762          36.000    39784511.805 6 160195719.889 6        18.398          39.000
C14  22151801.297 7 115350231.272 7        -3.191          42.000    22151799.500 6  89196110.606 6        -2.522          40.000
C21  25441035.719 5 132478108.279 5     -3427.344          32.000
C24  23081261.758 6 120190164.498 6      1888.035          41.000
C26  21467465.086 8 111786696.896 8      -694.496          51.000
E07  27310713.836 7 143518731.881 7     -2861.742          45.000    27310721.086 8 109968905.764 8     -2192.775          49.000
E21  24275064.352 8 127566371.472 8      1705.547          51.000    24275067.031 8  97745642.513 8      1306.809          51.000
E27  23606059.469 8 124050721.401 8     -1050.152          51.000    23606061.133 8  95051794.804 8      -804.671          51.000
> 2020 05 11 05 06 30.0000000  0 15        .000000000000
G13  20166702.930 8 105976726.183 8      -306.844          51.000    20166700.930 8  82579257.261 8      -239.099          49.000
G17  23930523.219 4 125755747.934 4      2614.254          29.000    23930523.703 4  97991473.552 4      2037.081          28.000
G28  21169446.359 7 111246224.074 7     -1315.352          43.000    21169444.703 6  86685395.313 6     -1024.949          39.000
R04  21228353.000 8 113676816.681 8     -3705.762          48.000    21228354.445 7  88415324.799 7     -2882.262          43.000
R05  19225017.578 8 102768758.336 8       -46.414          50.000    19225020.641 7  79931237.849 7       -36.100          47.000
R15  19259135.703 8 102914974.826 8        67.789          49.000    19259137.641 7  80044993.282 7        52.728          44.000
R16  22050485.992 6 117789725.524 6      3290.746          41.000    22050487.914 6  91614248.871 6      2559.469          41.000
C05  39784409.383 6 207167858.073 6        22.176          36.000    39784407.977 6 160195301.672 6        17.051          39.000
C14  22151900.633 7 115350751.022 7       -21.613          42.000    22151897.445 6  89196512.445 6       -16.785          39.000
C21  25460826.211 4 132581201.684 4     -3431.457          29.000
C24  23070440.203 7 120133821.896 7      1877.539          42.000
C26  21471527.898 8 111807852.167 8      -706.133          51.000
E07  27327093.656 7 143604814.201 7     -2867.297          44.000    27327102.055 8 110034864.949 8     -2197.026          49.000
E21  24265390.266 8 127515530.880 8      1693.684          51.000    24265391.914 8  97706686.733 8      1297.761          51.000
E27  23612116.688 8 124082551.985 8     -1061.973          51.000    23612118.344 8  95076184.464 8      -813.773          51.000
> 2020 05 11 05 07  0.0000000  0 14        .000000000000
G13  20168515.438 8 105986250.909 8      -325.352          50.000    20168513.141 8  82586679.105 8      -253.521          49.000
G28  21177018.922 6 111286019.280 6     -1334.625          39.000    21177017.680 6  86716404.560 6     -1039.964          39.000
R04  21249172.734 7 113788303.876 7     -3723.793          47.000    21249173.188 7  88502037.007 7     -2896.286          42.000
R05  19225369.641 8 102770638.477 8       -76.141          51.000    19225372.250 7  79932700.173 7       -59.220          47.000
R15  19258825.266 8 102913314.867 8        45.707          49.000    19258826.859 7  80043702.199 7        35.550          43.000
R16  22032052.312 7 117691254.963 7      3276.656          44.000    22032054.008 6  91537660.664 6      2548.513          41.000
C05  39784301.086 6 207167293.744 6        18.703          36.000    39784299.570 6 160194865.297 6        14.396          39.000
C14  22152092.164 7 115351750.112 7       -42.031          42.000    22152088.148 6  89197284.983 6       -32.483          40.000
C21  25480629.555 5 132684314.325 5     -3438.418          31.000
C24  23059665.867 7 120077717.973 7      1865.238          45.000
C26  21475642.219 8 111829276.716 8      -719.504          51.000
E07  27343491.461 7 143690986.442 7     -2874.844          44.000    27343500.359 8 110100893.023 8     -2202.778          48.000
E21  24255768.578 8 127464967.621 8      1679.938          51.000    24255770.008 8  97667943.453 8      1287.210          51.000
E27  23618226.625 8 124114659.605 8     -1075.719          51.000    23618228.469 8  95100786.383 8      -824.282          51.000
> 2020 05 11 05 07 30.0000000  0 15        .000000000000
G13  20170405.219 8 105996181.841 8      -338.016          51.000    20170402.883 8  82594417.489 8      -263.389          49.000
G28  21184674.336 6 111326249.499 6     -1348.449          41.000    21184673.469 6  86747752.769 6     -1050.740          39.000
G30  22981788.406 5 120770108.790 5     -2706.918          34.000
R04  21270064.492 7 113900176.803 7     -3735.793          47.000    21270063.867 7  88589049.183 7     -2905.620          42.000
R05  19225860.352 8 102773260.318 8      -100.051          51.000    19225862.930 7  79934739.354 7       -77.820          47.000
R15  19258610.539 8 102912166.014 8        29.570          49.000    19258611.586 7  80042808.647 7        22.999          43.000
R16  22013671.469 7 117593063.593 7      3268.094          44.000    22013672.531 6  91461289.619 6      2541.851          41.000
C05  39784185.266 6 207166691.370 6        20.359          36.000    39784183.656 6 160194398.716 6        15.731          39.000
C14  22152372.695 7 115353213.284 7       -56.785          42.000    22152369.062 7  89198416.379 7       -43.859          42.000
C21  25500444.070 5 132787478.048 5     -3439.996          31.000
C24  23048935.352 7 120021837.365 7      1858.652          45.000
C26  21479805.102 8 111850954.056 8      -727.074          51.000
E07  27359903.898 7 143777232.012 7     -2876.441          44.000    27359912.969 7 110166977.276 7     -2204.018          47.000
E21  24246195.984 8 127414666.265 8      1672.008          51.000    24246198.195 8  97629400.853 8      1281.143          51.000
E27  23624386.055 8 124147027.349 8     -1083.512          51.000    23624387.883 8  95125587.642 8      -830.289          51.000
> 2020 05 11 05 08  0.0000000  0 15        .000000000000
G05  23676093.258 5 124418704.136 5     -3568.574          32.000
G13  20172386.797 8 106006595.143 8      -356.988          50.000    20172384.664 8  82602531.741 8      -278.173          50.000
G17  23885994.703 5 125521761.678 5      2586.180          31.000
G28  21192426.867 6 111366988.989 6     -1368.168          40.000    21192426.109 6  86779497.736 6     -1066.108          38.000
R04  21291041.945 7 114012509.594 7     -3753.980          46.000    21291041.281 7  88676419.069 7     -2919.763          44.000
R05  19226504.094 8 102776701.502 8      -130.254          50.000    19226506.641 8  79937415.813 8      -101.309          48.000
R15  19258505.516 8 102911603.845 8         7.043          48.000    19258506.602 7  80042371.427 7         5.481          43.000
R16  21995356.867 7 117495229.812 7      3253.352          43.000    21995357.602 6  91385196.711 6      2530.385          40.000
C05  39784076.227 6 207166123.948 6        16.250          36.000    39784074.727 6 160193959.921 6        12.704          39.000
C14  22152757.211 7 115355215.781 7       -77.629          44.000    22152754.367 7  89199964.829 7       -60.085          43.000
C24  23038262.008 7 119966255.395 7      1845.836          46.000
C26  21484030.891 8 111872958.180 8      -740.840          51.000
E07  27376344.844 7 143863625.719 7     -2884.199          44.000    27376353.867 7 110233174.982 7     -2210.001          45.000
E21  24236686.992 8 127364702.966 8      1657.922          51.000    24236690.680 8  97591117.271 8      1270.245          51.000
E27  23630609.242 8 124179729.717 8     -1097.480          51.000    23630610.781 8  95150645.285 8      -841.010          51.000
> 2020 05 11 05 08 30.0000000  0 16        .000000000000
G05  23696462.102 5 124525742.999 5     -3568.992          34.000    23696466.188 5  97033067.265 5     -2781.036          33.000
G13  20174451.016 8 106017442.044 8      -368.254          51.000    20174449.133 8  82610983.863 8      -286.951          49.000
G17  23871231.406 5 125444182.685 5      2583.484          34.000    23871224.688 5  97748672.481 5      2013.108          32.000
G28  21200266.336 6 111408186.315 6     -1380.859          39.000    21200265.555 6  86811599.540 6     -1075.991          39.000
R04  21312094.656 7 114125248.888 7     -3764.199          46.000    21312095.422 7  88764105.209 7     -2927.711          45.000
R05  19227291.438 8 102780912.861 8      -152.672          49.000    19227294.312 8  79940691.322 8      -118.742          48.000
R15  19258500.406 8 102911577.009 8        -7.359          48.000    19258501.492 7  80042350.557 7        -5.727          43.000
R16  21977099.406 7 117397704.680 7      3246.461          42.000    21977100.234 6  91309343.798 6      2525.022          40.000
C05  39783964.828 6 207165543.656 6        20.227          36.000    39783963.305 6 160193511.186 6        15.535          39.000
C14  22153236.312 7 115357709.056 7       -90.754          43.000    22153233.961 7  89201892.801 7       -70.119          44.000
C21  25540130.891 5 132994166.874 5     -3445.941          31.000
C24  23027637.250 7 119910923.421 7      1840.812          47.000
C26  21488309.930 8 111895239.354 8      -746.703          51.000
E07  27392804.633 7 143950117.150 7     -2884.051          43.000    27392813.211 6 110299447.566 6     -2209.890          41.000
E21  24227233.578 8 127315028.614 8      1651.617          51.000    24227237.641 8  97553055.105 8      1265.501          51.000
E27  23636886.492 8 124212716.191 8     -1103.594          51.000    23636887.773 8  95175920.627 8      -845.674          51.000
> 2020 05 11 05 09  0.0000000  0 17        .000000000000
G05  23716844.172 6 124632844.193 6     -3577.215          36.000    23716845.422 6  97116522.641 6     -2787.440          36.000
G13  20176591.141 8 106028687.733 8      -387.812          51.000    20176589.266 8  82619746.734 8      -302.192          50.000
G17  23856502.211 5 125366783.090 5      2570.809          34.000    23856496.570 5  97688361.087 5      2003.224          33.000
G28  21208185.688 6 111449803.973 6     -1400.605          38.000    21208184.656 6  86844028.871 6     -1091.384          38.000
R04  21333216.195 8 114238355.112 8     -3782.645          49.000    21333217.695 7  88852076.719 7     -2942.057          44.000
R05  19228215.734 8 102785858.814 8      -183.531          49.000    19228219.453 8  79944538.174 8      -142.750          48.000
R14  21242995.805 5 113237090.528 5     -3185.039          33.000    21242971.055 4  88073214.497 4     -2477.253          24.000
R15  19258588.117 7 102912047.607 7       -30.371          46.000    19258589.516 7  80042716.563 7       -23.622          42.000
R16  21958893.188 7 117300453.617 7      3230.551          43.000    21958894.805 6  91233704.047 6      2512.648          41.000
C05  39783844.164 6 207164915.129 6        15.578          36.000    39783842.648 6 160193025.143 6        12.212          39.000
C14  22153802.781 7 115360657.887 7      -112.004          42.000    22153800.930 7  89204173.059 7       -86.693          45.000
C21  25559986.094 5 133097568.933 5     -3454.191          32.000
C24  23017054.148 7 119855806.231 7      1827.414          46.000
C26  21492635.172 8 111917761.229 8      -760.969          51.000
E07  27409276.336 7 144036669.739 7     -2892.477          42.000    27409283.977 5 110365767.020 5     -2216.205          34.000
E21  24217829.180 8 127265607.905 8      1636.812          51.000    24217832.586 8  97515187.309 8      1254.178          51.000
E27  23643210.688 8 124245949.848 8     -1118.148          51.000    23643211.836 8  95201385.385 8      -856.805          51.000
> 2020 05 11 05 09 30.0000000  0 19        .000000000000
G05  23737252.539 5 124740086.368 5     -3579.461          33.000    23737249.961 5  97200087.908 5     -2789.193          31.000
G13  20178822.781 8 106040414.768 8      -401.160          51.000    20178820.602 8  82628884.675 8      -312.592          50.000
G15  20591115.789 5 108207000.427 5      1266.422          31.000    20591111.125 5  84317162.910 5       986.822          33.000
G17  23841824.797 5 125289629.311 5      2564.750          32.000    23841816.828 5  97628255.344 5      1998.510          32.000
G24  23130200.031 5 121550021.446 5      2904.941          35.000
G28  21216200.344 6 111491922.508 6     -1414.688          40.000    21216199.734 6  86876848.514 6     -1102.357          37.000
R04  21354421.836 8 114351908.878 8     -3794.926          51.000    21354423.141 7  88940396.247 7     -2951.612          43.000
R05  19229294.312 8 102791623.568 8      -208.105          51.000    19229297.898 8  79949021.870 8      -161.860          49.000
R14  21260915.359 5 113332654.521 5     -3190.629          35.000
R15  19258783.961 7 102913097.938 7       -46.949          45.000    19258786.477 7  80043533.469 7       -36.516          42.000
R16  21940754.805 7 117203560.638 7      3221.504          44.000    21940756.836 6  91158342.837 6      2505.614          41.000
C05  39783729.906 6 207164319.723 6        17.266          36.000    39783728.422 6 160192564.748 6        12.955          39.000
C14  22154472.039 7 115364143.930 7      -127.508          42.000    22154471.312 7  89206868.650 7       -98.510          46.000
C21  25579863.211 5 133201088.034 5     -3454.496          32.000
C24  23006526.484 6 119800985.490 6      1820.023          41.000
C26  21497021.852 8 111940604.190 8      -769.035          51.000
E07  27425774.844 7 144123364.602 7     -2894.473          42.000
E21  24208489.102 8 127216523.190 8      1628.277          51.000    24208491.781 8  97477576.958 8      1247.632          51.000
E27  23649597.328 8 124279511.622 8     -1126.445          51.000    23649598.398 8  95227101.546 8      -863.165          51.000
> 2020 05 11 05 10  0.0000000  0 18        .000000000000
G05  23757681.961 5 124847438.237 5     -3584.703          34.000    23757676.133 5  97283738.637 5     -2793.278          33.000
G13  20181140.602 8 106052594.862 8      -417.586          51.000    20181138.258 8  82638375.650 8      -325.395          51.000
G15  20583912.383 5 108169150.400 5      1250.344          35.000    20583909.836 5  84287669.427 5       974.294          35.000
G17  23827190.727 5 125212732.346 5      2554.629          33.000    23827184.445 5  97568335.595 5      1990.623          32.000
G24  23113621.602 5 121462865.659 5      2897.215          33.000
G28  21224304.828 7 111534511.579 7     -1431.215          42.000    21224304.266 6  86910034.813 6     -1115.232          36.000
R04  21375705.008 8 114465877.916 8     -3809.953          51.000    21375705.602 7  89029038.743 7     -2963.300          42.000
R05  19230520.812 8 102798178.645 8      -235.719          51.000    19230524.086 8  79954120.234 8      -183.337          48.000
R15  19259082.922 7 102914697.543 7       -66.508          45.000    19259085.773 6  80044777.594 6       -51.728          41.000
R16  21922678.914 7 117106998.624 7      3209.332          45.000    21922680.766 6  91083239.029 6      2496.147          41.000
C05  39783616.484 6 207163729.264 6        15.645          36.000    39783615.023 6 160192108.096 6        12.384          39.000
C14  22155239.305 7 115368138.958 7      -145.469          42.000    22155239.195 7  89209957.871 7      -112.567          46.000
C21  25599756.961 5 133304693.964 5     -3458.887          32.000
C24  22996047.398 6 119746433.085 6      1810.105          38.000
C26  21501464.516 8 111963739.022 8      -779.977          51.000
E07  27442293.969 7 144210172.133 7     -2899.484          42.000
E21  24199207.672 8 127167746.233 8      1616.824          51.000    24199210.141 8  97440202.422 8      1238.904          51.000
E27  23656040.648 8 124313371.671 8     -1137.566          51.000    23656041.828 8  95253046.254 8      -871.636          51.000
> 2020 05 11 05 10 30.0000000  0 17        .000000000000
G05  23778145.336 5 124954967.817 5     -3583.109          32.000    23778136.602 4  97367527.856 4     -2792.039          28.000
G13  20183558.125 8 106065298.959 8      -428.621          51.000    20183555.812 8  82648274.934 8      -333.990          50.000
G15  20576813.094 6 108131842.909 6      1238.129          36.000    20576812.438 6  84258598.667 6       964.782          36.000
G17  23812612.422 5 125136121.729 5      2551.695          34.000    23812615.227 5  97508655.560 5      1988.337          34.000
G28  21232512.047 6 111577639.775 6     -1442.902          41.000    21232510.648 6  86943641.190 6     -1124.336          38.000
R04  21397078.047 8 114580330.571 8     -3819.465          50.000    21397078.812 7  89118057.412 7     -2970.695          43.000
R05  19231908.852 8 102805595.810 8      -257.902          51.000    19231911.438 8  79959889.131 8      -200.591          49.000
R15  19259498.188 7 102916916.140 7       -80.484          47.000    19259500.891 6  80046503.159 6       -62.599          41.000
R16  21904678.180 7 117010839.582 7      3202.348          45.000    21904680.461 7  91008448.693 7      2490.718          42.000
C05  39783517.383 6 207163213.068 6        19.898          36.000    39783515.953 6 160191708.973 6        14.949          39.000
C14  22156117.773 7 115372712.600 7      -158.590          43.000    22156117.469 7  89213494.503 7      -122.553          46.000
C21  25619681.156 5 133408454.249 5     -3457.707          32.000
C24  22985633.945 6 119692218.725 6      1805.402          39.000
C26  21505976.516 8 111987234.165 8      -785.574          51.000
E07  27458847.117 7 144297161.496 7     -2899.066          43.000    27458842.359 5 110565374.273 5     -2221.509          34.000
E21  24189998.133 8 127119347.500 8      1610.605          51.000    24190000.844 8  97403117.683 8      1234.091          51.000
E27  23662553.789 8 124347598.962 8     -1143.391          51.000    23662555.180 8  95279272.364 8      -876.119          51.000
> 2020 05 11 05 11  0.0000000  0 17        .000000000000
G05  23798614.227 6 125062524.083 6     -3587.477          36.000    23798603.164 5  97451337.797 5     -2795.439          34.000
G13  20186047.266 8 106078379.510 8      -444.164          51.000    20186045.055 8  82658467.563 8      -346.102          51.000
G15  20569789.312 6 108094931.635 6      1222.039          36.000    20569788.672 6  84229836.671 6       952.235          36.000
G17  23798068.672 6 125059703.137 6      2542.941          36.000    23798073.734 6  97449108.471 6      1981.510          37.000
G28  21240793.328 7 111621156.883 7     -1458.832          42.000    21240791.750 5  86977550.661 5     -1136.749          35.000
R04  21418512.641 8 114695113.029 8     -3833.438          49.000    21418514.000 7  89207332.663 7     -2981.559          43.000
R05  19233430.141 8 102813725.686 8      -284.715          51.000    19233432.570 8  79966212.345 8      -221.448          49.000
R15  19260000.969 7 102919602.151 7       -99.066          46.000    19260003.375 6  80048592.301 6       -77.049          40.000
R16  21886724.656 7 116914934.890 7      3190.758          44.000    21886727.633 7  90933856.147 7      2481.697          42.000
C05  39783404.555 6 207162626.433 6        18.883          36.000    39783403.094 6 160191254.128 6        14.722          39.000
C14  22157078.891 7 115377718.694 7      -175.758          42.000    22157078.141 7  89217365.552 7      -135.871          45.000
C21  25639607.992 5 133512220.667 5     -3460.766          34.000
C24  22975259.711 6 119638196.141 6      1795.602          39.000
C26  21510529.344 8 112010942.259 8      -795.602          51.000
E07  27475406.172 7 144384184.008 7     -2902.965          43.000    27475405.844 5 110632053.876 5     -2224.344          35.000
E21  24180832.273 8 127071179.524 8      1599.918          51.000    24180835.133 8  97366209.738 8      1225.974          51.000
E27  23669108.508 8 124382044.472 8     -1153.602          51.000    23669110.031 8  95305665.671 8      -883.893          51.000
> 2020 05 11 05 11 30.0000000  0 16        .000000000000
G05  23819098.742 6 125170167.308 6     -3592.297          36.000    23819086.797 6  97535215.589 6     -2799.198          36.000
G13  20188620.273 8 106091900.652 8      -460.742          51.000    20188618.078 8  82669003.506 8      -359.020          51.000
G15  20562853.609 6 108058481.791 6      1204.512          36.000    20562852.789 6  84201434.189 6       938.584          36.000
G28  21249160.625 7 111665125.272 7     -1475.945          42.000    21249158.484 6  87011811.661 6     -1150.090          37.000
R04  21440020.336 8 114810286.726 8     -3848.281          48.000    21440022.250 7  89296912.241 7     -2993.108          43.000
R05  19235096.773 8 102822633.089 8      -312.625          51.000    19235098.992 8  79973140.313 8      -243.153          49.000
R15  19260603.297 7 102922818.733 7      -118.719          47.000    19260604.422 6  80051094.071 6       -92.337          40.000
R16  21868830.586 7 116819350.044 7      3178.121          44.000    21868833.891 7  90859512.394 7      2471.872          42.000
C05  39783289.852 6 207162028.480 6        17.180          37.000    39783288.344 6 160190792.130 6        13.390          39.000
C14  22158135.102 7 115383220.126 7      -194.418          43.000    22158133.766 7  89221619.592 7      -150.191          45.000
C21  25659548.219 6 133616053.894 6     -3464.758          36.000
C24  22964933.555 6 119584428.299 6      1785.613          37.000
C26  21515134.875 8 112034925.089 8      -806.688          51.000
E07  27491983.328 7 144471302.007 7     -2908.262          42.000    27491987.336 6 110698806.622 6     -2228.259          36.000
E21  24171722.234 8 127023305.818 8      1588.262          51.000    24171725.023 8  97329527.273 8      1216.971          51.000
E27  23675716.656 8 124416770.237 8     -1164.871          51.000    23675718.172 8  95332273.719 8      -892.528          51.000
> 2020 05 11 05 12  0.0000000  0 17        .000000000000
G05  23839607.047 6 125277936.403 6     -3592.344          36.000    23839595.234 5  97619191.431 5     -2799.229          35.000
G13  20191285.000 8 106105904.092 8      -472.984          51.000    20191282.875 8  82679915.264 8      -368.559          51.000
G15  20556013.312 6 108022536.088 6      1191.949          37.000    20556013.312 6  84173424.510 6       928.795          37.000
G17  23769123.945 5 124907590.444 5      2527.500          35.000    23769134.422 5  97330594.621 5      1969.477          35.000
G28  21257620.883 6 111709583.565 6     -1488.520          37.000    21257618.305 6  87046454.535 6     -1159.879          37.000
R04  21461608.773 8 114925890.618 8     -3858.719          48.000    21461610.461 6  89386826.412 6     -3001.226          41.000
R05  19236916.555 8 102832360.447 8      -336.113          51.000    19236918.977 8  79980706.036 8      -261.421          50.000
R15  19261312.234 7 102926606.308 7      -133.844          46.000    19261313.523 6  80054040.005 6      -104.101          41.000
R16  21851004.727 7 116724128.126 7      3169.859          44.000    21851007.633 6  90785450.908 6      2465.449          41.000
C05  39783181.266 6 207161462.818 6        19.926          36.000    39783179.688 6 160190354.683 6        15.604          39.000
C14  22159294.516 7 115389257.980 7      -208.352          43.000    22159292.406 7  89226288.448 7      -161.183          44.000
C21  25679508.875 6 133719993.036 6     -3464.762          36.000
C24  22954664.188 6 119530956.365 6      1779.289          39.000
C26  21519801.008 8 112059222.742 8      -813.312          51.000
E07  27508586.555 7 144558555.910 7     -2908.844          42.000    27508593.562 6 110765663.513 6     -2228.881          36.000
E21  24162675.914 8 126975768.112 8      1580.793          51.000    24162678.555 8  97293102.267 8      1211.257          51.000
E27  23682385.734 8 124451816.499 8     -1171.695          51.000    23682387.336 8  95359127.343 8      -897.784          51.000
> 2020 05 11 05 12 30.0000000  0 17        .000000000000
G05  23860125.781 6 125385760.937 6     -3595.996          37.000    23860114.656 6  97703210.531 6     -2802.078          37.000
G13  20194028.742 8 106120322.858 8      -488.449          51.000    20194026.602 8  82691150.657 8      -380.610          51.000
G15  20549256.086 6 107987028.914 6      1174.984          37.000    20549256.961 6  84145756.603 6       915.569          37.000
G17  23754719.359 5 124831896.064 5      2518.344          33.000    23754732.391 5  97271655.667 5      1962.346          30.000
G28  21266161.328 7 111754463.269 7     -1503.898          42.000    21266158.836 6  87081425.709 6     -1171.869          36.000
R04  21483263.742 8 115041853.151 8     -3872.223          48.000    21483264.164 6  89477019.444 6     -3011.732          36.000
R05  19238876.930 8 102842840.146 8      -362.746          51.000    19238879.602 8  79988856.915 8      -282.136          50.000
R15  19262115.312 8 102930895.235 8      -152.238          48.000    19262116.766 6  80057375.837 6      -118.408          41.000
R16  21833234.320 7 116629202.517 7      3158.289          43.000    21833236.883 6  90711619.888 6      2456.447          41.000
C05  39783065.961 6 207160862.361 6        19.945          36.000    39783064.336 6 160189890.374 6        15.347          39.000
C14  22160544.586 7 115395765.799 7      -225.707          44.000    22160541.961 7  89231320.687 7      -174.455          45.000
C21  25699477.297 6 133823969.635 6     -3467.180          36.000
C24  22944440.672 7 119477714.098 7      1769.945          43.000
C26  21524514.672 8 112083767.703 8      -823.141          51.000
E07  27525202.812 6 144645877.462 6     -2912.523          41.000    27525209.812 6 110832572.211 6     -2231.623          36.000
E21  24153680.781 8 126928499.458 8      1570.246          51.000    24153683.281 8  97256883.426 8      1203.191          51.000
E27  23689102.742 8 124487114.862 8     -1181.730          51.000    23689104.477 8  95386174.133 8      -905.458          51.000
> 2020 05 11 05 13  0.0000000  0 17        .000000000000
G05  23880659.820 5 125493666.655 5     -3592.594          34.000    23880650.617 5  97787292.854 5     -2799.427          33.000
G13  20196857.078 8 106135186.238 8      -497.250          51.000    20196854.867 8  82702732.516 8      -387.468          51.000
G15  20542587.883 5 107951990.447 5      1165.652          34.000    20542588.859 5  84118453.897 5       908.297          34.000
G28  21274786.992 6 111799791.211 6     -1512.844          41.000    21274784.312 5  87116746.143 5     -1178.839          35.000
G30  23153250.078 5 121671122.066 5     -2744.105          32.000
R04  21504990.484 8 115158200.105 8     -3878.875          49.000    21504987.289 6  89567511.315 6     -3016.909          37.000
R05  19240983.594 8 102854101.538 8      -382.797          51.000    19240986.078 8  79997615.767 8      -297.731          50.000
R15  19263016.914 7 102935712.943 7      -163.750          46.000    19263018.414 6  80061122.962 6      -127.358          41.000
R16  21815524.477 7 116534603.107 7      3153.637          42.000    21815527.266 6  90638042.560 6      2452.829          41.000
C05  39782949.320 6 207160255.384 6        26.270          36.000    39782947.828 6 160189421.017 6        19.875          39.000
C14  22161890.766 7 115402771.807 7      -236.328          45.000    22161887.695 7  89236738.175 7      -182.807          46.000
C21  25719457.977 6 133928010.115 6     -3463.590          36.000
C24  22934266.883 7 119424729.737 7      1767.441          42.000
C26  21529280.891 8 112108587.125 8      -826.422          51.000
E07  27541837.102 6 144733294.310 6     -2909.727          41.000    27541841.766 6 110899553.863 6     -2229.674          36.000
E21  24144742.477 8 126881528.612 8      1566.281          51.000    24144745.000 8  97220892.785 8      1200.102          51.000
E27  23695872.750 8 124522692.481 8     -1184.961          51.000    23695874.562 8  95413434.894 8      -908.023          51.000
> 2020 05 11 05 13 30.0000000  0 18        .000000000000
G05  23901211.391 5 125601667.603 5     -3604.742          33.000    23901204.922 5  97871449.447 5     -2808.881          32.000
G13  20199773.211 8 106150511.096 8      -520.859          51.000    20199770.977 8  82714673.960 8      -405.864          50.000
G15  20536012.008 5 107917438.422 5      1141.637          35.000    20536013.859 6  84091530.199 6       889.587          36.000
G24  22998401.820 5 120857418.805 5      2861.684          35.000
G28  21283500.359 7 111845581.548 7     -1536.281          42.000    21283497.953 6  87152426.959 6     -1197.099          37.000
G30  23168969.797 5 121753709.975 5     -2757.016          34.000    23168959.484 5  94873051.231 5     -2148.321          34.000
R04  21526792.039 8 115274945.060 8     -3900.488          50.000    21526790.023 7  89658312.889 7     -3033.713          43.000
R05  19243239.672 8 102866161.785 8      -417.641          51.000    19243241.945 8  80006995.959 8      -324.832          49.000
R15  19264020.719 7 102941074.602 7      -190.082          46.000    19264021.570 6  80065293.114 6      -147.842          41.000
R16  21797879.539 7 116440348.155 7      3133.734          42.000    21797881.883 6  90564733.149 6      2437.349          41.000
C05  39782834.711 6 207159658.224 6        17.523          37.000    39782833.133 6 160188959.224 6        13.257          39.000
C14  22163335.484 7 115410292.546 7      -261.758          44.000    22163332.172 7  89242553.691 7      -202.220          46.000
C21  25739453.727 5 134032128.689 5     -3474.098          35.000
C24  22924144.977 6 119372019.900 6      1750.184          41.000
C26  21534102.773 8 112133696.509 8      -844.020          51.000
E07  27558492.594 6 144820821.942 6     -2922.055          40.000    27558494.703 6 110966620.374 6     -2238.666          37.000
E21  24135864.273 8 126834872.306 8      1547.609          51.000    24135866.656 8  97185143.142 8      1185.881          51.000
E27  23702698.766 8 124558564.644 8     -1202.941          51.000    23702700.555 8  95440921.344 8      -921.743          51.000
> 2020 05 11 05 14  0.0000000  0 16        .000000000000
G13  20202784.492 8 106166335.579 8      -532.191          51.000    20202782.266 8  82727004.721 8      -414.695          50.000
G15  20529533.852 5 107883427.709 5      1129.543          33.000
G17  23711809.148 5 124606408.412 5      2494.930          35.000    23711809.008 5  97095897.934 5      1944.098          35.000
G28  21292308.695 7 111891870.348 7     -1547.648          42.000    21292306.508 5  87188496.118 5     -1205.960          35.000
R04  21548674.750 8 115392123.319 8     -3909.395          50.000    21548674.883 7  89749451.490 7     -3040.640          46.000
R05  19245652.164 8 102879059.358 8      -440.109          51.000    19245654.539 8  80017027.391 8      -342.310          48.000
R15  19265132.672 7 102947017.114 7      -203.949          46.000    19265133.789 7  80069915.062 7      -158.627          42.000
R16  21780306.523 7 116346476.829 7      3126.379          43.000    21780308.906 6  90491722.148 6      2431.628          41.000
C05  39782729.180 6 207159109.443 6        21.324          36.000    39782727.633 6 160188534.063 6        16.362          39.000
C14  22164885.766 7 115418365.394 7      -274.613          43.000    22164882.875 7  89248796.116 7      -212.406          47.000
C21  25759470.461 5 134136360.887 5     -3472.242          35.000
C24  22914082.422 6 119319622.157 6      1744.977          41.000
C26  21538987.453 8 112159132.188 8      -849.633          51.000
E07  27575176.328 6 144908496.936 6     -2921.160          39.000    27575177.922 6 111033799.852 6     -2238.393          39.000
