     3.02           OBSERVATION DATA    M (MIXED)           RINEX VERSION / TYPE
SAVERINEX           SC600               20200502 155931 LCL PGM / RUN BY / DATE
       G = GPS       R = GLONASS       C = COMPASS          COMMENT
       S = SBAS      J = QZSS          E = GALILEO          COMMENT
BEAN                                                        MARKER NAME
1                                                           MARKER NUMBER
GEODETIC                                                    MARKER TYPE
Unige DICCA         GTER                                    OBSERVER / AGENCY
SC60291900056       SC600               2.12(191226)        REC # / TYPE / VERS
                    HEMA45          NONE                    ANT # / TYPE
  4509407.8091   693652.4678  4442337.6214                  APPROX POSITION XYZ
        0.0000        0.0000        0.0000                  ANTENNA: DELTA H/E/N
G    8 C1C L1C D1C S1C C2Y L2Y D2Y S2Y                      SYS / # / OBS TYPES
R    8 C1C L1C D1C S1C C2P L2P D2P S2P                      SYS / # / OBS TYPES
C    4 C1I L1I D1I S1I                                      SYS / # / OBS TYPES
E    8 C1C L1C D1C S1C C7Q L7Q D7Q S7Q                      SYS / # / OBS TYPES
DBHZ                                                        COMMENT
     30.000                                                 INTERVAL
  2020    05    02    13    00    0.0000000     GPS         TIME OF FIRST OBS
  2020    05    02    13    59   30.0000000     GPS         TIME OF LAST OBS
     0                                                      RCV CLOCK OFFS APPL
G L1C  0.00000                                              SYS / PHASE SHIFT
G L2Y  0.00000                                              SYS / PHASE SHIFT
R L1C  0.00000                                              SYS / PHASE SHIFT
R L2P  0.25000                                              SYS / PHASE SHIFT
C L1I  0.00000                                              SYS / PHASE SHIFT
E L1C  0.50000                                              SYS / PHASE SHIFT
E L7Q -0.25000                                              SYS / PHASE SHIFT
 14 R04  6 R05  1 R06 -4 R07  5 R09 -2 R10 -7 R14 -7 R15  0 GLONASS SLOT / FRQ #
    R16 -1 R17  4 R18 -3 R19  3 R20  2 R21  4               GLONASS SLOT / FRQ #
 C1C   71.950 C2C   71.950 C2P   71.950                     GLONASS COD/PHS/BIS
    18                                                      LEAP SECONDS
*** Above antenna height is from mark to ANTENNA BOTTOM.    COMMENT
    17     4        0.0000        ANT MEASURE TYPE/HEIGT    COMMENT
    0.0000    0.0000    0.0458    0.0405    0.0000          COMMENT
                    BASE STATION                            COMMENT
                                                            END OF HEADER
> 2020 05 02 13 00  0.0000000  0 12        .000000000000
G18  21112912.047 8 110949180.646 8      2187.742          50.000    21112912.711 8  86453896.078 8      1704.737          48.000
G21  21221968.281 8 111522214.249 8      1783.301          51.000    21221968.875 8  86900471.449 8      1389.585          48.000
G25  22306759.391 6 117222788.106 6     -2768.691          36.000    22306761.727 5  91342455.695 5     -2157.422          35.000
G29  20771148.000 8 109153127.933 8     -1540.125          51.000    20771147.500 8  85054409.254 8     -1200.097          51.000
G31  21248052.086 7 111659270.819 7      -855.312          46.000    21248051.547 7  87007215.289 7      -666.477          46.000
R09  19304124.266 8 103082966.276 8     -1334.246          50.000    19304126.211 8  80175648.003 8     -1037.747          49.000
R20  19636286.656 6 105004071.562 6      1404.238          40.000    19636289.484 7  81669853.749 7      1092.188          45.000
C27  22144492.594 8 115312291.483 8     -1621.391          51.000
C30  21991272.508 8 114514394.282 8      1347.184          51.000
E13  23548760.805 8 123749585.999 8      1342.484          51.000    23548763.078 8  94821189.247 8      1028.720          51.000
E15  23997758.844 7 126109073.354 7     -1510.539          47.000    23997762.812 8  96629082.951 8     -1157.438          49.000
E27  23944380.359 8 125828555.091 8     -1525.609          51.000    23944382.047 8  96414102.845 8     -1169.024          50.000
> 2020 05 02 13 00 30.0000000  0 12        .000000000000
G18  21100464.695 8 110883768.543 8      2173.207          50.000    21100465.789 8  86402925.670 8      1693.411          49.000
G21  21211828.164 8 111468926.693 8      1769.348          50.000    21211828.328 8  86858948.694 8      1378.712          48.000
G25  22322583.109 6 117305943.320 6     -2775.184          40.000    22322585.414 6  91407252.020 6     -2162.478          41.000
G29  20779964.781 8 109199460.344 8     -1548.512          51.000    20779964.352 8  85090512.427 8     -1206.633          51.000
G31  21252984.695 8 111685191.227 8      -872.508          48.000    21252984.164 8  87027413.006 8      -679.876          48.000
R09  19311681.953 8 103123323.063 8     -1355.973          51.000    19311683.281 8  80207036.636 8     -1054.645          49.000
R20  19628463.922 6 104962240.692 6      1384.734          40.000    19628466.172 7  81637318.631 7      1077.016          45.000
C27  22153855.883 8 115361048.678 8     -1629.000          51.000
C30  21983538.664 8 114474123.181 8      1337.699          51.000
E13  23541126.539 8 123709468.732 8      1332.164          51.000    23541128.898 8  94790450.072 8      1020.731          51.000
E15  24006407.211 8 126154520.148 8     -1518.945          48.000    24006410.984 8  96663905.809 8     -1163.957          49.000
E27  23953113.445 8 125874447.203 8     -1533.730          51.000    23953114.297 8  96449266.894 8     -1175.178          50.000
> 2020 05 02 13 01  0.0000000  0 12        .000000000000
G18  21088107.938 8 110818832.478 8      2156.141          51.000    21088109.297 8  86352326.177 8      1680.110          49.000
G21  21201775.406 8 111416099.146 8      1752.828          50.000    21201775.133 7  86817784.383 7      1365.843          47.000
G25  22338453.453 6 117389341.500 6     -2784.387          40.000    22338455.633 6  91472237.561 6     -2169.655          40.000
G29  20788837.070 8 109246084.225 8     -1559.555          51.000    20788836.672 8  85126842.722 8     -1215.237          51.000
G31  21258022.789 7 111711666.016 7      -892.074          46.000    21258022.141 7  87048042.702 7      -695.126          46.000
R09  19319367.953 8 103164365.707 8     -1380.020          50.000    19319369.453 8  80238958.672 8     -1073.352          49.000
R20  19620757.820 6 104921034.623 6      1362.719          39.000    19620760.453 7  81605269.464 7      1059.892          47.000
C27  22163270.609 8 115410073.365 8     -1639.023          51.000
C30  21975867.578 8 114434177.887 8      1325.637          51.000
E13  23533558.453 8 123669698.845 8      1319.445          51.000    23533560.703 8  94759977.045 8      1011.051          51.000
E15  24015110.812 8 126200257.426 8     -1529.812          49.000    24015114.445 8  96698951.243 8     -1172.176          49.000
E27  23961899.344 8 125920617.434 8     -1544.098          51.000    23961899.898 8  96484644.030 8     -1183.080          50.000
> 2020 05 02 13 01 30.0000000  0 12        .000000000000
G18  21075845.180 8 110754390.640 8      2140.008          51.000    21075846.812 8  86302111.780 8      1667.539          49.000
G21  21191813.578 8 111363748.837 8      1737.234          51.000    21191812.430 7  86776991.939 7      1353.689          45.000
G25  22354373.086 6 117472998.067 6     -2792.887          41.000    22354375.266 6  91537424.395 6     -2176.275          41.000
G29  20797767.680 8 109293014.488 8     -1569.188          51.000    20797767.289 8  85163411.766 8     -1222.740          51.000
G31  21263169.016 7 111738710.238 7      -910.770          46.000    21263168.320 7  87069116.077 7      -709.691          46.000
R09  19327185.023 8 103206110.247 8     -1402.867          51.000    19327186.820 8  80271426.611 8     -1091.119          49.000
R20  19613171.328 6 104880469.979 6      1341.656          38.000    19613175.297 8  81573719.203 8      1043.510          48.000
C27  22172739.352 8 115459380.221 8     -1648.020          51.000
C30  21968262.188 8 114394574.655 8      1314.691          51.000
E13  23526059.344 8 123630292.881 8      1307.723          51.000    23526061.750 8  94729782.895 8      1002.057          51.000
E15  24023872.383 8 126246300.063 8     -1539.543          49.000    24023875.727 8  96734230.660 8     -1179.683          49.000
E27  23970741.156 8 125967081.982 8     -1553.379          51.000    23970741.586 8  96520246.680 8     -1190.254          50.000
> 2020 05 02 13 02  0.0000000  0 12        .000000000000
G18  21063673.766 8 110690430.487 8      2123.375          49.000    21063675.703 8  86252272.720 8      1654.581          48.000
G21  21181940.219 8 111311862.341 8      1721.203          51.000    21181938.016 7  86736560.937 7      1341.197          45.000
G25  22370338.938 6 117556897.664 6     -2801.293          40.000    22370340.977 6  91602800.676 6     -2182.826          40.000
G29  20806753.609 8 109340235.288 8     -1579.445          51.000    20806753.086 8  85200207.196 8     -1230.737          51.000
G31  21268420.922 7 111766308.889 7      -929.770          47.000    21268419.719 7  87090621.519 7      -724.496          47.000
R09  19335131.008 8 103248541.636 8     -1426.332          51.000    19335132.742 8  80304428.790 8     -1109.369          48.000
R20  19605702.695 6 104840532.418 6      1320.105          40.000    19605707.102 8  81542656.667 8      1026.749          48.000
C27  22182259.328 8 115508953.560 8     -1657.410          51.000
C30  21960719.281 8 114355299.255 8      1303.203          51.000
E13  23518627.141 8 123591236.883 8      1295.477          51.000    23518629.641 8  94699856.890 8       992.608          51.000
E15  24032689.062 8 126292632.338 8     -1549.836          50.000    24032692.008 8  96769731.988 8     -1187.525          49.000
E27  23979636.359 8 126013826.380 8     -1563.391          51.000    23979636.516 8  96556063.780 8     -1197.881          50.000
> 2020 05 02 13 02 30.0000000  0 12        .000000000000
G18  21051599.695 8 110626983.170 8      2107.094          49.000    21051601.844 8  86202833.275 8      1641.891          48.000
G21  21172160.914 8 111260470.424 8      1705.574          51.000    21172158.008 7  86696515.341 7      1329.022          45.000
G25  22386355.523 6 117641068.881 6     -2809.609          39.000    22386357.961 6  91668388.545 6     -2189.306          38.000
G29  20815800.188 8 109387774.917 8     -1589.215          51.000    20815799.578 8  85237251.061 8     -1238.349          51.000
G31  21273783.672 7 111794490.223 7      -948.312          47.000    21273782.141 7  87112581.012 7      -738.945          47.000
R09  19343210.883 8 103291688.685 8     -1449.402          51.000    19343212.750 8  80337987.566 8     -1127.316          49.000
R20  19598357.039 6 104801251.644 6      1299.305          40.000    19598361.750 8  81512104.975 8      1010.570          48.000
C27  22191836.023 8 115558820.957 8     -1666.379          51.000
C30  21953244.953 8 114316380.745 8      1291.949          51.000
E13  23511267.570 8 123552560.373 8      1283.656          51.000    23511269.906 8  94670221.650 8       983.578          51.000
E15  24041566.148 8 126339282.065 8     -1559.535          51.000    24041569.211 8  96805476.571 8     -1195.013          49.000
E27  23988590.250 8 126060879.793 8     -1572.836          51.000    23988590.438 8  96592117.670 8     -1205.172          51.000
> 2020 05 02 13 03  0.0000000  0 12        .000000000000
G18  21039616.664 8 110564014.789 8      2090.652          49.000    21039618.883 8  86153767.023 8      1629.083          48.000
G21  21162468.969 8 111209538.274 8      1689.887          51.000    21162466.133 7  86656828.017 7      1316.795          45.000
G25  22402416.930 6 117725474.881 6     -2817.762          40.000    22402420.375 6  91734159.474 6     -2195.655          40.000
G29  20824900.328 8 109435596.127 8     -1598.918          51.000    20824899.859 8  85274514.338 8     -1245.910          51.000
G31  21279250.289 8 111823217.657 8      -967.012          48.000    21279248.977 8  87134966.012 8      -753.516          48.000
R09  19351418.172 8 103335514.765 8     -1472.449          51.000    19351420.125 8  80372074.464 8     -1145.238          48.000
R20  19591127.578 6 104762591.742 6      1278.320          40.000    19591132.539 8  81482036.201 8       994.252          48.000
C27  22201462.164 8 115608945.516 8     -1675.340          51.000
C30  21945832.984 8 114277783.685 8      1281.051          51.000
E13  23503973.242 8 123514227.871 8      1271.781          51.000    23503975.211 8  94640849.999 8       974.548          51.000
E15  24050496.609 8 126386212.052 8     -1569.184          51.000    24050500.258 8  96841435.909 8     -1202.394          50.000
E27  23997595.984 8 126108206.319 8     -1582.367          51.000    23997596.727 8  96628380.837 8     -1212.439          51.000
> 2020 05 02 13 03 30.0000000  0 12        .000000000000
G18  21027728.945 8 110501544.832 8      2073.387          50.000    21027730.883 7  86105089.160 7      1615.626          47.000
G21  21152867.859 8 111159084.432 8      1673.180          51.000    21152865.539 7  86617513.399 7      1303.779          45.000
G25  22418525.891 6 117810132.504 6     -2826.730          36.000    22418530.680 6  91800126.434 6     -2202.650          37.000
G29  20834057.055 8 109483715.004 8     -1609.488          51.000    20834056.812 8  85312009.551 8     -1254.150          51.000
G31  21284824.125 8 111852507.785 8      -986.426          48.000    21284823.078 8  87157789.476 8      -768.643          48.000
R09  19359755.852 8 103380036.881 8     -1496.395          51.000    19359757.359 8  80406702.768 8     -1163.862          48.000
R20  19584017.914 6 104724570.557 6      1256.016          40.000    19584022.453 8  81452464.174 8       976.901          48.000
C27  22211140.664 8 115659343.187 8     -1685.168          51.000
C30  21938486.148 8 114239525.623 8      1268.969          51.000
E13  23496747.516 8 123476257.215 8      1259.016          51.000    23496748.938 8  94611755.627 8       964.721          51.000
E15  24059483.609 8 126433438.535 8     -1579.699          51.000    24059487.445 8  96877622.419 8     -1210.446          50.000
E27  24006656.945 8 126155823.443 8     -1592.660          51.000    24006658.797 8  96664866.681 8     -1220.371          51.000
> 2020 05 02 13 04  0.0000000  0 12        .000000000000
G18  21015936.383 8 110439572.796 8      2057.742          51.000    21015937.742 8  86056799.284 8      1603.439          48.000
G21  21143357.359 8 111109107.720 8      1658.262          51.000    21143355.672 7  86578570.544 7      1292.155          45.000
G25  22434682.773 6 117895038.803 6     -2834.051          37.000    22434687.625 6  91866287.146 6     -2208.354          36.000
G29  20843269.750 8 109532128.281 8     -1618.328          51.000    20843269.570 8  85349734.162 8     -1261.038          51.000
G31  21290504.258 7 111882357.282 7     -1003.883          47.000    21290503.391 7  87181048.819 7      -782.249          47.000
R09  19368222.859 8 103425252.317 8     -1518.410          51.000    19368224.898 8  80441870.293 8     -1180.986          50.000
R20  19577027.227 6 104687185.799 6      1236.004          41.000    19577031.242 7  81423387.159 7       961.336          47.000
C27  22220870.828 8 115710010.310 8     -1693.016          51.000
C30  21931203.477 8 114201604.377 8      1258.762          51.000
E13  23489590.484 8 123438646.482 8      1248.062          51.000    23489591.375 8  94582937.020 8       956.257          51.000
E15  24068526.211 8 126480957.819 8     -1588.473          51.000    24068529.633 8  96914033.285 8     -1217.168          50.000
E27  24015772.711 8 126203728.836 8     -1601.332          51.000    24015775.703 8  96701573.405 8     -1226.914          51.000
> 2020 05 02 13 04 30.0000000  0 12        .000000000000
G18  21004237.430 8 110378092.345 8      2040.887          51.000    21004238.180 8  86008892.463 8      1590.304          48.000
G21  21133936.398 8 111059601.499 8      1642.031          51.000    21133935.562 7  86539994.287 7      1279.505          46.000
G25  22450885.969 6 117980184.516 6     -2842.586          37.000    22450889.586 6  91932634.434 6     -2215.002          38.000
G29  20852536.586 8 109580825.868 8     -1628.258          51.000    20852536.289 8  85387680.312 8     -1268.772          51.000
G31  21296288.812 7 111912757.046 7     -1022.699          47.000    21296287.852 7  87204736.949 7      -796.908          47.000
R09  19376818.117 8 103471151.893 8     -1541.637          51.000    19376820.844 8  80477569.921 8     -1199.054          50.000
R20  19570153.641 6 104650429.181 6      1214.582          41.000    19570156.531 7  81394798.676 7       944.672          45.000
C27  22230650.852 8 115760937.329 8     -1702.172          51.000
C30  21923984.070 8 114164011.774 8      1247.305          51.000
E13  23482500.359 8 123401387.703 8      1235.844          51.000    23482501.180 8  94554388.095 8       946.945          51.000
E15  24077622.625 8 126528760.293 8     -1598.352          51.000    24077625.766 8  96950661.157 8     -1224.708          50.000
E27  24024941.953 8 126251914.099 8     -1611.086          51.000    24024945.500 8  96738494.608 8     -1234.486          51.000
> 2020 05 02 13 05  0.0000000  0 12        .000000000000
G18  20992634.883 8 110317118.792 8      2024.523          51.000    20992635.039 8  85961380.626 8      1577.551          48.000
G21  21124607.656 8 111010579.970 8      1626.457          51.000    21124607.359 7  86501795.713 7      1267.369          46.000
G25  22467136.641 6 118065582.442 6     -2850.148          38.000    22467138.961 6  91999178.249 6     -2220.895          37.000
G29  20861859.961 8 109629820.211 8     -1637.629          51.000    20861859.633 8  85425857.704 8     -1276.078          51.000
G31  21302180.477 8 111943719.815 8     -1041.023          48.000    21302179.398 8  87228863.778 8      -811.187          48.000
R09  19385544.156 8 103517748.786 8     -1564.301          50.000    19385546.969 8  80513811.940 8     -1216.681          50.000
R20  19563400.156 6 104614314.281 6      1193.719          40.000    19563401.914 7  81366709.336 7       928.451          46.000
C27  22240483.062 8 115812136.226 8     -1710.641          51.000
C30  21916830.703 8 114126761.305 8      1236.473          51.000
E13  23475479.711 8 123364494.703 8      1224.160          51.000    23475480.812 8  94526119.476 8       937.978          51.000
E15  24086775.438 8 126576858.175 8     -1607.707          51.000    24086778.773 8  96987515.369 8     -1231.876          51.000
E27  24034167.172 8 126300392.727 8     -1620.379          51.000    24034170.781 8  96775640.570 8     -1241.550          51.000
> 2020 05 02 13 05 30.0000000  0 12        .000000000000
G18  20981123.602 8 110256625.451 8      2008.223          51.000    20981123.148 8  85914242.972 8      1564.849          49.000
G21  21115365.820 8 110962015.932 8      1610.945          49.000    21115365.641 7  86463953.621 7      1255.282          46.000
G25  22483430.445 6 118151203.174 6     -2857.930          40.000    22483433.109 6  92065895.672 6     -2226.958          41.000
G29  20871234.203 8 109679081.655 8     -1646.660          51.000    20871233.805 8  85464243.219 8     -1283.112          51.000
G31  21308173.820 7 111975216.314 7     -1058.977          47.000    21308172.922 7  87253406.494 7      -825.177          47.000
R09  19394395.562 8 103565012.950 8     -1586.668          51.000    19394398.273 8  80550572.943 8     -1234.075          50.000
R20  19556761.117 6 104578812.324 6      1173.137          39.000    19556763.062 7  81339096.745 7       912.440          46.000
C27  22250361.820 8 115863577.317 8     -1718.887          51.000
C30  21909737.797 8 114089824.733 8      1225.852          51.000
E13  23468523.367 8 123327939.219 8      1212.750          51.000    23468524.516 8  94498109.453 8       929.226          51.000
E15  24095978.812 8 126625221.434 8     -1616.676          51.000    24095982.508 8  97024572.932 8     -1238.731          51.000
E27  24043442.992 8 126349136.016 8     -1629.297          51.000    24043446.320 8  96812989.332 8     -1248.476          51.000
> 2020 05 02 13 06  0.0000000  0 12        .000000000000
G18  20969705.844 8 110196624.786 8      1991.387          51.000    20969705.258 8  85867489.230 8      1551.730          49.000
G21  21106213.266 8 110913921.000 8      1594.957          49.000    21106213.336 7  86426477.055 7      1242.824          47.000
G25  22499769.078 6 118237056.618 6     -2866.066          40.000    22499771.617 6  92132794.392 6     -2233.305          40.000
G29  20880660.906 8 109728619.150 8     -1656.191          51.000    20880660.359 8  85502843.844 8     -1290.542          51.000
G31  21314270.633 8 112007255.734 8     -1077.340          49.000    21314270.203 8  87278372.246 8      -839.489          49.000
R09  19403373.875 8 103612954.636 8     -1609.750          51.000    19403376.414 8  80587860.898 8     -1252.031          51.000
R20  19550238.312 6 104543934.136 6      1152.137          39.000    19550240.414 7  81311969.235 7       896.103          45.000
C27  22260288.820 8 115915269.827 8     -1727.609          51.000
C30  21902707.102 8 114053212.730 8      1214.672          51.000
E13  23461633.484 8 123291732.238 8      1200.773          51.000    23461634.242 8  94470366.446 8       920.130          51.000
E15  24105234.344 8 126673859.453 8     -1626.070          51.000    24105237.945 8  97061841.029 8     -1245.980          51.000
E27  24052771.031 8 126398154.618 8     -1638.824          51.000    24052774.305 8  96850549.010 8     -1255.672          51.000
> 2020 05 02 13 06 30.0000000  0 13        .000000000000
G18  20958385.812 8 110137138.149 8      1974.703          51.000    20958385.445 8  85821136.018 8      1538.730          48.000
G21  21097154.242 8 110866315.575 8      1579.168          50.000    21097153.953 7  86389381.937 7      1230.520          47.000
G25  22516155.242 7 118323161.549 7     -2874.168          43.000    22516157.055 7  92199889.094 7     -2239.611          43.000
G29  20890143.641 8 109778451.620 8     -1665.578          51.000    20890143.000 8  85541674.326 8     -1297.853          51.000
G31  21320474.570 8 112039856.678 8     -1095.590          49.000    21320474.930 8  87303775.561 8      -853.706          50.000
R09  19412482.703 8 103661593.103 8     -1632.551          50.000    19412484.625 8  80625690.807 8     -1269.762          50.000
R20  19543835.797 6 104509699.533 6      1130.930          38.000    19543838.430 7  81285342.346 7       879.615          46.000
C27  22270267.609 8 115967231.659 8     -1736.113          51.000
C29  25809788.617 6 134398347.922 6      2943.477          37.000
C30  21895742.188 8 114016944.648 8      1203.602          51.000
E13  23454813.375 8 123255893.489 8      1188.902          51.000    23454814.297 8  94442905.625 8       910.965          51.000
E15  24114545.602 8 126722790.371 8     -1635.434          51.000    24114548.750 8  97099333.539 8     -1253.157          51.000
E27  24062154.945 8 126447467.883 8     -1648.285          51.000    24062158.141 8  96888334.472 8     -1262.990          51.000
> 2020 05 02 13 07  0.0000000  0 13        .000000000000
G18  20947162.227 8 110078158.371 8      1957.773          51.000    20947162.172 7  85775177.752 7      1525.538          47.000
G21  21088187.086 8 110819191.860 8      1563.094          51.000    21088186.055 7  86352662.187 7      1217.995          47.000
G25  22532587.352 6 118409507.999 6     -2882.031          41.000    22532588.875 6  92267172.016 6     -2245.742          40.000
G29  20899680.461 8 109828568.360 8     -1674.973          51.000    20899679.953 8  85580726.319 8     -1305.173          51.000
G31  21326783.445 8 112073009.173 8     -1113.844          49.000    21326784.492 8  87329608.662 8      -867.930          49.000
R09  19421720.227 8 103710918.535 8     -1655.352          50.000    19421721.469 8  80664055.042 8     -1287.496          50.000
R20  19537551.727 6 104476099.451 6      1109.629          36.000    19537555.055 7  81259209.026 7       863.045          45.000
C27  22280296.023 8 116019452.581 8     -1744.723          51.000
C29  25792844.273 6 134310112.411 6      2939.379          38.000
C30  21888841.812 8 113981011.660 8      1192.469          51.000
E13  23448061.852 8 123220414.371 8      1176.871          51.000    23448063.344 8  94415720.359 8       901.755          51.000
E15  24123910.719 8 126772003.894 8     -1644.879          51.000    24123913.789 8  97137042.586 8     -1260.365          51.000
E27  24071593.242 8 126497066.774 8     -1657.809          51.000    24071595.883 8  96926338.767 8     -1270.227          51.000
> 2020 05 02 13 07 30.0000000  0 13        .000000000000
G18  20936036.891 8 110019694.967 8      1939.723          51.000    20936036.688 7  85729621.871 7      1511.475          46.000
G21  21079313.258 8 110772558.565 8      1545.824          51.000    21079311.953 8  86316324.615 8      1204.541          48.000
G25  22549065.898 6 118496103.042 6     -2891.059          40.000    22549067.359 6  92334648.571 6     -2252.776          39.000
G29  20909272.609 8 109878975.833 8     -1685.480          51.000    20909272.273 8  85620004.852 8     -1313.361          51.000
G31  21333198.617 8 112106720.041 8     -1133.316          50.000    21333199.680 8  87355876.857 8      -883.104          50.000
R09  19431087.430 8 103760937.613 8     -1679.164          50.000    19431088.320 8  80702958.773 8     -1306.016          50.000
R20  19531386.945 5 104443141.762 5      1087.668          35.000    19531391.664 7  81233575.238 7       845.964          46.000
C27  22290375.234 8 116071938.908 8     -1754.262          51.000
C29  25775922.562 6 134222002.780 6      2934.578          38.000
C30  21882007.250 8 113945421.516 8      1180.211          51.000
E13  23441380.555 8 123185302.892 8      1163.875          51.000    23441382.461 8  94388816.766 8       891.728          51.000
E15  24133330.805 8 126821506.367 8     -1655.363          51.000    24133334.172 8  97174973.052 8     -1268.395          51.000
E27  24081087.375 8 126546958.922 8     -1668.438          51.000    24081089.836 8  96964567.780 8     -1278.407          51.000
> 2020 05 02 13 08  0.0000000  0 13        .000000000000
G18  20925010.266 8 109961750.193 8      1923.348          51.000    20925009.695 7  85684470.151 7      1498.716          47.000
G21  21070533.156 8 110726417.501 8      1530.383          51.000    21070531.992 8  86280370.573 8      1192.506          49.000
G25  22565591.039 6 118582946.201 6     -2898.273          40.000    22565592.594 6  92402318.474 6     -2258.398          40.000
G29  20918919.961 8 109929673.518 8     -1694.215          51.000    20918919.742 8  85659509.539 8     -1320.167          51.000
G31  21339719.844 8 112140988.602 8     -1151.043          50.000    21339720.016 8  87382579.625 8      -896.917          50.000
R09  19440584.414 8 103811650.080 8     -1701.391          51.000    19440585.320 8  80742401.781 8     -1323.304          49.000
R20  19525343.594 6 104410826.476 6      1066.852          36.000    19525349.555 8  81208441.150 8       829.776          48.000
C27  22300505.500 8 116124689.829 8     -1762.215          51.000
C29  25759025.883 6 134134020.340 6      2931.066          37.000
C30  21875237.797 8 113910174.785 8      1169.793          51.000
E13  23434769.180 8 123150559.831 8      1152.473          51.000    23434771.547 8  94362195.487 8       883.057          51.000
E15  24142805.672 8 126871296.994 8     -1664.035          51.000    24142809.211 8  97213124.326 8     -1274.947          51.000
E27  24090637.344 8 126597144.780 8     -1677.223          51.000    24090640.000 8  97003021.840 8     -1285.082          51.000
> 2020 05 02 13 08 30.0000000  0 13        .000000000000
G18  20914081.391 8 109904318.608 8      1905.453          51.000    20914080.688 7  85639718.323 7      1484.772          47.000
G21  21061845.516 8 110680762.161 8      1513.363          51.000    21061844.570 8  86244795.015 8      1179.244          50.000
G25  22582161.898 6 118670029.695 6     -2907.219          40.000    22582162.141 6  92470175.631 6     -2265.368          39.000
G29  20928620.914 8 109980652.812 8     -1704.398          51.000    20928620.781 8  85699233.661 8     -1328.103          51.000
G31  21346345.539 8 112175806.786 8     -1170.148          50.000    21346344.016 8  87409710.640 8      -911.804          50.000
R09  19450209.688 8 103863047.929 8     -1725.016          51.000    19450210.125 8  80782377.860 8     -1341.682          48.000
R20  19519419.656 6 104379146.551 6      1045.141          37.000    19519426.031 8  81183801.211 8       812.887          48.000
C27  22310685.109 8 116177696.844 8     -1771.488          51.000
C29  25742151.641 5 134046158.857 5      2926.730          33.000
C30  21868532.977 8 113875264.387 8      1157.664          51.000
E13  23428226.570 8 123116178.235 8      1139.586          51.000    23428229.234 8  94335851.169 8       873.192          51.000
E15  24152333.633 8 126921367.251 8     -1674.117          51.000    24152337.125 8  97251489.828 8     -1282.771          51.000
E27  24100241.797 8 126647617.040 8     -1687.590          51.000    24100244.742 8  97041695.367 8     -1293.181          51.000
> 2020 05 02 13 09  0.0000000  0 13        .000000000000
G18  20903253.102 8 109847415.278 8      1888.281          51.000    20903252.359 7  85595378.111 7      1471.388          46.000
G21  21053253.023 8 110635607.283 8      1497.191          51.000    21053252.227 8  86209609.414 8      1166.643          50.000
G25  22598781.148 6 118757365.852 6     -2914.977          40.000    22598781.367 6  92538229.705 6     -2271.413          40.000
G29  20938377.805 8 110031925.883 8     -1713.660          51.000    20938377.734 8  85739186.699 8     -1335.320          51.000
G31  21353078.188 8 112211186.643 8     -1188.348          50.000    21353075.383 8  87437279.334 8      -925.988          50.000
R09  19459965.609 8 103915143.940 8     -1747.703          51.000    19459965.703 8  80822896.959 8     -1359.325          49.000
R20  19513617.469 6 104348115.143 6      1023.586          37.000    19513623.211 8  81159665.661 8       796.122          48.000
C27  22320915.891 8 116230971.741 8     -1779.945          51.000
C29  25725300.469 4 133958392.015 4      2921.379          29.000
C30  21861896.062 8 113840703.504 8      1146.531          51.000
E13  23421755.641 8 123082171.692 8      1127.641          51.000    23421758.070 8  94309794.223 8       864.060          51.000
E15  24161917.031 8 126971729.035 8     -1683.203          51.000    24161920.391 8  97290078.716 8     -1289.727          51.000
E27  24109903.430 8 126698388.881 8     -1697.000          51.000    24109906.758 8  97080598.430 8     -1300.299          51.000
> 2020 05 02 13 09 30.0000000  0 13        .000000000000
G18  20892520.633 8 109791016.833 8      1872.059          49.000    20892519.695 7  85551431.309 7      1458.747          46.000
G21  21044750.961 8 110590928.161 8      1481.848          51.000    21044750.102 8  86174794.533 8      1154.686          50.000
G25  22615443.617 6 118844928.827 6     -2921.906          40.000    22615444.617 6  92606460.573 6     -2276.810          40.000
G29  20948185.688 8 110083466.552 8     -1721.941          51.000    20948185.547 8  85779348.263 8     -1341.773          51.000
G31  21359912.742 8 112247102.086 8     -1205.648          51.000    21359910.359 8  87465265.353 8      -939.469          51.000
R09  19469847.258 8 103967911.436 8     -1769.586          51.000    19469847.656 8  80863938.310 8     -1376.348          49.000
R20  19507931.820 6 104317706.754 6      1003.902          38.000    19507936.539 8  81136014.712 8       780.813          48.000
C27  22331193.000 8 116284488.356 8     -1787.371          51.000
C29  25708472.344 5 133870776.095 5      2918.793          35.000
C30  21855321.375 8 113806467.424 8      1136.262          51.000
E13  23415351.156 8 123048515.412 8      1116.516          51.000    23415353.422 8  94284005.643 8       855.503          51.000
E15  24171551.016 8 127022355.975 8     -1691.492          51.000    24171554.227 8  97328870.780 8     -1296.075          51.000
E27  24119617.438 8 126749435.095 8     -1705.664          51.000    24119620.984 8  97119711.753 8     -1306.931          51.000
> 2020 05 02 13 10  0.0000000  0 14        .000000000000
G18  20881884.180 7 109735124.256 7      1854.828          47.000    20881883.062 7  85507878.667 7      1445.321          46.000
G21  21036339.172 8 110546725.081 8      1465.770          49.000    21036338.156 8  86140350.593 8      1142.158          49.000
G25  22632148.203 6 118932717.020 6     -2929.953          36.000    22632151.016 6  92674867.003 6     -2283.077          37.000
G29  20958044.172 8 110135272.860 8     -1730.992          51.000    20958043.797 8  85819716.801 8     -1348.828          51.000
G31  21366848.844 8 112283551.251 8     -1223.688          51.000    21366847.914 8  87493667.282 8      -953.523          50.000
R09  19479853.797 8 104021348.727 8     -1792.113          51.000    19479854.609 8  80905500.627 8     -1393.866          49.000
R20  19502362.555 6 104287920.633 6       982.863          38.000    19502366.375 8  81112847.721 8       764.449          48.000
R21  23218206.602 6 124245312.247 6      3799.379          39.000    23218211.016 6  96635257.682 6      2955.076          38.000
C27  22341516.273 8 116338244.637 8     -1795.555          51.000
C29  25691667.562 6 133783271.747 6      2915.207          39.000
C30  21848808.344 8 113772555.357 8      1125.285          51.000
E13  23409012.922 8 123015208.877 8      1104.605          51.000    23409015.516 8  94258485.065 8       846.386          51.000
E15  24181235.031 8 127073245.977 8     -1700.484          51.000    24181238.398 8  97367864.413 8     -1303.004          51.000
E27  24129383.398 8 126800754.842 8     -1714.965          51.000    24129387.258 8  97159034.676 8     -1314.100          51.000
> 2020 05 02 13 10 30.0000000  0 14        .000000000000
G18  20871343.812 7 109679737.041 7      1836.965          47.000    20871343.125 7  85464719.819 7      1431.404          47.000
G21  21028017.383 8 110502997.092 8      1448.816          48.000    21028016.586 8  86106276.845 8      1128.948          48.000
G25  22648895.289 6 119020727.479 6     -2937.914          37.000    22648899.672 5  92743446.561 5     -2289.284          34.000
G29  20967952.539 8 110187341.121 8     -1740.840          51.000    20967951.867 8  85860289.446 8     -1356.502          51.000
G31  21373885.883 8 112320530.786 8     -1242.344          51.000    21373886.234 8  87522482.488 8      -968.060          51.000
R09  19489985.328 8 104075452.635 8     -1815.355          51.000    19489986.539 8  80947581.448 8     -1411.946          50.000
R20  19496908.469 6 104258754.349 6       961.246          37.000    19496912.102 8  81090162.826 8       747.636          49.000
R21  23196930.469 6 124131456.188 6      3790.613          40.000    23196934.523 6  96546703.120 6      2948.258          38.000
C27  22351885.000 8 116392237.040 8     -1804.508          51.000
C29  25674884.977 6 133695877.293 6      2910.508          41.000
C30  21842357.586 8 113738965.239 8      1113.453          51.000
E13  23402741.078 8 122982250.095 8      1091.992          51.000    23402743.734 8  94233230.951 8       836.697          51.000
E15  24190968.414 8 127124395.526 8     -1710.172          51.000    24190971.938 8  97407056.908 8     -1310.397          51.000
E27  24139200.859 8 126852345.848 8     -1725.070          51.000    24139204.867 8  97198565.437 8     -1321.849          51.000
> 2020 05 02 13 11  0.0000000  0 14        .000000000000
G18  20860904.336 7 109624878.184 7      1820.355          47.000    20860904.109 7  85421972.677 7      1418.462          47.000
G21  21019790.406 8 110459766.355 8      1433.340          49.000    21019789.633 8  86072590.569 8      1116.888          49.000
G25  22665689.305 6 119108980.775 6     -2944.992          41.000    22665694.367 6  92812215.320 6     -2294.799          41.000
G29  20977914.539 8 110239691.456 8     -1749.109          51.000    20977913.766 8  85901081.909 8     -1362.945          51.000
G31  21381027.617 8 112358060.979 8     -1259.574          50.000    21381028.625 8  87551726.781 8      -981.486          50.000
R09  19500245.648 8 104130243.654 8     -1837.191          51.000    19500247.109 8  80990196.657 8     -1428.927          49.000
R20  19491573.953 6 104230229.231 6       941.051          37.000    19491577.344 8  81067976.609 8       731.928          48.000
R21  23175700.602 6 124017846.311 6      3783.410          41.000    23175704.016 6  96458340.022 6      2942.658          37.000
C27  22362302.906 8 116446485.364 8     -1811.863          51.000
C29  25658128.242 7 133608614.567 7      2907.176          42.000
C30  21835973.508 8 113705718.137 8      1103.172          51.000
E13  23396539.820 8 122949660.626 8      1080.824          51.000    23396541.992 8  94208259.809 8       828.173          51.000
E15  24200755.102 8 127175824.531 8     -1718.293          51.000    24200758.312 8  97446463.523 8     -1316.602          50.000
E27  24149073.672 8 126904229.252 8     -1733.672          51.000    24149077.938 8  97238320.221 8     -1328.356          51.000
> 2020 05 02 13 11 30.0000000  0 14        .000000000000
G18  20850563.008 8 109570533.997 8      1802.895          48.000    20850563.219 8  85379626.592 8      1404.856          48.000
G21  21011655.727 8 110417018.489 8      1417.016          51.000    21011654.875 8  86039280.564 8      1104.168          48.000
G25  22682526.633 6 119197460.631 6     -2952.973          40.000    22682531.617 6  92881160.642 6     -2301.021          39.000
G29  20987927.023 8 110292307.540 8     -1758.188          51.000    20987926.430 8  85942081.445 8     -1370.016          51.000
G31  21388271.000 8 112396125.521 8     -1277.551          49.000    21388271.586 8  87581387.446 8      -995.494          49.000
R09  19510631.930 8 104185705.415 8     -1859.820          51.000    19510633.383 8  81033333.554 8     -1446.530          48.000
R20  19486356.047 6 104202329.403 6       919.684          37.000    19486359.609 8  81046276.752 8       715.309          48.000
R21  23154514.320 7 123904468.967 7      3775.410          42.000    23154517.031 6  96370157.760 6      2936.430          37.000
C27  22372766.852 8 116500973.151 8     -1820.125          51.000
C29  25641393.664 7 133521469.342 7      2903.207          42.000
C30  21829652.094 8 113672798.976 8      1091.922          51.000
E13  23390405.898 8 122917425.414 8      1068.691          51.000    23390407.828 8  94183560.123 8       818.873          51.000
E15  24210591.930 8 127227516.398 8     -1727.344          51.000    24210594.641 8  97486071.563 8     -1323.546          50.000
E27  24158999.367 8 126956389.630 8     -1743.207          51.000    24159003.523 8  97278287.223 8     -1335.665          51.000
> 2020 05 02 13 12  0.0000000  0 14        .000000000000
G18  20840322.672 8 109516719.742 8      1784.809          49.000    20840323.234 8  85337693.434 8      1390.763          48.000
G21  21003615.875 8 110374767.876 8      1399.926          51.000    21003615.297 8  86006358.044 8      1090.854          49.000
G25  22699408.656 5 119286179.830 5     -2960.730          35.000    22699413.359 5  92950292.407 5     -2307.063          35.000
G29  20997992.469 8 110345201.766 8     -1767.848          51.000    20997992.023 8  85983297.707 8     -1377.547          51.000
G31  21395618.359 8 112434736.335 8     -1296.172          49.000    21395617.539 8  87611473.779 8     -1010.007          49.000
R09  19521146.469 8 104241850.652 8     -1883.027          51.000    19521147.789 7  81077002.019 7     -1464.577          47.000
R20  19481257.594 6 104175068.662 6       898.043          37.000    19481261.812 8  81025073.988 8       698.478          48.000
R21  23133374.047 6 123791340.209 6      3766.504          39.000    23133375.523 5  96282168.817 5      2929.503          35.000
C27  22383279.164 8 116555712.542 8     -1828.922          51.000
C29  25624684.039 7 133434456.015 7      2898.199          44.000
C30  21823395.750 8 113640221.229 8      1080.180          51.000
E13  23384341.758 8 122885558.263 8      1056.000          51.000    23384343.750 8  94159142.467 8       809.137          51.000
E15  24220481.047 8 127279483.370 8     -1736.926          51.000    24220483.734 8  97525890.390 8     -1330.831          51.000
E27  24168980.633 8 127008840.460 8     -1753.375          51.000    24168984.055 8  97318476.785 8     -1343.468          50.000
> 2020 05 02 13 12 30.0000000  0 14        .000000000000
G18  20830180.961 8 109463424.152 8      1768.137          48.000    20830181.922 8  85296164.405 8      1377.769          48.000
G21  20995668.422 8 110333002.586 8      1384.383          51.000    20995668.078 8  85973813.692 8      1078.740          48.000
G25  22716334.141 6 119375124.731 6     -2967.926          38.000    22716338.406 6  93019599.982 6     -2312.672          38.000
G29  21008108.102 8 110398359.696 8     -1775.973          51.000    21008107.516 8  86024719.460 8     -1383.878          51.000
G31  21403066.984 8 112473879.606 8     -1313.410          49.000    21403064.688 8  87641975.017 8     -1023.436          49.000
R09  19531786.188 8 104298665.301 8     -1904.613          51.000    19531787.172 7  81121191.124 7     -1481.369          47.000
R20  19476276.289 6 104148433.335 6       877.852          38.000    19476280.867 8  81004357.618 8       682.773          48.000
R21  23112277.758 6 123678448.736 6      3759.500          36.000    23112278.609 5  96194364.417 5      2924.059          34.000
C27  22393837.016 8 116610689.324 8     -1836.230          51.000
C29  25607997.422 7 133347562.493 7      2894.746          45.000
C30  21817202.664 8 113607972.093 8      1069.695          51.000
E13  23378345.008 8 122854046.438 8      1044.719          51.000    23378346.859 8  94134997.057 8       800.532          51.000
E15  24230419.641 8 127331711.174 8     -1744.953          51.000    24230422.703 8  97565909.091 8     -1337.018          50.000
E27  24179014.500 8 127061568.611 8     -1761.938          51.000    24179017.344 8  97358878.851 8     -1350.017          51.000
> 2020 05 02 13 13  0.0000000  0 14        .000000000000
G18  20820138.445 8 109410650.779 8      1750.719          49.000    20820140.000 8  85255042.300 8      1364.196          49.000
G21  20987813.688 8 110291725.527 8      1368.004          51.000    20987813.422 8  85941649.780 8      1065.977          49.000
G25  22733304.055 7 119464296.396 7     -2975.871          43.000    22733307.914 7  93089084.329 7     -2318.864          42.000
G29  21018274.047 8 110451782.181 8     -1784.898          51.000    21018273.250 8  86066347.363 8     -1390.830          51.000
G31  21410617.070 8 112513555.927 8     -1331.086          51.000    21410613.969 8  87672891.627 8     -1037.210          51.000
R09  19542551.109 8 104356149.824 8     -1927.086          51.000    19542552.938 8  81165901.259 8     -1498.845          49.000
R20  19471412.219 6 104122425.132 6       856.859          38.000    19471417.414 8  80984129.027 8       666.446          48.000
R21  23091225.836 5 123565798.957 5      3750.547          35.000    23091226.242 5  96106747.963 5      2917.095          34.000
C27  22404440.438 8 116665904.231 8     -1844.281          51.000
C29  25591334.406 7 133260791.606 7      2890.625          46.000
C30  21811073.227 8 113576053.533 8      1058.699          51.000
E13  23372416.250 8 122822892.101 8      1032.781          51.000    23372417.852 8  94111125.560 8       791.397          51.000
E15  24240407.938 8 127384200.449 8     -1753.699          51.000    24240411.258 8  97606128.130 8     -1343.720          50.000
E27  24189101.266 8 127114575.987 8     -1771.270          51.000    24189104.242 8  97399494.859 8     -1357.198          51.000
> 2020 05 02 13 13 30.0000000  0 14        .000000000000
G18  20810197.508 8 109358410.344 8      1733.023          50.000    20810199.461 8  85214335.467 8      1350.408          50.000
G21  20980053.422 8 110250946.449 8      1351.582          49.000    20980053.266 8  85909873.901 8      1053.181          49.000
G25  22750318.680 7 119553703.145 7     -2983.703          44.000    22750322.523 7  93158751.875 7     -2324.960          44.000
G29  21028491.922 8 110505477.500 8     -1793.844          51.000    21028491.031 8  86108187.855 8     -1397.803          51.000
G31  21418270.148 8 112553773.024 8     -1349.031          51.000    21418267.469 8  87704229.626 8     -1051.193          51.000
R09  19553442.594 8 104414312.629 8     -1949.438          48.000    19553445.453 8  81211138.981 8     -1516.229          50.000
R20  19466667.195 6 104097052.738 6       836.074          39.000    19466672.133 7  80964394.983 7       650.283          47.000
R21  23070217.891 5 123453401.715 5      3742.750          30.000    23070220.508 5  96019327.945 5      2911.031          34.000
C27  22415090.859 8 116721364.957 8     -1852.234          51.000
C29  25574696.344 7 133174153.271 7      2886.285          45.000
C30  21805008.789 8 113544474.591 8      1047.590          51.000
E13  23366557.445 8 122792104.593 8      1020.719          51.000    23366559.102 8  94087535.151 8       782.115          51.000
E15  24250447.469 8 127436958.975 8     -1762.559          51.000    24250450.805 8  97646553.495 8     -1350.502          50.000
E27  24199243.297 8 127167871.515 8     -1780.719          51.000    24199246.008 8  97440331.684 8     -1364.441          51.000
> 2020 05 02 13 14  0.0000000  0 14        .000000000000
G18  20800356.547 8 109306694.505 8      1714.805          50.000    20800358.492 8  85174037.439 8      1336.214          50.000
G21  20972385.953 7 110210656.382 7      1334.484          46.000    20972386.203 7  85878479.054 7      1039.858          46.000
G25  22767375.891 7 119643334.205 7     -2991.781          43.000    22767379.344 7  93228594.237 7     -2331.258          43.000
G29  21038759.719 8 110559434.603 8     -1803.094          51.000    21038758.867 8  86150232.345 8     -1405.008          51.000
G31  21426024.031 8 112594519.999 8     -1367.367          51.000    21426022.117 8  87735980.502 8     -1065.484          51.000
R09  19564458.492 7 104473142.531 7     -1972.480          47.000    19564462.734 8  81256895.579 8     -1534.151          51.000
R20  19462039.680 6 104072306.327 6       814.141          39.000    19462043.961 8  80945147.809 8       633.224          48.000
R21  23049259.445 5 123341235.065 5      3734.039          30.000    23049265.203 6  95932078.170 6      2904.256          36.000
C27  22425786.539 8 116777060.409 8     -1860.684          51.000
C29  25558081.430 7 133087638.564 7      2881.535          45.000
C30  21799007.234 8 113513225.483 8      1035.914          51.000
E13  23360766.539 8 122761674.217 8      1008.180          51.000    23360768.500 8  94064218.391 8       772.450          51.000
E15  24260536.039 8 127489975.576 8     -1771.707          51.000    24260539.547 8  97687176.602 8     -1357.590          50.000
E27  24209438.539 8 127221445.183 8     -1790.652          51.000    24209440.852 8  97481381.639 8     -1372.085          51.000
> 2020 05 02 13 14 30.0000000  0 14        .000000000000
G18  20790615.492 8 109255503.817 8      1697.660          51.000    20790617.242 8  85134148.635 8      1322.852          50.000
G21  20964811.492 7 110170855.195 7      1318.676          46.000    20964812.328 7  85847465.174 7      1027.540          47.000
G25  22784474.977 7 119733187.793 7     -2998.938          42.000    22784478.789 6  93298609.961 6     -2336.834          41.000
G29  21049076.828 8 110613651.073 8     -1811.438          51.000    21049076.148 8  86192478.937 8     -1411.510          51.000
G31  21433878.516 8 112635794.456 8     -1384.402          51.000    21433877.016 8  87768142.413 8     -1078.755          51.000
R09  19575599.102 7 104532637.243 7     -1994.094          47.000    19575604.273 8  81303169.248 8     -1550.962          51.000
R20  19457528.922 6 104048184.213 6       793.809          40.000    19457533.344 8  80926386.197 8       617.407          49.000
R21  23028350.719 5 123229327.980 5      3726.312          34.000    23028353.102 6  95845039.366 6      2898.243          38.000
C27  22436527.094 8 116832988.292 8     -1867.969          51.000
C29  25541490.117 7 133001247.297 7      2877.789          45.000
C30  21793069.195 8 113482305.186 8      1025.238          51.000
E13  23355043.289 8 122731600.099 8       996.691          51.000    23355045.398 8  94041174.603 8       763.717          51.000
E15  24270673.336 8 127543247.856 8     -1779.820          50.000    24270677.180 8  97727995.610 8     -1363.767          49.000
E27  24219686.203 8 127275295.827 8     -1799.492          51.000    24219688.781 8  97522643.794 8     -1378.790          51.000
> 2020 05 02 13 15  0.0000000  0 14        .000000000000
G18  20780976.203 8 109204847.923 8      1679.723          51.000    20780977.641 8  85094676.556 8      1308.875          49.000
G21  20957332.273 8 110131551.664 8      1301.938          48.000    20957333.359 8  85816839.057 8      1014.497          48.000
G25  22801617.531 7 119823271.030 7     -3006.410          43.000    22801621.219 7  93368804.659 7     -2342.654          43.000
G29  21059444.586 8 110668133.700 8     -1820.359          51.000    21059443.992 8  86234932.936 8     -1418.462          51.000
G31  21441834.789 8 112677603.418 8     -1402.398          51.000    21441833.211 8  87800720.807 8     -1092.781          51.000
R09  19586866.594 8 104592803.563 8     -2016.496          50.000    19586871.758 8  81349965.275 8     -1568.386          51.000
R20  19453136.312 6 104024694.222 6       772.719          40.000    19453140.977 8  80908116.207 8       601.003          50.000
R21  23007486.047 6 123117676.499 6      3717.555          38.000    23007489.008 6  95758199.460 6      2891.434          38.000
C27  22447313.445 8 116889155.319 8     -1876.051          51.000
C29  25524924.617 7 132914988.318 7      2873.277          45.000
C30  21787195.984 8 113451721.714 8      1013.941          51.000
E13  23349389.617 8 122701890.532 8       984.391          51.000    23349391.422 8  94018410.138 8       754.231          51.000
E15  24280860.703 8 127596782.583 8     -1788.766          50.000    24280864.680 8  97769015.728 8     -1370.622          49.000
E27  24229987.852 8 127329431.373 8     -1809.227          51.000    24229990.617 8  97564124.263 8     -1386.299          51.000
> 2020 05 02 13 15 30.0000000  0 14        .000000000000
G18  20771438.008 8 109154723.362 8      1661.645          51.000    20771439.180 8  85055618.493 8      1294.788          49.000
G21  20949947.148 8 110092741.633 8      1285.066          49.000    20949948.273 8  85786597.471 8      1001.347          48.000
G25  22818802.516 7 119913578.142 7     -3013.910          42.000    22818806.375 7  93439173.835 7     -2348.501          42.000
G29  21069861.828 8 110722876.400 8     -1829.395          51.000    21069861.242 8  86277589.569 8     -1425.505          51.000
G31  21449891.281 8 112719940.298 8     -1420.332          51.000    21449889.383 8  87833710.542 8     -1106.755          51.000
R09  19598259.312 8 104653635.527 8     -2039.074          51.000    19598263.656 8  81397279.026 8     -1585.947          51.000
R20  19448860.875 6 104001831.043 6       751.391          40.000    19448865.602 8  80890333.740 8       584.415          49.000
R21  22986668.312 7 123006277.673 7      3708.910          42.000    22986671.625 6  95671556.034 6      2884.711          37.000
C27  22458144.328 8 116945555.186 8     -1884.137          51.000
C29  25508384.250 7 132828857.457 7      2868.586          45.000
C30  21781386.195 8 113421470.054 8      1002.512          51.000
E13  23343804.625 8 122672540.664 8       971.957          51.000    23343806.172 8  93995921.284 8       744.794          51.000
E15  24291096.820 8 127650573.388 8     -1797.621          50.000    24291100.594 8  97810232.045 8     -1377.374          49.000
E27  24240342.602 8 127383846.578 8     -1818.816          51.000    24240345.734 8  97605819.015 8     -1393.657          51.000
> 2020 05 02 13 16  0.0000000  0 14        .000000000000
G18  20762002.672 8 109105139.332 8      1644.457          51.000    20762003.336 8  85016981.630 8      1281.395          49.000
G21  20942657.500 8 110054433.618 8      1269.258          49.000    20942658.461 8  85756747.053 8       989.032          49.000
G25  22836030.781 6 120004116.079 6     -3021.086          39.000    22836035.406 6  93509722.854 6     -2354.090          39.000
G29  21080329.836 8 110777885.904 8     -1837.367          51.000    21080329.102 8  86320454.106 8     -1431.715          51.000
G31  21458049.305 8 112762811.612 8     -1437.230          51.000    21458047.500 8  87867116.726 8     -1119.920          51.000
R09  19609777.844 8 104715139.059 8     -2060.609          51.000    19609781.086 8  81445115.109 8     -1602.696          51.000
R20  19444704.234 6 103979601.931 6       731.141          40.000    19444708.578 8  80873044.432 8       568.665          49.000
R21  22965899.617 7 122895141.358 7      3700.832          44.000    22965902.125 5  95585116.806 5      2878.431          35.000
C27  22469021.234 8 117002194.297 8     -1891.266          51.000
C29  25491870.289 7 132742863.266 7      2864.746          44.000
C30  21775642.016 8 113391557.873 8       992.094          51.000
E13  23338289.641 8 122643558.345 8       960.648          51.000    23338291.180 8  93973714.077 8       736.060          51.000
E15  24301382.906 8 127704626.719 8     -1805.457          50.000    24301386.430 8  97851649.517 8     -1383.342          49.000
E27  24250751.922 8 127438549.047 8     -1827.461          51.000    24250754.977 8  97647733.896 8     -1400.319          51.000
> 2020 05 02 13 16 30.0000000  0 14        .000000000000
G18  20752669.391 8 109056092.143 8      1625.691          51.000    20752669.734 8  84978763.051 8      1266.773          49.000
G21  20935462.805 8 110016623.042 8      1251.887          50.000    20935463.172 8  85727284.275 8       975.496          50.000
G25  22853300.680 5 120094878.714 5     -3029.918          33.000    22853307.023 5  93580446.937 5     -2360.978          34.000
G29  21090847.406 8 110833155.708 8     -1846.734          51.000    21090846.320 8  86363521.470 8     -1439.014          51.000
G31  21466307.469 8 112806210.733 8     -1455.570          50.000    21466306.375 8  87900934.187 8     -1134.211          50.000
R09  19621420.773 8 104777308.163 8     -2083.539          51.000    19621423.016 8  81493468.836 8     -1620.530          50.000
R20  19440665.000 6 103958001.011 6       709.410          40.000    19440669.070 8  80856243.741 8       551.763          49.000
R21  22945179.289 7 122784264.039 7      3691.473          46.000    22945180.641 5  95498879.018 5      2871.151          33.000
C27  22479942.883 8 117059066.197 8     -1899.770          51.000
C29  25475381.516 7 132657001.415 7      2859.789          43.000
C30  21769962.258 8 113361979.989 8       980.219          51.000
E13  23332843.586 8 122614938.557 8       947.879          51.000    23332845.164 8  93951784.652 8       726.285          51.000
E15  24311717.656 8 127758935.996 8     -1814.688          49.000    24311721.375 8  97893263.109 8     -1390.481          49.000
E27  24261214.719 8 127493533.355 8     -1837.648          51.000    24261218.133 8  97689864.725 8     -1408.065          51.000
> 2020 05 02 13 17  0.0000000  0 14        .000000000000
G18  20743438.406 8 109007584.032 8      1608.242          50.000    20743438.930 8  84940964.531 8      1253.176          49.000
G21  20928363.086 8 109979311.508 8      1235.566          50.000    20928362.766 8  85698210.378 8       962.782          49.000
G25  22870612.914 5 120185865.796 5     -3036.141          35.000    22870618.570 5  93651345.845 5     -2365.827          34.000
G29  21101414.375 8 110888685.381 8     -1855.023          51.000    21101413.273 8  86406791.332 8     -1445.473          51.000
G31  21474666.031 8 112850137.141 8     -1472.711          50.000    21474665.953 8  87935162.536 8     -1147.567          50.000
R09  19633187.805 8 104840142.147 8     -2105.262          51.000    19633189.742 8  81542339.674 8     -1637.426          50.000
R20  19436743.039 6 103937028.560 6       689.012          40.000    19436747.359 8  80839931.835 8       535.895          49.000
R21  22924507.797 7 122673648.781 7      3683.039          45.000    22924507.492 5  95412845.080 5      2864.589          33.000
C27  22490909.148 8 117116170.425 8     -1907.059          51.000
C29  25458918.289 7 132571273.461 7      2855.711          43.000
C30  21764346.547 8 113332737.148 8       969.504          51.000
E13  23327466.734 8 122586682.219 8       936.129          51.000    23327468.250 8  93930133.698 8       717.261          51.000
E15  24322100.969 8 127813500.664 8     -1822.785          49.000    24322105.031 8  97935072.400 8     -1396.653          48.000
E27  24271730.984 8 127548800.142 8     -1846.633          50.000    24271735.492 8  97732211.972 8     -1414.967          51.000
> 2020 05 02 13 17 30.0000000  0 14        .000000000000
G18  20734308.125 8 108959605.822 8      1590.586          50.000    20734308.852 8  84903578.911 8      1239.418          50.000
G21  20921356.414 8 109942489.146 8      1219.363          51.000    20921355.320 8  85669517.643 8       950.153          48.000
G25  22887967.766 6 120277081.173 6     -3043.551          38.000    22887971.789 6  93722410.945 6     -2371.601          38.000
G29  21112028.609 8 110944463.390 8     -1863.234          51.000    21112027.547 8  86450254.700 8     -1451.871          51.000
G31  21483122.914 8 112894578.809 8     -1489.824          50.000    21483123.578 8  87969792.386 8     -1160.902          50.000
R09  19645076.719 8 104903628.681 8     -2126.875          51.000    19645078.773 8  81591718.035 8     -1654.239          50.000
R20  19432936.383 6 103916673.256 6       668.551          39.000    19432940.953 8  80824099.920 8       519.984          49.000
R21  22903883.070 6 122563286.579 6      3674.516          41.000    22903883.055 6  95327007.942 6      2857.960          36.000
C27  22501917.805 8 117173495.095 8     -1914.332          51.000
C29  25442479.047 7 132485669.723 7      2851.527          43.000
C30  21758793.102 8 113303818.761 8       958.719          51.000
E13  23322156.961 8 122558778.804 8       924.359          51.000    23322158.781 8  93908753.157 8       708.269          51.000
E15  24332530.562 8 127868308.773 8     -1830.777          49.000    24332534.664 8  97977068.223 8     -1402.770          48.000
