     3.02           OBSERVATION DATA    M (MIXED)           RINEX VERSION / TYPE
SAVERINEX           SC600               20200501 085931 LCL PGM / RUN BY / DATE
       G = GPS       R = GLONASS       C = COMPASS          COMMENT
       S = SBAS      J = QZSS          E = GALILEO          COMMENT
BEAN                                                        MARKER NAME
1                                                           MARKER NUMBER
GEODETIC                                                    MARKER TYPE
Unige DICCA         GTER                                    OBSERVER / AGENCY
SC60291900056       SC600               2.12(191226)        REC # / TYPE / VERS
                    HEMA45          NONE                    ANT # / TYPE
  4509407.8091   693652.4678  4442337.6214                  APPROX POSITION XYZ
        0.0000        0.0000        0.0000                  ANTENNA: DELTA H/E/N
G    8 C1C L1C D1C S1C C2Y L2Y D2Y S2Y                      SYS / # / OBS TYPES
R    8 C1C L1C D1C S1C C2P L2P D2P S2P                      SYS / # / OBS TYPES
C    8 C1I L1I D1I S1I C7I L7I D7I S7I                      SYS / # / OBS TYPES
E    8 C1C L1C D1C S1C C7Q L7Q D7Q S7Q                      SYS / # / OBS TYPES
DBHZ                                                        COMMENT
     30.000                                                 INTERVAL
  2020    05    01    06    00    0.0000000     GPS         TIME OF FIRST OBS
  2020    05    01    06    59   30.0000000     GPS         TIME OF LAST OBS
     0                                                      RCV CLOCK OFFS APPL
G L1C  0.00000                                              SYS / PHASE SHIFT
G L2Y  0.00000                                              SYS / PHASE SHIFT
R L1C  0.00000                                              SYS / PHASE SHIFT
R L2P  0.25000                                              SYS / PHASE SHIFT
C L1I  0.00000                                              SYS / PHASE SHIFT
C L7I  0.00000                                              SYS / PHASE SHIFT
E L1C  0.50000                                              SYS / PHASE SHIFT
E L7Q -0.25000                                              SYS / PHASE SHIFT
 12 R01  1 R02 -4 R03  5 R08  6 R10 -5 R11  0 R12 -1 R13 -2 GLONASS SLOT / FRQ #
    R14 -7 R21  4 R22 -3 R23  3                             GLONASS SLOT / FRQ #
 C1C   71.950 C2C   71.950 C2P   71.950                     GLONASS COD/PHS/BIS
    18                                                      LEAP SECONDS
*** Above antenna height is from mark to ANTENNA BOTTOM.    COMMENT
    17     4        0.0000        ANT MEASURE TYPE/HEIGT    COMMENT
    0.0000    0.0000    0.0458    0.0405    0.0000          COMMENT
                    BASE STATION                            COMMENT
                                                            END OF HEADER
> 2020 05 01 06 00  0.0000000  0 16        .000000000000
G13  20237409.828 8 106348295.800 8      -683.285          51.000    20237407.570 8  82868782.532 8      -532.430          50.000
G15  20471048.188 6 107576069.963 6       964.660          36.000    20471047.836 5  83825522.342 5       751.680          35.000
G17  23567797.641 5 123849610.655 5      2395.707          31.000
G19  24738783.945 8 130003177.370 8      3437.188          48.000    24738782.586 7 101301147.080 7      2678.331          44.000
G24  22826166.086 5 119952311.482 5      2802.809          30.000
G28  21384352.641 6 112375542.851 6     -1695.867          36.000    21384350.781 6  87565396.828 6     -1321.449          36.000
R02  21524943.969 8 114861215.991 8     -3968.289          50.000    21524952.156 7  89336529.726 7     -3086.450          46.000
R03  19295217.789 8 103288829.932 8      -507.395          49.000    19295220.711 7  80335751.045 7      -394.643          47.000
R13  19304177.453 5 103083234.621 5      -316.113          33.000    19304178.961 5  80175820.847 5      -245.866          35.000
R14  21516788.094 8 114696598.996 8      2921.281          48.000    21516793.562 7  89208486.725 7      2272.108          46.000
C05  39767086.930 6 207077656.803 6        16.867          37.000    39767085.562 6 160125560.380 6        13.164          40.000
C20  22624105.211 6 117809650.855 6      -107.602          38.000
C23  23251966.969 5 121079082.909 5     -2066.102          32.000
E07  27760096.977 6 145880206.065 6     -2957.828          37.000    27760100.492 5 111778352.667 5     -2266.669          33.000
E21  24030873.453 8 126283176.066 8      1426.570          51.000    24030876.836 8  96762382.583 8      1093.089          51.000
E27  23786773.469 8 125000355.561 8     -1312.957          51.000    23786775.477 8  95779477.831 8     -1006.041          51.000
> 2020 05 01 06 00 30.0000000  0 14        .000000000000
G13  20241345.281 8 106368976.987 8      -697.508          51.000    20241343.555 8  82884897.729 8      -543.513          50.000
G15  20465580.250 5 107547336.874 5       948.641          35.000    20465579.758 5  83803132.870 5       739.194          35.000
G17  23554145.727 6 123777872.103 6      2385.902          38.000    23554143.914 6  96450282.032 6      1859.145          38.000
G19  24719155.625 8 129900028.244 8      3437.426          48.000    24719154.477 7 101220771.172 7      2678.517          43.000
G28  21394067.016 6 112426591.058 6     -1709.223          37.000    21394064.930 6  87605174.676 6     -1331.862          37.000
R02  21547281.641 8 114980404.460 8     -3979.613          50.000    21547287.109 7  89429231.817 7     -3095.258          44.000
R03  19298126.547 8 103304400.162 8      -532.656          48.000    19298129.398 8  80347861.233 8      -414.285          48.000
R13  19305994.828 5 103092937.868 5      -332.328          35.000    19305996.195 6  80183367.846 6      -258.477          36.000
R14  21500371.461 8 114609088.686 8      2910.559          49.000    21500377.695 7  89140423.118 7      2263.768          45.000
C05  39766981.367 6 207077107.104 6        18.148          36.000    39766979.961 6 160125135.349 6        13.484          40.000
C20  22624764.367 6 117813078.146 6      -123.266          39.000
E07  27776984.852 5 145968942.460 5     -2960.176          35.000    27776986.156 5 111846345.405 5     -2267.929          33.000
E21  24022749.961 8 126240488.343 8      1417.227          51.000    24022753.617 8  96729673.794 8      1085.798          51.000
E27  23794285.906 8 125039833.024 8     -1321.062          51.000    23794287.750 8  95809726.795 8     -1012.279          51.000
> 2020 05 01 06 01  0.0000000  0 15        .000000000000
G13  20245370.461 8 106390129.249 8      -712.734          51.000    20245369.086 8  82901380.003 8      -555.377          51.000
G15  20460209.078 6 107519113.418 6       932.422          37.000    20460208.930 5  83781140.617 5       726.566          35.000
G17  23540554.211 6 123706441.496 6      2375.617          37.000    23540553.273 5  96394621.839 5      1851.136          33.000
G19  24699535.656 7 129796923.599 7      3436.375          47.000    24699534.617 6 101140429.872 6      2677.692          41.000
G28  21403865.672 6 112478081.083 6     -1723.523          36.000    21403863.273 5  87645296.818 5     -1343.005          35.000
R02  21569689.352 8 115099971.216 8     -3991.660          48.000    21569692.797 7  89522228.119 7     -3104.628          43.000
R03  19301185.578 8 103320775.652 8      -558.973          48.000    19301188.906 8  80360597.731 8      -434.757          49.000
R13  19307911.383 5 103103170.828 5      -349.191          34.000    19307912.727 6  80191326.806 6      -271.596          37.000
R14  21484024.352 8 114521945.503 8      2898.934          49.000    21484029.906 7  89072645.115 7      2254.726          43.000
C05  39766878.766 6 207076572.200 6        17.902          37.000    39766877.172 6 160124721.694 6        13.913          40.000
C20  22625522.836 6 117817031.552 6      -140.266          37.000
C23  23275829.320 5 121203338.246 5     -2076.133          31.000
E07  27793891.039 5 146057779.636 5     -2962.508          33.000    27793888.211 5 111914415.509 5     -2270.533          32.000
E21  24014687.805 8 126198122.393 8      1407.160          51.000    24014691.445 8  96697211.569 8      1078.229          51.000
E27  23801851.828 8 125079591.943 8     -1329.652          51.000    23801853.758 8  95840191.419 8     -1018.836          51.000
> 2020 05 01 06 01 30.0000000  0 14        .000000000000
G13  20249485.359 8 106411752.745 8      -729.703          51.000    20249484.125 8  82918229.470 8      -568.600          51.000
G15  20454935.039 6 107491401.050 6       914.109          38.000    20454935.312 6  83759546.510 6       712.293          38.000
G19  24679924.219 7 129693866.044 7      3433.355          46.000    24679923.508 6 101060125.233 6      2675.339          39.000
G28  21413747.734 6 112530010.785 6     -1738.727          37.000    21413745.117 6  87685761.570 6     -1354.852          36.000
R02  21592166.297 7 115219912.446 7     -4005.344          45.000    21592168.867 7  89615515.706 7     -3115.270          42.000
R03  19304395.414 8 103337956.148 8      -587.227          49.000    19304398.617 8  80373960.341 8      -456.732          49.000
R13  19309926.242 5 103113931.856 5      -368.547          33.000    19309928.516 6  80199696.491 6      -286.648          37.000
R14  21467746.047 7 114435170.194 7      2885.211          46.000    21467749.281 6  89005153.228 6      2244.053          40.000
C05  39766778.969 6 207076052.893 6        15.840          36.000    39766777.211 6 160124319.348 6        12.448          39.000
C20  22626382.539 6 117821511.142 6      -159.309          38.000
C23  23287814.133 5 121265735.194 5     -2083.586          33.000
E07                                                                  27810807.547 5 111982561.947 5     -2274.044          33.000
E21  24006687.273 8 126156078.258 8      1395.004          51.000    24006690.438 8  96664995.939 8      1068.926          51.000
E27  23809471.000 8 125119630.940 8     -1340.363          51.000    23809473.039 8  95870870.639 8     -1027.020          51.000
> 2020 05 01 06 02  0.0000000  0 14        .000000000000
G13  20253683.680 8 106433814.942 8      -744.633          51.000    20253682.367 8  82935420.792 8      -580.233          51.000
G15  20449752.156 6 107464167.727 6       897.926          37.000    20449753.148 6  83738325.694 6       699.679          38.000
G19  24660315.570 7 129590825.804 7      3432.305          44.000    24660315.328 6 100979834.137 6      2674.523          41.000
G28  21423706.766 6 112582345.165 6     -1752.793          38.000    21423704.469 6  87726541.637 6     -1365.810          39.000
R02  21614706.336 7 115340191.156 7     -4016.777          45.000    21614708.836 7  89709065.789 7     -3124.160          43.000
R03  19307749.664 8 103355908.326 8      -613.137          50.000    19307752.305 8  80387923.146 8      -476.884          49.000
R13  19312033.227 5 103125185.705 5      -385.645          31.000    19312036.188 6  80208449.472 6      -299.946          37.000
R14  21451529.102 7 114348730.674 7      2873.695          45.000    21451530.406 6  88937922.529 6      2235.096          39.000
C05                                                                  39766673.758 6 160123902.962 6        12.569          39.000
C20  22627338.172 6 117826484.080 6      -175.828          40.000
C23  23299825.977 5 121328279.951 5     -2089.137          35.000
E07  27827748.523 5 146235804.172 5     -2969.820          33.000    27827740.977 5 112050758.732 5     -2275.711          33.000
E21  23998742.117 8 126114322.921 8      1385.141          51.000    23998744.562 8  96633001.598 8      1061.291          51.000
E27  23817136.867 8 125159915.645 8     -1348.836          51.000    23817138.805 8  95901738.128 8     -1033.542          51.000
> 2020 05 01 06 02 30.0000000  0 14        .000000000000
G13  20257971.094 8 106456345.172 8      -757.895          51.000    20257969.844 8  82952976.812 8      -590.567          51.000
G15  20444666.836 6 107437444.411 6       883.012          38.000    20444667.719 6  83717502.336 6       688.061          38.000
G19  24640716.023 7 129487835.550 7      3433.098          43.000    24640715.352 6 100899582.012 6      2675.144          39.000
G28  21433747.609 6 112635111.563 6     -1765.004          40.000    21433745.445 6  87767658.349 6     -1375.328          37.000
R02  21637314.883 7 115460834.764 7     -4026.570          45.000    21637318.000 7  89802899.671 7     -3131.777          44.000
R03  19311253.422 8 103374661.811 8      -637.469          50.000    19311255.797 8  80402509.192 8      -495.809          50.000
R13  19314237.766 5 103136960.731 5      -399.848          32.000    19314241.344 6  80217607.813 6      -310.993          36.000
R14  21435381.344 7 114262657.318 7      2863.957          47.000    21435382.141 6  88870976.618 6      2227.525          41.000
C05  39766574.234 6 207074987.003 6        18.152          36.000    39766572.508 6 160123495.148 6        14.091          39.000
C20  22628394.195 6 117831979.830 6      -190.945          39.000
C23  23311869.297 6 121391000.656 6     -2092.645          37.000
E07  27844702.648 5 146324902.854 5     -2970.320          35.000    27844694.922 5 112119027.576 5     -2275.966          33.000
E21  23990857.797 8 126072886.048 8      1376.898          51.000    23990859.555 8  96601251.262 8      1055.026          51.000
E27  23824854.906 8 125200474.257 8     -1355.516          51.000    23824856.719 8  95932815.485 8     -1038.612          51.000
> 2020 05 01 06 03  0.0000000  0 14        .000000000000
G13  20262340.469 8 106479305.569 8      -771.566          51.000    20262339.297 8  82970868.024 8      -601.224          51.000
G15  20439671.945 6 107411193.987 6       868.129          39.000    20439672.117 6  83697047.456 6       676.461          39.000
G19  24621119.664 7 129384860.295 7      3433.125          42.000    24621118.453 6 100819341.579 6      2675.165          40.000
G28  21443863.219 6 112688269.637 6     -1777.391          41.000    21443860.906 6  87809080.180 6     -1384.980          39.000
R02  21659983.422 7 115581800.509 7     -4036.555          45.000    21659987.625 7  89896984.139 7     -3139.543          45.000
R03  19314899.281 8 103394177.768 8      -662.262          51.000    19314901.875 8  80417688.263 8      -515.092          50.000
R13  19316532.430 5 103149216.067 5      -416.195          31.000    19316536.555 6  80227139.735 6      -323.707          37.000
R14  21419295.938 8 114176912.376 8      2853.684          48.000    21419297.055 7  88804286.124 7      2219.532          43.000
C05  39766467.703 6 207074432.628 6        20.184          37.000    39766465.945 6 160123066.494 6        15.302          39.000
C20  22629542.938 6 117837960.294 6      -206.359          39.000
C23  23323938.555 5 121453858.039 5     -2096.375          35.000
E07  27861666.305 5 146414054.169 5     -2971.672          35.000    27861661.078 5 112187338.332 5     -2277.223          33.000
E21  23983026.492 8 126031729.295 8      1368.180          51.000    23983028.078 8  96569715.573 8      1048.283          51.000
E27  23832617.570 8 125241267.101 8     -1362.734          51.000    23832619.531 8  95964072.333 8     -1044.170          51.000
> 2020 05 01 06 03 30.0000000  0 14        .000000000000
G13  20266796.602 8 106502721.820 8      -789.039          51.000    20266795.328 8  82989114.445 8      -614.836          51.000
G15  20434772.328 6 107385443.441 6       849.039          39.000    20434771.766 6  83676982.075 6       661.589          39.000
G19  24601531.930 7 129281928.491 7      3429.547          44.000    24601531.406 7 100739135.041 7      2672.377          43.000
G28  21454057.562 7 112741842.901 7     -1793.867          42.000    21454055.672 6  87850825.621 6     -1397.819          38.000
R02  21682715.953 7 115703110.782 7     -4050.016          43.000    21682721.719 7  89991336.569 7     -3150.012          44.000
R03  19318692.406 8 103414481.986 8      -690.816          51.000    19318694.906 8  80433480.412 8      -537.302          48.000
R13  19318922.289 5 103161976.434 5      -433.871          33.000    19318925.930 6  80237064.462 6      -337.455          36.000
R14  21403277.133 7 114091522.589 7      2839.609          47.000    21403280.023 7  88737871.870 7      2208.585          45.000
C05  39766360.891 6 207073876.758 6        17.445          36.000    39766359.352 6 160122636.620 6        13.719          40.000
C20  22630788.594 6 117844450.994 6      -225.656          36.000
C23  23336039.445 6 121516876.350 6     -2103.688          37.000
E07  27878645.102 5 146503284.577 5     -2976.395          35.000    27878643.211 5 112255709.691 5     -2280.701          34.000
E21  23975252.883 8 125990878.323 8      1355.797          51.000    23975254.617 8  96538414.186 8      1038.905          51.000
E27  23840429.328 8 125282318.466 8     -1373.492          51.000    23840431.500 8  95995527.267 8     -1052.407          51.000
> 2020 05 01 06 04  0.0000000  0 15        .000000000000
G05  24287133.914 5 127629749.656 5     -3633.816          30.000
G13  20271340.414 8 106526599.041 8      -803.367          51.000    20271338.953 8  83007720.070 8      -626.000          51.000
G15  20429968.625 7 107360198.353 7       833.250          42.000    20429967.609 7  83657310.600 7       649.289          42.000
G19  24581954.453 7 129179048.155 7      3428.766          45.000    24581954.852 7 100658968.561 7      2671.765          45.000
G28  21464331.508 7 112795833.980 7     -1806.500          42.000    21464330.281 6  87892896.584 6     -1407.662          38.000
R02  21705513.266 7 115824767.006 7     -4060.477          42.000    21705520.680 7  90085958.117 7     -3158.148          43.000
R03  19322633.875 8 103435579.244 8      -716.223          51.000    19322635.883 8  80449889.385 8      -557.062          48.000
R13  19321406.875 5 103175244.285 5      -450.141          32.000    19321410.781 6  80247383.880 6      -350.109          37.000
R14  21387326.164 7 114006493.701 7      2828.566          46.000    21387330.398 7  88671738.312 7      2199.996          46.000
C05  39766254.742 6 207073322.820 6        19.000          36.000    39766253.227 6 160122209.089 6        14.330          40.000
C20  22632132.461 6 117851456.402 6      -242.035          37.000
C23  23348172.930 6 121580059.187 6     -2108.539          39.000
E07  27895640.602 5 146592581.839 5     -2978.074          34.000    27895641.539 5 112324144.488 5     -2282.455          35.000
E21  23967538.281 8 125950337.900 8      1346.371          51.000    23967540.094 8  96507350.749 8      1031.647          51.000
E27  23848290.898 8 125323631.733 8     -1381.234          51.000    23848292.977 8  96027182.870 8     -1058.330          51.000
> 2020 05 01 06 04 30.0000000  0 16        .000000000000
G13  20275969.109 8 106550922.447 8      -817.238          51.000    20275967.430 8  83026673.366 8      -636.809          50.000
G15  20425258.320 6 107335445.297 6       817.762          40.000    20425257.258 6  83638022.494 6       637.214          40.000
G17  23446999.734 5 123214783.598 5      2306.699          33.000
G19  24562384.367 7 129076207.591 7      3428.434          43.000    24562385.719 7 100578833.072 7      2671.507          43.000
G28  21474681.867 6 112850225.873 6     -1818.539          39.000    21474680.297 6  87935279.881 6     -1417.040          39.000
G30  23479304.633 5 123384592.281 5     -2821.902          33.000
R02  21728373.469 7 115946750.710 7     -4070.625          44.000    21728381.117 6  90180834.380 6     -3166.042          39.000
R03  19326720.289 8 103457454.180 8      -741.188          51.000    19326722.297 8  80466903.185 8      -576.479          48.000
R13  19323983.383 5 103189003.149 5      -465.812          33.000    19323988.016 6  80258085.199 6      -362.302          37.000
R14  21371439.430 7 113921811.382 7      2817.957          44.000    21371445.102 7  88605874.282 7      2191.744          46.000
C05  39766146.266 6 207072758.287 6        20.070          36.000    39766144.750 6 160121772.550 6        15.357          40.000
C20  22633571.352 4 117858961.985 4      -257.051          29.000
C23  23360334.828 5 121643390.657 5     -2112.215          35.000
E07  27912649.328 6 146681961.918 6     -2979.543          39.000    27912652.383 5 112392630.471 5     -2283.035          35.000
E21  23959880.008 8 125910093.263 8      1337.520          51.000    23959881.820 8  96476513.955 8      1024.844          51.000
E27  23856199.422 8 125365190.758 8     -1388.430          51.000    23856201.203 8  96059026.784 8     -1063.844          51.000
> 2020 05 01 06 05  0.0000000  0 17        .000000000000
G13  20280670.164 8 106575626.336 8      -827.703          51.000    20280668.273 8  83045923.143 8      -644.963          50.000
G15  20420629.297 6 107311120.071 6       805.723          40.000    20420628.570 6  83619067.777 6       627.836          40.000
G17  23433853.586 5 123145731.069 5      2300.367          30.000    23433850.133 4  95957688.772 4      1792.497          28.000
G19  24542809.945 7 128973344.313 7      3431.047          43.000    24542811.930 7 100498679.874 7      2673.543          43.000
G24  22667743.836 5 119119801.106 5      2752.055          33.000    22667736.977 5  92820598.240 5      2144.464          33.000
G28  21485095.344 7 112904950.896 7     -1827.602          43.000    21485094.156 6  87977922.762 6     -1424.108          36.000
R02  21751283.094 7 116068992.015 7     -4076.840          45.000    21751288.055 5  90275910.894 5     -3170.882          31.000
R03  19330939.508 8 103480039.439 8      -762.574          51.000    19330941.469 7  80484469.470 7      -593.113          47.000
R12  21876855.500 4 116862234.476 4     -3376.949          29.000
R13  19326639.969 5 103203185.034 5      -477.445          34.000    19326643.383 6  80269115.546 6      -371.346          36.000
R14  21355605.188 7 113837409.993 7      2810.660          46.000    21355611.141 7  88540228.706 7      2186.066          45.000
C05  39766023.023 6 207072115.859 6        24.914          36.000    39766021.516 6 160121276.558 6        19.150          40.000
C20  22635095.469 5 117866884.379 5      -269.680          33.000
C23  23372511.430 4 121706804.381 4     -2112.090          29.000
E07  27929658.141 6 146771341.873 6     -2977.227          41.000    27929662.898 5 112461116.407 5     -2281.269          35.000
E21  23952265.188 8 125870078.616 8      1332.043          51.000    23952267.219 8  96445853.403 8      1020.626          51.000
E27  23864141.914 8 125406928.438 8     -1392.098          51.000    23864143.680 8  96091007.602 8     -1066.699          51.000
> 2020 05 01 06 05 30.0000000  0 15        .000000000000
G05  24349384.914 4 127956880.589 4     -3635.469          29.000
G13  20285474.430 8 106600872.529 8      -849.633          51.000    20285472.430 8  83065595.478 8      -662.052          49.000
G15  20416112.812 6 107287385.457 6       782.230          41.000    20416112.133 6  83600573.275 6       609.533          41.000
G19  24523262.398 7 128870622.972 7      3422.730          42.000    24523264.680 7 100418637.227 7      2667.063          43.000
G24  22652085.992 5 119037523.168 5      2738.965          35.000    22652080.023 6  92756485.651 6      2134.255          36.000
G28  21495603.070 7 112960168.708 7     -1848.105          42.000    21495602.945 6  88020949.608 6     -1440.082          37.000
R02  21774270.922 7 116191651.529 7     -4094.543          47.000    21774269.898 5  90371312.483 5     -3184.651          33.000
R03  19335321.695 8 103503499.519 8      -795.570          50.000    19335324.055 7  80502716.178 7      -618.777          47.000
R13  19329405.672 5 103217951.826 5      -501.418          33.000    19329408.578 6  80280600.865 6      -389.989          36.000
R14  21339855.320 7 113753454.218 7      2792.082          45.000    21339860.875 7  88474929.777 7      2171.622          44.000
C05  39765915.812 6 207071557.713 6        17.969          36.000    39765914.289 6 160120844.945 6        14.097          40.000
C20  22636734.555 5 117875419.688 5      -293.652          31.000
C23  23384768.078 4 121770595.693 4     -2123.996          29.000
E21  23944724.664 8 125830455.599 8      1315.262          51.000    23944727.031 8  96415492.924 8      1007.828          51.000
E27  23872148.719 8 125449005.050 8     -1407.180          51.000    23872150.641 8  96123248.119 8     -1078.205          51.000
> 2020 05 01 06 06  0.0000000  0 12        .000000000000
G13  20290377.016 8 106626635.577 8      -873.297          51.000    20290374.734 8  83085670.561 8      -680.491          48.000
G15  20411703.922 6 107264216.588 6       757.133          40.000    20411703.281 6  83582519.624 6       589.974          41.000
G19  24503737.633 6 128768021.530 6      3412.184          41.000    24503739.656 6 100338688.046 6      2658.844          41.000
G28  21506198.898 7 113015851.484 7     -1870.008          42.000    21506198.602 5  88064338.843 5     -1457.149          31.000
R02  21797331.500 8 116314699.913 8     -4114.008          49.000    21797331.031 6  90467016.733 6     -3199.784          39.000
R03  19339862.109 8 103527808.112 8      -830.371          49.000    19339864.664 7  80521622.847 7      -645.844          47.000
R13  19332275.859 5 103233276.225 5      -526.711          34.000    19332278.219 6  80292519.830 6      -409.664          36.000
R14  21324184.438 7 113669919.001 7      2771.434          43.000    21324190.008 7  88409957.939 7      2155.559          44.000
C05  39765819.750 6 207071057.478 6         9.789          36.000    39765818.180 6 160120458.123 6         7.702          39.000
C20  22638481.023 5 117884524.563 5      -319.574          32.000
E21  23937254.086 8 125791198.727 8      1296.613          51.000    23937256.586 8  96385412.992 8       993.551          51.000
E27  23880215.008 8 125491393.768 8     -1423.984          51.000    23880216.898 8  96155727.784 8     -1091.087          51.000
> 2020 05 01 06 06 30.0000000  0 14        .000000000000
G05  24390903.320 5 128175051.087 5     -3626.195          32.000    24390897.648 5  99876655.901 5     -2825.607          32.000
G13  20295344.969 8 106652742.542 8      -868.246          51.000    20295342.297 8  83106013.625 8      -676.558          48.000
G15  20407369.570 6 107241441.752 6       760.227          40.000    20407369.727 6  83564772.975 6       592.384          40.000
G19  24484203.836 7 128665369.749 7      3430.273          44.000    24484204.945 6 100258699.691 6      2672.940          41.000
G28  21516849.930 7 113071823.778 7     -1862.809          44.000    21516847.578 4  88107953.543 4     -1451.539          27.000
G30  23543884.000 5 123723924.116 5     -2825.098          32.000    23543875.320 5  96408230.746 5     -2201.375          30.000
R02  21820431.055 8 116437957.747 8     -4104.289          50.000    21820431.289 6  90562883.927 6     -3192.225          41.000
R03  19344528.211 8 103552788.516 8      -836.020          49.000    19344530.625 7  80541052.040 7      -650.237          47.000
R13  19335216.992 5 103248980.456 5      -521.988          32.000    19335219.594 6  80304734.262 6      -405.988          36.000
R14  21308559.797 7 113586629.648 7      2780.055          46.000    21308565.844 7  88345177.362 7      2162.265          43.000
C05  39765701.867 6 207070443.657 6        29.605          36.000    39765700.305 6 160119983.486 6        23.005          40.000
C20  22640306.695 6 117894027.425 6      -315.980          36.000
E21  23929820.617 8 125752134.897 8      1306.629          51.000    23929823.070 8  96355480.979 8      1001.117          51.000
E27  23888307.586 8 125533920.142 8     -1412.195          51.000    23888309.414 8  96188312.930 8     -1082.087          51.000
> 2020 05 01 06 07  0.0000000  0 16        .000000000000
G05  24411653.266 5 128284096.732 5     -3636.730          34.000    24411654.148 5  99961626.371 5     -2833.831          32.000
G13  20300394.773 8 106679280.150 8      -893.848          51.000    20300392.055 8  83126692.271 8      -696.505          48.000
G15  20403127.336 7 107219148.868 7       733.070          43.000    20403127.727 7  83547401.882 7       571.224          43.000
G19  24464678.102 7 128562757.450 7      3417.590          45.000    24464678.242 6 100178742.074 6      2663.060          41.000
G28  21527572.344 6 113128169.975 6     -1886.543          41.000    21527569.875 5  88151859.582 5     -1470.037          31.000
G30  23560061.383 5 123808944.963 5     -2837.414          33.000    23560059.414 5  96474480.907 5     -2210.975          31.000
R02  21843585.312 8 116561509.643 8     -4125.309          50.000    21843586.344 7  90658979.824 7     -3208.576          43.000
R03  19349336.477 8 103578528.482 8      -872.801          49.000    19349338.695 7  80561072.007 7      -678.845          47.000
R12  21953034.352 5 117269101.763 5     -3397.977          30.000
R13  19338244.789 5 103265150.339 5      -548.977          31.000    19338247.875 5  80317310.832 5      -426.985          35.000
R14  21292998.484 7 113503674.523 7      2757.434          47.000    21293003.039 6  88280656.761 6      2144.671          41.000
C05  39765578.570 6 207069801.788 6        19.887          36.000    39765577.000 6 160119487.138 6        15.308          40.000
C20  22642226.172 6 117904013.706 6      -342.891          38.000
C23  23421609.008 5 121962481.721 5     -2138.676          33.000
E21  23922440.539 8 125713350.559 8      1285.996          51.000    23922442.844 8  96325763.121 8       985.359          51.000
E27  23896442.422 8 125576669.289 8     -1430.797          51.000    23896444.477 8  96221068.765 8     -1096.334          51.000
> 2020 05 01 06 07 30.0000000  0 14        .000000000000
G05  24432429.641 5 128393280.765 5     -3638.234          32.000    24432431.945 5 100046704.815 5     -2834.985          30.000
G13  20305555.578 8 106706401.242 8      -909.867          51.000    20305553.273 8  83147825.573 8      -708.987          49.000
G15  20399006.250 7 107197491.848 7       714.941          43.000    20399005.844 7  83530526.304 7       557.097          42.000
G19  24445189.469 7 128460340.245 7      3414.527          46.000    24445188.766 6 100098936.541 6      2660.674          40.000
G28  21538394.359 6 113185040.707 6     -1900.520          39.000    21538393.125 5  88196174.437 5     -1480.933          34.000
R02  21866822.820 8 116685507.116 8     -4136.867          49.000    21866824.898 7  90755422.284 7     -3217.563          43.000
R03  19354315.680 8 103605183.194 8      -899.883          48.000    19354317.258 7  80581803.475 7      -699.906          47.000
R13  19341388.695 5 103281939.280 5      -566.129          32.000    19341391.445 5  80330368.850 5      -440.326          35.000
R14  21277529.023 7 113421209.577 7      2744.320          46.000    21277531.844 7  88216517.445 7      2134.474          42.000
C05  39765479.039 6 207069283.414 6        18.957          36.000    39765477.445 6 160119086.296 6        14.692          40.000
C20  22644266.555 6 117914634.846 6      -360.887          38.000
C23  23433957.930 4 122026770.105 4     -2143.918          29.000
E21  23915142.711 8 125674998.574 8      1275.082          51.000    23915144.477 8  96296376.529 8       977.011          51.000
E27  23904648.430 8 125619792.756 8     -1439.785          51.000    23904650.734 8  96254111.422 8     -1103.224          51.000
> 2020 05 01 06 08  0.0000000  0 15        .000000000000
G05  24453205.062 5 128502464.712 5     -3640.469          34.000    24453203.688 5 100131802.249 5     -2836.726          34.000
G13  20310797.906 8 106733950.868 8      -927.086          51.000    20310795.992 8  83169292.810 8      -722.405          50.000
G15  20394976.844 7 107176316.667 7       696.387          43.000    20394976.141 7  83514026.181 7       542.639          43.000
G19  24425709.164 7 128357967.094 7      3410.133          46.000    24425707.547 6 100019165.261 6      2657.246          39.000
G24  22574307.852 5 118628797.714 5      2707.621          35.000    22574312.266 5  92438040.716 5      2109.832          32.000
G28  21549286.711 6 113242279.526 6     -1916.152          41.000    21549285.570 5  88240775.998 5     -1493.106          33.000
R02  21890113.391 7 116809789.431 7     -4149.211          47.000    21890116.211 7  90852086.338 7     -3227.161          42.000
R03  19359436.469 8 103632594.172 8      -927.930          50.000    19359437.633 8  80603123.127 8      -721.723          48.000
R13  19344618.789 5 103299188.408 5      -585.066          31.000    19344622.125 5  80343784.897 5      -455.052          35.000
R14  21262120.742 7 113339078.456 7      2730.375          44.000    21262124.391 7  88152637.671 7      2123.625          44.000
C05  39765373.711 6 207068734.942 6        17.223          36.000    39765372.156 6 160118662.178 6        13.408          39.000
C20  22646398.633 6 117925737.121 6      -379.699          38.000
C23  23446333.055 5 122091208.854 5     -2152.027          31.000
E21  23907897.328 8 125636923.959 8      1263.059          51.000    23907898.703 8  96267202.460 8       967.816          51.000
E27  23912895.961 8 125663134.249 8     -1449.789          51.000    23912898.352 8  96287321.137 8     -1110.910          51.000
> 2020 05 01 06 08 30.0000000  0 16        .000000000000
G13  20316126.453 8 106761953.546 8      -938.414          51.000    20316124.945 8  83191113.077 8      -731.232          50.000
G15  20391044.117 7 107155648.892 7       683.070          45.000    20391043.336 7  83497921.414 7       532.266          45.000
G17  23343650.062 5 122671702.473 5      2220.285          31.000
G19  24406242.008 7 128255665.527 7      3411.348          44.000    24406239.984 6  99939449.712 6      2658.190          39.000
G24  22558871.984 5 118547672.080 5      2706.285          32.000
G28  21560253.180 6 113299908.326 6     -1924.641          39.000    21560252.266 5  88285681.479 5     -1499.720          33.000
G30  23608763.508 5 124064873.481 5     -2845.062          32.000
R02  21913460.852 7 116934378.025 7     -4155.305          45.000    21913465.203 6  90948988.640 6     -3231.901          40.000
R03  19364703.609 8 103660785.864 8      -950.066          51.000    19364704.023 8  80625050.010 8      -738.941          48.000
R13  19347939.547 5 103316920.141 5      -596.961          30.000    19347942.594 5  80357576.254 5      -464.303          34.000
R14  21246780.070 7 113257306.544 7      2722.539          45.000    21246784.922 7  88089037.257 7      2117.530          45.000
C05  39765267.242 6 207068180.458 6        21.629          36.000    39765265.688 6 160118233.431 6        16.338          39.000
C20  22648628.328 6 117937344.511 6      -392.965          39.000
C23  23458737.758 5 122155793.174 5     -2152.098          30.000
E21  23900709.008 8 125599151.028 8      1256.691          51.000    23900710.539 8  96238259.565 8       962.916          51.000
E27  23921189.391 8 125706716.806 8     -1454.129          51.000    23921191.758 8  96320715.562 8     -1114.218          51.000
> 2020 05 01 06 09  0.0000000  0 16        .000000000000
G13  20321544.109 8 106790424.717 8      -963.875          50.000    20321542.828 8  83213298.399 8      -751.071          50.000
G15  20387211.055 7 107135505.138 7       655.656          45.000    20387210.297 7  83482224.984 7       510.901          45.000
G17  23331021.438 5 122605337.638 5      2199.297          33.000    23331017.062 5  95536627.295 5      1713.738          31.000
G19  24386791.844 7 128153453.581 7      3398.426          46.000    24386789.602 6  99859804.008 6      2648.121          40.000
G28  21571296.109 6 113357940.073 6     -1948.250          40.000    21571294.484 5  88330901.009 5     -1518.120          33.000
G30  23625031.477 5 124150359.596 5     -2858.457          33.000
R02  21936868.016 7 117059285.073 7     -4175.957          44.000    21936874.461 6  91046138.674 6     -3247.961          36.000
R03  19370119.602 8 103689773.575 8      -986.621          51.000    19370119.531 8  80647595.997 8      -767.372          48.000
R13  19351353.117 4 103335145.592 4      -623.805          28.000    19351356.047 5  80371754.336 5      -485.178          34.000
R14  21231510.234 7 113175910.301 7      2699.953          42.000    21231515.695 7  88025729.082 7      2099.964          44.000
C05  39765162.516 6 207067635.239 6        10.961          36.000    39765160.992 6 160117811.796 6         8.702          40.000
C20  22650958.398 7 117949472.070 7      -419.840          42.000
C23  23471171.477 5 122220537.199 5     -2167.969          30.000
E01  27705688.047 7 145594372.372 7      2765.191          42.000    27705690.953 7 111559335.641 7      2118.768          43.000
E21  23893581.398 8 125561695.206 8      1236.312          51.000    23893582.883 8  96209559.643 8       947.343          51.000
E27  23929531.406 8 125750554.512 8     -1472.438          51.000    23929533.727 8  96354305.495 8     -1128.231          51.000
> 2020 05 01 06 09 30.0000000  0 17        .000000000000
G13  20327045.203 8 106819334.086 8      -970.258          50.000    20327043.953 8  83235825.192 8      -756.045          50.000
G15  20383472.016 7 107115856.239 7       647.387          46.000    20383471.414 7  83466914.144 7       504.454          46.000
G17  23318451.992 4 122539292.604 4      2196.738          29.000    23318447.086 4  95485147.559 4      1711.741          26.000
G19  24367353.859 7 128051304.752 7      3404.488          47.000    24367351.344 6  99780207.466 6      2652.845          40.000
G28  21582409.648 7 113416342.441 7     -1952.543          42.000    21582408.328 5  88376409.256 5     -1521.462          34.000
G30  23641306.547 4 124235903.858 4     -2851.871          29.000
R02  21960328.234 7 117184476.279 7     -4177.133          42.000    21960337.211 5  91143509.778 5     -3248.875          34.000
R03  19375677.930 8 103719525.451 8     -1003.734          51.000    19375677.789 8  80670736.358 8      -780.682          48.000
R12  22048734.633 5 117780369.062 5     -3415.434          30.000
R13  19354854.031 5 103353837.710 5      -630.766          30.000    19354857.258 5  80386293.802 5      -490.595          35.000
R14  21216304.875 6 113094859.719 6      2696.637          41.000    21216310.547 7  87962689.741 7      2097.381          43.000
C05  39765053.961 6 207067069.193 6        20.059          36.000    39765052.273 6 160117374.085 6        15.372          39.000
C20  22653382.914 7 117962089.541 7      -428.164          44.000
C23  23483628.805 6 122285409.810 6     -2163.719          37.000
E01  27689869.195 7 145511244.929 7      2769.891          42.000    27689872.000 7 111495640.585 7      2122.390          44.000
E21  23886508.633 8 125524526.135 8      1234.832          51.000    23886509.773 8  96181079.432 8       946.152          51.000
E27  23937916.094 8 125794615.701 8     -1471.801          51.000    23937918.344 8  96388066.665 8     -1127.737          51.000
> 2020 05 01 06 10  0.0000000  0 14        .000000000000
G13  20332638.562 8 106848727.696 8      -987.551          51.000    20332637.281 8  83258729.294 8      -769.520          49.000
G15  20379835.992 7 107096749.349 7       628.172          45.000    20379835.211 7  83452025.670 7       489.485          45.000
G19  24347937.023 7 127949267.959 7      3399.848          47.000    24347935.367 6  99700698.283 6      2649.232          41.000
G28  21593602.141 6 113475159.656 6     -1967.535          37.000    21593601.188 6  88422240.796 6     -1533.147          36.000
R02  21983850.172 7 117309994.877 7     -4188.934          43.000    21983859.023 6  91241135.462 6     -3258.059          38.000
R03  19381387.203 8 103750088.274 8     -1031.898          51.000    19381387.703 8  80694507.424 8      -802.591          48.000
R13  19358450.094 5 103373040.042 5      -649.266          30.000    19358453.289 5  80401228.933 5      -504.984          35.000
R14  21201174.219 7 113014202.124 7      2682.484          44.000    21201178.758 6  87899956.047 6      2086.377          41.000
C05  39764950.039 6 207066527.961 6        18.293          36.000    39764948.312 6 160116955.584 6        13.801          39.000
C20  22655909.234 6 117975242.412 6      -446.961          41.000
C23  23496120.414 5 122350455.462 5     -2170.543          35.000
E01  27674077.641 7 145428260.596 7      2764.219          44.000    27674080.367 7 111432055.207 7      2117.957          43.000
E21  23879498.922 8 125487689.817 8      1222.695          51.000    23879500.000 8  96152854.213 8       936.841          51.000
E27  23946351.828 8 125838945.145 8     -1481.766          51.000    23946354.086 8  96422033.375 8     -1135.343          51.000
> 2020 05 01 06 10 30.0000000  0 15        .000000000000
G13  20338306.461 8 106878512.570 8     -1001.254          51.000    20338305.320 8  83281938.274 8      -780.195          50.000
G15  20376285.422 7 107078092.228 7       612.715          44.000    20376284.555 7  83437487.636 7       477.437          44.000
G19  24328524.219 7 127847253.436 7      3398.359          45.000    24328522.578 6  99621206.502 6      2648.075          40.000
G28  21604854.938 6 113534295.912 6     -1978.371          40.000    21604854.062 6  88468321.048 6     -1541.588          37.000
R02  22007416.000 6 117435743.290 6     -4197.152          41.000    22007423.391 6  91338939.807 6     -3264.449          40.000
R03  19387229.680 8 103781366.302 8     -1056.324          51.000    19387230.930 7  80718834.749 7      -821.586          47.000
R12  22087129.797 5 117985471.813 5     -3421.344          33.000
R13  19362123.422 5 103392655.516 5      -662.918          30.000    19362126.680 5  80416485.413 5      -515.603          35.000
R14  21186099.945 7 112933844.065 7      2671.645          42.000    21186102.719 6  87837455.333 6      2077.946          39.000
C05  39764833.055 6 207065919.405 6        19.258          36.000    39764831.391 6 160116484.971 6        15.127          39.000
C20  22658519.953 7 117988838.188 7      -462.355          43.000
C23  23508627.406 5 122415591.195 5     -2174.117          30.000
E01  27658295.469 7 145345326.970 7      2761.906          42.000    27658298.297 7 111368508.696 7      2116.161          44.000
E21  23872534.602 8 125451093.162 8      1214.102          51.000    23872535.984 8  96124812.638 8       930.253          51.000
E27  23954820.516 8 125883448.432 8     -1488.105          51.000    23954822.703 8  96456133.301 8     -1140.273          51.000
> 2020 05 01 06 11  0.0000000  0 15        .000000000000
G13  20344068.922 8 106908794.227 8     -1017.766          51.000    20344067.883 8  83305534.349 8      -793.064          49.000
G15  20372840.766 7 107059991.209 7       593.879          46.000    20372839.719 7  83423382.948 7       462.763          46.000
G19  24309135.648 6 127745369.948 6      3393.566          41.000    24309132.984 6  99541816.825 6      2644.341          36.000
G28  21616188.461 6 113593854.747 6     -1992.871          38.000    21616188.320 6  88514730.468 6     -1552.890          38.000
R02  22031043.578 5 117561824.478 5     -4208.617          35.000    22031050.516 6  91437002.957 6     -3273.372          40.000
R03  19393225.961 8 103813466.136 8     -1083.824          51.000    19393227.297 7  80743801.268 7      -842.977          45.000
R12  22106354.992 5 118088175.861 5     -3425.352          31.000
R13  19365894.039 4 103412788.908 4      -679.758          29.000    19365896.969 5  80432144.683 5      -528.701          34.000
R14  21171101.266 7 112853892.915 7      2658.293          42.000    21171102.289 6  87775271.145 6      2067.561          37.000
C05  39764723.242 6 207065347.672 6        18.582          36.000    39764721.633 6 160116042.890 6        14.142          40.000
C20  22661236.109 7 118002980.884 7      -480.711          42.000
C23  23521134.164 4 122480754.046 4     -2179.719          29.000
E01  27642542.898 7 145262550.065 7      2756.328          42.000    27642545.797 7 111305082.250 7      2112.105          43.000
E21  23865636.219 8 125414841.398 8      1202.504          51.000    23865637.812 8  96097035.314 8       921.360          51.000
E27  23963342.047 8 125928229.519 8     -1497.484          51.000    23963343.969 8  96490446.089 8     -1147.411          51.000
> 2020 05 01 06 11 30.0000000  0 16        .000000000000
G13  20349907.328 8 106939475.267 8     -1032.254          51.000    20349906.547 8  83329441.628 8      -804.354          50.000
G15  20369483.742 7 107042350.261 7       577.434          46.000    20369482.836 7  83409636.758 7       449.948          46.000
G19  24289754.023 6 127643523.504 6      3391.262          41.000    24289750.703 6  99462455.982 6      2642.539          38.000
G24  22466894.461 5 118064318.883 5      2666.535          33.000    22466898.141 5  91998155.948 5      2077.820          30.000
G28  21627583.539 6 113653736.695 6     -2004.551          39.000    21627584.047 6  88561391.794 6     -1561.985          38.000
G30  23706587.773 5 124578956.096 5     -2864.434          30.000
R03  19399357.195 8 103846287.877 8     -1108.996          51.000    19399358.500 7  80769329.233 7      -862.556          45.000
R12  22125587.555 4 118190909.268 4     -3427.520          29.000    22125589.570 4  91926271.233 4     -2665.849          24.000
R13  19369742.164 4 103433341.891 4      -694.867          28.000    19369745.500 5  80448128.794 5      -540.452          33.000
R14  21156160.930 7 112774251.052 7      2646.531          43.000    21156161.617 6  87713327.484 6      2058.413          39.000
C05  39764602.062 6 207064716.525 6        19.289          36.000    39764600.406 6 160115554.820 6        14.943          40.000
C20  22664037.984 6 118017573.965 6      -496.980          41.000
C23  23533721.102 5 122546148.350 5     -2184.504          34.000
E01  27626801.797 6 145179833.510 6      2753.215          38.000    27626804.703 7 111241702.052 7      2109.789          43.000
E21  23858784.977 8 125378837.251 8      1193.152          51.000    23858787.016 8  96069447.729 8       914.234          51.000
E27  23971897.742 8 125973189.883 8     -1504.488          51.000    23971899.594 8  96524896.230 8     -1152.757          51.000
> 2020 05 01 06 12  0.0000000  0 14        .000000000000
G13  20355855.734 8 106970734.814 8     -1045.766          51.000    20355854.945 8  83353799.699 8      -814.885          50.000
G15  20366248.570 7 107025349.662 7       561.773          46.000    20366248.242 7  83396389.524 7       437.746          46.000
G19  24270414.773 7 127541896.666 7      3389.602          42.000    24270411.195 6  99383266.265 6      2641.248          41.000
G28  21639073.883 7 113714118.848 7     -2015.273          42.000    21639074.000 6  88608442.779 6     -1570.346          39.000
R02  22078462.336 6 117814894.084 6     -4224.949          40.000    22078464.586 6  91633839.377 6     -3286.069          37.000
R03  19405657.758 8 103880013.247 8     -1133.250          51.000    19405658.633 7  80795560.039 7      -881.420          45.000
R12  22144868.461 5 118293872.954 5     -3428.980          31.000    22144861.719 4  92006347.003 4     -2666.979          27.000
R14  21141312.844 7 112695100.597 7      2636.094          42.000    21141315.039 6  87651766.028 6      2050.295          41.000
C05  39764503.578 6 207064203.462 6        20.770          36.000    39764501.859 6 160115158.079 6        16.154          39.000
C20  22666960.773 7 118032794.658 7      -512.219          43.000
C23  23546345.617 4 122611804.688 4     -2187.602          28.000
E01  27611105.844 5 145097357.224 5      2751.562          33.000    27611109.242 6 111178505.959 6      2107.900          41.000
E21  23852014.719 8 125343259.804 8      1184.609          51.000    23852017.484 8  96042187.099 8       907.673          51.000
E27  23980521.406 8 126018507.359 8     -1510.766          51.000    23980523.531 8  96559620.002 8     -1157.570          51.000
> 2020 05 01 06 12 30.0000000  0 15        .000000000000
G13  20361864.789 8 107002312.908 8     -1063.207          51.000    20361863.875 8  83378406.002 8      -828.473          49.000
G15  20363085.984 7 107008730.340 7       542.340          46.000    20363085.891 7  83383439.387 7       422.602          47.000
G19  24251069.094 7 127440232.485 7      3384.047          46.000    24251066.102 7  99304047.500 7      2636.920          43.000
G24  22436527.609 6 117904751.296 6      2652.590          37.000    22436533.336 6  91873858.256 6      2066.959          36.000
G28  21650609.883 6 113774738.775 6     -2029.918          41.000    21650609.391 6  88655679.057 6     -1581.757          40.000
G30  23739320.359 5 124750965.072 5     -2871.379          31.000
R02  22102240.273 7 117941756.826 7     -4236.434          43.000    22102237.125 5  91732510.410 5     -3295.004          33.000
R03  19412077.359 8 103914376.821 8     -1161.469          50.000    19412078.094 7  80822287.228 7      -903.368          45.000
R14  21126506.758 6 112616178.537 6      2621.984          37.000    21126510.938 6  87590382.254 6      2039.327          41.000
C05  39764378.258 6 207063550.805 6        18.855          36.000    39764376.516 6 160114653.397 6        14.595          39.000
C20  22669954.250 7 118048385.082 7      -531.168          43.000
C23  23558909.656 5 122677421.757 5     -2193.855          32.000
E01  27595406.641 5 145014839.958 5      2745.145          31.000    27595410.422 6 111115295.297 6      2103.150          40.000
E21  23845276.203 8 125307849.042 8      1172.266          51.000    23845279.547 8  96015054.166 8       898.224          51.000
E27  23989163.258 8 126063920.652 8     -1520.707          51.000    23989165.609 8  96594417.197 8     -1165.178          51.000
> 2020 05 01 06 13  0.0000000  0 15        .000000000000
G13  20367975.734 8 107034426.447 8     -1077.250          50.000    20367974.859 8  83403429.521 8      -839.419          50.000
G15  20360037.430 8 106992710.246 8       526.215          48.000    20360037.273 8  83370956.197 8       410.038          48.000
G19  24231758.398 7 127338751.020 7      3381.855          46.000    24231756.484 7  99224971.055 7      2635.212          45.000
G24  22421397.211 5 117825244.044 5      2647.547          34.000    22421396.641 5  91811904.440 5      2063.017          34.000
G28  21662231.898 7 113835811.326 7     -2041.047          43.000    21662230.453 6  88703268.062 6     -1590.426          39.000
R02  22126083.102 7 118068978.416 7     -4244.402          42.000    22126076.578 4  91831432.018 4     -3301.205          25.000
R03  19418656.969 8 103949598.600 8     -1186.117          49.000    19418657.320 7  80849681.939 7      -922.536          44.000
R13  19381849.898 5 103497995.933 5      -740.980          30.000    19381850.766 5  80498460.488 5      -576.321          32.000
R14  21111784.883 6 112537705.681 6      2610.387          38.000    21111789.352 6  87529347.952 6      2030.307          40.000
C05  39764267.477 6 207062973.536 6        19.980          36.000    39764265.641 6 160114206.997 6        15.547          40.000
C20  22673060.328 7 118064559.729 7      -546.695          44.000
C23  23571560.891 5 122743303.131 5     -2196.984          30.000
E01  27579749.805 5 144932564.328 5      2741.707          35.000    27579750.031 6 111052236.736 6      2101.013          39.000
E21  23838610.484 8 125272821.726 8      1163.266          51.000    23838614.352 8  95988215.045 8       891.330          51.000
E27  23997864.359 8 126109645.278 8     -1527.246          51.000    23997866.523 8  96629452.947 8     -1170.234          51.000
> 2020 05 01 06 13 30.0000000  0 18        .000000000000
G13  20374170.211 8 107066978.775 8     -1094.391          51.000    20374169.445 8  83428794.967 8      -852.772          50.000
G15  20357084.672 8 106977193.694 8       506.684          48.000    20357084.742 7  83358865.376 7       394.818          47.000
G17  23220275.586 5 122023370.252 5      2100.883          35.000    23220288.016 5  95083172.349 5      1637.048          33.000
G19  24212464.195 7 127237358.946 7      3376.133          46.000    24212463.648 7  99145964.321 7      2630.756          45.000
G24  22406300.234 6 117745908.337 6      2639.488          36.000    22406300.555 6  91750084.449 6      2056.753          36.000
G28  21673921.336 7 113897237.734 7     -2055.574          44.000    21673919.352 6  88751132.757 6     -1601.746          38.000
R02  22149971.930 6 118196456.662 6     -4255.602          38.000
R03  19425378.281 8 103985578.968 8     -1214.121          48.000    19425378.258 7  80877666.688 7      -944.316          45.000
R12  22202723.938 5 118602924.089 5     -3440.180          32.000
R13  19386058.391 4 103520471.623 4      -758.270          29.000    19386062.109 5  80515945.107 5      -589.762          33.000
R14  21097130.008 6 112459584.616 6      2596.164          40.000    21097134.281 7  87468587.117 7      2019.239          42.000
C05  39764152.703 6 207062376.776 6        18.086          36.000    39764150.852 6 160113744.734 6        14.157          39.000
C20  22676260.500 7 118081222.496 7      -565.555          44.000
C23  23584236.320 6 122809300.814 6     -2203.859          36.000
E01  27564109.711 6 144850369.993 6      2736.137          38.000    27564109.742 6 110989256.683 6      2096.401          38.000
E19  24085945.195 6 126572500.845 6       670.473          39.000    24085945.852 5  96984122.571 5       513.365          34.000
E21  23831999.445 8 125238081.056 8      1151.246          51.000    23832003.445 8  95961595.590 8       882.118          51.000
E27  24006606.156 8 126155583.271 8     -1536.844          51.000    24006607.859 8  96664652.175 8     -1177.564          51.000
> 2020 05 01 06 14  0.0000000  0 16        .000000000000
G13  20380463.938 8 107100052.667 8     -1113.609          51.000    20380463.156 8  83454566.843 8      -867.748          50.000
G15  20354243.688 8 106962264.683 8       485.492          48.000    20354243.547 8  83347232.367 8       378.306          48.000
G17  23208320.180 6 121960543.155 6      2084.332          37.000    23208342.508 5  95034216.323 5      1624.158          34.000
G19  24193203.305 7 127136142.555 7      3368.523          45.000    24193203.062 7  99067094.427 7      2624.823          44.000
G28  21685693.320 7 113959098.710 7     -2071.621          42.000    21685691.906 6  88799336.089 6     -1614.247          38.000
R02  22173921.727 6 118324272.555 6     -4268.281          38.000    22173937.227 5  92030090.175 5     -3319.771          32.000
R03  19432256.836 8 104022401.902 8     -1243.918          48.000    19432256.562 7  80906306.752 7      -967.492          44.000
R13  19390368.664 5 103543480.684 5      -778.512          32.000    19390372.273 5  80533836.176 5      -605.509          32.000
R14  21082557.828 7 112381900.381 7      2579.637          42.000    21082561.531 7  87408166.025 7      2006.381          42.000
C05  39764049.836 6 207061840.735 6        14.570          36.000    39764047.906 6 160113330.225 6        11.427          39.000
C20  22679569.734 7 118098455.252 7      -586.523          42.000
C23  23596950.984 5 122875500.345 5     -2211.941          32.000
E01  27548505.195 6 144768361.867 6      2728.066          41.000    27548505.562 6 110926419.295 6      2090.477          38.000
E19  24082155.523 6 126552578.926 6       654.211          39.000    24082154.141 5  96968857.718 5       501.599          34.000
E21  23825459.227 8 125203710.030 8      1137.109          51.000    23825462.820 8  95935259.366 8       871.274          51.000
E27  24015404.078 8 126201816.324 8     -1548.477          51.000    24015405.570 8  96700077.483 8     -1186.453          51.000
> 2020 05 01 06 14 30.0000000  0 16        .000000000000
G13  20386837.227 8 107133544.068 8     -1122.605          51.000    20386836.430 8  83480664.023 8      -874.761          50.000
G15  20351494.859 8 106947819.976 8       474.250          49.000    20351494.492 8  83335976.750 8       369.545          49.000
G17  23196426.844 6 121898041.300 6      2078.617          37.000    23196454.953 5  94985603.362 5      1619.674          33.000
G19  24173956.172 7 127035001.199 7      3370.852          45.000    24173956.281 7  98988283.037 7      2626.638          43.000
G28  21697527.492 7 114021287.950 7     -2077.480          43.000    21697526.008 6  88847795.271 6     -1618.816          38.000
R02  22197916.117 6 118452317.186 6     -4271.172          41.000    22197928.195 6  92129680.441 6     -3322.023          36.000
R03  19439272.781 8 104059960.150 8     -1263.316          49.000    19439272.188 7  80935518.751 7      -982.576          45.000
R13  19394758.148 5 103566918.619 5      -787.938          32.000    19394760.094 5  80552065.651 5      -612.837          33.000
R14  21068047.031 6 112304547.937 6      2573.602          38.000    21068050.781 6  87348002.929 6      2001.684          40.000
C05  39763938.922 6 207061263.451 6        20.613          36.000    39763937.016 6 160112883.837 6        15.973          39.000
C20  22682968.055 6 118116154.602 6      -596.719          40.000
C23  23609683.695 5 122941797.486 5     -2210.496          34.000
E01  27532916.078 7 144686436.636 7      2730.266          43.000    27532917.625 6 110863645.465 6      2091.959          38.000
E19  24078425.992 6 126532973.718 6       648.855          40.000    24078424.648 5  96953835.546 5       497.405          35.000
E21  23818969.609 8 125169604.557 8      1133.180          51.000    23818972.602 8  95909126.608 8       868.290          51.000
E27  24024238.000 8 126248239.140 8     -1549.852          51.000    24024239.711 8  96735648.213 8     -1187.593          51.000
> 2020 05 01 06 15  0.0000000  0 17        .000000000000
G13  20393287.914 8 107167441.923 8     -1138.055          51.000    20393286.977 8  83507077.924 8      -886.799          50.000
G15  20348836.359 8 106933849.751 8       456.445          49.000    20348835.992 8  83325090.856 8       355.672          49.000
G17  23184592.656 5 121835856.841 5      2066.398          35.000    23184585.828 6  94937016.663 6      1610.181          36.000
G19  24154722.453 7 126933927.594 7      3366.676          46.000    24154722.031 7  98909524.424 7      2623.387          43.000
G28  21709421.820 7 114083792.642 7     -2090.035          43.000    21709419.469 6  88896500.168 6     -1628.599          39.000
R02  22221951.625 6 118580575.662 6     -4280.328          41.000    22221961.242 6  92229437.052 6     -3329.144          38.000
R03  19446424.023 8 104098241.720 8     -1289.367          51.000    19446423.688 7  80965293.305 7     -1002.841          47.000
R12  22260720.469 5 118912741.906 5     -3445.207          33.000
R13  19399224.914 5 103590768.672 5      -803.805          33.000    19399227.867 5  80570615.714 5      -625.181          35.000
R14  21053593.469 6 112227517.001 6      2560.859          40.000    21053599.359 6  87288089.887 6      1991.780          38.000
C05  39763818.133 6 207060633.904 6        20.801          36.000    39763816.141 6 160112397.021 6        15.888          39.000
C20  22686454.172 6 118134309.283 6      -613.996          41.000
C23  23622431.109 4 123008198.401 4     -2215.824          29.000
