     3.02           OBSERVATION DATA    M (MIXED)           RINEX VERSION / TYPE
SAVERINEX           SC600               20200509 075930 LCL PGM / RUN BY / DATE
       G = GPS       R = GLONASS       C = COMPASS          COMMENT
       S = SBAS      J = QZSS          E = GALILEO          COMMENT
BEAN                                                        MARKER NAME
1                                                           MARKER NUMBER
GEODETIC                                                    MARKER TYPE
Unige DICCA         GTER                                    OBSERVER / AGENCY
SC60291900056       SC600               2.12(191226)        REC # / TYPE / VERS
                    HEMA45          NONE                    ANT # / TYPE
  4509407.8091   693652.4678  4442337.6214                  APPROX POSITION XYZ
        0.0000        0.0000        0.0000                  ANTENNA: DELTA H/E/N
G    8 C1C L1C D1C S1C C2Y L2Y D2Y S2Y                      SYS / # / OBS TYPES
R    8 C1C L1C D1C S1C C2P L2P D2P S2P                      SYS / # / OBS TYPES
C    8 C1I L1I D1I S1I C7I L7I D7I S7I                      SYS / # / OBS TYPES
E    8 C1C L1C D1C S1C C7Q L7Q D7Q S7Q                      SYS / # / OBS TYPES
DBHZ                                                        COMMENT
     30.000                                                 INTERVAL
  2020    05    09    05    00    0.0000000     GPS         TIME OF FIRST OBS
  2020    05    09    05    59   30.0000000     GPS         TIME OF LAST OBS
     0                                                      RCV CLOCK OFFS APPL
G L1C  0.00000                                              SYS / PHASE SHIFT
G L2Y  0.00000                                              SYS / PHASE SHIFT
R L1C  0.00000                                              SYS / PHASE SHIFT
R L2P  0.25000                                              SYS / PHASE SHIFT
C L1I  0.00000                                              SYS / PHASE SHIFT
C L7I  0.00000                                              SYS / PHASE SHIFT
E L1C  0.50000                                              SYS / PHASE SHIFT
E L7Q -0.25000                                              SYS / PHASE SHIFT
 12 R01  1 R02 -4 R03  5 R08  6 R10 -5 R11  0 R12 -1 R13 -2 GLONASS SLOT / FRQ #
    R14 -7 R21  4 R22 -3 R23  3                             GLONASS SLOT / FRQ #
 C1C   71.950 C2C   71.950 C2P   71.950                     GLONASS COD/PHS/BIS
    18                                                      LEAP SECONDS
*** Above antenna height is from mark to ANTENNA BOTTOM.    COMMENT
    17     4        0.0000        ANT MEASURE TYPE/HEIGT    COMMENT
    0.0000    0.0000    0.0458    0.0405    0.0000          COMMENT
                    BASE STATION                            COMMENT
                                                            END OF HEADER
> 2020 05 09 05 00  0.0000000  0 17        .000000000000
G05  23029816.578 6 121022484.424 6     -3396.012          39.000    23029819.648 6  94303231.359 6     -2646.246          39.000
G13  20150818.430 8 105893262.110 8       115.547          50.000    20150816.828 8  82514211.503 8        90.037          50.000
G17  24383325.570 5 128135221.626 5      2777.250          33.000    24383326.023 5  99845627.303 5      2164.091          31.000
G28  20988631.773 8 110296019.176 8      -831.633          51.000    20988630.234 8  85944958.147 8      -648.026          48.000
G30  22506840.812 6 118274245.721 6     -2568.145          36.000    22506874.516 5  92161890.500 5     -2001.167          33.000
R02  20419143.484 8 108960444.578 8     -3143.480          51.000    20419146.469 7  84747036.424 7     -2444.929          47.000
R03  19357790.945 7 103623779.252 7       893.613          43.000    19357792.789 6  80596262.882 6       695.033          39.000
R12  20709070.844 6 110624031.855 6     -2958.645          37.000    20709042.352 5  86040882.362 5     -2301.171          33.000
R13  19359960.586 6 103381112.046 6       690.625          40.000    19359964.281 7  80407499.251 7       537.153          43.000
R14  22513414.250 8 120009166.393 8      3501.387          48.000    22513421.805 7  93340478.049 7      2723.301          46.000
C05  39783059.523 5 207160830.825 5        17.297          35.000    39783058.695 6 160189877.549 6        13.209          39.000
C23  22593762.016 8 117651674.539 8      1529.250          50.000
C25  22149310.469 8 115337321.848 8     -1256.246          51.000
E02  24997647.156 8 131363501.532 8      2337.816          51.000    24997650.133 8 100655215.365 8      1791.245          51.000
E03  23384526.672 8 122886526.006 8      -376.602          51.000    23384529.172 8  94159810.721 8      -288.565          51.000
E05  25982774.461 8 136540369.613 8     -2559.250          49.000    25982769.836 7 104621871.234 7     -1961.074          45.000
E25  23466579.539 8 123317773.068 8      -184.910          51.000    23466580.977 8  94490225.420 8      -141.660          51.000
> 2020 05 09 05 00 30.0000000  0 16        .000000000000
G05  23049228.125 7 121124485.992 7     -3403.266          42.000    23049232.750 7  94382713.080 7     -2651.895          42.000
G13  20150205.406 8 105890040.483 8       100.289          50.000    20150203.602 8  82511701.142 8        78.147          49.000
G24  23719502.414 5 124646826.247 5      3074.797          32.000
G28  20993435.250 8 110321261.402 8      -849.887          51.000    20993433.617 8  85964627.398 8      -662.249          48.000
G30  22521523.000 5 118351399.054 5     -2574.387          35.000    22521554.797 6  92222008.353 6     -2006.028          36.000
R02  20436871.812 8 109055048.051 8     -3162.090          49.000    20436874.617 7  84820616.892 7     -2459.403          46.000
R03  19352857.789 7 103597372.637 7       868.328          43.000    19352859.539 6  80575724.367 6       675.366          39.000
R13  19356143.047 6 103360727.466 6       670.004          41.000    19356146.812 7  80391644.541 7       521.111          43.000
R14  22493742.836 7 119904303.184 7      3490.883          46.000    22493749.531 7  93258917.740 7      2715.131          47.000
C05  39782968.148 5 207160354.810 5        15.469          35.000    39782967.281 6 160189509.425 6        12.436          39.000
C23  22584987.414 8 117605980.713 8      1518.336          51.000
C25  22156580.555 8 115375179.230 8     -1266.234          51.000
E02  24984331.719 8 131293526.901 8      2328.473          51.000    24984333.953 8 100601598.442 8      1784.208          51.000
E03  23386715.875 8 122898030.325 8      -389.070          51.000    23386718.602 8  94168625.706 8      -298.098          51.000
E05  25997408.484 8 136617275.967 8     -2566.512          49.000    25997404.531 7 104680799.469 7     -1966.572          45.000
E25  23467675.641 8 123323531.656 8      -197.621          51.000    23467676.852 8  94494637.845 8      -151.418          51.000
> 2020 05 09 05 01  0.0000000  0 16        .000000000000
G05  23068652.312 7 121226554.574 7     -3409.684          43.000    23068657.328 7  94462247.014 7     -2656.893          43.000
G13  20149647.070 8 105887107.032 8        86.652          50.000    20149645.242 8  82509415.316 8        67.521          49.000
G28  20998311.484 8 110346886.377 8      -866.734          51.000    20998309.797 8  85984594.927 8      -675.377          48.000
G30  22536207.992 6 118428566.022 6     -2578.766          36.000    22536239.336 5  92282138.260 5     -2009.437          32.000
R02  20454672.484 7 109150040.878 7     -3179.309          47.000    20454675.875 7  84894500.190 7     -2472.796          45.000
R03  19348035.023 7 103571554.646 7       844.441          44.000    19348036.445 6  80555643.715 6       656.788          40.000
R13  19352408.250 6 103340784.013 6       651.051          41.000    19352412.008 7  80376132.971 7       506.373          43.000
R14  22474097.734 7 119799583.803 7      3481.941          46.000    22474103.812 7  93177469.290 7      2708.177          47.000
C05  39782850.641 5 207159741.955 5        16.660          35.000    39782849.797 6 160189036.297 6        12.871          39.000
C23  22576244.633 8 117560452.163 8      1508.668          51.000
C25  22163876.555 8 115413172.370 8     -1274.918          51.000
E02  24971037.109 8 131223662.360 8      2320.676          51.000    24971038.453 8 100548065.893 8      1778.219          50.000
E03  23388944.234 8 122909740.997 8      -399.895          51.000    23388947.188 8  94177598.806 8      -306.464          51.000
E05  26012051.727 8 136694230.983 8     -2572.102          49.000    26012050.508 7 104739764.956 7     -1970.921          47.000
E24  24479766.484 5 128642040.971 5     -2518.070          35.000
E25  23468813.320 8 123329509.084 8      -209.215          51.000    23468814.641 8  94499217.952 8      -160.307          51.000
> 2020 05 09 05 01 30.0000000  0 17        .000000000000
G05  23088132.711 7 121328919.619 7     -3414.266          42.000    23088137.430 7  94542011.992 7     -2660.467          42.000
G13  20149188.102 8 105884695.227 8        74.609          50.000    20149186.133 8  82507535.968 8        58.137          49.000
G28  21003304.578 8 110373125.598 8      -882.094          51.000    21003302.930 8  86005041.077 8      -687.346          48.000
G30  22550938.984 4 118505983.579 4     -2581.383          29.000    22550967.570 3  92342459.510 3     -2011.498          22.000
R02  20472590.344 8 109245656.883 8     -3194.582          49.000    20472593.500 7  84968868.154 7     -2484.675          43.000
R03  19343366.500 7 103546564.373 7       822.160          45.000    19343367.664 6  80536206.836 6       639.458          40.000
R12  20759135.867 5 110891534.438 5     -2985.508          31.000
R13  19348800.648 6 103321517.908 6       633.887          41.000    19348803.719 7  80361148.195 7       493.020          42.000
R14  22454524.562 7 119695246.065 7      3474.438          47.000    22454529.406 7  93096317.724 7      2702.340          46.000
C05  39782751.461 5 207159226.004 5        18.262          35.000    39782750.555 6 160188636.525 6        14.224          39.000
C23  22567577.242 8 117515319.647 8      1500.691          50.000
C25  22171242.758 8 115451530.751 8     -1281.824          51.000
E02  24957807.648 8 131154141.473 8      2314.402          51.000    24957807.375 8 100494796.685 8      1773.400          49.000
E03  23391256.398 8 122921891.260 8      -409.570          51.000    23391259.266 8  94186908.736 8      -313.898          51.000
E05  26026748.703 8 136771466.646 8     -2576.359          49.000    26026750.656 8 104798945.462 8     -1974.043          48.000
E24  24494150.562 5 128717628.364 5     -2520.840          34.000
E25  23470036.758 8 123335937.355 8      -218.859          51.000    23470038.062 8  94504143.502 8      -167.754          51.000
> 2020 05 09 05 02  0.0000000  0 17        .000000000000
G05  23107651.117 6 121431483.812 6     -3421.719          40.000    23107654.836 6  94621932.121 6     -2666.277          41.000
G13  20148810.508 8 105882711.110 8        59.273          50.000    20148808.531 8  82505989.892 8        46.184          49.000
G17  24320093.172 5 127802961.760 5      2759.387          34.000    24320087.000 5  99586676.843 5      2150.175          34.000
G28  21008396.258 8 110399882.963 8      -900.266          50.000    21008394.570 7  86025890.966 7      -701.506          47.000
G30  22565699.227 5 118583545.962 5     -2587.891          33.000    22565727.594 5  92402897.389 5     -2016.544          33.000
R02  20490607.594 8 109341796.809 8     -3212.980          51.000    20490609.898 7  85043643.536 7     -2498.991          43.000
R03  19338834.977 7 103522307.330 7       796.547          46.000    19338836.250 6  80517340.216 6       619.536          41.000
R13  19345301.625 6 103302832.265 6       613.500          40.000    19345304.055 7  80346614.912 7       477.167          42.000
R14  22435005.789 8 119591195.255 8      3463.848          49.000    22435009.258 7  93015389.356 7      2694.107          46.000
C05  39782652.320 5 207158710.045 5        17.246          35.000    39782651.477 6 160188237.551 6        13.641          39.000
C23  22558967.117 8 117470489.430 8      1489.633          49.000
C25  22178660.852 8 115490159.332 8     -1291.773          51.000
E02  24944625.289 8 131084870.271 8      2305.164          51.000    24944623.289 8 100441718.792 8      1766.262          49.000
E03  23393634.406 8 122934386.752 8      -422.062          51.000    23393637.367 8  94196483.192 8      -323.387          51.000
E05  26041481.203 8 136848887.419 8     -2583.477          50.000    26041485.766 8 104858267.842 8     -1979.592          48.000
E24  24508560.859 5 128793353.179 5     -2526.117          34.000
E25  23471327.664 8 123342720.959 8      -231.836          51.000    23471328.789 8  94509341.319 8      -177.608          51.000
> 2020 05 09 05 02 30.0000000  0 17        .000000000000
G05  23127216.461 6 121534290.139 6     -3436.883          37.000    23127217.602 6  94702040.877 6     -2678.094          37.000
G13  20148523.180 8 105881201.626 8        35.926          51.000    20148521.258 8  82504813.660 8        27.991          49.000
G17  24304359.922 5 127720296.224 5      2745.855          33.000    24304360.758 5  99522262.047 5      2139.625          33.000
G28  21013594.961 8 110427202.799 8      -926.535          49.000    21013593.633 7  86047179.160 7      -721.975          47.000
G30  22580495.594 5 118661302.905 5     -2601.996          33.000    22580522.641 5  92463487.071 5     -2027.532          34.000
R02  20508731.422 8 109438505.232 8     -3239.617          51.000    20508733.812 7  85118861.134 7     -2519.705          45.000
R03  19334449.617 7 103498832.479 7       762.926          46.000    19334450.680 6  80499082.007 6       593.387          41.000
R13  19341920.031 6 103284772.556 6       584.953          41.000    19341922.094 7  80332568.476 7       454.964          42.000
R14  22415550.023 8 119487479.829 8      3445.059          50.000    22415552.695 7  92934721.822 7      2679.490          47.000
C05  39782562.188 5 207158240.695 5         8.520          35.000    39782561.359 6 160187874.621 6         6.416          39.000
C23  22550423.875 8 117426007.121 8      1470.543          50.000
C25  22186139.398 8 115529102.424 8     -1309.711          51.000
E02  24931498.812 8 131015895.475 8      2287.758          50.000    24931496.547 8 100388867.974 8      1752.897          49.000
E03  23396086.844 8 122947273.831 8      -442.555          51.000    23396090.125 8  94206357.685 8      -339.064          51.000
E05  26056257.438 8 136926538.481 8     -2598.633          49.000    26056264.102 8 104917766.661 8     -1991.154          48.000
E24  24523006.188 6 128869261.854 6     -2539.484          36.000
E25  23472694.906 8 123349905.062 8      -252.562          51.000    23472695.805 8  94514846.010 8      -193.501          51.000
> 2020 05 09 05 03  0.0000000  0 17        .000000000000
G05  23146815.945 5 121637267.406 5     -3427.996          35.000    23146812.492 5  94782282.791 5     -2671.172          35.000
G13  20148313.508 8 105880099.573 8        37.891          51.000    20148311.477 8  82503954.902 8        29.525          49.000
G17  24288652.398 5 127637752.641 5      2757.285          35.000    24288654.969 5  99457942.420 5      2148.543          34.000
G28  21018887.602 8 110455015.847 8      -927.238          48.000    21018886.391 7  86068851.663 7      -722.523          47.000
G30  22595315.570 5 118739185.713 5     -2590.746          33.000    22595341.711 5  92524174.659 5     -2018.769          32.000
R02  20526948.070 8 109535710.208 8     -3240.242          51.000    20526950.773 7  85194465.036 7     -2520.185          47.000
R03  19330197.406 7 103476072.508 7       754.930          46.000    19330198.984 7  80481379.773 7       587.168          42.000
R13  19338642.594 6 103267269.003 6       582.273          40.000    19338643.992 7  80318954.624 7       452.879          42.000
R14  22396144.070 8 119384032.108 8      3451.895          49.000    22396146.805 8  92854262.481 8      2684.807          49.000
C05  39782468.156 5 207157750.442 5        24.684          35.000    39782467.203 6 160187495.493 6        19.147          39.000
C23  22541935.211 8 117381805.286 8      1476.625          51.000
C25  22193665.445 8 115568291.355 8     -1302.457          51.000
E02  24918416.148 8 130947149.637 8      2295.723          51.000    24918415.125 8 100336192.584 8      1759.138          50.000
E03  23398601.016 8 122960484.780 8      -437.684          51.000    23398604.047 8  94216480.351 8      -335.356          51.000
E05  26071064.734 8 137004350.931 8     -2588.309          49.000    26071072.148 8 104977389.107 8     -1983.202          48.000
E24  24537472.555 6 128945277.853 6     -2527.566          37.000
E25  23474125.008 8 123357420.748 8      -248.066          51.000    23474126.055 8  94520604.788 8      -190.062          51.000
> 2020 05 09 05 03 30.0000000  0 17        .000000000000
G05  23166427.547 6 121740316.260 6     -3438.750          38.000    23166421.086 6  94862580.517 6     -2679.545          36.000
G13  20148163.227 8 105879309.052 8        18.367          51.000    20148161.125 8  82503338.896 8        14.312          49.000
G17  24272950.562 6 127555237.635 6      2747.023          36.000    24272954.039 6  99393644.989 6      2140.538          36.000
G28  21024255.430 7 110483224.362 7      -949.750          47.000    21024254.180 7  86090832.310 7      -740.065          46.000
G30  22610152.984 5 118817155.493 5     -2600.613          31.000
R02  20545238.961 8 109633310.789 8     -3262.754          51.000    20545241.281 7  85270376.654 7     -2537.697          47.000
R03  19326061.203 7 103453930.822 7       724.941          46.000    19326062.547 7  80464158.458 7       563.843          43.000
R13  19335450.211 6 103250223.072 6       557.883          39.000    19335451.789 6  80305696.671 6       433.909          41.000
R14  22376769.438 8 119280755.529 8      3436.809          49.000    22376772.922 8  92773936.235 8      2673.070          49.000
C05  39782351.617 5 207157143.605 5        19.859          35.000    39782350.656 6 160187026.237 6        15.027          39.000
C23  22533482.641 8 117337788.345 8      1461.352          51.000
C25  22201220.055 8 115607629.302 8     -1316.480          51.000
E02  24905359.648 8 130878536.984 8      2282.133          51.000    24905360.109 8 100283619.261 8      1748.653          51.000
E03  23401158.602 8 122973923.471 8      -454.574          51.000    23401160.953 8  94226777.535 8      -348.325          51.000
E05  26085884.688 8 137082227.480 8     -2599.695          50.000    26085891.453 8 105037060.683 8     -1992.001          48.000
E24  24551941.195 5 129021307.175 5     -2537.141          35.000
E25  23475599.680 8 123365170.730 8      -264.980          51.000    23475600.703 8  94526543.080 8      -202.983          51.000
> 2020 05 09 05 04  0.0000000  0 16        .000000000000
G05  23186086.336 6 121843623.822 6     -3445.039          39.000    23186078.617 6  94943079.768 6     -2684.449          39.000
G13  20148108.391 8 105879020.553 8         4.035          51.000    20148106.398 8  82503114.084 8         3.144          50.000
G17  24257290.906 6 127472943.888 6      2742.281          37.000    24257293.562 6  99329519.963 6      2136.839          37.000
G28  21029734.305 7 110512016.775 7      -966.797          46.000    21029733.320 7  86113267.945 7      -753.348          46.000
R02  20563639.625 8 109731497.059 8     -3279.758          51.000    20563641.555 8  85346743.763 8     -2550.923          48.000
R03  19322077.367 8 103432602.699 8       700.133          48.000    19322078.719 7  80447569.891 7       544.548          44.000
R13  19332379.094 6 103233826.609 6       538.609          38.000    19332381.617 6  80292943.841 6       418.918          41.000
R14  22357462.984 8 119177844.286 8      3427.137          49.000    22357466.773 7  92693894.137 7      2665.551          47.000
C05  39782248.820 5 207156608.347 5        19.250          35.000    39782247.914 6 160186612.338 6        14.967          39.000
C23  22525101.797 8 117294144.497 8      1451.211          51.000
C25  22208838.812 8 115647303.131 8     -1325.273          51.000
E02  24892365.219 8 130810248.029 8      2273.711          51.000    24892366.680 8 100231293.948 8      1742.206          51.000
E03  23403795.617 8 122987780.070 8      -466.055          51.000    23403797.586 8  94237394.920 8      -357.080          51.000
E05  26100752.773 8 137160357.148 8     -2605.836          50.000    26100758.398 7 105096926.226 7     -1996.584          47.000
E24  24566447.609 5 129097553.329 5     -2542.094          34.000
E25  23477154.945 8 123373344.019 8      -276.719          51.000    23477155.836 8  94532805.722 8      -212.025          51.000
> 2020 05 09 05 04 30.0000000  0 18        .000000000000
G05  23205780.320 6 121947119.621 6     -3452.594          38.000    23205773.461 6  95023725.752 6     -2690.336          38.000
G13  20148136.227 8 105879167.417 8       -12.070          51.000    20148134.586 8  82503228.507 8        -9.405          50.000
G17  24241661.023 5 127390807.160 5      2735.383          34.000    24241658.367 5  99265517.408 5      2131.470          33.000
G24  23579853.898 5 123912968.518 5      3039.414          33.000
G28  21035311.117 7 110541323.893 7      -985.234          46.000    21035310.094 7  86136104.623 7      -767.715          45.000
R02  20582135.867 8 109830197.966 8     -3298.395          51.000    20582138.344 7  85423511.080 7     -2565.421          47.000
R03  19318232.750 8 103412021.271 8       673.652          48.000    19318234.172 7  80431562.100 7       523.952          44.000
R12  20860689.445 5 111434032.412 5     -3040.387          32.000
R13  19329417.094 6 103218010.320 6       517.641          39.000    19329419.984 6  80280642.305 6       402.609          41.000
R14  22338212.375 8 119075231.295 8      3415.551          49.000    22338215.539 7  92614084.021 7      2656.539          44.000
C05  39782147.016 5 207156078.742 5        17.906          35.000    39782145.977 6 160186202.008 6        13.798          39.000
C23  22516779.594 8 117250806.821 8      1439.625          51.000
C25  22216508.961 8 115687244.728 8     -1335.637          51.000
E02  24879419.812 8 130742215.960 8      2263.582          51.000    24879421.594 8 100179165.452 8      1734.436          51.000
E03  23406499.195 8 123001987.405 8      -479.281          51.000    23406501.289 8  94248281.038 8      -367.194          51.000
E05  26115655.766 8 137238671.525 8     -2613.379          49.000    26115660.023 7 105156933.315 7     -2002.468          47.000
E24  24580978.805 5 129173915.130 5     -2547.641          34.000
E25  23478777.516 8 123381872.226 8      -290.020          51.000    23478778.656 8  94539340.326 8      -222.229          51.000
> 2020 05 09 05 05  0.0000000  0 17        .000000000000
G05  23225507.594 6 122050789.862 6     -3455.637          37.000    23225500.797 6  95104507.742 6     -2692.704          38.000
G13  20148245.070 8 105879739.544 8       -23.156          51.000    20148243.578 8  82503674.298 8       -18.044          50.000
G17  24226059.125 5 127308819.128 5      2734.043          33.000    24226052.805 5  99201630.748 5      2130.420          31.000
G28  21040983.648 7 110571133.294 7      -998.914          46.000    21040982.539 7  86159332.713 7      -778.378          45.000
R02  20600725.336 8 109929399.139 8     -3311.910          51.000    20600728.258 7  85500667.445 7     -2575.933          45.000
R03  19314525.734 8 103392177.217 8       652.230          48.000    19314527.008 7  80416127.833 7       507.290          45.000
R12  20877783.031 5 111525363.740 5     -3045.016          32.000    20877754.211 4  86741839.058 4     -2368.352          28.000
R13  19326561.594 6 103202762.018 6       501.809          39.000    19326564.352 6  80268782.504 6       390.296          41.000
R14  22319015.648 7 118972907.075 7      3409.109          47.000    22319017.680 7  92534498.504 7      2651.530          42.000
C05                                                                  39782042.891 6 160185786.886 6        16.257          39.000
C23  22508513.875 8 117207764.490 8      1432.820          51.000
C25  22224228.461 8 115727442.000 8     -1341.094          51.000
E02  24866521.078 8 130674430.462 8      2258.430          51.000    24866523.234 8 100127225.897 8      1730.512          51.000
E03  23409267.547 8 123016534.814 8      -487.578          51.000    23409269.633 8  94259427.744 8      -373.611          51.000
E05  26130591.531 8 137317158.862 8     -2616.031          49.000    26130594.109 7 105217072.933 7     -2004.623          47.000
E24  24595532.633 5 129250396.202 5     -2548.898          34.000
E25  23480465.469 8 123390743.557 8      -298.348          51.000    23480466.797 8  94546137.835 8      -228.652          51.000
> 2020 05 09 05 05 30.0000000  0 16        .000000000000
G05  23245276.297 5 122154677.089 5     -3461.770          34.000    23245269.719 5  95185458.776 5     -2697.486          35.000
G13  20148443.656 8 105880782.984 8       -37.625          51.000    20148442.094 8  82504487.365 8       -29.318          50.000
G17  24210494.883 6 127227028.337 6      2728.297          37.000    24210492.922 6  99137897.794 6      2125.946          37.000
G28  21046760.328 7 110601489.410 7     -1015.652          47.000    21046759.305 7  86182986.800 7      -791.417          44.000
R02  20619416.539 8 110029144.736 8     -3328.820          48.000    20619420.156 7  85578247.295 7     -2589.082          45.000
R03  19310965.625 8 103373118.630 8       627.355          48.000    19310966.977 7  80401304.473 7       487.943          45.000
R12  20894950.461 5 111617044.119 5     -3053.941          32.000    20894919.109 5  86813175.219 5     -2375.288          30.000
R13  19323820.891 6 103188127.247 6       482.730          39.000    19323823.773 7  80257399.924 7       375.460          42.000
R14  22299881.977 7 118870919.007 7      3399.191          47.000    22299883.438 7  92455174.467 7      2643.816          43.000
C05  39781948.250 5 207155043.972 5        21.105          35.000    39781947.250 6 160185401.818 6        16.480          38.000
C23  22500313.172 8 117165062.670 8      1422.707          51.000
C25  22232005.508 8 115767938.849 8     -1349.863          51.000
E02  24853677.477 8 130606937.732 8      2250.066          51.000    24853680.375 8 100075510.680 8      1724.047          51.000
E03  23412109.273 8 123031468.144 8      -499.035          51.000    23412111.219 8  94270870.156 8      -382.384          51.000
E05  26145569.102 8 137395863.810 8     -2622.004          51.000    26145569.875 7 105277379.277 7     -2009.017          46.000
E25  23482227.180 8 123400002.670 8      -309.910          51.000    23482228.617 8  94553232.471 8      -237.509          51.000
> 2020 05 09 05 06  0.0000000  0 17        .000000000000
G05  23265042.734 6 122258549.403 6     -3468.750          36.000    23265036.141 6  95266398.180 6     -2702.922          36.000
G13  20148688.664 8 105882069.921 8       -53.984          51.000    20148686.844 8  82505490.167 8       -42.066          50.000
G17  24194925.750 6 127145209.167 6      2720.441          39.000    24194928.164 6  99074142.596 6      2119.818          36.000
G28  21052597.141 7 110632161.607 7     -1034.621          47.000    21052595.820 7  86206887.204 7      -806.198          43.000
G30  22684749.680 6 119209147.710 6     -2624.504          38.000    22684758.422 5  92890294.051 5     -2045.077          35.000
R02  20638166.203 8 110129199.352 8     -3347.359          49.000    20638170.305 7  85656067.580 7     -2603.502          46.000
R03  19307508.836 8 103354614.431 8       600.426          49.000    19307509.969 7  80386912.317 7       466.998          45.000
R12  20912109.938 5 111708737.264 5     -3064.176          32.000    20912094.719 5  86884492.012 5     -2383.254          32.000
R13  19321151.406 6 103173872.274 6       461.953          38.000    19321154.203 7  80246312.717 7       359.297          42.000
R14  22280768.852 8 118769036.578 8      3387.219          48.000    22280770.156 7  92375932.631 7      2634.507          44.000
C05                                                                  39781815.523 6 160184871.479 6        14.786          39.000
C23  22492134.406 8 117122474.660 8      1410.805          51.000
C25  22239796.164 8 115808507.316 8     -1360.434          51.000
E02  24840845.875 8 130539509.649 8      2239.527          51.000    24840849.469 8 100023844.988 8      1716.040          51.000
E03  23414980.711 8 123046558.930 8      -512.613          51.000    23414982.641 8  94282433.212 8      -392.782          51.000
E05  26160544.367 8 137474556.722 8     -2629.812          51.000    26160543.664 7 105337676.415 7     -2015.078          46.000
E25  23484018.844 8 123409419.912 8      -323.520          51.000    23484020.508 8  94560448.260 8      -247.829          51.000
> 2020 05 09 05 06 30.0000000  0 17        .000000000000
G05  23284856.508 6 122362672.710 6     -3465.008          37.000    23284849.422 6  95347533.135 6     -2700.009          37.000
G13  20149031.172 8 105883869.493 8       -58.430          51.000    20149029.281 8  82506892.429 8       -45.530          50.000
G17  24179403.305 6 127063633.347 6      2725.273          37.000    24179403.109 6  99010576.889 6      2123.587          38.000
G28  21058544.984 8 110663417.224 8     -1041.293          48.000    21058543.602 7  86231242.214 7      -811.397          42.000
G30  22699741.344 5 119287911.267 5     -2618.938          35.000    22699744.922 5  92951668.335 5     -2040.727          34.000
R02  20657026.156 8 110229833.225 8     -3353.812          51.000    20657029.711 7  85734338.368 7     -2608.524          47.000
R03  19304207.102 8 103336939.630 8       585.656          49.000    19304208.008 7  80373165.248 7       455.507          45.000
R12  20929332.500 6 111800763.763 6     -3062.664          36.000    20929325.102 4  86956068.114 4     -2382.072          28.000
R13  19318603.648 6 103160269.378 6       452.977          37.000    19318606.898 7  80235732.683 7       352.315          42.000
R14  22261727.109 7 118667533.788 7      3387.320          47.000    22261729.344 7  92296986.013 7      2634.582          44.000
C05                                                                  39781698.844 6 160184401.725 6        22.301          38.000
C23  22484028.984 8 117080266.643 8      1410.637          51.000
C25  22247651.438 8 115849412.379 8     -1359.004          51.000
E02  24828077.555 8 130472415.498 8      2241.059          49.000    24828082.016 8  99972435.175 8      1717.175          51.000
E03  23417933.258 8 123062076.088 8      -514.227          51.000    23417935.156 8  94294322.966 8      -393.970          51.000
E05  26175568.000 8 137553505.414 8     -2625.719          50.000    26175567.078 7 105398169.498 7     -2011.950          47.000
E25  23485891.727 8 123419263.050 8      -325.070          51.000    23485893.609 8  94567990.399 8      -249.077          51.000
> 2020 05 09 05 07  0.0000000  0 17        .000000000000
G05  23304747.664 6 122467202.927 6     -3494.938          38.000    23304740.984 6  95428985.115 6     -2723.334          38.000
G13  20149501.539 8 105886341.169 8       -97.371          51.000    20149499.711 8  82508818.406 8       -75.874          50.000
G17  24163957.086 5 126982462.289 5      2695.277          35.000    24163954.688 5  98947326.715 5      2100.216          35.000
G28  21064633.805 7 110695413.510 7     -1082.684          47.000    21064632.195 7  86256174.357 7      -843.650          42.000
G30  22714800.375 5 119367108.628 5     -2648.633          31.000    22714806.312 5  93013322.855 5     -2063.870          30.000
R02  20676024.203 8 110331204.544 8     -3395.051          51.000    20676027.375 8  85813182.683 8     -2640.598          48.000
R03  19301090.758 8 103320257.836 8       535.719          50.000    19301091.766 7  80360190.515 7       416.667          46.000
R12  20946651.875 5 111893224.492 5     -3095.906          32.000    20946659.906 5  87028100.803 5     -2407.927          30.000
R13  19316208.094 6 103147478.429 6       408.906          38.000    19316211.398 6  80225784.142 6       318.038          41.000
R14  22242787.148 7 118566572.811 7      3352.543          46.000    22242791.227 7  92218460.786 7      2607.533          45.000
C05  39781628.656 5 207153379.733 5         4.570          35.000    39781627.430 6 160184114.083 6         3.691          38.000
C23  22476026.859 8 117038595.876 8      1376.301          51.000
C25  22255601.312 8 115890810.118 8     -1391.883          51.000
E02  24815403.258 8 130405814.680 8      2208.070          51.000    24815408.273 8  99921403.351 8      1691.931          51.000
E03  23420997.297 8 123078178.625 8      -550.230          51.000    23420999.219 8  94306661.262 8      -421.611          51.000
E05  26190670.641 8 137632867.691 8     -2656.109          50.000    26190670.227 7 105458979.515 7     -2035.159          47.000
E25  23487875.875 8 123429689.923 8      -360.906          51.000    23487877.875 8  94575979.807 8      -276.536          51.000
> 2020 05 09 05 07 30.0000000  0 15        .000000000000
G05  23324660.664 6 122571846.789 6     -3487.566          40.000    23324654.750 6  95510525.663 6     -2717.587          39.000
G13  20150044.641 8 105889195.126 8       -99.020          51.000    20150043.016 8  82511042.256 8       -77.158          50.000
G17  24148532.734 6 126901408.504 6      2702.180          38.000    24148528.945 6  98884167.914 6      2105.595          38.000
G28  21070807.906 8 110727858.120 8     -1086.414          49.000    21070806.078 6  86281455.855 6      -846.559          41.000
R02  20695103.680 8 110433014.982 8     -3398.441          50.000    20695106.828 7  85892368.536 7     -2643.232          47.000
R03  19298105.078 8 103304274.710 8       523.652          51.000    19298106.070 7  80347759.184 7       407.285          47.000
R13  19313909.414 6 103135203.602 6       403.281          38.000    19313912.438 6  80216237.041 6       313.663          41.000
R14  22223893.938 7 118465860.259 7      3355.438          47.000    22223899.531 7  92140128.793 7      2609.785          46.000
C05  39781547.062 5 207152954.324 5        17.555          35.000    39781545.898 6 160183785.901 6        13.632          39.000
C23  22468072.648 8 116997174.397 8      1379.078          51.000
C25  22263590.258 8 115932411.278 8     -1387.609          51.000
E02  24802768.602 8 130339417.168 8      2212.332          51.000    24802772.758 8  99870527.318 8      1695.196          51.000
E03  23424117.461 8 123094576.188 8      -549.008          51.000    23424119.570 8  94319225.609 8      -420.659          51.000
E05  26205795.984 8 137712352.068 8     -2648.965          48.000    26205796.789 7 105519883.109 7     -2029.753          47.000
E25  23489915.648 8 123440409.007 8      -359.715          51.000    23489917.742 8  94584193.127 8      -275.650          51.000
> 2020 05 09 05 08  0.0000000  0 15        .000000000000
G05  23344581.641 6 122676534.119 6     -3491.191          41.000    23344576.938 6  95592100.125 6     -2720.412          41.000
G13  20150647.859 8 105892365.036 8      -111.789          50.000    20150646.320 8  82513512.318 8       -87.108          50.000
G17  24133118.711 6 126820408.187 6      2698.781          38.000    24133113.445 6  98821050.760 6      2102.946          38.000
G28  21077054.281 8 110760682.488 8     -1101.273          48.000    21077052.617 6  86307033.265 6      -858.135          40.000
R02  20714251.031 7 110535194.085 7     -3412.945          47.000    20714255.188 7  85971841.142 7     -2654.513          45.000
R03  19295237.336 8 103288923.527 8       500.379          50.000    19295238.328 7  80335819.359 7       389.184          46.000
R13  19311694.789 6 103123376.064 6       386.148          39.000    19311697.516 6  80207037.849 6       300.338          41.000
R14  22205034.719 7 118365329.852 7      3347.070          46.000    22205041.031 7  92061938.460 7      2603.277          45.000
C05  39781442.742 5 207152411.205 5        19.316          35.000    39781441.695 6 160183365.921 6        14.858          38.000
C23  22460153.664 8 116955935.892 8      1370.777          51.000
C25  22271605.531 8 115974148.363 8     -1394.328          51.000
E02  24790160.586 8 130273156.652 8      2205.488          51.000    24790162.422 8  99819756.295 8      1689.908          51.000
E03  23427281.062 8 123111202.166 8      -558.902          51.000    23427283.336 8  94331964.967 8      -428.274          51.000
E05  26220930.883 7 137791890.758 7     -2652.938          47.000    26220933.500 7 105580828.300 7     -2032.791          47.000
E25  23491998.180 8 123451352.491 8      -369.277          51.000    23492000.297 8  94592578.394 8      -282.965          51.000
> 2020 05 09 05 08 30.0000000  0 15        .000000000000
G05  23364530.000 6 122781364.843 6     -3495.613          41.000    23364526.133 6  95673786.344 6     -2723.861          41.000
G13  20151330.867 8 105895954.638 8      -125.570          49.000    20151329.383 8  82516309.419 8       -97.847          49.000
G17  24117735.266 6 126739567.393 6      2692.961          39.000    24117730.023 6  98758057.971 6      2098.411          39.000
G28  21083392.273 8 110793988.307 8     -1117.109          50.000    21083390.273 6  86332985.850 6      -870.478          39.000
R02  20733485.859 8 110637843.647 8     -3428.414          49.000    20733490.953 7  86051679.698 7     -2666.544          43.000
R03  19292508.055 8 103274311.071 8       475.879          51.000    19292508.383 7  80324454.126 7       370.128          46.000
R13  19309583.164 6 103112099.382 6       368.043          38.000    19309585.555 6  80198267.070 6       286.256          41.000
R14  22186229.516 7 118265087.612 7      3337.727          47.000    22186235.359 7  91983972.284 7      2596.013          43.000
C05  39781335.328 5 207151851.628 5        20.098          35.000    39781334.273 6 160182933.173 6        15.613          39.000
C23  22452288.922 8 116914982.619 8      1361.402          51.000
C25  22279666.367 8 116016122.420 8     -1402.016          51.000
E02  24777598.547 8 130207136.969 8      2197.707          51.000    24777597.469 8  99769169.822 8      1683.960          51.000
E03  23430507.977 8 123128159.986 8      -569.711          51.000    23430510.156 8  94344958.608 8      -436.535          51.000
E05  26236095.984 8 137871586.093 8     -2658.078          48.000    26236099.578 8 105641893.531 8     -2036.703          48.000
E25  23494143.062 8 123462622.710 8      -380.117          51.000    23494144.984 8  94601214.006 8      -291.223          51.000
> 2020 05 09 05 09  0.0000000  0 15        .000000000000
G05  23384510.641 7 122886365.171 7     -3502.461          42.000    23384506.250 6  95755604.729 6     -2729.190          41.000
G13  20152099.359 8 105899993.384 8      -141.746          48.000    20152097.906 8  82519456.486 8      -110.452          49.000
G17  24102388.164 6 126658917.335 6      2685.367          41.000    24102384.680 6  98695213.838 6      2092.497          41.000
G28  21089827.047 8 110827802.449 8     -1135.012          49.000    21089824.992 6  86359334.499 6      -884.428          38.000
R02  20752815.906 8 110740989.995 8     -3446.000          51.000    20752819.383 7  86131904.566 7     -2680.225          43.000
R03  19289922.172 8 103260467.901 8       448.992          51.000    19289922.383 7  80313687.205 7       349.213          47.000
R13  19307579.961 6 103101401.476 6       347.328          39.000    19307582.305 6  80189946.474 6       270.144          41.000
R14  22167484.898 8 118165163.531 8      3325.918          50.000    22167487.602 6  91906253.620 6      2586.828          41.000
C05  39781230.125 5 207151303.619 5        18.199          35.000    39781229.109 6 160182509.410 6        14.136          39.000
C23  22444483.578 8 116874342.694 8      1349.887          50.000
C25  22287777.812 8 116058360.341 8     -1411.879          51.000
E02  24765087.664 8 130141387.158 8      2187.613          51.000    24765084.383 8  99718790.136 8      1676.193          51.000
E03  23433803.656 8 123145478.289 8      -582.824          51.000    23433805.875 8  94358228.462 8      -446.556          51.000
E05  26251296.852 8 137951465.575 8     -2665.336          49.000    26251300.273 8 105703099.846 8     -2042.193          48.000
E25  23496355.109 8 123474247.084 8      -392.867          51.000    23496357.125 8  94610120.996 8      -301.043          51.000
> 2020 05 09 05 09 30.0000000  0 16        .000000000000
G05  23404518.891 7 122991509.439 7     -3506.805          43.000    23404511.859 6  95837535.244 6     -2732.578          40.000
G13  20152949.188 8 105904459.174 8      -155.551          49.000    20152947.789 8  82522936.336 8      -121.208          49.000
G17  24087073.688 7 126578438.191 7      2680.074          42.000    24087072.297 7  98632502.847 7      2088.370          42.000
G28  21096353.789 8 110862100.716 8     -1150.973          50.000    21096352.164 6  86386060.435 6      -896.862          36.000
R02  20772234.469 8 110844606.624 8     -3461.215          50.000    20772237.031 7  86212495.199 7     -2692.056          46.000
R03  19287476.039 8 103247372.397 8       424.418          51.000    19287476.117 7  80303501.803 7       330.103          47.000
R13  19305680.633 6 103091257.814 6       329.359          38.000    19305682.344 6  80182056.959 6       256.168          40.000
R14  22148796.734 8 118065536.092 8      3316.363          49.000    22148796.570 7  91828765.667 7      2579.397          42.000
C05  39781122.898 5 207150745.667 5        18.832          35.000    39781121.820 6 160182077.154 6        14.985          38.000
C23  22436734.320 8 116833993.566 8      1340.500          51.000
C25  22295935.484 8 116100838.383 8     -1419.582          51.000
E02  24752623.430 8 130075885.063 8      2179.629          51.000    24752619.609 8  99668600.245 8      1670.087          51.000
E03  23437163.562 8 123163134.625 8      -593.844          51.000    23437166.094 8  94371757.324 8      -455.029          51.000
E05  26266528.492 8 138031505.621 8     -2670.215          49.000    26266531.555 8 105764429.197 8     -2046.054          50.000
E24  24727578.023 5 129944300.694 5     -2586.309          33.000
E25  23498629.875 8 123486202.028 8      -403.734          51.000    23498632.273 8  94619281.270 8      -309.337          51.000
> 2020 05 09 05 10  0.0000000  0 16        .000000000000
G05  23424549.086 7 123096767.961 7     -3503.379          43.000    23424537.680 6  95919554.794 6     -2729.909          40.000
G13  20153875.328 8 105909326.243 8      -161.754          49.000    20153874.195 8  82526728.859 8      -126.042          49.000
G17  24071787.289 7 126498106.814 7      2682.375          42.000    24071787.273 7  98569906.931 7      2090.162          42.000
G28  21102967.266 8 110896855.098 8     -1158.785          49.000    21102965.297 5  86413141.748 5      -902.949          34.000
R02  20791734.625 7 110948663.983 7     -3468.402          46.000    20791738.180 8  86293428.636 8     -2697.646          48.000
R03  19285164.633 8 103234999.123 8       407.730          51.000    19285164.680 7  80293878.133 7       317.124          47.000
R12  21051328.336 5 112452372.462 5     -3120.129          33.000    21051318.633 4  87462949.924 4     -2426.767          26.000
R13  19303879.609 6 103081640.619 6       319.352          39.000    19303881.062 6  80174576.925 6       248.385          41.000
R14  22130158.906 7 117966179.819 7      3314.609          45.000    22130159.039 7  91751488.602 7      2578.033          44.000
C05  39781008.523 5 207150149.646 5        27.504          35.000    39781007.367 6 160181616.269 6        21.352          38.000
C23  22429036.562 8 116793908.995 8      1338.969          51.000
C25  22304134.062 8 116143529.201 8     -1419.406          51.000
E02  24740201.000 8 130010604.939 8      2179.496          51.000    24740198.031 8  99618580.413 8      1669.986          51.000
E03  23440582.617 8 123181102.808 8      -597.043          51.000    23440585.328 8  94385525.146 8      -457.513          51.000
E05  26281784.812 7 138111678.959 7     -2667.441          47.000    26281788.438 8 105825860.655 8     -2043.914          51.000
E25  23500962.406 8 123498460.204 8      -406.383          51.000    23500965.062 8  94628673.883 8      -311.417          51.000
> 2020 05 09 05 10 30.0000000  0 18        .000000000000
G05  23444615.773 7 123202217.622 7     -3514.953          42.000    23444602.008 6  96001723.255 6     -2738.928          40.000
G13  20154892.977 8 105914674.360 8      -182.953          49.000    20154892.117 8  82530896.209 8      -142.561          49.000
G15  20704888.602 5 108804923.535 5      1488.871          30.000
G17  24056544.219 6 126418005.609 6      2669.594          41.000    24056544.930 6  98507490.398 6      2080.203          41.000
G24  23373616.406 5 122829179.395 5      2983.277          32.000
G28  21109682.242 8 110932143.198 8     -1181.793          48.000    21109679.602 5  86440638.975 5      -920.878          32.000
R02  20811329.844 7 111053239.498 7     -3491.070          42.000    20811336.422 8  86374765.174 8     -2715.277          48.000
R03  19283003.602 8 103223430.318 8       375.551          51.000    19283003.469 8  80284880.172 8       292.095          48.000
R12  21068922.875 5 112546350.531 5     -3134.637          30.000    21068911.172 4  87536040.178 4     -2438.051          26.000
R13  19302192.203 6 103072629.393 6       293.793          38.000    19302193.891 6  80167568.179 6       228.506          41.000
R14  22111583.562 6 117867176.769 6      3297.516          40.000    22111588.133 7  91674486.176 7      2564.734          45.000
C05  39780901.969 5 207149595.139 5        21.320          35.000    39780900.891 6 160181187.491 6        16.148          38.000
C23  22421404.719 8 116754167.611 8      1322.219          51.000
C25  22312388.219 8 116186510.215 8     -1434.297          51.000
E02  24727835.234 8 129945626.733 8      2164.184          50.000    24727834.531 8  99568791.900 8      1658.259          51.000
E03  23444076.227 8 123199462.434 8      -615.191          51.000    23444078.789 8  94399592.908 8      -471.431          51.000
E05  26297080.953 7 138192063.997 7     -2679.766          47.000    26297085.562 8 105887454.354 8     -2053.375          51.000
E25  23503367.453 8 123511100.047 8      -424.570          51.000    23503370.438 8  94638358.944 8      -325.263          51.000
> 2020 05 09 05 11  0.0000000  0 16        .000000000000
G05  23464714.492 7 123307836.225 7     -3521.887          43.000    23464700.594 6  96084023.393 6     -2744.327          39.000
G13  20155998.750 8 105920485.352 8      -200.070          50.000    20155997.867 8  82535424.244 8      -155.899          50.000
G15  20696457.766 5 108760611.747 5      1471.047          30.000
G17  24041341.445 6 126338118.609 6      2660.758          38.000    24041343.242 6  98445240.813 6      2073.318          37.000
G28  21116494.945 8 110967944.615 8     -1200.656          49.000    21116492.914 5  86468536.239 5      -935.570          31.000
R02  20831019.352 8 111158311.399 8     -3509.234          48.000    20831027.555 8  86456487.822 8     -2729.405          48.000
R03  19280989.305 8 103212648.131 8       347.648          51.000    19280989.422 8  80276494.016 8       270.393          48.000
R13  19300614.211 6 103064204.082 6       272.555          39.000    19300616.188 6  80161015.143 6       211.987          41.000
R14  22093072.281 7 117768508.837 7      3284.652          45.000    22093079.016 7  91597744.394 7      2554.730          44.000
C05  39780799.898 5 207149063.421 5        18.797          35.000    39780798.766 6 160180776.313 6        14.517          39.000
C23  22413835.219 8 116714750.648 8      1309.887          51.000
C25  22320694.188 8 116229761.462 8     -1444.871          51.000
E02  24715522.273 8 129880932.151 8      2153.035          48.000    24715524.977 8  99519220.683 8      1649.830          51.000
E03  23447640.969 8 123218194.842 8      -629.254          51.000    23447643.078 8  94413946.309 8      -482.159          51.000
E05  26312413.320 7 138272640.909 7     -2687.617          46.000    26312419.023 8 105949195.106 8     -2059.373          51.000
E25  23505841.367 8 123524101.695 8      -437.965          51.000    23505844.750 8  94648321.238 8      -335.583          51.000
> 2020 05 09 05 11 30.0000000  0 16        .000000000000
G05  23484806.070 7 123413417.213 7     -3529.621          43.000    23484793.984 6  96166294.223 6     -2750.357          39.000
G13  20157154.023 8 105926555.921 8      -217.477          51.000    20157152.766 8  82540154.548 8      -169.462          50.000
G17  24026140.930 6 126258244.518 6      2651.246          36.000    24026143.688 6  98383001.237 6      2065.906          37.000
G28  21123366.359 8 111004053.593 8     -1219.422          48.000    21123365.344 4  86496673.153 4      -950.196          28.000
R02  20850764.781 8 111263669.849 8     -3527.648          51.000    20850771.922 7  86538433.277 7     -2743.727          46.000
R03  19279083.344 8 103202446.280 8       319.352          51.000    19279083.836 8  80268559.231 8       248.385          48.000
R13  19299107.234 6 103056156.278 6       250.891          38.000    19299109.242 6  80154755.720 6       195.137          41.000
R14  22074587.773 8 117669970.506 8      3271.363          48.000    22074593.016 7  91521103.506 7      2544.394          44.000
C05  39780663.352 5 207148352.406 5        16.023          35.000    39780662.133 6 160180226.490 6        12.327          38.000
C23  22406289.562 8 116675455.975 8      1297.055          51.000
C25  22329012.977 8 116273079.661 8     -1455.734          51.000
E02  24703225.266 8 129816317.779 8      2141.598          50.000    24703230.148 8  99469710.929 8      1640.923          51.000
E03  23451238.047 8 123237096.273 8      -643.898          51.000    23451240.117 8  94428429.212 8      -493.371          51.000
E05  26327743.555 7 138353204.885 7     -2696.066          47.000    26327749.852 8 106010925.957 8     -2065.916          51.000
E24  24786764.719 5 130255327.030 5     -2603.496          33.000
E25  23508345.414 8 123537260.330 8      -452.098          51.000    23508348.859 8  94658403.806 8      -346.412          51.000
> 2020 05 09 05 12  0.0000000  0 16        .000000000000
G05  23504978.766 6 123519426.094 6     -3537.453          41.000    23504969.484 6  96248898.491 6     -2756.457          40.000
G13  20158447.945 8 105933355.139 8      -235.422          51.000    20158446.219 8  82545452.622 8      -183.449          50.000
G17  24011032.938 6 126178854.988 6      2641.562          36.000    24011036.391 5  98321139.262 5      2058.357          34.000
G28  21130385.062 8 111040937.034 8     -1238.895          48.000    21130383.148 4  86525413.601 4      -965.366          27.000
R02  20870652.578 8 111369787.317 8     -3546.426          51.000    20870658.031 7  86620969.053 7     -2758.334          45.000
R03  19277375.094 8 103193303.233 8       290.535          51.000    19277375.867 8  80261447.964 8       225.972          48.000
R12  21121979.617 5 112829740.588 5     -3165.613          35.000
R13  19297759.781 6 103048960.880 6       229.305          39.000    19297761.977 6  80149159.303 6       178.348          41.000
R14  22056217.695 8 117572038.157 8      3257.668          48.000    22056220.289 7  91444933.948 7      2533.745          44.000
C05  39780581.461 5 207147926.249 5        12.902          35.000    39780580.320 6 160179896.927 6         9.901          39.000
C23  22398856.219 8 116636747.736 8      1283.844          51.000
C25  22337433.500 8 116316927.800 8     -1466.992          51.000
E02  24691034.391 8 129752252.639 8      2129.777          51.000    24691039.148 8  99420622.037 8      1631.964          51.000
E03  23454956.367 8 123256635.390 8      -658.367          51.000    23454958.891 8  94443400.722 8      -504.460          51.000
E05  26343161.070 8 138434223.499 8     -2704.773          49.000    26343167.281 8 106073005.137 8     -2072.474          51.000
E25  23510968.180 8 123551043.415 8      -466.406          51.000    23510971.656 8  94668964.864 8      -357.358          51.000
> 2020 05 09 05 12 30.0000000  0 16        .000000000000
G05  23525154.172 6 123625449.907 6     -3534.293          39.000    23525147.469 6  96331514.377 6     -2753.998          39.000
G13  20159802.602 8 105940473.659 8      -242.797          51.000    20159800.609 8  82550999.505 8      -189.192          50.000
G17  23995940.281 5 126099543.026 5      2641.727          35.000    23995943.938 6  98259337.764 6      2058.488          36.000
G28  21137472.906 7 111078183.253 7     -1247.836          47.000    21137469.586 5  86554436.629 5      -972.337          31.000
R02  20890603.664 8 111476244.371 8     -3554.465          51.000    20890607.492 7  86703768.943 7     -2764.584          45.000
R03  19275786.766 8 103184802.824 8       272.383          50.000    19275788.242 8  80254836.543 8       211.853          49.000
R12  21139740.938 5 112924643.003 5     -3165.332          32.000
R13  19296493.695 6 103042200.013 6       217.977          38.000    19296495.758 6  80143900.855 6       169.537          40.000
R14  22037882.906 7 117474297.579 7      3254.613          47.000    22037883.555 7  91368913.504 7      2531.369          44.000
C05  39780476.414 5 207147378.615 5        20.461          35.000    39780475.172 6 160179473.457 6        15.357          39.000
C23  22391457.102 8 116598219.557 8      1281.086          51.000
C25  22345877.562 8 116360898.367 8     -1467.969          51.000
E02  24678870.812 8 129688327.249 8      2128.273          51.000    24678874.336 8  99371640.269 8      1630.743          51.000
E03  23458718.109 8 123276402.424 8      -662.984          51.000    23458720.469 8  94458546.866 8      -508.022          51.000
E05  26358587.648 8 138515285.816 8     -2703.098          50.000    26358593.055 8 106135117.791 8     -2071.163          51.000
E25  23513631.656 8 123565039.977 8      -470.367          51.000    23513635.102 8  94679689.490 8      -360.402          51.000
> 2020 05 09 05 13  0.0000000  0 16        .000000000000
G05  23545325.445 6 123731454.490 6     -3542.566          36.000    23545321.359 6  96414115.281 6     -2760.444          36.000
G13  20161212.250 8 105947880.619 8      -261.121          51.000    20161210.250 8  82556771.132 8      -203.471          50.000
G17  23980857.141 5 126020280.097 5      2631.832          34.000    23980860.633 5  98197574.416 5      2050.778          34.000
G28  21144623.219 7 111115759.099 7     -1267.352          45.000    21144620.930 6  86583716.551 6      -987.544          36.000
R02  20910611.688 8 111583006.091 8     -3573.188          51.000    20910614.312 7  86786805.770 7     -2779.149          45.000
R03  19274312.602 8 103176913.978 8       243.293          50.000    19274314.953 8  80248700.754 8       189.228          49.000
R12  21157510.953 5 113019644.328 5     -3176.254          30.000    21157504.664 4  87904135.082 4     -2470.429          26.000
R13  19295302.742 6 103035840.569 6       195.820          38.000    19295304.961 6  80138954.619 6       152.305          40.000
R14  22019576.547 7 117376717.794 7      3240.742          46.000    22019577.477 7  91293018.104 7      2520.574          46.000
C05  39780342.031 5 207146679.367 5        16.637          35.000    39780340.648 6 160178931.932 6        12.877          39.000
C23  22384086.664 8 116559840.203 8      1267.539          51.000
C25  22354338.898 8 116404958.959 8     -1479.426          51.000
E02  24666727.992 8 129624510.771 8      2116.055          51.000    24666730.039 8  99322741.948 8      1621.387          51.000
E03  23462517.461 8 123296365.994 8      -678.156          51.000    23462518.680 8  94473843.634 8      -519.674          51.000
E05  26374016.453 8 138596359.412 8     -2711.938          51.000    26374020.766 8 106197239.087 8     -2078.050          49.000
E25  23516329.648 8 123579217.606 8      -484.930          51.000    23516333.117 8  94690552.862 8      -371.590          51.000
> 2020 05 09 05 13 30.0000000  0 15        .000000000000
G05  23565567.898 5 123837831.778 5     -3554.242          32.000    23565566.102 5  96497006.598 5     -2769.545          30.000
G13  20162752.031 8 105955971.775 8      -283.242          51.000    20162750.148 8  82563075.911 8      -220.708          49.000
G17  23965859.297 5 125941464.116 5      2617.648          32.000    23965862.250 5  98136159.284 5      2039.723          31.000
G28  21151911.031 7 111154058.026 7     -1290.793          44.000    21151909.312 6  86613559.910 6     -1005.813          37.000
R02  20930751.109 8 111690470.721 8     -3595.941          51.000    20930752.539 7  86870389.308 7     -2796.846          43.000
R03  19273028.484 8 103170040.540 8       210.062          50.000    19273030.984 8  80243354.754 8       163.385          49.000
R13  19294261.828 6 103030283.093 6       170.121          37.000    19294264.602 6  80134632.142 6       132.316          39.000
R14  22001375.438 7 117279700.756 7      3222.398          47.000    22001377.750 7  91217560.394 7      2506.310          46.000
C05                                                                  39780252.070 6 160178575.102 6         7.159          38.000
C23  22376820.234 8 116522001.094 8      1250.270          51.000
C25  22362892.383 8 116449499.904 8     -1494.785          51.000
E02  24654680.891 8 129561198.835 8      2099.863          51.000    24654681.320 8  99274230.232 8      1609.019          51.000
E03  23466429.430 8 123316921.414 8      -697.074          51.000    23466429.953 8  94489593.889 8      -534.137          51.000
E05  26389522.336 8 138677838.475 8     -2724.809          51.000    26389524.695 7 106259671.055 7     -2087.831          47.000
E25  23519137.070 8 123593970.412 8      -503.418          51.000    23519140.672 8  94701856.947 8      -385.679          51.000
> 2020 05 09 05 14  0.0000000  0 15        .000000000000
G13  20164357.273 8 105964407.323 8      -284.398          51.000    20164355.406 8  82569649.031 8      -221.609          49.000
G17  23950882.211 5 125862757.961 5      2624.500          34.000    23950884.836 5  98074829.849 5      2045.065          33.000
G28  21159271.453 7 111192737.953 7     -1293.066          42.000    21159269.359 6  86643700.081 6     -1007.587          38.000
R02  20950956.414 8 111798289.736 8     -3597.238          51.000    20950956.812 6  86954248.461 6     -2797.855          41.000
R03  19271869.516 8 103163837.281 8       198.145          50.000    19271872.297 8  80238529.986 8       154.112          48.000
R12  21193263.234 5 113210601.007 5     -3184.484          31.000    21193256.242 4  88052664.525 4     -2476.821          25.000
R13  19293306.141 6 103025180.296 6       165.457          37.000    19293308.867 6  80130663.280 6       128.689          38.000
