     3.02           OBSERVATION DATA    M (MIXED)           RINEX VERSION / TYPE
SAVERINEX           SC600               20200514 035930 LCL PGM / RUN BY / DATE
       G = GPS       R = GLONASS       C = COMPASS          COMMENT
       S = SBAS      J = QZSS          E = GALILEO          COMMENT
BEAN                                                        MARKER NAME
1                                                           MARKER NUMBER
GEODETIC                                                    MARKER TYPE
Unige DICCA         GTER                                    OBSERVER / AGENCY
SC60291900056       SC600               2.12(191226)        REC # / TYPE / VERS
                    HEMA45          NONE                    ANT # / TYPE
  4509407.8091   693652.4678  4442337.6214                  APPROX POSITION XYZ
        0.0000        0.0000        0.0000                  ANTENNA: DELTA H/E/N
G    8 C1C L1C D1C S1C C2Y L2Y D2Y S2Y                      SYS / # / OBS TYPES
R    8 C1C L1C D1C S1C C2P L2P D2P S2P                      SYS / # / OBS TYPES
C    8 C1I L1I D1I S1I C7I L7I D7I S7I                      SYS / # / OBS TYPES
E    8 C1C L1C D1C S1C C7Q L7Q D7Q S7Q                      SYS / # / OBS TYPES
DBHZ                                                        COMMENT
     30.000                                                 INTERVAL
  2020    05    14    01    00    0.0000000     GPS         TIME OF FIRST OBS
  2020    05    14    01    59   30.0000000     GPS         TIME OF LAST OBS
     0                                                      RCV CLOCK OFFS APPL
G L1C  0.00000                                              SYS / PHASE SHIFT
G L2Y  0.00000                                              SYS / PHASE SHIFT
R L1C  0.00000                                              SYS / PHASE SHIFT
R L2P  0.25000                                              SYS / PHASE SHIFT
C L1I  0.00000                                              SYS / PHASE SHIFT
C L7I  0.00000                                              SYS / PHASE SHIFT
E L1C  0.50000                                              SYS / PHASE SHIFT
E L7Q -0.25000                                              SYS / PHASE SHIFT
 16 R02 -4 R03  5 R04  6 R05  1 R06 -4 R09 -2 R10 -5 R13 -2 GLONASS SLOT / FRQ #
    R14 -7 R15  0 R16 -1 R18 -3 R19  3 R20  2 R21  4 R22 -3 GLONASS SLOT / FRQ #
 C1C   71.950 C2C   71.950 C2P   71.950                     GLONASS COD/PHS/BIS
    18                                                      LEAP SECONDS
*** Above antenna height is from mark to ANTENNA BOTTOM.    COMMENT
    17     4        0.0000        ANT MEASURE TYPE/HEIGT    COMMENT
    0.0000    0.0000    0.0458    0.0405    0.0000          COMMENT
                    BASE STATION                            COMMENT
                                                            END OF HEADER
> 2020 05 14 01 00  0.0000000  0 13        .000000000000
G04  23638274.781 5 124219940.779 5     -2905.090          30.000
G06  22212008.406 8 116724902.128 8     -2617.098          50.000    22212008.797 8  90954440.199 8     -2039.297          50.000
G07  20900313.922 8 109831878.711 8       820.781          51.000    20900312.258 8  85583242.730 8       639.573          51.000
G09  21084761.414 7 110801263.545 7     -1704.746          45.000    21084762.508 7  86338654.212 7     -1328.374          45.000
G30  21953268.727 8 115365206.992 8      2814.496          49.000    21953270.102 8  89894981.449 8      2193.114          49.000
R15  20770154.445 6 110989415.123 6     -1667.961          41.000    20770158.289 5  86325095.491 5     -1297.303          35.000
R16  20262230.578 8 108237273.729 8      2673.785          50.000    20262232.281 6  84184504.554 6      2079.611          41.000
R21  22711132.086 7 121531813.553 7     -3561.590          43.000    22711137.750 7  94524781.918 7     -2770.128          43.000
C05  39793166.188 6 207213457.796 6       -16.227          36.000    39793163.688 6 160230577.509 6       -12.415          39.000
C23  22586421.508 8 117613410.662 8       698.086          51.000
E07                                                                  24898542.953 7 100256190.329 7     -1221.014          42.000
E27  25583704.195 8 134443311.394 8      2542.305          51.000    25583700.219 8 103014997.904 8      1948.054          48.000
E33  25813765.289 6 135652355.827 6     -1991.176          39.000    25813770.328 7 103941345.914 7     -1525.826          47.000
> 2020 05 14 01 00 30.0000000  0 15        .000000000000
G02  22412519.734 5 117778560.798 5      -398.461          30.000
G04  23654842.406 5 124307030.121 5     -2905.469          30.000
G06  22226990.211 8 116803632.002 8     -2630.133          51.000    22226990.695 8  91015788.161 8     -2049.454          51.000
G07  20895677.953 8 109807516.834 8       804.812          51.000    20895676.633 8  85564259.453 8       627.127          51.000
G09  21094520.492 7 110852546.920 7     -1712.750          44.000    21094521.422 7  86378615.284 7     -1334.613          45.000
G30  21937236.359 8 115280957.388 8      2803.523          49.000    21937237.961 8  89829332.393 8      2184.564          49.000
R05  21280658.367 6 113757291.615 6     -2342.238          36.000
R15  20779593.000 6 111039849.448 6     -1693.027          37.000    20779594.883 5  86364322.114 5     -1316.802          34.000
R16  20247280.766 8 108157409.060 8      2651.891          50.000    20247281.398 6  84122387.616 6      2062.585          41.000
R21  22731135.164 7 121638849.777 7     -3572.684          43.000    22731139.922 7  94608032.300 7     -2778.754          44.000
C05  39793262.609 6 207213959.821 6       -15.910          36.000    39793260.125 6 160230965.703 6       -12.236          39.000
C23  22582449.922 8 117592730.757 8       681.875          51.000
E07  24907655.578 6 130890623.371 6     -1596.625          36.000    24907653.258 6 100292874.716 6     -1223.618          41.000
E27  25569215.844 8 134367177.705 8      2534.656          49.000    25569212.836 8 102956661.732 8      1942.175          48.000
E33  25825168.797 6 135712273.290 6     -2001.805          39.000    25825171.352 7 103987256.697 7     -1533.889          47.000
> 2020 05 14 01 01  0.0000000  0 13        .000000000000
G02  22414839.672 6 117790746.414 6      -415.859          37.000
G06  22242042.406 8 116882731.453 8     -2644.020          51.000    22242043.602 8  91077424.102 8     -2060.275          51.000
G07  20891129.930 8 109783616.527 8       787.859          51.000    20891128.500 8  85545635.851 8       613.916          51.000
G09  21104322.055 7 110904053.632 7     -1721.602          44.000    21104322.906 7  86418750.360 7     -1341.511          44.000
G30  21921263.898 8 115197023.192 8      2791.172          49.000    21921265.727 8  89763929.105 8      2174.939          49.000
R15  20789166.148 6 111091006.776 6     -1718.305          36.000    20789169.102 5  86404111.320 5     -1336.453          34.000
R16  20232450.875 8 108078186.979 8      2628.852          50.000    20232451.055 6  84060770.481 6      2044.665          41.000
R21  22751197.250 7 121746202.192 7     -3584.809          42.000    22751201.695 7  94691528.607 7     -2788.184          45.000
C05  39793353.211 6 207214431.867 6       -16.531          36.000    39793350.852 6 160231330.711 6       -12.587          39.000
C23  22578568.930 8 117572522.656 8       664.570          51.000
E07  24916786.844 6 130938586.862 6     -1601.328          37.000    24916780.062 6 100329626.004 6     -1227.055          41.000
E27  25554768.781 8 134291259.344 8      2525.906          48.000    25554766.469 8 102898490.552 8      1935.363          48.000
E33  25836628.008 7 135772486.570 7     -2013.215          42.000    25836628.547 7 104033394.166 7     -1542.611          47.000
> 2020 05 14 01 01 30.0000000  0 13        .000000000000
G02  22417262.320 6 117803464.981 6      -433.188          36.000
G06  22257171.219 8 116962232.850 8     -2656.625          51.000    22257172.781 8  91139373.245 8     -2070.097          51.000
G07  20886676.609 8 109760213.309 8       771.746          51.000    20886675.008 8  85527399.577 8       601.361          51.000
G09  21114172.695 7 110955817.984 7     -1729.816          44.000    21114172.430 7  86459086.187 7     -1347.909          44.000
G30  21905358.688 8 115113441.373 8      2780.266          49.000    21905360.562 8  89698800.401 8      2166.441          49.000
R15  20798881.281 6 111142921.116 6     -1743.082          41.000    20798881.891 5  86444488.998 5     -1355.734          33.000
R16  20217748.008 8 107999646.461 8      2606.535          48.000    20217747.969 6  83999683.431 6      2027.305          41.000
R21  22771323.992 7 121853902.012 7     -3595.613          42.000    22771328.750 7  94775295.150 7     -2796.588          45.000
C05  39793444.852 6 207214908.837 6       -16.277          36.000    39793442.383 6 160231699.513 6       -12.179          39.000
C23  22574785.516 8 117552821.647 8       648.230          51.000
E07  24925937.391 5 130986672.843 5     -1605.012          34.000    24925930.828 6 100366471.144 6     -1229.808          40.000
E27  25540370.227 7 134215593.482 7      2517.988          46.000    25540368.094 7 102840512.837 7      1929.299          47.000
E33  25848149.906 7 135833029.181 7     -2023.469          42.000    25848148.531 7 104079783.970 7     -1550.462          46.000
> 2020 05 14 01 02  0.0000000  0 13        .000000000000
G02  22419765.727 6 117816607.763 6      -449.883          37.000
G06  22272355.703 8 117042025.834 8     -2668.984          51.000    22272357.078 8  91201549.610 8     -2079.728          50.000
G07  20882297.281 8 109737199.299 8       756.160          51.000    20882295.672 8  85509466.595 8       589.216          51.000
G09  21124051.586 7 111007731.389 7     -1737.246          43.000    21124051.008 7  86499538.196 7     -1353.698          43.000
G30  21889500.766 8 115030106.197 8      2769.301          50.000    21889502.000 8  89633863.918 8      2157.897          50.000
R16  20203152.195 7 107921681.456 7      2584.719          45.000    20203153.047 7  83939044.001 7      2010.337          42.000
R21  22791493.375 6 121961834.698 6     -3605.930          40.000    22791498.820 7  94859242.837 7     -2804.612          44.000
C05  39793516.914 6 207215284.088 6       -15.293          36.000    39793514.406 6 160231989.712 6       -11.717          39.000
C23  22571079.406 8 117533521.493 8       632.281          51.000
C25  24594876.352 4 128071977.918 4     -2270.863          29.000
E07  24935085.336 5 131034772.686 5     -1607.875          34.000    24935085.273 6 100403327.520 6     -1232.032          40.000
E27  25525998.797 7 134140074.424 7      2510.453          44.000    25525996.961 7 102782647.542 7      1923.570          47.000
E33  25859713.211 7 135893791.684 7     -2033.422          42.000    25859711.156 7 104126342.288 7     -1558.136          46.000
> 2020 05 14 01 02 30.0000000  0 14        .000000000000
G02  22422411.438 5 117830501.681 5      -466.941          35.000
G06  22287657.578 8 117122435.031 8     -2681.922          51.000    22287658.523 8  91264206.149 8     -2089.809          51.000
G07  20878054.531 8 109714902.725 8       739.855          51.000    20878052.602 8  85492092.645 8       576.511          51.000
G09  21134020.773 7 111060120.493 7     -1745.570          42.000    21134021.211 7  86540360.847 7     -1360.188          42.000
G30  21873752.586 8 114947346.886 8      2757.621          51.000    21873752.469 8  89569376.178 8      2148.796          51.000
R15  20818735.195 6 111249025.453 6     -1791.793          40.000    20818738.359 5  86527018.313 5     -1393.623          33.000
R16  20188726.586 7 107844628.252 7      2562.129          45.000    20188728.836 7  83879113.729 7      1992.767          43.000
R21  22811768.117 6 122070329.169 6     -3617.219          41.000    22811773.555 7  94943627.440 7     -2813.392          44.000
C05  39793631.758 6 207215881.967 6       -15.188          36.000    39793629.203 6 160232452.013 6       -11.813          39.000
C23  22567512.438 8 117514947.023 8       615.570          51.000
C25  24608026.539 5 128140442.801 5     -2283.262          30.000
E07  24944301.391 6 131083215.448 6     -1611.895          36.000    24944303.422 6 100440446.004 6     -1235.028          39.000
E27  25511715.562 7 134065031.461 7      2502.070          44.000    25511716.805 8 102725147.012 8      1917.180          48.000
E33  25871378.438 6 135955099.781 6     -2044.125          38.000    25871377.891 7 104173318.589 7     -1566.224          46.000
> 2020 05 14 01 03  0.0000000  0 13        .000000000000
G06  22303014.289 8 117203133.934 8     -2695.977          49.000    22303015.289 8  91327088.434 8     -2100.761          49.000
G07  20873886.711 8 109692999.745 8       722.211          51.000    20873884.445 8  85475025.386 8       562.762          51.000
G09  21144018.672 6 111112660.676 6     -1755.391          41.000    21144019.672 6  86581301.195 6     -1367.840          40.000
G30  21858052.703 8 114864841.562 8      2744.723          51.000    21858051.344 8  89505086.352 8      2138.748          51.000
R15  20828878.961 5 111303202.330 5     -1817.852          31.000    20828873.922 5  86569155.799 5     -1413.888          31.000
R16  20174410.938 7 107768161.035 7      2537.840          44.000    20174414.234 7  83819639.177 7      1973.875          44.000
R21  22832086.219 7 122179050.888 7     -3629.148          43.000    22832091.023 7  95028188.761 7     -2822.671          45.000
C05  39793727.633 5 207216381.740 5       -16.566          35.000    39793725.266 6 160232838.477 6       -12.611          39.000
C23  22564023.438 8 117496777.865 8       597.629          51.000
C25  24621226.164 5 128209157.462 5     -2295.195          30.000
E07  24953523.750 6 131131676.564 6     -1617.125          37.000    24953523.930 6 100477578.551 6     -1239.018          39.000
E27  25497463.609 7 133990142.656 7      2492.434          46.000    25497467.609 8 102667764.685 8      1909.799          50.000
E33  25883084.148 5 136016627.961 5     -2055.910          34.000    25883086.062 7 104220463.538 7     -1575.278          45.000
> 2020 05 14 01 03 30.0000000  0 14        .000000000000
G06  22318438.711 7 117284192.597 7     -2708.383          47.000    22318440.586 7  91390251.030 7     -2110.428          47.000
G07  20869807.492 8 109671563.093 8       706.512          51.000    20869805.180 8  85458321.521 8       550.529          51.000
G09  21154058.930 7 111165423.829 7     -1762.867          42.000    21154059.648 7  86622415.326 7     -1373.666          43.000
G30  21842415.195 8 114782664.882 8      2733.402          51.000    21842413.875 8  89441052.598 8      2129.924          51.000
R05  21360450.383 5 114183751.535 5     -2395.523          34.000
R15  20839147.359 5 111358093.449 5     -1841.750          35.000    20839144.555 5  86611836.947 5     -1432.469          32.000
R16  20160219.438 7 107692357.245 7      2515.203          42.000    20160223.656 7  83760680.649 7      1956.272          44.000
R21  22852460.281 7 122288069.264 7     -3639.195          45.000    22852464.234 7  95112980.819 7     -2830.485          44.000
C05  39793818.680 6 207216855.654 6       -15.898          36.000    39793816.258 6 160233204.935 6       -12.022          39.000
C23  22560626.414 8 117479086.585 8       581.445          51.000
C25  24634484.984 5 128278180.231 5     -2306.207          30.000
E07  24962763.094 6 131180228.734 6     -1620.227          37.000    24962762.984 6 100514780.842 6     -1241.484          38.000
E27  25483256.844 8 133915482.861 8      2484.492          48.000    25483262.203 8 102610557.820 8      1903.696          51.000
E33  25894846.406 6 136078340.293 6     -2065.801          37.000    25894849.836 7 104267831.560 7     -1582.949          46.000
> 2020 05 14 01 04  0.0000000  0 14        .000000000000
G02  22430868.406 5 117875012.997 5      -519.254          32.000
G06  22333929.930 7 117365603.761 7     -2720.629          46.000    22333932.359 7  91453688.314 7     -2119.971          46.000
G07  20865816.320 8 109650589.089 8       690.355          51.000    20865813.945 8  85441978.143 8       537.939          51.000
G09  21164140.883 7 111218404.835 7     -1770.871          43.000    21164141.492 7  86663699.221 7     -1379.900          43.000
G30  21826839.555 8 114700814.274 8      2721.680          51.000    21826839.141 8  89377272.900 8      2120.789          51.000
R15  20849552.414 5 111413691.867 5     -1866.254          31.000    20849553.148 5  86655080.254 5     -1451.522          32.000
R16  20146151.656 7 107617215.319 7      2492.336          44.000    20146156.781 7  83702236.967 7      1938.484          42.000
R21  22872888.070 7 122397375.320 7     -3649.598          44.000    22872891.094 7  95197996.646 7     -2838.576          43.000
C05  39793903.820 6 207217299.283 6       -15.445          36.000    39793901.484 6 160233547.983 6       -12.046          39.000
C23  22557320.266 8 117461869.171 8       564.840          51.000
C25  24647802.938 4 128347576.693 4     -2318.184          29.000
E07  24972018.211 5 131228840.650 5     -1623.793          32.000    24972019.109 6 100552049.550 6     -1244.426          38.000
E27  25469093.484 8 133841049.527 8      2476.133          49.000    25469099.641 8 102553524.502 8      1897.315          51.000
E33  25906663.758 6 136140444.466 6     -2075.855          36.000    25906667.820 7 104315417.916 7     -1590.734          46.000
> 2020 05 14 01 04 30.0000000  0 14        .000000000000
G02  22433877.422 6 117890818.581 6      -532.312          38.000    22433877.922 4  91862960.632 4      -414.780          29.000
G04  23787978.508 5 125006680.984 5     -2918.863          33.000
G06  22349487.859 7 117447364.053 7     -2728.195          46.000    22349489.789 7  91517397.639 7     -2125.866          47.000
G07  20861912.922 8 109630076.769 8       678.844          51.000    20861910.641 8  85425994.519 8       528.969          51.000
G09  21174264.070 7 111271602.128 7     -1774.164          44.000    21174264.859 7  86705151.648 7     -1382.466          44.000
G30  21811325.961 8 114619290.972 8      2714.863          51.000    21811326.570 8  89313748.228 8      2115.478          51.000
R15  20860083.430 6 111470024.482 6     -1885.820          37.000    20860088.078 5  86698897.187 5     -1466.749          30.000
R16  20132209.594 7 107542737.936 7      2474.316          47.000    20132213.820 6  83644310.120 6      1924.468          40.000
R21  22893367.852 7 122506963.487 7     -3654.754          44.000    22893370.125 6  95283231.894 6     -2842.586          41.000
C05  39793983.039 6 207217711.969 6        -9.941          36.000    39793980.719 6 160233867.116 6        -7.941          40.000
C23  22554104.969 8 117445125.297 8       553.051          51.000
E07  24981290.734 6 131277565.452 6     -1622.574          37.000    24981290.320 6 100589384.137 6     -1243.313          36.000
E27  25454973.633 8 133766844.021 8      2472.605          50.000    25454980.016 8 102496665.753 8      1894.636          51.000
E33  25918535.469 6 136202831.239 6     -2081.312          40.000    25918539.953 7 104363220.776 7     -1594.829          47.000
> 2020 05 14 01 05  0.0000000  0 15        .000000000000
G02  22436987.617 5 117907160.956 5      -554.141          34.000    22436990.094 5  91875694.942 5      -431.804          31.000
G04  23804672.305 5 125094381.668 5     -2924.871          32.000
G06  22365120.867 8 117529515.953 8     -2745.168          48.000    22365121.906 8  91581412.069 8     -2139.092          48.000
G07  20858105.992 8 109610071.798 8       658.098          51.000    20858103.984 8  85410406.242 8       512.803          51.000
G09  21184436.969 7 111325060.229 7     -1786.508          44.000    21184438.023 7  86746807.284 7     -1392.084          44.000
G30  21795883.688 8 114538142.003 8      2698.398          51.000    21795884.484 8  89250515.242 8      2102.645          51.000
R05  21400977.508 5 114400495.606 5     -2421.605          32.000
R16  20118401.828 8 107468974.743 8      2446.488          48.000    20118404.664 6  83586938.806 6      1902.827          39.000
R21  22913907.672 7 122616875.494 7     -3669.277          44.000    22913908.984 6  95368719.001 6     -2853.882          41.000
C05  39794065.055 6 207218139.308 6       -14.902          36.000    39794062.664 6 160234197.166 6       -11.605          39.000
C23  22550989.070 8 117428900.266 8       531.930          50.000
C25  24674617.047 4 128487183.709 4     -2338.609          29.000
E07  24990587.094 5 131326421.394 5     -1630.559          31.000    24990586.938 6 100626819.262 6     -1249.542          36.000
E27  25440905.820 8 133692913.490 8      2459.441          50.000    25440911.945 8 102440017.723 8      1884.516          51.000
E33  25930470.305 6 136265544.031 6     -2096.133          40.000    25930474.180 7 104411273.417 7     -1606.137          47.000
> 2020 05 14 01 05 30.0000000  0 15        .000000000000
G04  23821377.930 4 125182159.899 4     -2926.898          29.000    23821374.562 5  97544545.100 5     -2280.700          30.000
G06  22380827.969 8 117612055.802 8     -2757.184          49.000    22380828.891 8  91645728.798 8     -2148.458          49.000
G07  20854395.336 8 109590573.107 8       642.211          51.000    20854393.500 8  85395212.467 8       500.424          51.000
G09  21194659.203 7 111378777.468 7     -1794.156          43.000    21194660.156 7  86788664.849 7     -1398.044          43.000
G30  21780513.062 8 114457368.341 8      2686.781          51.000    21780512.664 8  89187574.750 8      2093.596          51.000
R05  21414597.422 5 114473306.743 5     -2429.816          34.000
R15  20881609.391 5 111584976.107 5     -1938.797          34.000
R16  20104728.305 8 107395927.872 8      2423.551          49.000    20104729.383 6  83530124.622 6      1884.987          40.000
R21  22934506.375 7 122727105.476 7     -3679.039          42.000    22934507.359 6  95454453.426 6     -2861.475          41.000
C05  39794149.508 6 207218578.851 6       -14.262          36.000    39794147.211 6 160234537.436 6       -11.221          39.000
C23  22547972.156 8 117413193.530 8       515.441          50.000
C25  24688122.531 4 128557534.477 4     -2350.691          29.000
E07                                                                  24999910.242 6 100664354.312 6     -1252.167          37.000
E27  25426890.633 8 133619259.082 8      2451.168          50.000    25426895.391 8 102383581.257 8      1878.186          51.000
E33  25942466.914 7 136328580.276 7     -2105.887          42.000    25942469.016 7 104459573.938 7     -1613.640          47.000
> 2020 05 14 01 06  0.0000000  0 13        .000000000000
G06  22396649.078 8 117695194.576 8     -2768.523          50.000    22396650.430 8  91710512.237 8     -2157.291          50.000
G07  20850821.906 8 109571794.628 8       626.758          51.000    20850820.008 8  85380579.878 8       488.383          51.000
G09  21204971.188 7 111432966.817 7     -1801.516          43.000    21204971.672 7  86830890.316 7     -1403.781          43.000
G30  21765254.977 8 114377185.630 8      2675.598          51.000    21765252.234 8  89125094.779 8      2084.884          51.000
R05  21428293.852 5 114546579.981 5     -2437.961          34.000    21428294.555 4  89091755.170 4     -1896.195          27.000
R16  20091230.008 8 107323817.797 8      2400.867          48.000    20091230.375 7  83474039.049 7      1867.341          42.000
R21  22955203.859 7 122837866.515 7     -3687.844          42.000    22955206.078 6  95540600.915 6     -2868.320          40.000
C05  39794277.328 6 207219244.572 6       -13.180          36.000    39794274.992 6 160235051.811 6       -10.336          39.000
C23  22545095.586 8 117398217.278 8       499.621          50.000
C25  24701733.266 4 128628408.238 4     -2360.152          27.000
E07                                                                  25009298.141 6 100702153.036 6     -1254.881          36.000
E27  25412968.805 8 133546096.500 8      2443.293          49.000    25412971.578 8 102327521.616 8      1872.140          50.000
E33  25954564.930 7 136392152.041 7     -2115.293          42.000    25954565.969 7 104508284.702 7     -1620.737          47.000
> 2020 05 14 01 06 30.0000000  0 15        .000000000000
G02  22446953.062 5 117959494.022 5      -589.266          32.000    22446950.070 4  91916501.675 4      -459.168          29.000
G06  22412484.242 8 117778407.375 8     -2765.504          51.000    22412485.789 8  91775353.355 8     -2154.938          51.000
G07  20847286.219 8 109553214.590 8       625.438          51.000    20847284.484 8  85366101.933 8       487.354          51.000
G09  21215273.555 7 111487105.354 7     -1794.367          42.000    21215273.039 7  86873076.183 7     -1398.208          42.000
G30  21750010.281 8 114297073.563 8      2678.742          51.000    21750006.719 8  89062669.844 8      2087.335          51.000
R05  21441983.422 6 114619819.756 6     -2430.938          36.000
R15  20903647.797 5 111702788.236 5     -1970.176          34.000    20903653.398 4  86879944.380 4     -1532.359          29.000
R16  20077807.984 7 107252117.217 7      2392.738          47.000    20077808.500 7  83418271.951 7      1861.019          43.000
R21  22975900.367 7 122948622.467 7     -3682.105          43.000    22975903.766 6  95626744.490 6     -2863.857          40.000
C05  39794349.016 6 207219617.077 6         1.910          36.000    39794346.586 6 160235340.235 6         1.453          39.000
C23  22542260.242 8 117383454.435 8       497.910          51.000
C25  24715352.062 5 128699342.871 5     -2356.449          31.000
E07                                                                  25018652.180 5 100739815.394 5     -1245.764          35.000
E27  25399041.188 7 133472905.585 7      2449.594          47.000    25399042.484 8 102271440.226 8      1876.976          50.000
E33  25966664.594 6 136455735.322 6     -2110.180          41.000    25966665.258 7 104557004.369 7     -1616.846          47.000
> 2020 05 14 01 07  0.0000000  0 15        .000000000000
G02  22450448.969 5 117977874.017 5      -627.105          31.000
G06  22428390.680 8 117861995.065 8     -2797.758          51.000    22428391.992 8  91840486.596 8     -2180.071          51.000
G07  20843846.211 8 109535136.784 8       588.941          51.000    20843844.453 8  85352015.340 8       458.912          51.000
G09  21225623.781 7 111541495.911 7     -1822.730          43.000    21225623.289 7  86915458.439 7     -1420.306          43.000
G30  21734836.898 8 114217337.619 8      2646.258          51.000    21734834.484 8  89000537.956 8      2062.019          51.000
R05  21455731.414 5 114693334.552 5     -2460.496          33.000    21455760.695 4  89205858.693 4     -1913.719          28.000
R15  20914860.016 5 111762710.043 5     -2014.531          34.000    20914850.086 4  86926519.816 4     -1566.858          27.000
R16  20064520.656 7 107181137.613 7      2348.574          47.000    20064521.617 7  83363065.572 7      1826.669          45.000
R21  22996652.805 7 123059677.632 7     -3712.117          43.000    22996657.344 6  95713120.758 6     -2887.199          40.000
C05  39794422.359 5 207219998.860 5       -18.023          35.000    39794419.914 6 160235635.451 6       -13.898          39.000
C23  22539523.938 8 117369206.160 8       461.105          51.000
C25  24729039.195 5 128770625.244 5     -2386.543          32.000
E07                                                                  25028030.914 5 100777574.091 5     -1264.429          33.000
E27  25385166.109 7 133399991.870 7      2420.488          47.000    25385166.609 8 102215571.248 8      1854.678          50.000
E33  25978822.711 7 136519632.009 7     -2140.359          42.000    25978824.961 8 104605964.170 8     -1640.043          48.000
> 2020 05 14 01 07 30.0000000  0 13        .000000000000
G02  22454058.547 5 117996857.278 5      -641.133          34.000
G06  22444381.828 8 117946030.336 8     -2807.176          48.000    22444383.094 8  91905968.609 8     -2187.410          48.000
G07  20840516.180 8 109517636.712 8       575.160          51.000    20840514.023 8  85338378.903 8       448.177          51.000
G09  21236036.258 7 111596213.246 7     -1827.703          45.000    21236035.883 7  86958095.346 7     -1424.184          44.000
G30  21719749.555 8 114138055.133 8      2636.742          50.000    21719748.648 8  88938759.391 8      2054.604          50.000
R05  21469560.266 5 114767128.920 5     -2466.590          34.000    21469562.594 4  89263304.294 4     -1918.459          29.000
R16  20051382.773 7 107110958.895 7      2327.383          46.000    20051384.727 7  83308482.105 7      1810.187          45.000
R21  23017474.820 7 123171104.394 7     -3718.828          44.000    23017479.227 6  95799786.001 6     -2892.422          39.000
C05  39794511.773 6 207220464.404 6       -15.730          36.000    39794509.344 6 160235995.440 6       -11.916          39.000
C23  22536901.289 8 117355547.648 8       446.949          51.000
C25  24742807.266 5 128842319.303 5     -2395.426          34.000
E27  25371359.031 8 133327432.796 8      2414.238          50.000    25371358.227 8 102159974.026 8      1849.838          50.000
E33  25991055.898 7 136583915.844 7     -2147.570          44.000    25991058.961 8 104655220.686 8     -1645.682          48.000
> 2020 05 14 01 08  0.0000000  0 14        .000000000000
G02  22457768.250 6 118016357.580 6      -656.039          36.000
G06  22460440.945 7 118030424.864 7     -2816.488          46.000    22460442.828 7  91971730.603 7     -2194.663          46.000
G07  20837279.648 8 109500628.823 8       561.461          51.000    20837277.508 8  85325125.996 8       437.502          51.000
G09  21246494.531 7 111651171.229 7     -1833.254          44.000    21246493.805 7  87000919.762 7     -1428.510          44.000
G30  21704732.656 8 114059142.451 8      2626.984          50.000    21704732.922 8  88877268.968 8      2047.001          50.000
R05  21483429.547 5 114841256.896 5     -2472.996          33.000
R16  20038378.703 7 107041497.469 7      2306.168          45.000    20038381.719 7  83254456.518 7      1793.683          45.000
R21  23038349.773 7 123282811.196 7     -3725.469          47.000    23038352.000 6  95886669.002 6     -2897.590          38.000
C05  39794600.898 6 207220929.043 6       -13.113          36.000    39794598.523 6 160236354.708 6        -9.880          39.000
C23  22534375.648 8 117342394.454 8       432.793          51.000
C25  24756638.570 5 128914338.305 5     -2403.168          35.000
E07  25046911.414 5 131622405.075 5     -1652.406          32.000
E27  25357603.570 8 133255144.841 8      2407.906          51.000    25357601.820 8 102104584.589 8      1845.010          50.000
E33  26003346.672 7 136648499.779 7     -2155.035          47.000    26003349.836 8 104704707.073 8     -1651.141          48.000
> 2020 05 14 01 08 30.0000000  0 13        .000000000000
G02  22461581.477 6 118036399.575 6      -674.148          36.000
G06  22476572.727 7 118115201.518 7     -2829.105          46.000    22476575.781 7  92037790.387 7     -2204.498          46.000
G07  20834141.625 8 109484138.971 8       544.023          51.000    20834139.750 8  85312276.773 8       423.914          51.000
G09  21257003.352 7 111706394.757 7     -1842.113          44.000    21257002.359 7  87043951.046 7     -1435.413          44.000
G30  21689791.805 8 113980626.984 8      2613.555          51.000    21689792.617 8  88816088.085 8      2036.536          51.000
R05  21497347.617 5 114915718.197 5     -2482.738          34.000    21497350.781 5  89378850.554 5     -1931.016          33.000
R16  20025514.656 7 106972782.530 7      2281.121          46.000    20025518.492 7  83201011.536 7      1774.205          45.000
R21  23059282.094 7 123394819.277 7     -3735.488          47.000    23059282.117 6  95973786.350 6     -2905.383          38.000
C05  39794694.805 6 207221418.208 6       -13.688          36.000    39794692.492 6 160236732.969 6       -10.442          39.000
C23  22531951.938 8 117329772.281 8       414.809          51.000
C25  24770536.844 5 128986705.907 5     -2415.246          35.000
E27  25343904.602 8 133183155.592 8      2397.723          51.000    25343902.273 8 102049424.017 8      1837.288          50.000
E33  26015699.180 7 136713407.529 7     -2165.777          46.000    26015701.477 8 104754441.575 8     -1659.495          48.000
> 2020 05 14 01 09  0.0000000  0 14        .000000000000
G02  22465501.766 5 118057005.844 5      -698.980          32.000    22465492.992 4  91992441.185 4      -544.660          29.000
G04  23938675.289 4 125798572.298 4     -2948.090          29.000
G06  22492781.883 8 118200380.735 8     -2848.754          49.000    22492785.531 8  92104163.809 8     -2219.808          49.000
G07  20831106.695 8 109468190.352 8       519.695          51.000    20831104.820 8  85299849.269 8       404.957          51.000
G09  21267566.961 7 111761906.154 7     -1857.879          42.000    21267565.953 6  87087206.617 6     -1447.698          41.000
G30  21674931.555 8 113902533.673 8      2593.172          51.000    21674932.289 8  88755236.167 8      2020.653          51.000
R16  20012795.953 8 106904840.408 8      2248.938          48.000    20012799.609 7  83148167.653 7      1749.174          44.000
R21  23080274.680 7 123507147.758 7     -3752.355          47.000    23080273.281 6  96061152.924 6     -2918.499          39.000
C05  39794797.898 6 207221955.011 6       -21.516          36.000    39794795.594 6 160237148.083 6       -16.622          40.000
C23  22529634.633 8 117317704.300 8       390.293          51.000
C25  24784506.086 5 129059442.987 5     -2433.141          35.000
E07  25065842.219 6 131721893.702 6     -1668.680          36.000
E27  25330266.719 8 133111490.138 8      2380.664          51.000    25330264.828 8 101994511.558 8      1824.145          50.000
E33  26028116.438 7 136778660.510 7     -2183.742          46.000    26028117.211 7 104804440.593 7     -1673.161          46.000
> 2020 05 14 01 09 30.0000000  0 16        .000000000000
G02  22469491.930 5 118077984.179 5      -708.285          32.000
G04  23955468.883 5 125886793.036 5     -2942.352          32.000
G06  22509031.156 8 118285768.846 8     -2853.176          50.000    22509034.555 8  92170699.991 8     -2223.254          50.000
G07  20828138.336 8 109452591.792 8       510.715          51.000    20828136.430 8  85287694.561 8       397.963          51.000
G09  21278148.883 7 111817513.844 7     -1858.668          43.000    21278147.273 7  87130537.246 7     -1448.313          43.000
G30  21660115.648 8 113824673.556 8      2587.895          51.000    21660116.047 8  88694565.974 8      2016.541          51.000
R05  21525340.359 5 115065274.118 5     -2501.246          30.000    21525342.453 5  89495229.766 5     -1945.408          32.000
R15  20973004.203 5 112073440.468 5     -2129.156          34.000    20973004.727 4  87168229.060 4     -1656.020          28.000
R16  20000186.203 8 106837480.159 8      2232.070          48.000    20000189.281 7  83095776.350 7      1736.055          43.000
R21  23101289.391 7 123619597.551 7     -3753.902          45.000    23101287.312 6  96148613.864 6     -2919.702          39.000
C05  39794873.750 6 207222349.435 6       -14.270          36.000    39794871.539 6 160237453.844 6       -11.028          39.000
C23  22527387.352 8 117306001.713 8       380.508          51.000
C25  24798509.727 5 129132358.668 5     -2437.207          33.000
E07  25075333.898 6 131771769.223 6     -1665.773          38.000
E27  25316653.961 8 133039959.604 8      2378.633          50.000    25316653.766 8 101939702.467 8      1822.595          50.000
E33  26040562.336 7 136844066.070 7     -2186.230          46.000    26040561.469 7 104854556.524 7     -1675.179          46.000
> 2020 05 14 01 10  0.0000000  0 13        .000000000000
G04  23972280.422 6 125975130.149 6     -2946.656          37.000
G06  22525358.008 8 118371564.434 8     -2866.383          51.000    22525360.227 8  92237553.672 8     -2233.548          51.000
G07  20825274.977 8 109437545.017 8       492.633          51.000    20825273.203 8  85275969.815 8       383.870          51.000
G09  21288787.094 6 111873418.497 6     -1868.270          41.000    21288785.125 7  87174099.315 7     -1455.794          42.000
G30  21645382.516 8 113747249.771 8      2573.773          51.000    21645382.586 8  88634235.779 8      2005.541          51.000
R16  19987723.781 7 106770909.836 7      2206.176          47.000    19987726.609 7  83043999.456 7      1715.914          42.000
R21  23122362.992 7 123732369.357 7     -3764.219          42.000    23122361.539 6  96236325.275 6     -2927.726          39.000
C05  39794960.852 6 207222803.205 6       -15.996          36.000    39794958.703 6 160237804.712 6       -12.309          40.000
C23  22525248.742 8 117294864.322 8       362.086          51.000
C25  24812585.969 5 129205650.457 5     -2449.535          32.000
E07  25084853.875 5 131821813.339 5     -1670.805          35.000
E27  25303105.648 8 132968767.342 8      2367.742          50.000    25303107.312 8 101885152.556 8      1814.280          51.000
E33  26053075.484 8 136909823.935 8     -2197.422          48.000    26053073.102 7 104904942.385 7     -1683.778          45.000
> 2020 05 14 01 10 30.0000000  0 14        .000000000000
G04  23989100.805 5 126063520.661 5     -2947.328          35.000
G06  22541749.836 8 118457701.999 8     -2876.430          51.000    22541750.391 8  92304673.824 8     -2241.377          51.000
G07  20822504.773 8 109422987.470 8       477.660          51.000    20822503.266 8  85264626.283 8       372.203          51.000
G09  21299469.602 6 111929556.794 6     -1874.406          38.000    21299468.156 6  87217843.417 6     -1460.579          39.000
G30  21630720.469 8 113670201.493 8      2562.559          50.000    21630720.469 8  88574198.181 8      1996.799          50.000
R15  20997188.289 4 112202606.199 4     -2176.027          27.000    20997187.633 4  87268683.874 4     -1692.475          28.000
R16  19975397.648 7 106705068.398 7      2183.086          47.000    19975400.445 7  82992789.481 7      1697.959          42.000
R21  23143483.789 7 123845394.702 7     -3771.273          42.000    23143483.797 6  96324233.864 6     -2933.216          41.000
C05  39795047.398 6 207223253.262 6       -14.160          36.000    39795045.109 6 160238152.728 6       -11.200          40.000
C23  22523206.633 8 117284230.233 8       346.594          51.000
C25  24826722.188 5 129279254.369 5     -2458.301          30.000
E07  25094398.938 6 131871977.204 6     -1673.516          41.000
E27  25289610.734 8 132897852.617 8      2359.762          51.000    25289613.953 8 101830815.314 8      1808.156          51.000
E33  26065643.844 8 136975869.595 8     -2205.777          48.000    26065641.156 7 104955548.771 7     -1690.129          45.000
> 2020 05 14 01 11  0.0000000  0 13        .000000000000
G04  24005930.875 6 126151964.912 6     -2949.043          36.000
G06  22558206.023 8 118544179.614 8     -2888.055          50.000    22558205.250 8  92372058.947 8     -2250.432          50.000
G07  20819827.844 8 109408920.028 8       460.949          51.000    20819826.469 8  85253664.657 8       359.181          51.000
G09  21310196.633 6 111985928.907 6     -1882.879          40.000    21310195.828 6  87261769.730 6     -1467.175          40.000
G30  21616130.164 8 113593531.406 8      2549.566          51.000    21616130.570 8  88514455.252 8      1986.675          51.000
R05  21567668.531 5 115291548.424 5     -2527.875          31.000    21567675.891 4  89671215.219 4     -1966.125          27.000
R16  19963208.922 7 106639959.791 7      2158.188          47.000    19963211.016 6  82942149.464 6      1678.587          40.000
R21  23164651.312 7 123958669.782 7     -3779.699          42.000    23164653.227 7  96412336.676 7     -2939.766          42.000
C05  39795133.328 6 207223701.656 6       -14.320          36.000    39795131.055 6 160238498.696 6       -11.378          39.000
C23  22521261.188 8 117274100.544 8       329.438          51.000
E07  25103966.984 6 131922254.769 6     -1677.613          41.000
E27  25276169.820 8 132827218.276 8      2350.008          51.000    25276173.508 8 101776692.900 8      1800.613          51.000
E33  26078266.914 8 137042202.258 8     -2215.645          48.000    26078265.281 7 105006375.052 7     -1697.705          45.000
> 2020 05 14 01 11 30.0000000  0 12        .000000000000
G04  24022771.875 6 126240461.775 6     -2950.766          37.000
G06  22574725.938 8 118630993.767 8     -2899.578          50.000    22574725.039 8  92439706.305 8     -2259.412          50.000
G07  20817244.188 8 109395342.089 8       444.281          51.000    20817242.711 8  85243084.459 8       346.193          51.000
G09  21320967.695 6 112042533.329 6     -1890.473          40.000    21320967.656 6  87305877.070 6     -1473.096          41.000
G30  21601612.047 8 113517240.559 8      2536.469          51.000    21601613.062 8  88455007.817 8      1976.469          51.000
R16  19951158.477 8 106575586.213 8      2133.324          49.000    19951159.234 6  82892081.130 6      1659.252          40.000
R21  23185864.828 7 124072189.348 7     -3788.199          44.000    23185868.039 7  96500629.655 7     -2946.380          43.000
C05  39795218.578 6 207224145.834 6       -15.109          36.000    39795216.250 6 160238842.139 6       -11.590          39.000
C23  22519412.719 8 117264474.744 8       312.270          51.000
E07  25113556.383 6 131972645.555 6     -1681.781          39.000    25113560.297 6 101121890.447 6     -1288.488          36.000
E27  25262782.500 8 132756865.524 8      2340.199          51.000    25262786.117 8 101722786.249 8      1793.083          51.000
E33  26090943.711 7 137108819.373 7     -2225.539          47.000    26090943.203 7 105057419.326 7     -1705.211          45.000
> 2020 05 14 01 12  0.0000000  0 15        .000000000000
G02  22490967.836 5 118190839.661 5      -793.281          34.000
G04  24039614.352 5 126329025.863 5     -2950.727          33.000
G06  22591300.703 8 118718096.868 8     -2909.074          49.000    22591300.664 8  92507578.819 8     -2266.811          49.000
G07  20814745.102 8 109382208.593 8       429.480          51.000    20814743.688 8  85232850.582 8       334.660          51.000
G09  21331774.375 6 112099324.731 6     -1897.359          41.000    21331774.781 6  87350130.111 6     -1478.462          41.000
G30  21587158.320 8 113441285.903 8      2525.422          51.000    21587159.695 8  88395822.359 8      1967.858          51.000
R05  21596134.328 5 115443740.002 5     -2543.973          35.000    21596133.719 4  89789553.981 4     -1978.645          27.000
R15  21034442.859 5 112401670.232 5     -2243.574          31.000
R16  19939237.867 8 106511904.944 8      2110.238          49.000    19939238.680 6  82842551.325 6      1641.299          41.000
R21  23207115.000 7 124185903.318 7     -3794.570          45.000    23207118.625 7  96589073.846 7     -2951.332          43.000
C05  39795294.711 5 207224542.466 5       -13.391          35.000    39795292.516 6 160239148.834 6       -10.131          39.000
C23  22517652.445 8 117255308.639 8       297.012          51.000
E07  25123158.641 6 132023104.786 6     -1683.883          38.000    25123164.758 6 101160553.960 6     -1290.344          38.000
E27  25249439.898 8 132686751.501 8      2332.336          49.000    25249443.578 8 101669062.520 8      1787.094          50.000
E33  26103665.531 8 137175674.355 8     -2233.254          48.000    26103665.336 7 105108645.875 7     -1711.147          46.000
> 2020 05 14 01 12 30.0000000  0 14        .000000000000
G02  22495582.453 5 118215096.348 5      -810.020          31.000
G04  24056481.703 5 126417665.435 5     -2953.309          30.000
G06  22607978.555 7 118805741.450 7     -2920.184          47.000    22607979.773 7  92575873.301 7     -2275.468          47.000
G07  20812379.086 8 109369774.804 8       413.031          51.000    20812377.812 8  85223161.935 8       321.843          51.000
G09  21342665.266 6 112156557.704 6     -1905.000          41.000    21342665.680 6  87394727.233 6     -1484.416          41.000
G30  21572817.742 8 113365924.589 8      2512.371          51.000    21572819.188 8  88337099.265 8      1957.692          51.000
R15  21047139.875 6 112469454.582 6     -2267.453          36.000    21047122.125 4  87476232.162 4     -1763.575          26.000
R16  19927495.844 8 106449178.247 8      2085.277          49.000    19927496.883 6  82793763.975 6      1621.885          41.000
R21  23228448.914 7 124300067.097 7     -3802.633          45.000    23228453.164 7  96677867.898 7     -2957.603          43.000
C05  39795410.344 6 207225143.760 6       -13.633          36.000    39795408.125 6 160239614.587 6       -10.312          40.000
C23  22516029.055 8 117246855.470 8       280.031          51.000
E07  25132822.328 6 132073888.053 6     -1688.203          36.000    25132827.219 6 101199465.739 6     -1293.352          38.000
E27  25236191.031 7 132617133.590 7      2322.539          47.000    25236195.289 8 101615718.882 8      1779.611          49.000
E33  26116480.820 8 137243020.821 8     -2242.770          48.000    26116479.727 7 105160248.998 7     -1718.474          45.000
> 2020 05 14 01 13  0.0000000  0 14        .000000000000
G04  24073355.469 4 126506336.223 4     -2956.531          29.000
G06  22624681.469 7 118893517.573 7     -2932.457          46.000    22624684.133 7  92644270.304 7     -2285.031          46.000
G07  20810068.758 8 109357633.563 8       395.551          51.000    20810067.555 8  85213701.228 8       308.221          51.000
G09  21353562.961 7 112213824.463 7     -1913.750          42.000    21353562.602 7  87439350.684 7     -1491.234          42.000
G30  21558512.797 8 113290751.204 8      2498.285          50.000    21558514.234 8  88278522.641 8      1946.719          50.000
R05  21624818.969 5 115597051.195 5     -2562.559          34.000
R15  21059934.203 5 112537854.026 5     -2290.949          32.000    21059946.031 4  87529508.357 4     -1781.840          25.000
R16  19915855.508 7 106386995.661 7      2059.215          47.000    19915856.617 7  82745399.806 7      1601.612          42.000
R21  23249788.680 7 124414261.510 7     -3811.406          45.000    23249793.750 7  96766685.775 7     -2964.427          44.000
C05  39795488.000 5 207225548.459 5       -14.336          35.000    39795485.906 6 160239927.534 6       -11.388          39.000
C23  22514465.258 8 117238711.930 8       262.055          51.000
E07  25142471.375 6 132124588.181 6     -1692.684          37.000    25142474.273 6 101238313.871 6     -1297.389          38.000
E27  25222959.461 8 132547606.504 8      2311.777          48.000    25222964.289 7 101562444.877 7      1771.362          47.000
E33  26129312.047 8 137310449.824 8     -2253.195          49.000    26129309.508 7 105211915.406 7     -1726.531          46.000
> 2020 05 14 01 13 30.0000000  0 13        .000000000000
G04  24090239.938 5 126595063.003 5     -2957.113          30.000
G06  22641455.938 7 118981667.762 7     -2942.836          46.000    22641459.594 7  92712958.801 7     -2293.119          47.000
G07  20807860.578 8 109346030.311 8       379.566          51.000    20807859.648 8  85204659.741 8       295.766          51.000
G09  21364513.805 6 112271369.696 6     -1920.867          38.000    21364513.211 6  87484191.121 6     -1496.780          39.000
G30  21544290.648 8 113216012.932 8      2485.785          50.000    21544292.062 8  88220285.051 8      1936.978          50.000
R05  21639228.305 5 115674046.815 5     -2570.531          32.000
R16  19904364.180 7 106325609.027 7      2034.672          45.000    19904364.852 7  82697654.649 7      1582.523          43.000
R21  23271180.648 7 124528731.881 7     -3818.496          45.000    23271186.023 7  96855718.284 7     -2969.941          44.000
C05  39795574.469 6 207225998.781 6       -13.625          36.000    39795572.422 6 160240275.747 6       -10.786          40.000
C23  22513007.531 8 117231121.343 8       245.598          51.000
E07  25152151.672 6 132175450.671 6     -1696.359          37.000    25152152.867 6 101277286.427 6     -1299.700          38.000
E27  25209793.531 8 132478417.524 8      2302.453          51.000    25209795.727 7 101509430.000 7      1764.157          46.000
E33  26142205.141 8 137378205.041 8     -2262.133          48.000    26142202.539 7 105263831.712 7     -1733.275          47.000
> 2020 05 14 01 14  0.0000000  0 13        .000000000000
G04  24107122.641 5 126683738.227 5     -2957.027          34.000    24107124.195 5  98714641.716 5     -2304.177          33.000
G06  22658272.406 7 119070037.958 7     -2951.285          47.000    22658276.641 7  92781818.728 7     -2299.703          47.000
G07  20805725.953 8 109334813.905 8       365.430          51.000    20805725.438 8  85195919.688 8       284.750          51.000
G09  21375488.656 6 112329041.611 6     -1926.176          38.000    21375488.164 6  87529130.146 6     -1500.919          38.000
G30  21530122.609 8 113141560.300 8      2474.973          50.000    21530124.062 8  88162269.989 8      1928.547          49.000
R16  19892992.883 7 106264867.585 7      2011.539          43.000    19892994.195 7  82650411.250 7      1564.530          45.000
R21  23292594.703 7 124643319.633 7     -3823.676          44.000    23292599.523 7  96944842.101 7     -2973.970          42.000
C05  39795641.000 6 207226345.041 6       -12.121          36.000    39795638.969 6 160240543.456 6        -9.004          40.000
C23  22511627.359 8 117223933.927 8       230.906          51.000
C25  24927316.555 5 129803035.512 5     -2527.281          30.000
E07                                                                  25161831.508 6 101316267.653 6     -1300.960          39.000
E27  25196664.094 8 132409417.323 8      2294.879          51.000    25196664.484 8 101456559.788 8      1758.354          49.000
E33  26155131.297 8 137446133.410 8     -2269.137          49.000    26155129.156 7 105315880.714 7     -1738.656          47.000
> 2020 05 14 01 14 30.0000000  0 13        .000000000000
G02  22514856.305 5 118316413.019 5      -885.336          34.000
G06  22675177.008 8 119158870.140 8     -2971.684          48.000    22675181.328 8  92851038.648 8     -2315.595          49.000
G07  20803711.516 8 109324228.996 8       339.320          51.000    20803711.422 8  85187671.705 8       264.405          51.000
G09  21386534.062 6 112387084.155 6     -1943.996          40.000    21386533.773 6  87574358.084 6     -1514.805          40.000
G30  21516055.375 8 113067639.790 8      2452.137          49.000    21516056.969 8  88104669.573 8      1910.756          50.000
R16  19881788.562 7 106205022.675 7      1976.879          45.000    19881791.398 7  82603865.178 7      1537.572          45.000
R21  23314075.758 7 124758269.590 7     -3840.730          42.000    23314079.617 6  97034247.621 6     -2987.235          40.000
C05  39795734.109 6 207226829.944 6       -21.762          36.000    39795732.094 6 160240918.444 6       -16.574          40.000
C23  22510371.148 8 117217392.368 8       204.371          51.000
C25  24941928.328 4 129879126.687 4     -2547.039          29.000
E07                                                                  25171561.492 6 101355445.130 6     -1311.514          41.000
E27  25183617.297 8 132340852.609 8      2275.227          51.000    25183617.523 8 101404023.248 8      1743.343          50.000
E33  26168136.961 8 137514477.913 8     -2288.066          49.000    26168135.680 8 105368248.575 8     -1753.206          48.000
> 2020 05 14 01 15  0.0000000  0 15        .000000000000
G02  22519908.438 6 118342963.439 6      -889.941          39.000
G04  24140929.914 5 126861441.901 5     -2956.996          31.000
G06  22692120.336 8 119247905.177 8     -2969.715          50.000    22692124.430 8  92920416.623 8     -2314.064          50.000
G07  20801768.367 8 109314019.176 8       335.602          50.000    20801768.602 8  85179716.007 8       261.508          50.000
G09  21397600.812 6 112445240.389 6     -1938.965          39.000    21397601.516 6  87619674.617 6     -1510.885          39.000
G30  21502041.289 8 112993996.818 8      2451.750          51.000    21502042.648 8  88047285.430 8      1910.455          51.000
R05  21682728.547 5 115906588.735 5     -2591.543          31.000
R16  19870704.680 7 106145816.226 7      1964.484          46.000    19870707.812 7  82557815.676 7      1527.932          45.000
R21  23335574.305 6 124873316.132 6     -3834.805          41.000    23335576.711 6  97123728.212 6     -2982.629          38.000
C05  39795805.117 6 207227199.634 6        -8.578          36.000    39795803.055 6 160241204.328 6        -6.896          39.000
C23  22509190.062 8 117211242.789 8       199.992          51.000
C25  24956574.469 4 129955437.595 4     -2543.754          29.000
E07                                                                  25181293.367 7 101394622.549 7     -1304.740          42.000
E27  25170604.789 8 132272469.030 8      2277.965          51.000    25170605.570 8 101351625.469 8      1745.481          51.000
E33  26181173.023 8 137582980.369 8     -2284.418          50.000    26181172.680 8 105420737.457 8     -1750.350          49.000
> 2020 05 14 01 15 30.0000000  0 14        .000000000000
G02  22525070.570 6 118370088.744 6      -915.039          39.000    22525076.719 5  92236432.098 5      -713.017          35.000
G04  24157850.391 5 126950360.290 5     -2967.582          30.000
G06  22709137.672 8 119337329.122 8     -2988.664          50.000    22709141.102 8  92990097.621 8     -2328.829          50.000
G07  20799932.594 8 109304373.109 8       310.781          50.000    20799933.047 8  85172199.581 8       242.167          50.000
G09  21408725.250 6 112503698.753 6     -1955.172          36.000    21408726.461 6  87665226.451 6     -1523.517          36.000
G30  21488116.914 8 112920822.025 8      2429.930          51.000    21488118.148 8  87990266.136 8      1893.452          51.000
R16  19859777.117 7 106087443.545 7      1930.305          46.000    19859780.398 7  82512414.689 7      1501.348          45.000
R21  23357126.523 6 124988647.145 6     -3850.637          39.000    23357127.477 6  97213430.046 6     -2994.943          38.000
C05  39795889.906 5 207227641.400 5       -17.016          35.000    39795887.867 6 160241545.925 6       -13.348          40.000
C23  22508120.234 8 117205672.513 8       174.586          51.000
C25  24971292.273 5 130032078.940 5     -2561.973          31.000
E07  25191063.656 6 132379939.561 6     -1715.215          37.000    25191060.484 6 101433944.759 6     -1314.270          41.000
E27  25157662.789 8 132204457.420 8      2259.434          51.000    25157664.703 8 101299512.690 8      1731.269          51.000
E33  26194274.727 8 137651828.025 8     -2302.129          51.000    26194275.086 8 105473490.850 8     -1763.912          49.000
> 2020 05 14 01 16  0.0000000  0 15        .000000000000
G02  22530316.992 6 118397661.953 6      -929.488          36.000
G04  24174771.898 5 127039282.904 5     -2967.023          33.000
G06  22726204.367 8 119427012.884 8     -2996.242          51.000    22726206.250 8  93059981.036 8     -2334.737          51.000
G07  20798180.133 8 109295164.211 8       297.297          51.000    20798180.695 8  85165023.819 8       231.660          51.000
G09  21419883.344 6 112562332.029 6     -1959.680          40.000    21419883.742 6  87710914.709 6     -1527.020          39.000
G30  21474258.070 8 112847990.769 8      2419.480          51.000    21474259.281 8  87933514.524 8      1885.312          51.000
R15  21139355.102 6 112962242.628 6     -2425.633          37.000    21139358.867 4  87859555.301 4     -1886.600          26.000
R16  19848982.344 7 106029778.520 7      1907.879          47.000    19848985.766 7  82467564.132 7      1483.906          44.000
R21  23378707.555 6 125104129.658 6     -3854.352          39.000    23378708.680 6  97303249.758 6     -2997.829          38.000
C05  39795964.672 5 207228030.424 5       -14.160          35.000    39795962.562 6 160241846.757 6       -11.342          40.000
C23  22507137.438 8 117200556.439 8       160.527          51.000
C25  24986056.703 5 130108960.763 5     -2568.930          31.000
E07  25200831.266 5 132431321.352 5     -1716.543          33.000    25200838.180 6 101473315.186 6     -1315.043          40.000
E27  25144767.688 8 132136693.437 8      2252.086          51.000    25144770.344 8 101247589.628 8      1725.591          51.000
E33  26207417.789 8 137720892.778 8     -2308.312          51.000    26207418.359 8 105526410.588 8     -1768.749          49.000
> 2020 05 14 01 16 30.0000000  0 14        .000000000000
G02  22535665.438 6 118425768.570 6      -944.027          37.000    22535673.141 5  92279804.025 5      -735.603          31.000
G04  24191709.625 5 127128289.574 5     -2967.051          35.000
G06  22743336.375 8 119517040.597 8     -3005.547          49.000    22743335.914 8  93130132.428 8     -2341.988          49.000
G07  20796527.562 8 109286479.328 8       282.039          51.000    20796527.875 8  85158256.364 8       219.771          51.000
G09  21431090.477 6 112621226.790 6     -1966.523          38.000    21431091.305 6  87756806.746 6     -1532.356          37.000
G30  21460481.367 8 112775591.768 8      2407.320          51.000    21460482.516 8  87877099.738 8      1875.837          51.000
R16  19838337.195 8 105972912.326 8      1883.496          48.000    19838340.508 7  82423334.885 7      1464.941          43.000
R21  23400333.062 6 125219847.598 6     -3860.062          37.000    23400334.734 6  97393252.574 6     -3002.271          38.000
C05  39796045.719 6 207228451.981 6       -13.367          36.000    39796043.695 6 160242173.492 6       -10.258          39.000
C23  22506258.672 8 117195980.860 8       144.785          51.000
C25  25000883.531 5 130186167.289 5     -2577.691          32.000
E07  25210635.539 6 132482793.078 6     -1718.773          39.000    25210644.812 6 101512800.547 6     -1317.195          40.000
E27  25131936.633 8 132069265.969 8      2243.227          51.000    25131939.852 8 101195924.408 8      1718.776          51.000
E33  26220618.180 8 137790259.826 8     -2316.043          51.000    26220618.531 8 105579561.954 8     -1774.642          48.000
> 2020 05 14 01 17  0.0000000  0 15        .000000000000
G02  22541129.953 5 118454482.709 5      -965.660          32.000    22541135.805 5  92302178.778 5      -752.459          31.000
G06  22760547.062 7 119607484.125 7     -3019.984          47.000    22760545.211 7  93200607.843 7     -2353.235          47.000
G07  20794988.945 8 109278392.996 8       261.254          51.000    20794988.883 8  85151955.336 8       203.574          51.000
G09  21442360.414 5 112680457.033 5     -1977.852          33.000    21442362.992 5  87802960.217 5     -1541.186          34.000
G30  21446801.023 8 112703701.510 8      2389.551          51.000    21446802.453 8  87821081.365 8      1861.988          50.000
R05  21741425.766 6 116220388.822 6     -2635.727          38.000    21741425.000 5  90393634.051 5     -2050.010          32.000
