     3.02           OBSERVATION DATA    M (MIXED)           RINEX VERSION / TYPE
SAVERINEX           SC600               20200509 185931 LCL PGM / RUN BY / DATE
       G = GPS       R = GLONASS       C = COMPASS          COMMENT
       S = SBAS      J = QZSS          E = GALILEO          COMMENT
BEAN                                                        MARKER NAME
1                                                           MARKER NUMBER
GEODETIC                                                    MARKER TYPE
Unige DICCA         GTER                                    OBSERVER / AGENCY
SC60291900056       SC600               2.12(191226)        REC # / TYPE / VERS
                    HEMA45          NONE                    ANT # / TYPE
  4509407.8091   693652.4678  4442337.6214                  APPROX POSITION XYZ
        0.0000        0.0000        0.0000                  ANTENNA: DELTA H/E/N
G    8 C1C L1C D1C S1C C2Y L2Y D2Y S2Y                      SYS / # / OBS TYPES
R    8 C1C L1C D1C S1C C2P L2P D2P S2P                      SYS / # / OBS TYPES
C    8 C1I L1I D1I S1I C7I L7I D7I S7I                      SYS / # / OBS TYPES
E    8 C1C L1C D1C S1C C7Q L7Q D7Q S7Q                      SYS / # / OBS TYPES
DBHZ                                                        COMMENT
     30.000                                                 INTERVAL
  2020    05    09    16    00    0.0000000     GPS         TIME OF FIRST OBS
  2020    05    09    16    59   30.0000000     GPS         TIME OF LAST OBS
     0                                                      RCV CLOCK OFFS APPL
G L1C  0.00000                                              SYS / PHASE SHIFT
G L2Y  0.00000                                              SYS / PHASE SHIFT
R L1C  0.00000                                              SYS / PHASE SHIFT
R L2P  0.25000                                              SYS / PHASE SHIFT
C L1I  0.00000                                              SYS / PHASE SHIFT
C L7I  0.00000                                              SYS / PHASE SHIFT
E L1C  0.50000                                              SYS / PHASE SHIFT
E L7Q -0.25000                                              SYS / PHASE SHIFT
 13 R02 -4 R03  5 R04  6 R05  1 R06 -4 R09 -2 R10 -7 R11  0 GLONASS SLOT / FRQ #
    R16 -1 R18 -3 R19  3 R20  2 R21  4                      GLONASS SLOT / FRQ #
 C1C   71.950 C2C   71.950 C2P   71.950                     GLONASS COD/PHS/BIS
    18                                                      LEAP SECONDS
*** Above antenna height is from mark to ANTENNA BOTTOM.    COMMENT
    17     4        0.0000        ANT MEASURE TYPE/HEIGT    COMMENT
    0.0000    0.0000    0.0458    0.0405    0.0000          COMMENT
                    BASE STATION                            COMMENT
                                                            END OF HEADER
> 2020 05 09 16 00  0.0000000  0 18        .000000000000
G10  21244917.203 8 111642794.640 8      1452.953          51.000    21244919.430 8  86994430.917 8      1132.171          51.000
G16  20994517.141 8 110326932.622 8     -1860.672          50.000    20994516.461 8  85969045.187 8     -1449.871          48.000
G20  21105574.195 7 110910581.063 7      -965.102          44.000    21105575.094 6  86423804.447 6      -752.024          36.000
G26  22677990.289 7 119173622.703 7     -3341.984          45.000    22677995.383 7  92862561.287 7     -2604.144          45.000
G27  20501201.852 5 107734542.845 5       994.836          32.000    20501200.727 5  83948989.480 5       775.191          31.000
R05  21126555.570 6 112933518.514 6      2333.508          37.000    21126558.281 5  87837195.170 5      1814.947          31.000
R10  21914362.570 6 116815867.250 6     -3754.043          36.000
R11  21044765.625 5 112456810.122 5        34.512          32.000    21044762.664 4  87466410.943 4        26.833          26.000
C05  39616770.617 5 206294920.181 5        -7.887          35.000
C20  23698938.211 7 123406679.884 7      2243.391          45.000
C29  21647083.312 7 112722026.935 7       429.965          46.000
C30  23376053.961 6 121725216.338 6     -2019.652          36.000
E08                                                                  24911097.578 5 100306662.990 5      1863.959          35.000
E13  23299977.008 8 122442222.869 8      -359.789          51.000    23299978.812 8  93819440.743 8      -275.671          51.000
E15  25804122.602 5 135601626.373 5     -2114.539          32.000
E21  24761889.242 8 130124609.531 8     -1799.723          51.000    24761889.852 8  99705866.175 8     -1378.990          50.000
E26  24261982.023 6 127497575.296 6      1752.492          36.000
E27                                                                  27223377.023 5 109617258.474 5     -2485.100          31.000
> 2020 05 09 16 00 30.0000000  0 16        .000000000000
G10  21236695.938 8 111599590.574 8      1435.727          51.000    21236697.828 8  86960765.435 8      1118.748          51.000
G16  21005211.188 8 110383130.413 8     -1877.387          50.000    21005210.094 7  86012835.669 7     -1462.899          47.000
G20  21111159.695 7 110939931.414 7      -983.152          45.000    21111160.203 5  86446674.806 5      -766.096          35.000
G26  22697112.812 7 119274114.335 7     -3349.184          45.000    22697118.000 7  92940866.428 7     -2609.753          45.000
G27  20495576.602 6 107704985.575 6       983.293          36.000    20495576.242 5  83925957.873 5       766.202          34.000
R05  21113544.078 5 112863964.457 5      2311.734          35.000    21113547.055 5  87783097.547 5      1798.016          31.000
R10  21935545.484 5 116928784.172 5     -3765.789          34.000
R11  21044670.352 5 112456337.411 5         7.527          30.000    21044671.156 4  87466023.705 4         5.855          25.000
C05  39616839.961 5 206295281.071 5        -7.387          35.000
C20  23686070.305 8 123339673.095 8      2231.875          48.000
C29  21644650.820 7 112709360.282 7       422.773          46.000
C30  23387728.758 5 121785997.994 5     -2024.633          33.000
E08                                                                  24897250.500 5 100250897.966 5      1859.967          35.000
E13  23302069.672 8 122453220.632 8      -364.871          51.000    23302071.398 8  93827867.601 8      -279.553          51.000
E21  24772221.555 8 130178903.849 8     -1811.320          51.000    24772222.273 8  99747468.313 8     -1387.934          51.000
E27                                                                  27241918.938 5 109691917.773 5     -2485.800          30.000
> 2020 05 09 16 01  0.0000000  0 17        .000000000000
G10  21228556.133 8 111556814.819 8      1416.754          51.000    21228557.805 8  86927433.714 8      1103.964          51.000
G16  21015983.586 8 110439739.113 8     -1895.625          51.000    21015982.094 7  86056946.342 7     -1477.110          47.000
G20  21116830.000 7 110969727.578 7     -1002.504          44.000    21116830.266 5  86469892.532 5      -781.175          32.000
G21  23660517.906 6 124336860.004 6     -2579.828          36.000
G26  22716260.758 7 119374736.520 7     -3358.316          46.000    22716265.398 7  93019273.285 7     -2616.870          46.000
G27  20489998.758 6 107675676.746 6       970.652          36.000    20489999.250 6  83903119.806 6       756.356          36.000
R05  21100636.398 5 112794968.526 5      2289.574          32.000    21100640.375 4  87729433.954 4      1780.771          27.000
R10  21956776.656 6 117041955.416 6     -3778.527          36.000
C05  39616889.625 5 206295539.726 5        -8.762          35.000
C20  23673252.820 8 123272925.861 8      2218.668          50.000
C29  21642243.688 7 112696824.558 7       413.746          47.000
C30  23399411.305 4 121846874.716 4     -2030.148          29.000
E08                                                                  24883419.250 5 100195195.156 5      1854.349          35.000
E13  23304174.688 8 122464283.485 8      -371.723          51.000    23304176.508 8  93836344.342 8      -284.832          51.000
E15  25828293.430 5 135728596.411 5     -2117.566          32.000
E21  24782602.797 8 130233458.182 8     -1824.648          51.000    24782604.453 8  99789269.662 8     -1398.086          51.000
E27                                                                  27260448.742 5 109766530.228 5     -2487.440          31.000
> 2020 05 09 16 01 30.0000000  0 17        .000000000000
G10  21220515.992 8 111514563.690 8      1401.355          51.000    21220517.625 8  86894510.782 8      1091.968          51.000
G16  21026852.102 8 110496852.272 8     -1910.285          51.000    21026850.195 7  86101450.083 7     -1488.534          46.000
G20  21122602.883 7 111000063.292 7     -1018.215          43.000    21122602.477 5  86493530.763 5      -793.414          35.000
G21  23675274.477 6 124414409.296 6     -2578.922          37.000
G26  22735451.461 7 119475581.728 7     -3363.480          47.000    22735455.531 7  93097853.917 7     -2620.897          47.000
G27  20484487.164 6 107646712.445 6       961.246          37.000    20484487.461 6  83880550.200 6       749.023          38.000
R04  21952430.703 5 117554171.358 5     -1552.648          32.000
R05  21087854.375 5 112726641.904 5      2269.070          35.000    21087859.297 3  87676304.664 3      1764.842          23.000
R10  21978073.742 6 117155472.916 6     -3787.547          38.000
R21  20968946.312 5 112209040.811 5      2084.648          33.000
C05  39616937.672 5 206295790.297 5        -6.188          35.000
C20  23660504.148 8 123206534.494 8      2208.902          51.000
C29  21639879.836 8 112684514.282 8       408.441          48.000
E08  24869612.266 5 130690696.126 5      2416.457          33.000    24869619.305 5 100139648.894 5      1851.664          34.000
E13  23306310.133 8 122475506.039 8      -374.977          51.000    23306312.109 8  93844943.426 8      -287.338          51.000
E21  24793051.211 8 130288366.256 8     -1834.395          51.000    24793053.711 8  99831342.046 8     -1405.521          51.000
E27                                                                  27278981.219 5 109841153.244 5     -2485.839          30.000
> 2020 05 09 16 02  0.0000000  0 17        .000000000000
G10  21212578.820 8 111472854.337 8      1379.969          51.000    21212580.484 8  86862010.020 8      1075.303          51.000
G16  21037819.258 8 110554483.979 8     -1930.992          51.000    21037817.188 7  86146357.869 7     -1504.672          46.000
G20  21128480.945 7 111030952.991 7     -1040.156          44.000    21128479.586 6  86517600.620 6      -810.514          36.000
G21  23690015.539 5 124491862.900 5     -2583.414          34.000
G26  22754687.195 7 119576663.272 7     -3374.605          46.000    22754690.844 7  93176618.694 7     -2629.563          46.000
G27  20479044.148 6 107618109.636 6       946.102          36.000    20479045.125 5  83858262.272 5       737.222          35.000
R04  21961206.578 5 117601207.462 5     -1581.762          30.000
R05  21075197.984 5 112658982.236 5      2242.461          32.000
R10  21999438.641 6 117269348.746 6     -3803.141          40.000
R21  20957292.648 4 112146669.761 4      2074.125          29.000
C05  39616987.336 5 206296048.563 5       -10.270          35.000
C20  23647827.234 8 123140516.772 8      2193.012          51.000
C29  21637562.070 7 112672445.543 7       397.023          47.000
E08                                                                  24855858.609 5 100084232.862 5      1843.983          34.000
E13  23308479.008 8 122486903.647 8      -384.188          51.000    23308481.008 8  93853676.652 8      -294.386          51.000
E21  24803569.719 8 130343642.512 8     -1850.016          51.000    24803572.758 8  99873696.528 8     -1417.550          51.000
E27                                                                  27297517.156 4 109915789.713 4     -2489.221          28.000
> 2020 05 09 16 02 30.0000000  0 16        .000000000000
G10  21204721.328 8 111431563.707 8      1361.820          51.000    21204723.297 8  86829835.534 8      1061.159          51.000
G16  21048861.195 8 110612508.595 8     -1948.320          51.000    21048859.211 7  86191571.805 7     -1518.175          46.000
G18  23717467.844 5 124636124.185 5     -3144.508          33.000
G20  21134440.484 7 111062271.113 7     -1058.469          44.000    21134439.734 6  86542004.380 6      -824.781          38.000
G21  23704738.367 6 124569234.437 6     -2585.176          38.000
G26  22773943.703 7 119677854.340 7     -3382.520          47.000    22773947.102 7  93255468.837 7     -2635.733          46.000
G27  20473646.164 5 107589745.351 5       933.070          34.000    20473647.953 5  83836160.158 5       727.065          34.000
R04  21970105.672 4 117648874.562 4     -1607.789          28.000
R05  21062642.836 6 112591877.284 6      2219.820          37.000    21062643.273 5  87571510.921 5      1726.527          31.000
R10  22020846.062 6 117383452.252 6     -3814.977          41.000
R21  20945661.508 5 112084465.150 5      2066.965          30.000
C05  39617014.883 5 206296191.224 5       -10.277          35.000
C20  23635198.625 8 123074751.621 8      2180.434          51.000
C29  21635266.828 7 112660495.606 7       388.836          46.000
E13  23310657.500 8 122498351.626 8      -389.977          51.000    23310659.430 8  93862448.470 8      -298.861          51.000
E21  24814134.320 8 130399161.323 8     -1862.238          51.000    24814137.805 8  99916236.880 8     -1426.940          51.000
> 2020 05 09 16 03  0.0000000  0 19        .000000000000
G10  21196997.320 8 111390974.601 8      1346.332          51.000    21196999.367 8  86798207.695 8      1049.090          51.000
G16  21060031.180 8 110671205.371 8     -1962.695          51.000    21060029.062 7  86237309.517 7     -1529.373          46.000
G18  23735426.383 5 124730506.300 5     -3143.840          31.000
G20  21140535.078 7 111094298.279 7     -1074.180          43.000    21140534.531 6  86566960.647 6      -837.020          37.000
G21  23719493.695 5 124646760.702 5     -2583.766          35.000
G26  22793273.891 7 119779433.868 7     -3387.316          46.000    22793277.539 7  93334621.666 7     -2639.467          46.000
G27  20468347.742 5 107561901.897 5       924.379          35.000    20468349.812 5  83814463.872 5       720.295          35.000
R04  21979174.836 4 117697482.541 4     -1629.520          29.000
R05  21050247.852 5 112525617.000 5      2199.371          33.000    21050249.906 5  87519975.181 5      1710.625          32.000
R10  22042348.477 7 117498063.960 7     -3823.496          42.000
R11  21046395.469 6 112465575.935 6      -129.680          36.000
C20  23622671.805 8 123009519.963 8      2170.465          51.000
C29  21633047.891 7 112648943.704 7       383.449          46.000
C30  23446418.328 5 122091667.830 5     -2050.156          32.000
E08  24828426.031 5 130474256.462 5      2395.148          34.000
E13  23312899.070 8 122510130.978 8      -393.148          51.000    23312900.914 8  93871474.202 8      -301.217          51.000
E21  24824798.266 8 130455202.763 8     -1871.758          51.000    24824802.156 8  99959177.714 8     -1434.150          51.000
E26  24202419.508 5 127184572.161 5      1726.637          34.000
E27                                                                  27334590.109 5 110065066.387 5     -2488.640          33.000
> 2020 05 09 16 03 30.0000000  0 19        .000000000000
G10  21189392.734 8 111351013.132 8      1328.469          51.000    21189394.805 8  86767068.909 8      1035.173          51.000
G16  21071314.453 8 110730497.721 8     -1979.418          51.000    21071312.266 7  86283511.302 7     -1542.404          47.000
G20  21146750.094 7 111126957.675 7     -1092.586          42.000    21146748.828 6  86592409.523 6      -851.369          39.000
G21  23734257.359 5 124724381.515 5     -2585.316          30.000
G26  22812663.195 7 119881324.303 7     -3394.680          45.000    22812666.789 7  93414016.746 7     -2645.208          45.000
G27  20463134.883 6 107534505.270 6       912.520          37.000    20463136.844 6  83793115.869 6       711.057          37.000
R05  21037996.719 5 112460128.551 5      2177.156          34.000    21037998.086 5  87469039.630 5      1693.341          35.000
R10  22063931.180 7 117613104.047 7     -3834.926          43.000
R11  21047224.344 5 112470021.734 5      -156.082          35.000    21047226.531 4  87476672.667 4      -121.397          26.000
C05  39617149.547 5 206296893.352 5        -7.621          35.000
C20  23610233.062 8 122944749.493 8      2158.102          51.000
C29  21630891.484 7 112637715.880 7       375.637          46.000
C30  23458271.375 5 122153406.961 5     -2055.215          32.000
E08  24814801.078 5 130402649.214 5      2389.250          35.000
E13  23315189.281 8 122522166.220 8      -398.527          51.000    23315191.148 8  93880696.009 8      -305.386          51.000
E15  25888865.148 5 136046892.554 5     -2123.012          35.000
E21  24835547.242 8 130511690.363 8     -1883.512          51.000    24835551.352 8 100002460.411 8     -1443.159          51.000
E26  24192609.750 5 127133015.609 5      1722.230          34.000
E27                                                                  27353165.977 5 110139859.026 5     -2489.365          34.000
> 2020 05 09 16 04  0.0000000  0 18        .000000000000
G10  21181856.188 8 111311409.410 8      1311.863          51.000    21181858.547 8  86736208.883 8      1022.231          51.000
G16  21082658.945 8 110790112.796 8     -1994.805          51.000    21082657.180 8  86329964.571 8     -1554.393          48.000
G20  21153033.836 6 111159976.987 6     -1108.871          41.000    21153032.250 6  86618138.883 6      -864.055          39.000
G26  22832059.562 7 119983251.928 7     -3400.508          45.000    22832062.852 7  93493440.777 7     -2649.749          45.000
G27  20457955.492 6 107507285.631 6       902.191          37.000    20457957.484 6  83771905.743 6       703.006          37.000
R04  21997750.547 5 117796940.272 5     -1677.461          33.000    21997748.820 4  91619846.530 4     -1304.692          24.000
R05  21025843.383 5 112395171.623 5      2155.488          33.000    21025841.859 5  87418468.465 5      1676.491          31.000
R10  22085542.328 7 117728292.083 7     -3844.469          44.000
C05  39617190.945 5 206297108.731 5        -6.230          35.000
C20  23597831.367 8 122880173.603 8      2146.980          50.000
C29  21628746.336 8 112626543.874 8       369.090          48.000
C30  23470122.719 6 122215119.505 6     -2059.207          38.000
E08  24801178.766 6 130331057.058 6      2383.938          36.000
E13  23317476.453 8 122534185.816 8      -402.773          51.000    23317478.430 8  93889905.825 8      -308.583          51.000
E15  25900983.055 5 136110584.626 5     -2123.242          32.000
E21  24846329.836 8 130568351.670 8     -1893.957          51.000    24846333.266 8 100045876.200 8     -1451.163          51.000
E26  24182790.047 6 127081391.169 6      1719.227          38.000
E27                                                                  27371710.383 5 110214525.761 5     -2488.446          33.000
> 2020 05 09 16 04 30.0000000  0 18        .000000000000
G10  21174424.523 8 111272356.678 8      1291.273          51.000    21174426.742 8  86705778.181 8      1006.187          51.000
G16  21094100.531 8 110850241.260 8     -2014.078          50.000    21094099.578 7  86376817.908 7     -1569.412          47.000
G20  21159421.922 6 111193547.049 6     -1129.469          41.000    21159420.633 6  86644297.423 6      -880.106          39.000
G26  22851499.188 7 120085406.281 7     -3409.988          45.000    22851501.977 7  93573041.472 7     -2657.137          45.000
G27  20452846.094 6 107480435.974 6       887.844          38.000    20452848.781 6  83750984.012 6       691.829          37.000
R04  22007221.156 5 117847671.156 5     -1704.473          34.000
R05  21013811.336 5 112330931.264 5      2129.930          35.000
R10  22107216.953 7 117843818.584 7     -3857.676          43.000
C05  39617234.219 6 206297334.752 6        -9.137          36.000
C20  23585503.875 8 122815984.575 8      2131.898          50.000
C29  21626648.789 8 112615618.287 8       358.816          49.000
C30  23482006.953 5 122276995.660 5     -2066.375          35.000
E08  24787595.234 5 130259674.114 5      2374.598          34.000
E13  23319797.188 8 122546381.357 8      -410.680          51.000    23319799.156 8  93899250.458 8      -314.662          51.000
E15  25913111.039 5 136174317.888 5     -2126.512          33.000
E21  24857182.008 8 130625377.331 8     -1908.133          51.000    24857183.945 8 100089571.165 8     -1462.085          51.000
E26  24172994.273 5 127029941.842 5      1712.855          32.000
E27                                                                  27390258.867 5 110289222.396 5     -2490.517          33.000
> 2020 05 09 16 05  0.0000000  0 16        .000000000000
G10  21167112.312 8 111233931.697 8      1273.215          51.000    21167114.578 8  86675836.643 8       992.115          51.000
G16  21105652.984 7 110910956.775 7     -2030.750          46.000    21105653.297 7  86424128.717 7     -1582.403          47.000
G20  21165928.945 6 111227741.940 6     -1147.281          40.000    21165927.477 6  86670942.834 6      -893.985          39.000
G26  22870996.062 7 120187860.441 7     -3417.207          44.000    22870998.578 7  93652875.799 7     -2662.762          43.000
G27  20447821.625 6 107454033.393 6       875.258          38.000    20447824.258 6  83730410.507 6       682.016          38.000
R04  22016847.125 4 117899229.260 4     -1729.695          29.000
R05  21001925.898 5 112267418.124 5      2106.953          35.000
R10  22128968.156 6 117959756.155 6     -3868.594          39.000
C05  39617294.055 6 206297645.255 6        -8.949          36.000
C20  23573265.508 8 122752259.440 8      2119.137          49.000
C29  21624613.016 8 112605014.561 8       350.914          48.000
C30  23493936.859 6 122339110.373 6     -2071.605          37.000
E08  24774064.617 5 130188587.894 5      2368.039          32.000
E13  23322165.789 8 122558828.083 8      -416.289          51.000    23322167.727 8  93908787.552 8      -318.948          51.000
E21  24868117.422 8 130682841.572 8     -1919.934          51.000    24868118.250 8 100133602.180 8     -1471.130          51.000
E26  24163237.734 6 126978671.971 6      1707.867          37.000
> 2020 05 09 16 05 30.0000000  0 17        .000000000000
G10  21159898.266 8 111196022.086 8      1255.027          51.000    21159900.602 8  86646296.699 8       977.943          51.000
G16  21117295.398 7 110972143.729 7     -2047.504          47.000    21117296.766 7  86471806.877 7     -1595.458          47.000
G20  21172532.875 7 111262446.794 7     -1165.348          43.000    21172531.812 6  86697985.636 6      -908.063          38.000
G26  22890527.633 7 120290498.294 7     -3424.191          42.000    22890530.469 7  93732853.282 7     -2668.201          42.000
G27  20442861.086 6 107427964.992 6       863.125          40.000    20442862.641 6  83710097.496 6       672.565          41.000
R05  20990172.703 6 112204497.142 6      2083.688          40.000
R10  22150773.242 6 118075984.427 6     -3879.109          36.000
R11  21051983.828 5 112495438.316 5      -266.055          31.000
C05  39617348.812 6 206297929.895 6        -9.176          36.000
C20  23561094.984 8 122688887.615 8      2106.379          48.000
C29  21622617.148 7 112594620.530 7       342.938          47.000
C30  23505891.758 4 122401350.667 4     -2076.262          27.000
E08  24760569.070 5 130117667.044 5      2360.547          33.000
E13  23324560.516 8 122571411.986 8      -421.777          51.000    23324562.516 8  93918429.768 8      -323.219          51.000
E21  24879114.000 8 130740629.409 8     -1931.715          51.000    24879114.641 8 100177881.152 8     -1480.100          51.000
E26  24153500.039 6 126927505.328 6      1703.887          39.000
E27  27427387.266 5 144131892.565 5     -3251.996          33.000
> 2020 05 09 16 06  0.0000000  0 15        .000000000000
G10  21152791.672 8 111158677.677 8      1237.406          51.000    21152794.008 8  86617197.176 8       964.213          51.000
G16  21129037.625 8 111033849.334 8     -2063.488          50.000    21129038.758 8  86519889.160 8     -1607.913          49.000
G20  21179243.086 7 111297709.124 7     -1182.789          43.000    21179242.406 6  86725462.796 6      -921.651          38.000
G26  22910102.430 6 120393366.011 6     -3430.965          40.000    22910106.102 6  93813009.873 6     -2673.479          40.000
G27  20437973.789 6 107402280.726 6       851.883          41.000    20437974.594 7  83690083.839 7       663.808          42.000
R05  20978550.383 6 112142369.159 6      2060.906          40.000
R11  21053552.203 5 112503806.657 5      -292.871          33.000
C05  39617407.508 6 206298235.766 6        -8.570          36.000
C20  23549002.617 8 122625919.476 8      2094.137          50.000
C29  21620670.555 7 112584484.856 7       335.559          47.000
C30  23517878.859 5 122463749.987 5     -2081.883          35.000
E13  23326990.445 8 122584181.381 8      -426.773          51.000    23326992.633 8  93928214.104 8      -326.975          51.000
E15  25949594.938 5 136366036.988 5     -2129.949          34.000
E21  24890180.961 8 130798788.090 8     -1942.805          51.000    24890181.969 8 100222444.303 8     -1488.625          51.000
E26  24143789.930 6 126876489.384 6      1700.238          37.000
> 2020 05 09 16 06 30.0000000  0 16        .000000000000
G10  21145784.781 8 111121857.619 8      1219.039          51.000    21145787.406 8  86588506.244 8       949.901          51.000
G16  21140870.836 8 111096029.836 8     -2080.172          51.000    21140870.992 8  86568341.473 8     -1620.916          49.000
G20  21186051.164 6 111333485.159 6     -1200.621          41.000    21186050.188 6  86753340.222 6      -935.549          39.000
G26  22929712.117 6 120496419.045 6     -3437.809          38.000    22929716.516 6  93893310.898 6     -2678.812          38.000
G27  20433151.648 7 107376939.796 7       839.156          42.000    20433152.023 6  83670337.659 6       653.885          41.000
R05  20967053.570 6 112080920.274 6      2037.617          38.000    20967050.250 4  87174024.798 4      1584.813          27.000
R10  22194542.430 5 118309406.962 5     -3899.660          32.000
R11  21055279.828 5 112513032.101 5      -320.617          35.000
C05  39617462.453 6 206298521.341 6        -8.422          36.000
C20  23536980.781 8 122563315.329 8      2081.133          51.000
C29  21618765.586 7 112574566.351 7       327.340          47.000
C30  23529896.867 5 122526295.937 5     -2087.109          35.000
E13  23329447.484 8 122597093.884 8      -432.469          51.000    23329449.844 8  93938108.101 8      -331.429          51.000
E21  24901310.430 8 130857274.266 8     -1954.641          51.000    24901312.031 8 100267258.376 8     -1497.724          51.000
E26                                                                  24134101.430 5  97178019.294 5      1299.137          34.000
E27  27464525.977 5 144327056.223 5     -3251.988          33.000
> 2020 05 09 16 07  0.0000000  0 16        .000000000000
G10  21138894.555 8 111085649.771 8      1197.012          51.000    21138897.398 8  86560292.367 8       932.739          51.000
G16  21152810.594 8 111158769.984 8     -2100.391          51.000    21152810.062 8  86617229.874 8     -1636.671          48.000
G20  21192973.141 7 111369860.651 7     -1222.297          44.000    21192971.852 6  86781684.835 6      -952.439          36.000
G21  23837747.531 5 125268216.920 5     -2596.355          35.000
G26  22949373.273 6 120599741.646 6     -3448.469          38.000    22949377.883 6  93973822.000 6     -2687.119          38.000
G27  20428411.359 7 107352030.014 7       823.527          43.000    20428412.023 7  83650927.438 7       641.707          43.000
R05  20955702.641 5 112020242.405 5      2009.793          35.000    20955701.727 5  87126844.306 5      1563.166          31.000
R10  22216534.648 5 118426632.666 5     -3913.113          31.000
R21  20842963.969 5 111534917.096 5      2000.918          30.000
C05  39617530.047 5 206298873.739 5       -12.664          35.000
C20  23525046.039 8 122501163.105 8      2064.473          51.000
C29  21616918.930 7 112564951.407 7       315.742          47.000
E13  23331948.242 8 122610235.868 8      -441.641          51.000    23331950.500 8  93948177.919 8      -338.397          51.000
E21  24912518.406 8 130916173.276 8     -1969.984          50.000    24912520.359 8 100312388.755 8     -1509.466          51.000
E26                                                                  24124445.742 5  97139150.002 5      1293.139          32.000
E27  27483109.203 5 144424713.138 5     -3256.047          34.000
> 2020 05 09 16 07 30.0000000  0 16        .000000000000
G10  21132083.148 8 111049855.225 8      1186.465          51.000    21132086.102 8  86532400.554 8       924.518          51.000
G16  21164818.375 8 111221868.211 8     -2108.984          51.000    21164817.359 8  86666397.280 8     -1643.367          49.000
G18  23897445.922 5 125581910.447 5     -3155.691          33.000
G20  21199971.078 7 111406634.057 7     -1232.148          43.000    21199969.734 6  86810339.415 6      -960.113          36.000
G21  23852540.547 5 125345948.901 5     -2589.371          33.000
G26  22969048.109 6 120703131.351 6     -3447.176          40.000    22969051.656 6  94054385.353 6     -2686.111          40.000
G27  20423715.312 7 107327352.539 7       818.918          43.000    20423716.234 7  83631698.231 7       638.118          43.000
R05  20944456.484 5 111960134.938 5      1994.188          32.000    20944461.125 5  87080094.022 5      1551.032          35.000
R10  22238557.500 5 118544023.370 5     -3914.984          32.000
C05  39617571.961 5 206299092.663 5        -5.184          35.000
C20  23513160.383 8 122439266.749 8      2059.180          51.000
C29  21615092.617 7 112555442.252 7       315.473          47.000
E13  23334454.641 8 122623406.906 8      -439.250          51.000    23334456.641 8  93958270.013 8      -336.607          51.000
E21  24923766.477 8 130975283.693 8     -1973.648          51.000    24923768.875 8 100357681.086 8     -1512.210          51.000
E26                                                                  24114793.219 5  97100280.186 5      1295.411          32.000
E27  27501668.617 6 144522234.994 6     -3248.449          36.000
> 2020 05 09 16 08  0.0000000  0 15        .000000000000
G10  21125383.789 8 111014648.353 8      1164.328          51.000    21125386.633 8  86504966.641 8       907.269          51.000
G16  21176926.922 8 111285495.908 8     -2129.172          51.000    21176925.320 8  86715977.286 8     -1659.095          49.000
G18  23915487.820 5 125676734.835 5     -3161.543          34.000
G20  21207077.477 7 111443976.950 7     -1253.781          43.000    21207076.242 6  86839437.803 6      -976.972          36.000
G26  22988768.734 6 120806758.875 6     -3457.410          41.000    22988770.539 6  94135133.995 6     -2694.086          41.000
G27  20419096.758 7 107303081.689 7       802.906          43.000    20419098.008 7  83612785.856 7       625.638          43.000
R05  20933352.430 5 111900777.765 5      1966.754          34.000    20933358.258 4  87033927.273 4      1529.697          29.000
R11  21061371.234 4 112545580.934 4      -401.836          29.000
C05  39617621.547 6 206299350.794 6        -8.492          36.000
C20  23501356.820 8 122377799.811 8      2042.273          51.000
C29  21613319.750 7 112546211.037 7       303.516          47.000
C30  23566095.180 5 122714846.652 5     -2101.926          33.000
E13  23336999.578 8 122636779.965 8      -448.680          51.000    23337001.328 8  93968516.897 8      -343.788          51.000
E21  24935087.703 8 131034777.310 8     -1989.023          51.000    24935090.438 8 100403267.082 8     -1524.072          51.000
E26                                                                  24105174.195 5  97061548.543 5      1289.335          32.000
> 2020 05 09 16 08 30.0000000  0 13        .000000000000
G10  21118799.625 8 110980047.262 8      1147.094          51.000    21118802.430 8  86478004.772 8       893.839          51.000
G16  21189138.938 8 111349668.546 8     -2144.305          51.000    21189137.203 8  86765981.925 8     -1670.887          49.000
G18  23933548.625 5 125771646.069 5     -3161.086          34.000    23933549.289 5  98003894.868 5     -2463.190          33.000
G20  21214295.289 6 111481905.384 6     -1270.125          40.000    21214293.945 5  86868992.435 5      -989.708          34.000
G26  23008537.453 6 120910638.851 6     -3462.887          41.000    23008537.977 6  94216079.332 6     -2698.356          40.000
G27  20414559.047 7 107279235.733 7       791.492          44.000    20414560.781 7  83594204.584 7       616.747          43.000
R05  20922393.070 6 111842190.793 6      1943.875          39.000    20922394.039 4  86988366.532 4      1511.903          28.000
C05  39617682.023 6 206299665.276 6        -7.453          36.000
C20  23489638.898 8 122316781.278 8      2030.188          51.000
C29  21611603.727 8 112537275.113 8       296.738          48.000
E13  23339586.070 8 122650371.750 8      -452.906          51.000    23339587.688 8  93978931.383 8      -346.981          51.000
E15  26010492.250 5 136686056.914 5     -2134.926          33.000
E21  24946484.812 8 131094669.775 8     -1999.176          51.000    24946488.195 8 100449158.707 8     -1531.899          51.000
> 2020 05 09 16 09  0.0000000  0 16        .000000000000
G10  21112312.602 8 110945956.379 8      1126.398          51.000    21112315.281 8  86451440.484 8       877.713          51.000
G16  21201435.570 8 111414287.850 8     -2162.848          51.000    21201434.172 8  86816334.631 8     -1685.336          49.000
G18  23951610.633 5 125866560.457 5     -3164.668          34.000    23951611.617 4  98077835.074 4     -2465.981          24.000
G20  21221605.344 6 111520320.879 6     -1289.973          37.000    21221603.961 5  86898926.681 5     -1005.164          35.000
G21  23896986.562 4 125579511.431 4     -2596.348          29.000
G26  23028335.430 6 121014672.075 6     -3471.777          40.000    23028335.266 6  94297144.086 6     -2705.284          40.000
G27  20410083.977 7 107255719.134 7       776.922          44.000    20410085.133 7  83575879.965 7       605.394          44.000
R05  20911560.844 6 111784279.151 6      1917.719          40.000
R11  21066191.039 5 112571298.069 5      -457.254          30.000    21066195.406 4  87555475.811 4      -355.636          29.000
C05  39617734.805 6 206299940.282 6       -10.227          36.000
C20  23477988.805 8 122256117.388 8      2014.711          50.000
C29  21609926.195 8 112528539.203 8       286.348          48.000
C30  23590381.375 5 122841307.868 5     -2113.496          34.000
E13  23342195.609 8 122664085.245 8      -460.578          51.000    23342197.242 8  93989439.130 8      -352.881          51.000
E15  26022696.453 5 136750191.987 5     -2138.020          32.000
E21  24957939.234 8 131154863.063 8     -2012.852          51.000    24957942.844 8 100495280.829 8     -1542.321          51.000
> 2020 05 09 16 09 30.0000000  0 16        .000000000000
G10  21105935.398 8 110912442.665 8      1108.684          51.000    21105937.859 8  86425325.917 8       863.909          51.000
G16  21213828.805 8 111479417.091 8     -2178.293          51.000    21213828.086 8  86867084.683 8     -1697.371          49.000
G18  23969686.039 5 125961541.702 5     -3166.094          35.000    23969689.891 4  98151872.469 4     -2467.086          29.000
G20  21229020.180 6 111559288.458 6     -1307.141          39.000    21229018.188 4  86929290.976 4     -1018.551          29.000
G26  23048174.641 6 121118921.894 6     -3477.082          36.000    23048174.047 5  94378377.628 5     -2709.418          35.000
G27  20405684.164 7 107232598.892 7       765.176          45.000    20405684.828 7  83557864.222 7       596.238          44.000
R05  20900867.633 7 111727113.151 7      1894.348          44.000    20900865.336 4  86898843.010 4      1473.382          27.000
R10  22327264.562 5 119016890.561 5     -3958.172          33.000
C05  39617792.609 6 206300241.103 6        -8.984          36.000
C20  23466418.312 7 122195875.451 7      2002.180          47.000
C29  21608299.641 8 112520069.026 8       279.023          48.000
C30  23602574.367 6 122904778.755 6     -2117.875          38.000
E13  23344840.773 8 122677986.010 8      -465.340          51.000    23344842.469 8  94000090.367 8      -356.571          51.000
E15  26034905.547 5 136814355.226 5     -2139.230          34.000
E21  24969463.305 8 131215421.604 8     -2023.578          51.000    24969466.570 8 100541682.822 8     -1550.543          51.000
E27  27575957.281 5 144912632.918 5     -3252.277          33.000
> 2020 05 09 16 10  0.0000000  0 16        .000000000000
G10  21099660.992 8 110879469.745 8      1088.273          51.000    21099663.242 8  86399632.743 8       848.005          51.000
G16  21226311.297 8 111545017.349 8     -2196.340          50.000    21226311.492 8  86918201.771 8     -1711.434          49.000
G18  23987766.039 6 126056551.335 6     -3168.609          36.000    23987766.109 5  98225896.839 5     -2469.058          31.000
G26  23068049.203 5 121223348.697 5     -3486.191          31.000    23068046.320 5  94459748.952 5     -2716.522          31.000
G27  20401352.930 7 107209838.838 7       750.832          46.000    20401353.844 7  83540129.115 7       585.064          46.000
R05  20890306.594 6 111670657.525 6      1867.918          41.000    20890309.664 5  86854933.195 5      1452.828          35.000
R10  22349572.188 6 119135789.512 6     -3969.441          38.000
C05  39617848.234 6 206300530.948 6       -11.082          36.000
C20  23454922.016 7 122136020.393 7      1986.781          47.000
C29  21606717.086 8 112511828.055 8       269.047          48.000
C30  23614790.172 5 122968389.541 5     -2124.184          35.000
E13  23347514.422 8 122692036.379 8      -472.660          51.000    23347516.109 8  94010856.234 8      -362.156          51.000
E15                                                                  26047125.414 5 104880972.876 5     -1641.156          32.000
E21  24981049.398 8 131276306.635 8     -2036.730          51.000    24981051.930 8 100588334.967 8     -1560.609          50.000
E26  24066969.602 6 126472780.627 6      1662.832          36.000
E27  27594528.992 5 145010228.033 5     -3254.531          32.000
> 2020 05 09 16 10 30.0000000  0 17        .000000000000
G10  21093496.906 8 110847076.764 8      1070.121          51.000    21093499.242 8  86374391.484 8       833.864          51.000
G16  21238890.320 8 111611124.995 8     -2212.090          49.000    21238891.227 8  86969714.196 8     -1723.709          49.000
G18  24005857.938 5 126151626.445 5     -3170.730          33.000
G26  23087966.219 5 121328063.903 5     -3491.578          35.000    23087958.586 5  94541285.753 5     -2720.716          34.000
G27  20397097.867 7 107187478.193 7       738.742          47.000    20397098.867 7  83522705.222 7       575.643          47.000
R05  20879886.766 6 111614954.489 6      1844.219          37.000    20879889.062 6  86811608.591 6      1434.389          36.000
R10  22371932.898 6 119254989.556 6     -3978.035          38.000
R11  21074564.758 5 112616048.149 5      -538.320          33.000
C05  39617909.000 6 206300847.594 6       -11.047          36.000
C20  23443509.219 8 122076591.832 8      1973.867          50.000
C29  21605185.914 8 112503854.572 8       261.422          49.000
C30  23627038.867 6 123032177.936 6     -2129.000          36.000
E08  24627823.070 5 129420081.059 5      2287.664          33.000    24627834.602 5  99166085.000 5      1752.814          35.000
E13  23350223.797 8 122706274.153 8      -477.605          51.000    23350225.352 8  94021765.710 8      -366.017          51.000
E15  26059342.383 5 136942781.560 5     -2142.602          34.000
E21  24992704.398 8 131337554.841 8     -2047.555          50.000    24992706.062 8 100635265.359 8     -1568.894          50.000
E26  24057484.812 5 126422934.909 5      1659.078          31.000    24057485.320 5  96869523.571 5      1271.349          33.000
> 2020 05 09 16 11  0.0000000  0 16        .000000000000
G10  21087437.570 8 110815234.118 8      1050.398          51.000    21087439.570 8  86349579.060 8       818.492          51.000
G16  21251560.320 8 111677707.795 8     -2229.105          49.000    21251561.031 7  87021596.880 7     -1736.968          47.000
G26  23107914.039 6 121432882.321 6     -3498.938          38.000    23107904.680 6  94622962.301 6     -2726.451          38.000
G27  20392913.227 7 107165487.473 7       725.004          46.000    20392914.375 7  83505569.594 7       564.938          46.000
R05  20869599.750 5 111559975.594 5      1818.129          34.000    20869603.727 5  86768847.216 5      1414.100          34.000
R10  22394343.461 6 119374455.119 6     -3988.453          40.000
R11  21077659.859 4 112632587.316 4      -565.371          29.000
C05  39617969.148 6 206301160.760 6       -12.527          37.000
C20  23432173.805 8 122017561.456 8      1959.195          51.000
C29  21603700.281 8 112496118.696 8       252.023          49.000
C30  23639317.836 4 123096113.345 4     -2136.102          29.000
E08  24614780.227 5 129351554.901 5      2279.367          33.000    24614788.336 5  99113571.782 5      1746.483          31.000
E13  23352962.922 8 122720668.393 8      -484.211          51.000    23352964.320 8  94032795.061 8      -371.016          51.000
E15                                                                  26071568.453 5 104979401.637 5     -1643.485          32.000
E21  25004422.594 8 131399134.088 8     -2059.941          51.000    25004423.914 8 100682449.440 8     -1578.394          50.000
E26                                                                  24048024.062 5  96831425.902 5      1266.516          33.000
> 2020 05 09 16 11 30.0000000  0 18        .000000000000
G10  21081480.320 8 110783927.996 8      1037.203          51.000    21081481.492 8  86325184.685 8       808.210          51.000
G16  21264317.992 8 111744749.049 8     -2239.617          50.000    21264318.047 7  87073836.764 7     -1745.159          47.000
G18  24042060.203 5 126341861.895 5     -3168.215          34.000
G20  21259678.266 6 111720369.584 6     -1374.176          36.000
G26  23127890.977 6 121537862.783 6     -3499.109          40.000    23127882.375 6  94704765.106 6     -2726.582          40.000
G27  20388796.359 7 107143853.069 7       717.797          45.000    20388797.820 7  83488711.607 7       559.319          45.000
R04  22154322.016 5 118635388.637 5     -2039.938          33.000
R05  20859447.469 6 111505708.886 6      1799.609          39.000    20859452.242 5  86726639.677 5      1399.693          32.000
R10  22416801.039 6 119494166.648 6     -3991.824          41.000
R11  21080897.016 5 112649918.759 5      -587.746          33.000
C05  39618025.742 6 206301455.812 6        -6.742          36.000
C20  23420912.336 8 121958916.620 8      1950.953          51.000
C29  21602257.641 8 112488606.256 8       249.332          50.000
E08  24601781.859 6 129283216.763 6      2276.387          36.000    24601779.641 5  99061190.923 5      1744.400          35.000
E13  23355728.867 8 122735204.027 8      -484.238          51.000    23355730.203 8  94043932.744 8      -371.043          51.000
E15                                                                  26083802.859 4 105028668.949 4     -1640.501          29.000
E21  25016200.891 8 131461028.237 8     -2065.738          51.000    25016202.234 8 100729874.798 8     -1582.817          50.000
E26                                                                  24038584.633 5  96793412.619 5      1267.452          34.000
> 2020 05 09 16 12  0.0000000  0 19        .000000000000
G10  21075630.836 8 110753188.348 8      1014.020          51.000    21075631.820 8  86301231.727 8       790.148          51.000
G16  21277168.453 8 111812275.685 8     -2260.203          51.000    21277167.453 7  87126454.886 7     -1761.200          45.000
G18  24060170.211 5 126437034.298 5     -3174.398          30.000
G20  21267591.062 5 111761946.378 5     -1395.676          33.000
G26  23147903.242 7 121643031.805 7     -3510.051          42.000    23147896.648 7  94786714.858 7     -2735.108          42.000
G27  20384752.984 7 107122605.106 7       700.516          46.000    20384754.711 7  83472154.738 7       545.856          46.000
R04  22165838.367 6 118697034.043 6     -2068.113          36.000
R05  20849434.984 5 111452186.578 5      1770.082          35.000    20849439.398 4  86685046.257 4      1376.737          27.000
R10  22439309.484 7 119614149.382 7     -4005.180          42.000
R11  21084296.047 4 112668058.762 4      -620.109          28.000    21084299.031 4  87630743.649 4      -482.316          28.000
R21  20732649.805 5 110944587.359 5      1929.000          32.000    20732649.883 4  86290253.982 4      1500.336          25.000
C05  39618084.445 5 206301761.710 5       -11.879          35.000
C20  23409730.523 8 121900687.934 8      1932.766          51.000
C29  21600863.633 8 112481346.496 8       236.621          49.000
C30  23663954.031 5 123224410.194 5     -2144.816          30.000
E08  24588827.242 5 129215158.616 5      2264.211          32.000    24588823.445 6  99009020.260 6      1734.927          37.000
E13  23358527.125 8 122749909.740 8      -494.238          51.000    23358528.555 8  94055200.747 8      -378.702          51.000
E21  25028044.477 8 131523264.823 8     -2081.539          51.000    25028046.602 8 100777562.530 8     -1594.892          51.000
E26  24029172.148 5 126274160.639 5      1645.496          35.000    24029170.078 5  96755505.982 5      1260.781          32.000
> 2020 05 09 16 12 30.0000000  0 17        .000000000000
G10  21069898.961 8 110723067.213 8       997.336          51.000    21069900.141 8  86277760.739 8       777.145          51.000
G16  21290120.734 8 111880337.298 8     -2274.012          51.000    21290118.734 7  87179489.879 7     -1771.957          45.000
G20  21275612.648 6 111804101.462 6     -1411.117          38.000
G26  23167960.453 7 121748437.973 7     -3513.809          43.000    23167955.875 7  94868849.439 7     -2738.036          42.000
G27  20380793.086 7 107101795.812 7       689.926          47.000    20380794.719 7  83455939.694 7       537.605          47.000
R04  22177493.555 6 118759444.211 6     -2089.164          37.000
R05  20839571.586 5 111399463.968 5      1747.707          34.000
R10  22461877.664 6 119734450.904 6     -4011.746          39.000
R11  21087854.367 4 112687117.933 4      -643.695          29.000    21087854.320 4  87645520.779 4      -500.658          27.000
R21  20721860.398 5 110886844.093 5      1924.180          31.000
C05  39618155.039 6 206302128.095 6        -9.660          36.000
C20  23398638.617 8 121842928.049 8      1921.000          51.000
C29  21599527.781 8 112474390.539 8       230.383          49.000
E08                                                                  24575922.852 5  98957073.454 5      1730.437          35.000
E13  23361367.477 8 122764836.327 8      -497.688          51.000    23361369.109 8  94066637.988 8      -381.330          51.000
E21  25039962.391 8 131585893.458 8     -2090.531          51.000    25039965.727 8 100825550.681 8     -1601.857          51.000
E26  24019793.031 5 126224879.594 5      1643.051          35.000
> 2020 05 09 16 13  0.0000000  0 17        .000000000000
G10  21064267.172 8 110693472.252 8       976.801          51.000    21064268.031 8  86254699.742 8       761.143          51.000
G16  21303156.375 8 111948838.079 8     -2291.543          50.000    21303153.867 7  87232867.053 7     -1785.621          45.000
G18  24096422.430 5 126627553.969 5     -3176.996          30.000
G20  21283726.508 6 111846740.086 6     -1430.523          36.000
G26  23188044.227 6 121853985.597 6     -3521.203          41.000    23188042.109 6  94951094.262 6     -2743.801          41.000
G27  20376899.133 7 107081333.091 7       675.473          47.000    20376900.656 7  83439994.725 7       526.342          47.000
R04  22189273.133 6 118822521.607 6     -2114.617          38.000    22189278.758 5  92417560.729 5     -1644.699          31.000
R10  22484487.773 5 119854971.556 5     -4022.035          35.000
R11  21091552.312 5 112706892.395 5      -673.371          31.000
C05  39618219.758 6 206302465.693 6       -11.645          36.000
C20  23387619.117 8 121785546.450 8      1905.406          51.000
C29  21598232.477 8 112467646.506 8       220.332          50.000
C30  23688726.766 5 123353396.802 5     -2154.660          30.000
E08                                                                  24563060.773 5  98905280.539 5      1723.161          32.000
E13  23364232.172 8 122779890.267 8      -504.887          51.000    23364234.031 8  94078172.822 8      -386.909          51.000
E21  25051936.625 8 131648819.452 8     -2103.504          51.000    25051941.102 8 100873766.673 8     -1611.722          51.000
E26  24010432.148 5 126175695.739 5      1636.457          34.000
> 2020 05 09 16 13 30.0000000  0 16        .000000000000
G10  21058739.109 8 110664422.157 8       960.168          51.000    21058739.727 8  86232063.322 8       748.183          51.000
G16  21316278.273 8 112017794.166 8     -2305.129          49.000    21316275.852 7  87286599.021 7     -1796.204          44.000
G20  21291934.586 6 111889877.851 6     -1444.977          38.000
G26  23208157.445 6 121959690.002 6     -3525.172          38.000    23208157.898 6  95033461.245 6     -2746.890          38.000
G27  20373074.781 7 107061235.850 7       664.758          47.000    20373075.977 7  83424334.545 7       517.993          47.000
R04  22201180.289 6 118886281.472 6     -2135.512          36.000    22201186.289 4  92467151.757 4     -1660.954          27.000
R05  20820250.883 5 111296225.599 5      1698.980          35.000    20820250.680 5  86563663.483 5      1321.435          30.000
R10  22507144.242 5 119975725.517 5     -4028.312          31.000
R11  21095399.781 5 112727435.382 5      -697.180          32.000
R21  20700395.703 4 110771997.628 4      1909.551          28.000
C05  39618281.938 6 206302789.161 6        -9.957          36.000
C20  23376676.023 8 121728562.698 8      1893.785          51.000
C29  21596981.352 8 112461132.505 8       214.355          50.000
E08                                                                  24550241.547 5  98853648.748 5      1718.977          32.000
E13  23367124.539 8 122795089.043 8      -508.066          51.000    23367126.555 8  94089818.628 8      -389.289          51.000
E21  25063970.320 8 131712059.049 8     -2112.250          51.000    25063974.609 8 100922222.980 8     -1618.450          50.000
> 2020 05 09 16 14  0.0000000  0 18        .000000000000
G10  21053297.344 8 110635826.248 8       942.785          51.000    21053298.305 8  86209780.831 8       734.641          51.000
G16  21329468.398 7 112087112.254 7     -2319.285          47.000    21329467.133 7  87340613.101 7     -1807.235          46.000
G18  24132680.305 5 126818071.293 5     -3175.621          33.000
G20  21300220.547 6 111933422.252 6     -1461.016          40.000    21300242.289 5  87220927.140 5     -1138.442          32.000
G21  24045417.531 5 126359517.572 5     -2600.348          32.000
G26  23228283.312 5 122065457.123 5     -3529.555          34.000    23228285.883 5  95115877.149 5     -2750.302          34.000
G27  20369302.789 7 107041413.725 7       653.391          47.000    20369303.664 8  83408888.735 8       509.136          48.000
R04  22213197.062 5 118950628.199 5     -2157.578          35.000
R05  20810773.359 6 111245577.301 6      1674.730          41.000    20810781.125 5  86524270.495 5      1302.571          30.000
R10  22529833.438 4 120096689.444 4     -4035.094          29.000
R11  21099375.023 5 112748686.834 5      -722.961          31.000
R20  20332959.125 6 108729478.321 6     -1379.648          36.000    20332962.531 8  84567379.465 8     -1073.063          48.000
C20  23365792.531 8 121671887.996 8      1881.211          51.000
C29  21595756.984 8 112454758.379 8       207.406          50.000
C30  23713583.266 5 123482818.364 5     -2161.801          30.000
E08  24537438.383 5 128945108.330 5      2236.703          33.000    24537445.539 5  98802125.632 5      1713.927          31.000
E13  23370026.945 8 122810340.862 8      -512.031          51.000    23370029.047 8  94101505.095 8      -392.294          51.000
E21  25076045.859 8 131775519.296 8     -2121.711          51.000    25076049.062 8 100970848.346 8     -1625.679          50.000
> 2020 05 09 16 14 30.0000000  0 18        .000000000000
G10  21047981.930 8 110607894.508 8       921.344          51.000    21047983.055 8  86188015.847 8       717.930          51.000
G16  21342766.297 7 112156999.440 7     -2337.594          45.000    21342766.867 7  87395070.679 7     -1821.499          45.000
G18  24150824.047 5 126913418.908 5     -3179.168          32.000
G20  21308623.344 6 111977580.639 6     -1480.754          37.000
G21  24060280.773 5 126437630.549 5     -2604.109          31.000
G26  23248461.234 5 122171493.619 5     -3537.438          35.000    23248465.148 6  95198502.992 6     -2756.442          36.000
G27  20365623.070 7 107022076.898 7       638.031          47.000    20365624.289 7  83393821.070 7       497.167          47.000
R04  22225363.000 5 119015771.719 5     -2183.293          35.000
R05  20801457.648 7 111195782.460 7      1646.859          42.000
R11  21103528.727 5 112770861.490 5      -752.273          34.000
R20  20340736.867 6 108771069.073 6     -1391.016          39.000    20340740.250 8  84599727.800 8     -1081.901          48.000
C05  39618386.172 6 206303332.330 6       -11.148          36.000
C20  23355008.070 8 121615731.429 8      1864.504          51.000
C29  21594599.406 8 112448731.804 8       196.457          51.000
C30  23726068.180 5 123547812.721 5     -2169.402          30.000
E08  24524706.477 5 128878201.672 5      2225.797          32.000
E13  23372979.094 8 122825854.556 8      -520.145          51.000    23372981.195 8  94113392.211 8      -398.585          51.000
E21  25088203.211 8 131839407.808 8     -2135.508          51.000    25088205.898 8 101019801.866 8     -1636.304          51.000
> 2020 05 09 16 15  0.0000000  0 17        .000000000000
G10  21042775.812 8 110580537.688 8       902.508          51.000    21042777.328 8  86166698.837 8       703.253          51.000
G16  21356155.719 8 112227363.511 8     -2353.012          48.000    21356157.062 7  87449899.839 7     -1833.516          47.000
G18  24168976.148 5 127008825.665 5     -3178.789          31.000
G20  21317125.445 7 112022261.698 7     -1497.953          42.000    21317122.578 4  87290052.719 4     -1167.236          28.000
G26  23268672.898 5 122277706.902 5     -3543.480          33.000    23268678.656 5  95281266.614 5     -2761.148          34.000
G27  20362018.898 8 107003136.460 8       625.023          48.000    20362020.453 8  83379062.273 8       487.028          48.000
R04  22237659.461 5 119081617.566 5     -2206.227          33.000    22237666.062 4  92619079.647 4     -1715.948          29.000
R05  20792285.711 6 111146752.634 6      1621.625          40.000
R10  22575347.805 4 120339316.885 4     -4054.008          29.000
R20  20348565.805 6 108812932.977 6     -1399.773          38.000    20348568.898 8  84632288.586 8     -1088.713          48.000
R21  20668479.797 4 110601193.539 4      1884.992          29.000
C05  39618451.156 6 206303670.083 6       -11.191          36.000
C20  23344306.000 8 121560005.574 8      1850.531          50.000
C29  21593491.766 8 112442964.036 8       188.234          51.000
E13  23375963.875 8 122841539.762 8      -525.418          51.000    23375965.883 8  94125410.741 8      -402.641          51.000
E21  25100425.164 8 131903632.999 8     -2146.168          51.000    25100427.828 8 101069013.344 8     -1644.460          51.000
E26  23973221.320 5 125980142.557 5      1620.430          35.000    23973215.734 5  96530205.515 5      1241.305          31.000
> 2020 05 09 16 15 30.0000000  0 16        .000000000000
G10  21037691.477 8 110553820.919 8       886.949          51.000    21037693.773 8  86145880.599 8       691.129          51.000
G16  21369648.602 8 112298266.836 8     -2365.098          50.000    21369649.758 8  87505149.165 8     -1842.933          48.000
G20  21325739.375 6 112067527.925 6     -1511.203          39.000
G26  23288928.641 4 122384147.022 4     -3545.805          29.000    23288938.047 4  95364216.184 4     -2762.977          28.000
G27  20358502.695 8 106984657.815 8       615.371          48.000    20358504.258 8  83364663.329 8       479.510          48.000
R04  22250097.977 5 119148228.573 5     -2225.590          34.000    22250103.234 3  92670894.287 3     -1731.017          22.000
R05  20783269.016 6 111098555.770 6      1600.000          37.000    20783276.023 4  86409958.644 4      1244.444          26.000
R10  22598189.484 5 120461107.318 5     -4057.438          32.000
R20  20356457.375 6 108855135.116 6     -1405.332          39.000    20356460.609 8  84665112.444 8     -1093.036          48.000
C05  39618530.859 6 206304086.127 6        -7.797          36.000
C20  23333699.453 8 121504776.091 8      1839.777          50.000
C29  21592446.320 8 112437519.294 8       183.227          51.000
E08  24499405.367 5 128745238.400 5      2212.367          33.000
E13  23378993.586 8 122857460.536 8      -527.484          51.000    23378995.391 8  94137609.776 8      -404.194          51.000
E21  25112723.656 8 131968257.726 8     -2153.609          51.000    25112726.258 8 101118530.957 8     -1650.201          51.000
E26  23963996.578 5 125931678.819 5      1619.578          34.000
> 2020 05 09 16 16  0.0000000  0 17        .000000000000
G10  21032692.141 8 110527550.037 8       866.363          51.000    21032694.680 8  86125409.772 8       675.088          51.000
G16  21383207.047 8 112369512.661 8     -2382.441          51.000    21383207.719 8  87560665.379 8     -1856.448          48.000
G20  21334427.336 6 112113182.490 6     -1530.633          36.000    21334425.703 5  87360912.217 5     -1192.698          30.000
G26  23309191.961 5 122490634.222 5     -3552.781          31.000    23309188.531 4  95447213.521 4     -2768.407          27.000
G27  20355037.461 8 106966447.172 8       600.680          48.000    20355039.047 8  83350473.208 8       468.062          48.000
R04  22262642.336 5 119215403.322 5     -2250.223          33.000
R05  20774371.844 5 111050996.368 5      1572.918          32.000    20774385.148 4  86372968.181 4      1223.390          29.000
R10  22621053.680 5 120583003.901 5     -4066.980          35.000
R20  20364375.461 6 108897476.740 6     -1415.695          39.000    20364378.969 8  84698044.779 8     -1101.096          49.000
R21  20647442.719 5 110488562.649 5      1871.996          33.000
C05  39618588.578 6 206304386.318 6        -9.664          36.000
C20  23323151.719 8 121449851.621 8      1823.770          51.000
