     3.02           OBSERVATION DATA    M (MIXED)           RINEX VERSION / TYPE
SAVERINEX           SC600               20200516 165931 LCL PGM / RUN BY / DATE
       G = GPS       R = GLONASS       C = COMPASS          COMMENT
       S = SBAS      J = QZSS          E = GALILEO          COMMENT
BEAN                                                        MARKER NAME
1                                                           MARKER NUMBER
GEODETIC                                                    MARKER TYPE
Unige DICCA         GTER                                    OBSERVER / AGENCY
SC60291900056       SC600               2.12(191202)        REC # / TYPE / VERS
                    HEMA45          NONE                    ANT # / TYPE
  4509407.8091   693652.4678  4442337.6214                  APPROX POSITION XYZ
        0.0000        0.0000        0.0000                  ANTENNA: DELTA H/E/N
G    8 C1C L1C D1C S1C C2Y L2Y D2Y S2Y                      SYS / # / OBS TYPES
R    8 C1C L1C D1C S1C C2P L2P D2P S2P                      SYS / # / OBS TYPES
C    4 C1I L1I D1I S1I                                      SYS / # / OBS TYPES
E    8 C1C L1C D1C S1C C7Q L7Q D7Q S7Q                      SYS / # / OBS TYPES
DBHZ                                                        COMMENT
     30.000                                                 INTERVAL
  2020    05    16    14    00    0.0000000     GPS         TIME OF FIRST OBS
  2020    05    16    14    59   30.0000000     GPS         TIME OF LAST OBS
     0                                                      RCV CLOCK OFFS APPL
G L1C  0.00000                                              SYS / PHASE SHIFT
G L2Y  0.00000                                              SYS / PHASE SHIFT
R L1C  0.00000                                              SYS / PHASE SHIFT
R L2P  0.25000                                              SYS / PHASE SHIFT
C L1I  0.00000                                              SYS / PHASE SHIFT
E L1C  0.50000                                              SYS / PHASE SHIFT
E L7Q -0.25000                                              SYS / PHASE SHIFT
 13 R02 -4 R03  5 R04  6 R05  1 R09 -2 R10 -5 R13 -2 R14 -7 GLONASS SLOT / FRQ #
    R15  0 R16 -1 R17  4 R18 -3 R19  3                      GLONASS SLOT / FRQ #
 C1C   71.950 C2C   71.950 C2P   71.950                     GLONASS COD/PHS/BIS
    18                                                      LEAP SECONDS
*** Above antenna height is from mark to ANTENNA BOTTOM.    COMMENT
    17     4        0.0000        ANT MEASURE TYPE/HEIGT    COMMENT
    0.0000    0.0000    0.0458    0.0405    0.0000          COMMENT
                    BASE STATION                            COMMENT
                                                            END OF HEADER
> 2020 05 16 14 00  0.0000000  0 15        .000000000000
G10  24054979.203 6 126409782.005 6      3463.199          39.000    24054986.875 6  98501142.957 6      2698.603          36.000
G18  20793439.633 8 109270300.077 8     -1666.348          48.000    20793439.367 7  85145712.055 7     -1298.453          47.000
G20  21889492.859 8 115030098.930 8      2320.844          51.000    21889494.680 7  89633866.920 7      1808.450          44.000
G21  21077474.906 8 110762947.049 8     -1394.289          50.000    21077472.617 8  86308811.236 8     -1086.459          48.000
G26  20370786.133 8 107049195.617 8      -788.367          51.000    20370789.242 8  83414975.314 8      -614.312          51.000
R02  22787459.688 6 121598237.416 6      -121.094          37.000    22787464.391 5  94576425.841 5       -94.184          32.000
R16  20816315.227 8 111196991.258 8     -3418.113          48.000    20816319.031 7  86486562.085 7     -2658.533          42.000
R18  20515576.602 5 109513615.005 5     -2311.340          34.000    20515582.992 5  85177211.943 5     -1797.706          35.000
C05  39622533.617 6 206324929.151 6         6.453          36.000
C27  25219048.602 6 131322166.249 6     -2644.844          37.000
C30  21795599.625 8 113495519.558 8      -899.301          51.000
E13  26337557.727 8 138404803.822 8      2364.781          48.000    26337560.055 8 106050463.414 8      1811.954          48.000
E15  23120313.016 8 121498062.186 8       465.000          51.000    23120315.625 8  93095996.142 8       356.290          51.000
E27  23645712.445 7 124259056.338 7       145.258          47.000    23645714.906 8  95211496.409 8       111.292          48.000
E30  23799589.883 8 125067673.735 8     -2540.234          51.000    23799592.055 8  95831074.615 8     -1946.401          51.000
> 2020 05 16 14 00 30.0000000  0 15        .000000000000
G10  24035214.836 6 126305923.098 6      3459.617          40.000    24035220.039 5  98420214.018 5      2695.809          35.000
G18  20802991.242 7 109320494.290 7     -1681.113          46.000    20802991.195 7  85184824.443 7     -1309.958          46.000
G20  21876283.016 8 114960675.955 8      2306.203          51.000    21876282.719 7  89579771.103 7      1797.041          42.000
G21  21085464.867 8 110804934.834 8     -1406.145          50.000    21085462.633 8  86341529.000 8     -1095.697          48.000
G26  20375336.641 8 107073109.030 8      -807.086          51.000    20375339.336 8  83433609.131 8      -628.898          51.000
R02  22788210.773 6 121602233.650 6      -147.406          36.000    22788216.562 4  94579547.593 4      -114.655          28.000
R16  20835558.266 7 111299782.859 7     -3435.898          47.000    20835561.938 6  86566511.069 6     -2672.365          40.000
R18  20528585.164 6 109583056.757 6     -2319.688          36.000    20528590.242 5  85231222.138 5     -1804.207          33.000
C05  39622495.680 5 206324731.163 5         5.258          35.000
C27  25234286.172 5 131401521.997 5     -2646.598          34.000
C30  21800800.820 8 113522604.910 8      -907.590          51.000
E13  26324071.562 8 138333932.853 8      2358.766          48.000    26324072.766 8 105996159.700 8      1807.444          48.000
E15  23117683.133 8 121484243.431 8       455.098          51.000    23117685.844 8  93085407.757 8       348.771          51.000
E27  23644922.609 7 124254905.519 7       130.383          46.000    23644925.180 8  95208315.906 8        99.919          48.000
E30  23814115.648 8 125144006.048 8     -2549.652          51.000    23814118.016 8  95889562.969 8     -1953.663          51.000
> 2020 05 16 14 01  0.0000000  0 15        .000000000000
G10  24015464.070 6 126202134.023 6      3454.223          38.000    24015468.938 5  98339339.436 5      2691.611          30.000
G18  20812619.125 8 109371089.664 8     -1697.422          48.000    20812619.305 8  85224249.413 8     -1322.666          48.000
G20  21863148.805 8 114891650.143 8      2290.047          51.000    21863146.242 6  89525984.792 6      1784.452          41.000
G21  21093513.594 8 110847231.585 8     -1419.289          50.000    21093511.125 8  86374487.500 8     -1105.940          48.000
G26  20379985.000 8 107097536.598 8      -827.016          51.000    20379987.477 8  83452643.584 8      -644.428          51.000
R16  20854892.688 7 111403062.676 7     -3454.945          46.000    20854895.305 6  86646839.746 6     -2687.183          37.000
R18  20541633.891 5 109652707.127 5     -2329.312          35.000    20541634.695 5  85285394.530 5     -1811.691          33.000
C05  39622455.094 6 206324519.095 6         3.367          36.000
C27  25249526.953 5 131480890.735 5     -2649.945          34.000
C29  22782813.977 5 118636072.780 5      1701.500          34.000
C30  21806041.672 8 113549895.107 8      -917.293          51.000
E13  26310611.008 8 138263196.129 8      2351.461          48.000    26310611.477 8 105941958.899 8      1801.739          48.000
E15  23115100.570 8 121470673.808 8       443.957          51.000    23115103.570 8  93075010.260 8       340.205          51.000
E27  23644208.742 7 124251154.917 7       114.090          46.000    23644211.391 8  95205442.038 8        87.473          48.000
E30  23828686.766 8 125220576.649 8     -2560.480          51.000    23828688.875 8  95948233.912 8     -1961.992          51.000
> 2020 05 16 14 01 30.0000000  0 16        .000000000000
G10  23995739.953 6 126098485.810 6      3454.207          37.000    23995741.656 6  98258574.831 6      2691.605          36.000
G18  20822336.039 8 109422152.335 8     -1708.035          48.000    20822335.977 8  85264038.494 8     -1330.936          48.000
G20  21850103.617 8 114823092.147 8      2279.395          51.000    21850099.125 7  89472563.029 7      1776.155          42.000
G21  21101633.891 8 110889904.151 8     -1426.816          50.000    21101631.406 8  86407738.834 8     -1111.805          49.000
G26  20384744.188 8 107122546.272 8      -841.469          51.000    20384746.367 8  83472131.615 8      -655.690          51.000
R02  22790146.844 5 121612568.592 5      -197.117          34.000    22790149.180 4  94587585.624 4      -153.313          28.000
R16  20874330.445 7 111506895.856 7     -3468.469          45.000    20874330.383 6  86727598.767 6     -2697.704          36.000
R18  20554734.281 4 109722565.778 4     -2333.828          28.000    20554733.992 5  85339772.943 5     -1815.200          34.000
C05  39622424.625 5 206324361.572 5         6.398          35.000
C27  25264785.031 5 131560339.595 5     -2647.566          33.000
C29  22773015.578 5 118585071.077 5      1697.832          30.000
C30  21811334.852 8 113577457.119 8      -921.414          51.000
E13  26297189.078 8 138192662.155 8      2349.637          49.000    26297189.289 8 105887913.438 8      1800.431          48.000
E15  23112578.508 8 121457420.940 8       438.398          51.000    23112581.617 8  93064855.478 8       335.925          51.000
E27  23643584.328 7 124247873.155 7       103.438          47.000    23643586.773 8  95202927.446 8        79.287          48.000
E30  23843315.891 8 125297452.450 8     -2565.773          51.000    23843317.094 8  96007138.695 8     -1965.949          51.000
> 2020 05 16 14 02  0.0000000  0 15        .000000000000
G10  23976014.469 6 125994831.071 6      3453.270          37.000    23976013.523 5  98177805.087 5      2690.869          32.000
G18  20832112.898 8 109473530.160 8     -1719.504          48.000    20832112.703 8  85304073.161 8     -1339.873          48.000
G20  21837118.828 8 114754854.301 8      2267.605          51.000    21837113.688 7  89419390.737 7      1766.968          43.000
G21  21109796.578 8 110932800.177 8     -1435.242          49.000    21109794.531 8  86441164.313 8     -1118.371          48.000
G26  20389585.492 8 107147987.682 8      -856.859          51.000    20389587.023 8  83491956.074 8      -667.683          51.000
G31  24696018.516 5 129778436.507 5     -3363.672          32.000
R02  22791311.461 6 121618791.001 6      -220.098          36.000    22791314.516 4  94592415.319 4      -171.181          26.000
R16  20893842.141 7 111611126.477 7     -3482.535          44.000    20893841.312 6  86808666.957 6     -2708.638          38.000
C05  39622376.008 6 206324107.759 6         8.539          36.000
C27  25280029.781 5 131639719.401 5     -2646.359          31.000
C30  21816651.555 8 113605141.616 8      -926.562          51.000
E13  26283777.086 8 138122181.114 8      2346.820          49.000    26283777.602 8 105833908.521 8      1798.201          49.000
E15  23110088.000 8 121444334.167 8       431.801          51.000    23110091.234 8  93054827.959 8       330.893          51.000
E27  23643020.594 8 124244910.668 8        91.797          48.000    23643023.141 8  95200657.495 8        70.317          49.000
E30  23857974.281 8 125374481.989 8     -2571.863          51.000    23857974.391 8  96066161.270 8     -1970.607          51.000
> 2020 05 16 14 02 30.0000000  0 17        .000000000000
G10  23956345.430 6 125891472.424 6      3446.859          37.000    23956345.320 6  98097265.966 6      2685.864          37.000
G18  20842006.438 8 109525520.877 8     -1736.730          48.000    20842006.258 8  85344585.397 8     -1353.296          48.000
G20  21824251.805 8 114687238.680 8      2249.961          50.000    21824246.508 7  89366703.270 7      1753.216          43.000
G21  21118058.492 8 110976217.937 8     -1449.449          49.000    21118056.703 8  86474996.320 8     -1129.441          49.000
G26  20394565.844 8 107174160.296 8      -878.180          51.000    20394566.875 8  83512350.305 8      -684.296          51.000
G31  24715250.859 5 129879519.737 5     -3366.480          33.000
R02  22792658.180 6 121625975.703 6      -249.188          36.000
R16  20913483.859 7 111716055.211 7     -3502.438          42.000    20913485.461 7  86890278.172 7     -2724.118          42.000
R18  20581079.117 6 109863173.362 6     -2349.742          36.000    20581063.078 5  85449103.854 5     -1827.580          33.000
C05  39622366.078 5 206324056.688 5         4.527          35.000
C27  25295318.539 5 131719326.722 5     -2651.391          30.000
C29  22753531.836 4 118483609.118 4      1683.746          29.000
C30  21822048.719 8 113633244.980 8      -937.375          51.000
E13  26270432.039 8 138052052.979 8      2338.281          48.000    26270433.312 8 105780173.998 8      1791.679          49.000
E15  23107685.930 8 121431712.652 8       419.461          51.000    23107689.266 8  93045156.940 8       321.489          51.000
E27  23642574.484 7 124242567.653 7        74.203          47.000    23642577.383 8  95198862.181 8        57.031          50.000
E30  23872718.516 8 125451963.720 8     -2583.719          51.000    23872718.555 8  96125530.328 8     -1979.715          51.000
> 2020 05 16 14 03  0.0000000  0 17        .000000000000
G10  23936666.375 5 125788062.281 5      3446.738          34.000    23936668.898 5  98016686.699 5      2685.773          34.000
G18  20851949.539 8 109577772.002 8     -1747.277          48.000    20851949.242 8  85385300.550 8     -1361.515          48.000
G20  21811436.391 8 114619897.156 8      2238.809          48.000    21811432.312 7  89314229.373 7      1744.529          45.000
G21  21126352.734 8 111019804.748 8     -1456.988          49.000    21126350.875 8  86508960.047 8     -1135.319          49.000
G26  20399618.703 8 107200713.410 8      -892.742          51.000    20399620.000 8  83533041.016 8      -695.643          51.000
G31  24734454.359 5 129980440.607 5     -3362.480          34.000
R02  22794117.078 5 121633766.767 5      -271.332          34.000    22794120.703 4  94604053.552 4      -211.036          26.000
R16  20933189.281 7 111821321.840 7     -3515.742          43.000    20933192.898 7  86972152.189 7     -2734.466          43.000
R18  20594301.156 6 109933712.562 6     -2353.707          38.000    20594279.789 5  85503967.571 5     -1830.667          32.000
C05  39622328.258 5 206323860.056 5         7.570          35.000
C27  25310582.781 5 131798834.805 5     -2649.324          32.000
C29  22743848.555 5 118433178.762 5      1679.012          30.000
C30  21827459.469 8 113661419.425 8      -941.629          51.000
E13  26257087.297 8 137981927.607 8      2336.242          48.000    26257089.578 8 105726441.613 8      1790.048          49.000
E15  23105305.727 8 121419205.442 8       413.719          51.000    23105309.062 8  93035573.497 8       317.026          51.000
E27  23642179.586 7 124240494.195 7        63.258          47.000    23642182.992 8  95197273.425 8        48.548          50.000
E30  23887481.844 8 125529545.902 8     -2588.977          51.000    23887482.688 8  96184976.376 8     -1983.785          51.000
> 2020 05 16 14 03 30.0000000  0 17        .000000000000
G10  23917013.406 5 125684789.270 5      3446.242          30.000    23917019.117 5  97936214.433 5      2685.393          30.000
G18  20861977.109 8 109630467.420 8     -1756.824          49.000    20861976.648 7  85426361.902 7     -1368.957          47.000
G20  21798708.859 8 114553018.259 8      2228.691          49.000    21798706.156 7  89262115.959 7      1736.643          45.000
G21  21134714.273 8 111063745.253 8     -1463.348          49.000    21134712.641 8  86543199.384 8     -1140.274          49.000
G26  20404779.398 8 107227832.560 8      -906.289          51.000    20404781.070 8  83554172.790 8      -706.199          51.000
G31  24753662.625 5 130081382.377 5     -3358.441          34.000    24753664.125 5 101362095.430 5     -2616.986          32.000
R02  22795726.289 5 121642353.622 5      -292.309          35.000    22795729.844 5  94610731.781 5      -227.348          31.000
R16  20952993.367 7 111927111.408 7     -3527.754          44.000    20952997.789 7  87054432.921 7     -2743.812          43.000
R18  20607562.320 6 110004505.260 6     -2356.449          39.000    20607541.297 5  85559028.453 5     -1832.794          32.000
C05  39622297.766 6 206323701.076 6        11.562          36.000
C27  25325861.039 5 131878385.103 5     -2645.711          31.000
C29  22734209.242 4 118382982.687 4      1677.270          29.000
C30  21832918.984 8 113689848.532 8      -944.816          51.000
E13  26243778.695 8 137911991.127 8      2335.207          49.000    26243781.609 8 105672853.960 8      1789.300          49.000
E15  23102982.523 8 121406997.840 8       409.098          51.000    23102986.078 8  93026219.611 8       313.467          51.000
E27  23641871.383 8 124238876.606 8        53.531          48.000    23641875.312 8  95196033.955 8        40.999          49.000
E30  23902299.344 8 125607413.065 8     -2593.117          51.000    23902301.266 8  96244640.806 8     -1986.922          51.000
> 2020 05 16 14 04  0.0000000  0 16        .000000000000
G10  23897388.164 6 125581615.534 6      3433.230          36.000    23897394.445 6  97855847.450 6      2675.245          36.000
G18  20872087.969 8 109683600.280 8     -1780.223          50.000    20872087.594 7  85467764.113 7     -1387.186          46.000
G20  21786069.367 8 114486599.225 8      2204.578          50.000    21786067.641 7  89210360.891 7      1717.856          46.000
G21  21143141.930 8 111108032.847 8     -1483.781          49.000    21143140.633 8  86577709.199 8     -1156.193          49.000
G26  20410046.984 8 107255512.656 8      -933.844          51.000    20410048.602 8  83575741.694 8      -727.670          51.000
R02  22797484.484 5 121651730.720 5      -327.789          31.000    22797485.789 4  94618025.083 4      -254.944          28.000
R16  20972894.266 7 112033415.688 7     -3553.887          44.000    20972898.297 7  87137113.981 7     -2764.134          42.000
R18  20620869.938 5 110075545.128 5     -2373.699          34.000    20620852.398 5  85614281.517 5     -1846.214          33.000
C05  39622273.742 5 206323576.547 5         1.574          35.000
C27  25341146.312 5 131957993.530 5     -2656.504          33.000
C29  22724605.211 4 118332967.277 4      1661.777          28.000
C30  21838426.469 8 113718527.004 8      -961.887          51.000
E13  26230505.281 8 137842239.032 8      2320.195          49.000    26230508.719 8 105619407.585 8      1777.818          50.000
E15  23100715.398 8 121395084.482 8       390.449          51.000    23100719.219 8  93017091.192 8       299.151          51.000
E27  23641649.617 8 124237710.576 8        29.590          49.000    23641653.078 8  95195140.513 8        22.604          50.000
E30  23917170.047 8 125685559.104 8     -2611.285          51.000    23917172.984 8  96304518.932 8     -2000.846          51.000
> 2020 05 16 14 04 30.0000000  0 14        .000000000000
G10  23877779.383 5 125478568.581 5      3433.551          31.000    23877786.414 5  97775551.189 5      2675.497          30.000
G18  20882272.648 8 109737121.444 8     -1790.629          49.000    20882272.242 7  85509468.890 7     -1395.295          46.000
G20  21773509.211 8 114420595.648 8      2193.039          51.000    21773507.992 7  89158929.561 7      1708.862          45.000
G21  21151626.414 8 111152618.706 8     -1491.305          49.000    21151625.164 8  86612451.414 8     -1162.059          49.000
G26  20415412.305 8 107283706.278 8      -948.531          51.000    20415414.062 8  83597710.750 8      -739.115          51.000
R02  22799379.398 5 121661850.406 5      -349.797          31.000    22799380.070 4  94625890.854 4      -272.064          27.000
R16  20992881.734 7 112140182.444 7     -3566.766          44.000    20992885.656 7  87220154.734 7     -2774.151          43.000
C05  39622247.383 5 206323438.278 5         4.324          35.000
C27  25356434.875 6 132037613.045 6     -2654.398          36.000
C30  21843972.930 8 113747407.630 8      -966.199          51.000
E13  26217257.797 8 137772624.510 8      2318.039          48.000    26217261.969 8 105566066.638 8      1776.133          49.000
E15  23098495.445 8 121383417.711 8       384.637          51.000    23098499.203 8  93008151.725 8       294.707          51.000
E27  23641505.203 8 124236949.456 8        18.539          49.000    23641508.016 8  95194557.328 8        14.103          50.000
E30  23932084.820 8 125763935.646 8     -2616.578          51.000    23932088.281 8  96364573.672 8     -2004.875          51.000
> 2020 05 16 14 05  0.0000000  0 14        .000000000000
G10  23858178.898 5 125375569.676 5      3436.461          35.000    23858185.484 5  97695286.242 5      2677.765          35.000
G18  20892520.500 8 109790975.014 8     -1796.895          49.000    20892520.195 7  85551432.705 7     -1400.178          45.000
G20  21761018.594 8 114354956.191 8      2185.625          51.000    21761017.820 7  89107781.958 7      1703.084          45.000
G21  21160156.969 8 111197446.883 8     -1494.621          49.000    21160155.781 8  86647382.458 8     -1164.640          49.000
G26  20420865.039 8 107312359.236 8      -959.023          51.000    20420867.141 8  83620037.717 8      -747.291          51.000
R16  21012944.812 7 112247352.798 7     -3575.238          45.000    21012948.844 7  87303509.440 7     -2780.741          43.000
C05  39622208.211 5 206323234.424 5        11.238          35.000
C27  25371716.219 5 132117189.776 5     -2648.484          33.000
C29  22705504.383 5 118233537.215 5      1659.043          31.000
C30  21849547.695 8 113776436.466 8      -966.461          51.000
E13  26204026.055 8 137703093.981 8      2320.004          48.000    26204030.961 8 105512790.033 8      1777.695          48.000
E15  23096312.203 8 121371943.149 8       383.016          51.000    23096315.797 8  92999359.528 8       293.491          51.000
E27  23641427.422 8 124236539.861 8        11.512          49.000    23641430.312 8  95194243.465 8         8.815          50.000
E30  23947032.977 8 125842487.514 8     -2617.559          51.000    23947036.219 8  96424762.731 8     -2005.665          50.000
> 2020 05 16 14 05 30.0000000  0 14        .000000000000
G10  23838621.234 6 125272789.460 6      3425.871          38.000    23838627.219 6  97615197.773 6      2669.510          38.000
G18  20902866.219 8 109845342.605 8     -1817.059          49.000    20902866.383 7  85593797.052 7     -1415.890          45.000
G20  21748632.469 8 114289866.554 8      2164.344          50.000    21748631.969 7  89057062.803 7      1686.505          46.000
G21  21168768.297 8 111242699.338 8     -1511.625          50.000    21168767.211 8  86682644.103 8     -1177.890          50.000
G26  20426440.234 8 107341654.765 8      -983.461          51.000    20426442.320 8  83642865.394 8      -766.333          51.000
R02  22803594.398 6 121684311.036 6      -400.594          36.000
R16  21033117.781 7 112355110.078 7     -3597.719          46.000    21033121.805 7  87387320.625 7     -2798.226          43.000
C05  39622191.188 5 206323146.322 5         4.438          35.000
C27  25387025.117 5 132196905.247 5     -2656.023          30.000
C30  21855185.617 8 113805794.882 8      -980.312          51.000
E13  26190845.547 8 137633831.305 8      2308.129          49.000    26190850.422 8 105459718.649 8      1768.623          48.000
E15  23094200.211 8 121360843.803 8       367.629          51.000    23094203.789 8  92990854.846 8       281.672          51.000
E27  23641451.492 8 124236665.809 8        -9.281          49.000    23641454.258 8  95194339.944 8        -7.076          50.000
E30  23962049.172 8 125921396.957 8     -2632.336          51.000    23962051.602 8  96485225.766 8     -2017.027          49.000
> 2020 05 16 14 06  0.0000000  0 14        .000000000000
G10  23819048.578 6 125169935.337 6      3421.684          37.000    23819053.859 6  97535051.762 6      2666.250          37.000
G18  20913251.695 8 109899919.017 8     -1830.863          48.000    20913251.797 7  85636324.126 7     -1426.647          44.000
G20  21736293.336 8 114225026.085 8      2148.973          48.000    21736293.320 7  89006537.808 7      1674.527          45.000
G21  21177402.320 8 111288071.284 8     -1522.461          49.000    21177401.203 8  86717998.862 8     -1186.333          49.000
G26  20432079.891 8 107371289.409 8     -1001.594          51.000    20432081.750 8  83665957.314 8      -780.463          51.000
R02  22805891.273 6 121696559.024 6      -425.824          37.000    22805896.203 5  94652933.846 5      -331.197          33.000
R16  21053341.656 7 112463142.127 7     -3613.762          44.000    21053345.844 7  87471345.520 7     -2810.704          43.000
R18  20674428.633 6 110361499.360 6     -2399.055          38.000    20674428.172 4  85836710.942 4     -1865.934          27.000
C05  39622138.820 5 206322873.686 5         3.426          35.000
C30  21860829.055 8 113835182.001 8      -988.059          51.000
E13  26177658.758 8 137564533.655 8      2302.367          49.000    26177662.891 8 105406620.485 8      1764.125          48.000
E15  23092101.719 8 121349816.052 8       358.207          51.000    23092105.281 8  92982405.007 8       274.455          51.000
E27  23641520.031 8 124237024.658 8       -24.027          49.000    23641522.367 8  95194614.892 8       -18.432          50.000
E30  23977075.234 8 126000359.577 8     -2641.199          51.000    23977077.227 8  96545729.515 8     -2023.773          49.000
> 2020 05 16 14 06 30.0000000  0 13        .000000000000
G10  23799562.336 6 125067540.399 6      3411.906          36.000    23799567.844 6  97455263.534 6      2658.628          36.000
G18  20923777.508 8 109955232.309 8     -1849.660          48.000    20923777.383 7  85679425.409 7     -1441.291          45.000
G20  21724102.492 7 114160967.318 7      2128.742          46.000    21724103.086 7  88956621.896 7      1658.763          46.000
G21  21186159.453 8 111334090.717 8     -1538.320          49.000    21186158.344 8  86753858.173 8     -1198.691          49.000
G26  20437884.633 8 107401792.842 8     -1024.805          51.000    20437886.281 8  83689726.207 8      -798.549          51.000
R16  21073716.961 7 112571984.018 7     -3635.129          45.000    21073721.211 7  87556000.298 7     -2827.322          43.000
R18  20687969.461 6 110433771.389 6     -2411.703          38.000    20687973.133 4  85892945.403 4     -1875.778          27.000
C05  39622151.773 5 206322940.714 5        -1.449          35.000
C30  21866578.766 8 113865122.570 8     -1000.832          51.000
E13  26164566.508 8 137495731.351 8      2291.652          51.000    26164569.789 8 105353901.878 8      1755.938          48.000
E15  23090117.734 8 121339389.407 8       344.043          51.000    23090121.164 8  92974415.760 8       263.632          51.000
E27  23641733.914 8 124238146.852 8       -43.699          50.000    23641736.070 8  95195474.739 8       -33.376          50.000
E30  23992211.609 8 126079904.140 8     -2654.773          50.000    23992214.117 8  96606679.184 8     -2034.141          50.000
> 2020 05 16 14 07  0.0000000  0 15        .000000000000
G10  23780049.625 6 124965012.076 6      3416.121          36.000    23780056.797 6  97375371.368 6      2661.913          36.000
G18  20934329.773 7 110010685.019 7     -1853.848          47.000    20934330.172 7  85722635.322 7     -1444.557          44.000
G20  21711947.609 7 114097097.253 7      2122.676          47.000    21711948.883 7  88906853.001 7      1654.033          44.000
G21  21194926.375 8 111380160.864 8     -1539.730          50.000    21194925.250 8  86789756.984 8     -1199.790          50.000
G26  20443741.133 8 107432569.221 8     -1033.641          51.000    20443742.680 8  83713707.781 8      -805.437          51.000
R02  22810985.352 5 121723799.638 5      -472.840          33.000    22810991.766 5  94674054.177 5      -367.767          31.000
R16  21094129.531 7 112681026.034 7     -3641.258          44.000    21094134.000 7  87640810.740 7     -2832.089          42.000
R18  20701499.406 6 110505989.646 6     -2409.449          36.000    20701507.531 4  85949115.035 4     -1874.019          25.000
C05  39622116.969 5 206322759.508 5         6.812          35.000
C29  22667749.680 5 118036925.507 5      1627.793          32.000
C30  21872321.344 8 113895026.007 8      -999.281          51.000
E13  26151455.344 8 137426829.220 8      2295.137          50.000    26151458.086 8 105301106.778 8      1758.629          48.000
E15  23088134.711 8 121328967.889 8       344.066          51.000    23088138.164 8  92966430.449 8       263.620          51.000
E27  23641979.727 8 124239437.404 8       -49.109          50.000    23641981.570 8  95196463.606 8       -37.602          50.000
E30  24007345.047 8 126159433.826 8     -2653.996          50.000    24007348.617 8  96667617.484 8     -2033.620          51.000
> 2020 05 16 14 07 30.0000000  0 14        .000000000000
G10  23760570.352 5 124862659.511 5      3409.785          34.000    23760579.234 5  97295616.199 5      2656.978          34.000
G18  20944966.352 7 110066581.458 7     -1869.734          47.000    20944966.914 7  85766190.991 7     -1456.936          43.000
G20  21699888.219 8 114033724.060 8      2105.047          48.000    21699888.914 7  88857471.299 7      1640.299          44.000
G21  21203760.883 8 111426586.239 8     -1552.434          50.000    21203759.789 8  86825932.591 8     -1209.689          50.000
G26  20449707.656 8 107463924.427 8     -1053.816          51.000    20449709.141 8  83738140.397 8      -821.156          51.000
R02  22813736.977 5 121738462.078 5      -501.629          35.000    22813739.445 5  94685458.220 5      -390.162          31.000
R16  21114636.891 7 112790575.951 7     -3659.148          43.000    21114641.648 6  87726016.221 6     -2846.004          41.000
R18  20715076.828 5 110578463.090 5     -2418.582          34.000
C05  39622092.555 5 206322632.553 5         4.137          35.000
C30  21878114.945 8 113925195.334 8     -1009.180          51.000
E13  26138383.281 8 137358133.854 8      2287.367          50.000    26138386.047 8 105248470.112 8      1752.658          49.000
E15  23086210.773 8 121318857.224 8       332.785          51.000    23086214.219 8  92958683.318 8       255.009          51.000
E27  23642315.609 8 124241203.027 8       -65.801          50.000    23642317.383 8  95197816.493 8       -50.422          50.000
E30  24022533.953 8 126239253.638 8     -2664.598          50.000    24022538.352 8  96728778.089 8     -2041.663          51.000
> 2020 05 16 14 08  0.0000000  0 16        .000000000000
G10  23741107.164 5 124760385.829 5      3407.539          33.000    23741116.805 5  97215922.429 5      2655.225          33.000
G18  20955668.086 7 110122819.696 7     -1880.258          46.000    20955668.219 7  85810013.001 7     -1465.136          44.000
G20  21687905.344 8 113970750.463 8      2092.559          51.000    21687904.914 7  88808401.012 7      1630.565          43.000
G21  21212643.727 8 111473265.379 8     -1560.047          50.000    21212642.516 8  86862305.939 8     -1215.621          50.000
G26  20455765.164 8 107495758.200 8     -1069.062          51.000    20455766.625 8  83762945.921 8      -833.039          51.000
R02  22816618.195 5 121753833.265 5      -523.605          30.000    22816617.734 4  94697413.551 4      -407.252          28.000
R16  21135220.250 7 112900528.405 7     -3671.664          45.000    21135224.531 6  87811534.748 6     -2855.739          41.000
R18  20728682.039 5 110651089.049 5     -2423.012          34.000
C05  39622059.695 6 206322460.942 6         6.750          36.000
C27  25463588.977 5 132595588.251 5     -2657.164          31.000
C29  22649092.836 5 117939769.727 5      1614.879          31.000
C30  21883940.508 8 113955531.075 8     -1013.805          51.000
E13  26125331.352 8 137289545.719 8      2284.609          50.000    26125334.453 8 105195915.595 8      1750.512          48.000
E15  23084326.906 8 121308957.040 8       326.691          51.000    23084330.031 8  92951097.459 8       250.307          51.000
E27  23642722.820 8 124243344.298 8       -77.500          50.000    23642725.203 8  95199457.191 8       -59.395          51.000
E30  24037759.133 8 126319262.423 8     -2670.027          50.000    24037763.836 8  96790083.498 8     -2045.784          51.000
> 2020 05 16 14 08 30.0000000  0 15        .000000000000
G10  23721685.305 5 124658297.584 5      3402.074          35.000    23721694.594 5  97136394.179 5      2650.967          34.000
G18  20966459.516 7 110179528.410 7     -1894.715          46.000    20966459.562 7  85854201.607 7     -1476.401          44.000
G20  21676023.961 8 113908309.591 8      2075.777          51.000    21676022.570 7  88759745.828 7      1617.492          43.000
G21  21221599.312 8 111520326.878 8     -1571.684          51.000    21221597.977 8  86898977.219 8     -1224.692          51.000
G26  20461938.445 8 107528200.755 8     -1088.152          51.000    20461940.102 8  83788225.815 8      -847.911          51.000
R02  22819654.727 5 121770044.787 5      -550.738          30.000    22819655.062 4  94710022.636 4      -428.346          26.000
R16  21155904.055 7 113011012.533 7     -3688.250          47.000    21155906.898 6  87897466.766 6     -2868.642          41.000
C05  39622042.930 5 206322374.247 5         4.551          35.000
C27  25478922.562 4 132675435.780 4     -2659.836          29.000
C29  22639831.438 5 117891543.045 5      1606.324          33.000
C30  21889822.891 8 113986162.189 8     -1022.586          51.000
E13  26112324.500 8 137221195.733 8      2277.824          49.000    26112328.070 8 105143543.540 8      1745.343          48.000
E15  23082507.859 8 121299397.474 8       316.344          51.000    23082510.805 8  92943772.590 8       242.456          51.000
E27  23643226.750 8 124245992.268 8       -93.305          51.000    23643229.398 8  95201486.134 8       -71.511          51.000
E30  24053045.070 8 126399589.504 8     -2679.461          50.000    24053049.719 8  96851632.797 8     -2053.090          51.000
> 2020 05 16 14 09  0.0000000  0 15        .000000000000
G10  23702276.148 5 124556300.609 5      3397.746          35.000    23702284.672 5  97056916.065 5      2647.597          35.000
G18  20977311.320 7 110236554.575 7     -1907.422          46.000    20977311.133 7  85898637.570 7     -1486.306          44.000
G20  21664215.531 8 113846252.718 8      2060.645          51.000    21664214.023 7  88711389.855 7      1605.697          44.000
G21  21230598.656 8 111567618.248 8     -1581.641          51.000    21230597.328 8  86935827.635 8     -1232.447          51.000
G26  20468198.773 8 107561100.674 8     -1105.738          51.000    20468200.750 8  83813862.096 8      -861.614          51.000
R02  22822821.555 5 121786943.875 5      -576.016          33.000
R16  21176657.938 7 113121870.797 7     -3703.004          47.000    21176660.086 7  87983689.779 7     -2880.117          43.000
C05  39622013.984 6 206322222.855 6         4.531          36.000
C27  25494247.406 5 132755236.494 5     -2661.090          30.000
C29  22630596.570 5 117843445.591 5      1600.664          30.000
C30  21895733.156 8 114016938.622 8     -1029.770          51.000
E13  26099334.242 8 137152933.225 8      2272.480          49.000    26099338.414 8 105091238.517 8      1741.239          49.000
E15  23080724.750 8 121290027.012 8       307.754          51.000    23080727.867 8  92936592.628 8       235.841          51.000
E27  23643798.578 8 124248996.373 8      -107.578          51.000    23643800.977 8  95203787.967 8       -82.367          51.000
E30  24068362.438 8 126480082.584 8     -2687.426          49.000    24068367.016 8  96913309.279 8     -2059.113          51.000
> 2020 05 16 14 09 30.0000000  0 15        .000000000000
G10  23682900.023 6 124454473.045 6      3390.926          37.000    23682907.203 6  96977569.901 6      2642.280          37.000
G18  20988242.633 7 110293998.276 7     -1922.535          47.000    20988242.039 7  85943398.883 7     -1498.079          43.000
G20  21652499.539 8 113784684.073 8      2043.254          51.000    21652498.391 7  88663414.322 7      1592.146          45.000
G21  21239660.781 8 111615239.752 8     -1593.684          51.000    21239659.484 8  86972935.288 8     -1241.831          50.000
G26  20474565.703 8 107594559.603 8     -1125.344          51.000    20474567.789 8  83839933.983 8      -876.891          51.000
R02  22826136.453 6 121804633.272 6      -603.352          36.000
R16  21197499.750 7 113233203.035 7     -3719.773          45.000    21197502.078 7  88070281.459 7     -2893.157          43.000
R18  20769748.016 6 110870401.445 6     -2446.844          36.000    20769781.453 4  86232562.942 4     -1903.101          25.000
C05  39621991.922 6 206322108.999 6         2.301          36.000
C27  25509582.867 4 132835091.318 4     -2662.984          29.000
C30  21901690.547 8 114047961.046 8     -1038.906          51.000
E13  26086380.297 8 137084860.573 8      2265.074          49.000    26086384.953 8 105039078.976 8      1735.522          50.000
E15  23078996.930 8 121280947.211 8       296.930          51.000    23079000.156 8  92929635.382 8       227.488          51.000
E27  23644457.648 8 124252459.092 8      -124.012          51.000    23644459.938 8  95206441.210 8       -94.995          51.000
E30  24083730.102 8 126560842.431 8     -2697.227          49.000    24083734.945 8  96975190.173 8     -2066.808          51.000
> 2020 05 16 14 10  0.0000000  0 15        .000000000000
G10  23663543.156 6 124352745.974 6      3392.270          37.000    23663548.375 6  96898302.085 6      2643.327          36.000
G18  20999239.328 7 110351785.717 7     -1928.695          46.000    20999238.961 7  85988428.048 7     -1502.879          44.000
G20  21640862.953 8 113723534.417 8      2034.602          50.000    21640862.461 7  88615765.279 7      1585.404          45.000
G21  21248771.781 8 111663118.074 8     -1596.902          51.000    21248770.273 8  87010243.052 8     -1244.339          51.000
G26  20481025.383 8 107628505.223 8     -1136.430          51.000    20481027.422 8  83866385.119 8      -885.530          51.000
R02  22829586.570 6 121823039.936 6      -622.059          37.000    22829590.984 4  94751263.262 4      -483.823          29.000
R16  21218414.797 7 113344932.049 7     -3727.520          43.000    21218417.984 7  88157181.775 7     -2899.182          43.000
R18  20783503.148 5 110943825.774 5     -2446.957          35.000
C05  39621963.234 5 206321959.618 5         8.836          35.000
C27  25524915.219 5 132914932.795 5     -2658.426          30.000
C30  21907681.562 8 114079157.854 8     -1039.594          51.000
E13  26073448.961 8 137016906.232 8      2266.520          49.000    26073453.797 8 104987010.092 8      1736.681          50.000
E15  23077310.625 8 121272085.756 8       295.027          51.000    23077313.773 8  92922845.432 8       226.081          51.000
E27  23645190.203 8 124256308.988 8      -131.473          51.000    23645192.758 8  95209391.104 8      -100.721          51.000
E30  24099134.625 8 126641795.959 8     -2698.383          48.000    24099139.367 8  97037219.441 8     -2067.553          51.000
> 2020 05 16 14 10 30.0000000  0 15        .000000000000
G10  23644211.625 5 124251154.507 5      3382.703          35.000    23644215.086 5  96819140.047 5      2635.879          32.000
G18  21010307.164 7 110409947.198 7     -1946.426          47.000    21010306.938 7  86033748.678 7     -1516.695          44.000
G20  21629312.414 8 113662838.255 8      2014.102          50.000    21629312.438 7  88568469.586 7      1569.430          43.000
G21  21257937.359 8 111711283.826 8     -1611.836          51.000    21257935.648 8  87047774.806 8     -1255.976          50.000
G26  20487583.672 8 107662969.403 8     -1158.984          51.000    20487585.898 8  83893240.316 8      -903.108          51.000
R02  22833177.539 6 121842196.246 6      -652.844          38.000    22833181.117 5  94766162.485 5      -507.773          30.000
R16  21239408.703 6 113457087.201 6     -3747.105          41.000    21239413.148 6  88244413.552 6     -2914.415          41.000
R18  20797292.633 6 111017437.705 6     -2458.562          36.000
C05  39621934.117 5 206321807.817 5         3.176          35.000
C27  25540250.633 5 132994790.612 5     -2664.227          33.000
C30  21913712.242 8 114110560.586 8     -1051.637          51.000
E13  26060546.586 8 136949102.859 8      2256.133          50.000    26060551.141 8 104935056.879 8      1728.722          50.000
E15  23075671.836 8 121263474.436 8       281.434          51.000    23075675.148 8  92916247.140 8       215.641          51.000
E27  23646002.523 8 124260578.782 8      -150.746          51.000    23646005.172 8  95212662.748 8      -115.525          51.000
E30  24114582.102 8 126722974.146 8     -2711.160          49.000    24114586.008 8  97099420.860 8     -2077.376          50.000
> 2020 05 16 14 11  0.0000000  0 15        .000000000000
G10  23624913.695 5 124149758.839 5      3387.000          34.000    23624918.289 5  96740121.306 5      2639.227          34.000
G18  21021454.508 8 110468525.866 8     -1952.344          48.000    21021453.961 7  86079394.362 7     -1521.307          44.000
G20  21617857.266 8 113602642.996 8      2005.266          50.000    21617857.406 7  88521564.208 7      1562.545          43.000
G21  21267165.938 8 111759780.813 8     -1614.969          51.000    21267164.266 8  87085564.663 8     -1258.417          50.000
G26  20494249.109 8 107697996.829 8     -1169.883          51.000    20494251.672 8  83920534.383 8      -911.597          51.000
R02  22836919.023 4 121862155.716 4      -671.000          29.000    22836920.562 5  94781682.245 5      -521.892          30.000
R16  21260491.148 7 113569710.332 7     -3754.594          44.000    21260495.672 6  88332009.277 6     -2920.243          41.000
R18  20811124.445 5 111091280.877 5     -2457.957          32.000
C05  39621913.164 6 206321698.787 6        10.203          36.000
C27  25555598.352 5 133074709.069 5     -2657.660          34.000
C30  21919790.961 8 114142213.571 8     -1052.176          51.000
E13  26047681.531 8 136881495.873 8      2257.656          50.000    26047685.484 8 104883254.151 8      1729.851          49.000
E15  23074089.055 8 121255157.896 8       279.492          51.000    23074092.820 8  92909874.726 8       214.264          51.000
E27  23646903.570 8 124265313.982 8      -158.344          51.000    23646906.102 8  95216291.019 8      -121.313          51.000
E30  24130080.906 8 126804420.850 8     -2712.070          49.000    24130083.750 8  97161828.002 8     -2078.068          50.000
> 2020 05 16 14 11 30.0000000  0 13        .000000000000
G10  23605645.312 6 124048505.929 6      3372.914          38.000    23605651.344 6  96661222.987 6      2628.248          38.000
G18  21032674.797 7 110527487.533 7     -1970.887          47.000    21032674.258 7  86125338.502 7     -1535.756          47.000
G20  21606492.055 8 113542918.843 8      1983.828          50.000    21606492.000 7  88475025.931 7      1545.840          44.000
G21  21276451.047 8 111808574.688 8     -1630.516          51.000    21276449.406 8  87123585.854 8     -1270.532          50.000
G26  20501015.547 8 107733554.790 8     -1193.219          51.000    20501018.148 8  83948241.859 8      -929.781          51.000
R16  21281655.977 7 113682764.871 7     -3774.629          47.000    21281659.312 6  88419940.495 6     -2935.826          41.000
C05  39621894.320 5 206321600.350 5         4.148          35.000
C27  25570951.172 5 133154656.083 5     -2663.379          32.000
C30  21925911.492 8 114174084.476 8     -1065.121          51.000
E13  26034847.547 8 136814053.472 8      2246.285          49.000    26034850.805 8 104831577.523 8      1721.171          48.000
E15  23072556.289 8 121247103.453 8       265.059          51.000    23072560.258 8  92903703.142 8       203.082          51.000
E27  23647887.047 8 124270482.802 8      -178.637          51.000    23647890.031 8  95220251.539 8      -136.863          51.000
E30  24145624.523 8 126886102.569 8     -2725.680          49.000    24145626.938 8  97224415.239 8     -2088.499          50.000
> 2020 05 16 14 12  0.0000000  0 15        .000000000000
G10  23586391.430 6 123947331.998 6      3378.164          37.000    23586398.859 6  96582386.176 6      2632.339          38.000
G18  21043952.367 8 110586751.709 8     -1973.133          49.000    21043952.195 7  86171518.375 7     -1537.509          46.000
G20  21595202.172 8 113483589.349 8      1978.332          50.000    21595202.023 7  88428795.200 7      1541.560          45.000
G21  21285777.391 8 111857585.116 8     -1629.895          51.000    21285775.406 8  87161775.784 8     -1270.048          49.000
G26  20507868.031 8 107769564.262 8     -1200.520          51.000    20507870.227 8  83976301.169 8      -935.470          51.000
R02  22844808.703 6 121904237.898 6      -717.531          36.000
R16  21302886.242 8 113796166.788 8     -3778.430          48.000    21302888.523 6  88508141.906 6     -2938.782          41.000
C05  39621862.305 5 206321434.343 5        13.945          35.000
C27  25586294.266 5 133234553.630 5     -2655.242          32.000
C29  22575987.039 5 117559077.743 5      1569.730          31.000
C30  21932058.750 8 114206095.094 8     -1062.070          51.000
E13  26022029.945 8 136746697.393 8      2251.129          49.000    26022032.586 8 104779967.069 8      1724.903          48.000
E15  23071058.477 8 121239232.095 8       266.715          51.000    23071062.266 8  92897671.838 8       204.360          51.000
E27  23648938.117 8 124276007.094 8      -182.703          51.000    23648941.703 8  95224484.430 8      -140.023          51.000
E30  24161197.672 8 126967939.523 8     -2723.109          49.000    24161200.375 8  97287121.432 8     -2086.493          51.000
> 2020 05 16 14 12 30.0000000  0 14        .000000000000
G10  23567189.531 6 123846428.117 6      3348.223          36.000    23567197.328 6  96503759.871 6      2609.008          36.000
G18  21055322.836 8 110646504.485 8     -2010.902          49.000    21055322.656 7  86218078.950 7     -1566.937          46.000
G20  21584023.625 8 113424844.932 8      1937.383          50.000    21584023.516 7  88383020.360 7      1509.652          46.000
G21  21295180.438 8 111906998.795 8     -1664.805          50.000    21295178.445 8  87200279.933 8     -1297.250          50.000
G26  20514842.047 8 107806212.761 8     -1243.180          51.000    20514843.883 8  84004858.421 8      -968.711          51.000
R16  21324216.367 7 113910103.701 7     -3817.914          47.000    21324218.141 7  88596759.416 7     -2969.492          42.000
C05  39621853.180 6 206321386.593 6       -11.406          36.000
C27  25601663.969 5 133314587.633 5     -2680.602          33.000
C29  22567032.969 5 117512446.306 5      1538.121          35.000
C30  21938268.461 8 114238431.302 8     -1094.160          51.000
E13  26009264.938 8 136679616.011 8      2220.586          49.000    26009266.195 7 104728567.098 7      1701.524          46.000
E15  23069631.148 8 121231731.364 8       232.961          51.000    23069634.797 8  92891924.532 8       178.482          51.000
E27  23650092.859 8 124282075.264 8      -222.199          51.000    23650096.539 8  95229134.051 8      -170.295          51.000
E30  24176835.930 8 127050118.440 8     -2755.883          50.000    24176839.133 8  97350089.662 8     -2111.695          51.000
> 2020 05 16 14 13  0.0000000  0 15        .000000000000
G10  23548017.852 6 123745674.729 6      3365.027          37.000    23548024.242 6  96425250.789 6      2622.099          37.000
G18  21066762.539 8 110706621.185 8     -2000.797          49.000    21066762.289 7  86264923.112 7     -1559.062          47.000
G20  21572933.484 8 113366565.326 8      1944.109          50.000    21572933.289 7  88337607.682 7      1514.890          46.000
G21  21304636.430 8 111956691.421 8     -1651.895          50.000    21304634.852 8  87239001.452 8     -1287.191          50.000
G26  20521913.961 8 107843377.144 8     -1238.070          50.000    20521915.781 8  84033817.647 8      -964.733          50.000
R02  22853296.000 5 121949553.908 5      -770.289          32.000
R16  21345621.688 7 114024446.814 7     -3808.738          45.000    21345624.086 7  88685692.877 7     -2962.352          42.000
C05  39621843.844 6 206321337.694 6        11.051          36.000
C27  25617037.664 5 133394636.349 5     -2659.203          33.000
C29  22558113.922 5 117466007.632 5      1554.059          32.000
C30  21944517.328 8 114270971.207 8     -1078.938          51.000
E13  25996529.188 8 136612686.997 8      2237.684          50.000    25996528.664 7 104677283.886 7      1714.442          45.000
E15  23068251.000 8 121224478.147 8       246.910          51.000    23068254.594 8  92886366.876 8       189.038          51.000
E27  23651327.969 8 124288565.071 8      -214.172          51.000    23651331.469 8  95234106.741 8      -164.118          51.000
E30  24192515.969 8 127132515.395 8     -2741.133          51.000    24192519.625 8  97413224.957 8     -2100.289          51.000
> 2020 05 16 14 13 30.0000000  0 15        .000000000000
G10  23528852.383 6 123644953.309 6      3352.441          39.000    23528857.117 6  96346766.590 6      2612.292          39.000
G18  21078247.977 8 110766978.408 8     -2020.418          48.000    21078248.078 7  86311954.698 7     -1574.352          47.000
G20  21561909.016 8 113308631.357 8      1920.777          50.000    21561909.031 7  88292464.335 7      1496.713          47.000
G21  21314122.102 8 112006539.671 8     -1668.742          50.000    21314120.688 8  87277844.227 8     -1300.322          50.000
G26  20529060.859 8 107880935.414 8     -1262.980          51.000    20529062.500 8  84063083.803 8      -984.141          51.000
R02  22857725.633 5 121973189.451 5      -803.090          34.000    22857729.234 4  94868051.809 4      -624.625          27.000
R16  21367075.898 7 114139089.841 7     -3829.918          42.000    21367083.781 7  88774868.326 7     -2978.825          43.000
R18  20880809.953 4 111463210.672 4     -2495.086          29.000
C05  39621811.062 6 206321166.528 6         3.062          36.000
C27  25632391.336 5 133474579.184 5     -2668.035          32.000
C30  21950782.227 8 114303594.058 8     -1093.285          51.000
E13  25983799.375 8 136545789.251 8      2224.832          49.000    25983798.102 7 104626024.604 7      1704.780          46.000
E15  23066894.773 8 121217350.487 8       230.926          51.000    23066898.305 8  92880905.423 8       176.988          51.000
E27  23652620.469 8 124295355.380 8      -235.918          51.000    23652623.555 8  95239309.689 8      -180.783          51.000
E30  24208214.297 8 127215007.633 8     -2755.918          51.000    24208218.055 8  97476433.270 8     -2111.618          51.000
> 2020 05 16 14 14  0.0000000  0 14        .000000000000
G10  23509733.812 5 123544479.886 5      3338.547          35.000    23509737.430 5  96268475.661 5      2601.468          34.000
G18  21089819.414 8 110827787.269 8     -2041.184          49.000    21089819.891 7  86359338.230 7     -1590.533          46.000
G20  21550991.344 8 113251258.306 8      1896.277          50.000    21550991.375 7  88247758.066 7      1477.619          47.000
G21  21323677.766 8 112056755.225 8     -1686.551          50.000    21323676.297 8  87316973.214 8     -1314.198          49.000
G26  20536323.531 8 107919100.068 8     -1288.969          51.000    20536324.969 8  84092822.493 8     -1004.391          51.000
R16  21388625.438 7 114254193.303 7     -3852.129          43.000    21388633.383 7  88864398.501 7     -2996.100          42.000
C05  39621795.453 5 206321084.264 5        -5.328          35.000
C27  25647764.578 5 133554627.066 5     -2676.758          33.000
C29  22540351.242 5 117373523.944 5      1524.824          31.000
C30  21957103.461 8 114336510.621 8     -1108.676          51.000
E13  25971115.641 8 136479136.118 8      2211.031          49.000    25971115.312 7 104574952.782 7      1694.179          47.000
E15  23065602.719 8 121210560.979 8       213.988          51.000    23065606.258 8  92875703.078 8       163.980          51.000
E27  23654010.562 8 124302659.646 8      -258.777          51.000    23654013.375 8  95244906.457 8      -198.218          51.000
E30  24223971.148 8 127297806.919 8     -2771.727          51.000    24223974.562 8  97539876.859 8     -2123.782          51.000
> 2020 05 16 14 14 30.0000000  0 14        .000000000000
G18  21101467.211 8 110888996.729 8     -2042.637          50.000    21101467.461 7  86407033.897 7     -1591.668          45.000
G20  21540171.391 8 113194399.004 8      1891.055          49.000    21540171.336 7  88203452.131 7      1473.549          47.000
G21  21333293.727 8 112107287.372 8     -1685.305          51.000    21333292.344 8  87356348.906 8     -1313.224          50.000
G26  20543692.117 8 107957821.491 8     -1295.625          51.000    20543693.875 8  84122995.015 8     -1009.581          51.000
R09  20144130.188 5 107568529.778 5       790.758          31.000    20144129.445 4  83664415.599 4       615.037          29.000
R16  21410258.719 7 114369752.744 7     -3854.617          44.000    21410264.234 7  88954271.320 7     -2998.039          42.000
C05  39621787.438 6 206321042.428 6         4.891          36.000
C27  25663148.258 4 133634747.162 4     -2666.855          27.000
C29  22531544.391 5 117327663.914 5      1528.941          30.000
C30  21963471.703 8 114369671.846 8     -1105.121          51.000
E13  25958468.734 8 136412678.915 8      2216.285          48.000    25958470.406 7 104524031.062 7      1698.234          47.000
E15  23064365.562 8 121204060.079 8       216.281          51.000    23064369.164 8  92870721.867 8       165.695          51.000
E27  23655488.797 8 124310429.144 8      -262.398          51.000    23655491.695 8  95250859.702 8      -201.044          51.000
E30  24239776.812 8 127380862.885 8     -2768.410          51.000    24239779.805 8  97603517.110 8     -2121.318          51.000
> 2020 05 16 14 15  0.0000000  0 13        .000000000000
G10  23471586.023 6 123344010.437 6      3334.848          36.000    23471593.234 6  96112232.912 6      2598.589          37.000
G18  21113171.461 8 110950502.829 8     -2056.930          50.000    21113171.312 7  86454960.711 7     -1602.802          45.000
G20  21529430.125 8 113137954.012 8      1872.836          48.000    21529429.688 7  88159469.019 7      1459.353          45.000
G21  21342950.422 8 112158032.750 8     -1696.738          51.000    21342949.078 8  87395890.749 8     -1322.134          50.000
G26  20551146.914 8 107996997.137 8     -1315.105          51.000    20551149.164 8  84153521.451 8     -1024.758          51.000
R09  20139773.398 6 107545268.092 6       761.133          36.000    20139775.945 4  83646323.040 4       591.989          28.000
R16  21431953.297 7 114485634.411 7     -3869.969          45.000    21431957.672 7  89044401.442 7     -3009.979          42.000
C05  39621767.828 6 206320941.060 6         2.859          36.000
C30  21969867.531 8 114402976.360 8     -1114.215          51.000
E13  25945839.648 8 136346315.961 8      2208.793          48.000    25945843.469 8 104473181.558 8      1692.437          48.000
E15  23063164.000 8 121197745.363 8       205.703          51.000    23063167.648 8  92865883.327 8       157.614          51.000
E27  23657036.141 8 124318562.202 8      -278.867          51.000    23657039.391 8  95257091.514 8      -213.648          51.000
E30  24255611.398 8 127464072.246 8     -2777.891          51.000    24255614.008 8  97667274.874 8     -2128.463          50.000
> 2020 05 16 14 15 30.0000000  0 13        .000000000000
G10  23452553.570 7 123243986.184 7      3330.973          42.000    23452558.133 7  96034292.026 7      2595.566          42.000
G18  21124939.055 8 111012341.962 8     -2067.395          51.000    21124938.891 7  86503147.022 7     -1610.957          45.000
G20  21518775.125 8 113081964.008 8      1858.168          48.000    21518774.586 7  88115840.461 7      1447.923          45.000
G21  21352654.516 8 112209027.730 8     -1704.660          51.000    21352653.094 8  87435627.101 8     -1328.307          49.000
G26  20558695.578 8 108036664.715 8     -1331.051          51.000    20558698.016 8  84184431.229 8     -1037.182          51.000
R09  20135567.398 5 107522794.056 5       735.117          35.000    20135566.062 4  83628843.254 4       571.758          25.000
R16  21453715.711 7 114601881.640 7     -3881.555          46.000    21453720.078 6  89134815.893 6     -3018.987          41.000
C05  39621743.797 6 206320816.408 6         3.746          36.000
C30  21976298.109 8 114436461.780 8     -1119.805          51.000
E13  25933236.156 7 136280085.915 7      2204.828          47.000    25933241.469 7 104422433.888 7      1689.492          47.000
E15  23062005.133 8 121191654.700 8       198.668          51.000    23062008.672 8  92861216.449 8       152.304          51.000
E27  23658660.023 8 124327097.518 8      -291.758          51.000    23658663.812 8  95263631.544 8      -223.552          51.000
E30  24271481.797 8 127547472.037 8     -2783.754          50.000    24271483.789 8  97731178.548 8     -2132.961          48.000
> 2020 05 16 14 16  0.0000000  0 13        .000000000000
G10  23433557.617 7 123144154.245 7      3325.586          46.000    23433560.281 7  95956500.981 7      2591.369          45.000
G18  21136778.219 8 111074556.978 8     -2079.105          51.000    21136778.156 7  86551626.230 7     -1620.082          45.000
G20  21508215.969 8 113026476.058 8      1842.176          48.000    21508215.148 7  88072603.127 7      1435.462          44.000
G21  21362414.266 8 112260315.334 8     -1713.387          51.000    21362412.547 8  87475591.462 8     -1335.107          49.000
G26  20566346.242 8 108076868.369 8     -1348.160          51.000    20566349.016 8  84215758.730 8     -1050.514          51.000
R09  20131516.602 5 107501155.267 5       708.352          34.000
R16  21475554.055 7 114718535.482 7     -3894.145          45.000    21475557.734 6  89225546.600 6     -3028.779          39.000
C05  39621723.977 6 206320712.924 6         3.789          36.000
C30  21982771.750 8 114470172.112 8     -1126.445          51.000
E13  25920666.883 7 136214033.897 7      2199.836          47.000    25920672.727 7 104371822.658 7      1685.448          47.000
E15  23060897.195 8 121185832.367 8       190.625          51.000    23060900.461 8  92856755.185 8       146.072          51.000
E27  23660369.352 8 124336080.168 8      -305.871          51.000    23660373.180 8  95270514.342 8      -234.345          51.000
E30  24287396.062 8 127631105.737 8     -2790.734          48.000    24287398.008 8  97795261.451 8     -2138.343          48.000
> 2020 05 16 14 16 30.0000000  0 13        .000000000000
