     3.02           OBSERVATION DATA    M (MIXED)           RINEX VERSION / TYPE
SAVERINEX           SC600               20200512 235931 LCL PGM / RUN BY / DATE
       G = GPS       R = GLONASS       C = COMPASS          COMMENT
       S = SBAS      J = QZSS          E = GALILEO          COMMENT
BEAN                                                        MARKER NAME
1                                                           MARKER NUMBER
GEODETIC                                                    MARKER TYPE
Unige DICCA         GTER                                    OBSERVER / AGENCY
SC60291900056       SC600               2.12(191226)        REC # / TYPE / VERS
                    HEMA45          NONE                    ANT # / TYPE
  4509407.8091   693652.4678  4442337.6214                  APPROX POSITION XYZ
        0.0000        0.0000        0.0000                  ANTENNA: DELTA H/E/N
G    8 C1C L1C D1C S1C C2Y L2Y D2Y S2Y                      SYS / # / OBS TYPES
R    8 C1C L1C D1C S1C C2P L2P D2P S2P                      SYS / # / OBS TYPES
C    8 C1I L1I D1I S1I C7I L7I D7I S7I                      SYS / # / OBS TYPES
E    8 C1C L1C D1C S1C C7Q L7Q D7Q S7Q                      SYS / # / OBS TYPES
DBHZ                                                        COMMENT
     30.000                                                 INTERVAL
  2020    05    12    21    00    0.0000000     GPS         TIME OF FIRST OBS
  2020    05    12    21    59   30.0000000     GPS         TIME OF LAST OBS
     0                                                      RCV CLOCK OFFS APPL
G L1C  0.00000                                              SYS / PHASE SHIFT
G L2Y  0.00000                                              SYS / PHASE SHIFT
R L1C  0.00000                                              SYS / PHASE SHIFT
R L2P  0.25000                                              SYS / PHASE SHIFT
C L1I  0.00000                                              SYS / PHASE SHIFT
C L7I  0.00000                                              SYS / PHASE SHIFT
E L1C  0.50000                                              SYS / PHASE SHIFT
E L7Q -0.25000                                              SYS / PHASE SHIFT
 12 R01  1 R02 -4 R03  5 R04  6 R10 -5 R12 -1 R13 -2 R14 -7 GLONASS SLOT / FRQ #
    R15  0 R17  4 R18 -3 R23  3                             GLONASS SLOT / FRQ #
 C1C   71.950 C2C   71.950 C2P   71.950                     GLONASS COD/PHS/BIS
    18                                                      LEAP SECONDS
*** Above antenna height is from mark to ANTENNA BOTTOM.    COMMENT
    17     4        0.0000        ANT MEASURE TYPE/HEIGT    COMMENT
    0.0000    0.0000    0.0458    0.0405    0.0000          COMMENT
                    BASE STATION                            COMMENT
                                                            END OF HEADER
> 2020 05 12 21 00  0.0000000  0 19        .000000000000
G01  21005922.641 8 110386876.034 8     -1896.324          50.000    21005924.492 8  86015751.086 8     -1477.655          50.000
G03  20315496.352 8 106758644.801 8       -47.551          51.000    20315497.016 8  83188576.234 8       -37.050          51.000
G04  21627904.734 8 113655407.965 8      2737.684          49.000    21627904.922 8  88562663.117 8      2133.260          48.000
G11  23031336.695 8 121030482.616 8     -3780.191          51.000    23031335.719 7  94309441.227 7     -2945.604          45.000
G14  23816236.422 5 125155169.172 5     -2936.027          33.000
G22  21224573.188 8 111535893.568 8     -1410.742          50.000    21224569.094 7  86911079.309 7     -1099.280          43.000
R02  21049991.508 6 112326803.650 6     -3114.379          36.000
R03  19327922.461 7 103463973.226 7       122.055          47.000    19327923.961 7  80471968.366 7        94.931          43.000
R04  21859322.312 8 117055655.427 8      3153.039          48.000    21859326.086 7  91043341.286 7      2452.364          45.000
R17  21313423.352 8 114052417.595 8     -3839.402          51.000    21313424.391 7  88707429.345 7     -2986.202          46.000
R18  19233029.617 8 102667195.205 8      -393.172          48.000    19233032.891 8  79852283.487 8      -305.800          50.000
C05                                                                  39711952.148 6 159903573.924 6       -27.188          36.000
C20  25688583.648 7 133767240.579 7      2747.898          42.000
C27  23125346.609 8 120419756.825 8     -2728.617          51.000
C30  22236470.219 5 115791076.549 5       195.367          34.000
E04  26687901.898 6 140245855.775 6      2706.938          39.000    26687907.109 7 107461176.533 7      2074.129          43.000
E12  21704596.383 7 114058427.484 7       553.070          44.000    21704596.703 8  87395421.179 8       423.655          48.000
E19  23917687.219 8 125688292.498 8       526.684          49.000    23917687.930 8  96306623.692 8       403.524          51.000
E33  24698918.766 7 129793690.851 7     -2095.148          47.000    24698921.359 8  99452296.752 8     -1605.415          51.000
> 2020 05 12 21 00 30.0000000  0 19        .000000000000
G01  21016782.680 8 110443946.282 8     -1910.457          51.000    21016784.703 8  86060221.399 8     -1488.668          51.000
G03  20315795.109 8 106760214.904 8       -59.246          51.000    20315795.938 8  83189799.705 8       -46.166          51.000
G04  21612307.852 8 113573445.608 8      2724.230          49.000    21612308.531 8  88498796.348 8      2122.777          48.000
G11  23052932.844 8 121143968.889 8     -3787.684          50.000    23052931.859 7  94397872.049 7     -2951.445          44.000
G14  23833010.930 5 125243319.087 5     -2944.879          33.000
G22  21232645.016 8 111578311.268 8     -1419.320          50.000    21232641.047 7  86944132.058 7     -1105.964          43.000
R02  21067513.180 6 112420315.106 6     -3121.914          36.000
R03  19327284.891 8 103460558.307 8       103.336          48.000    19327285.641 7  80469312.312 7        80.372          43.000
R04  21841684.000 8 116961204.879 8      3141.445          48.000    21841688.141 7  90969879.783 7      2443.346          46.000
R17  21334981.242 8 114167778.141 8     -3853.457          48.000    21334982.352 7  88797154.174 7     -2997.136          46.000
R18  19235307.477 8 102679356.473 8      -419.781          48.000    19235311.367 8  79861742.257 8      -326.497          50.000
C05                                                                  39712147.703 5 159904361.709 5       -27.215          35.000
C20  25672760.375 6 133684843.071 6      2743.055          40.000
C27  23141091.312 8 120501744.579 8     -2739.410          51.000
C30  22235384.688 5 115785431.213 5       178.258          35.000
E04  26672459.055 6 140164699.992 6      2701.434          40.000    26672462.141 7 107398992.267 7      2069.888          43.000
E12  21701469.008 7 114041991.255 7       540.812          44.000    21701469.281 8  87382827.166 8       414.365          48.000
E19  23914708.141 8 125672638.232 8       514.789          48.000    23914709.273 8  96294628.869 8       394.476          51.000
E33  24710901.078 7 129856661.639 7     -2105.004          47.000    24710904.406 8  99500547.094 8     -1612.940          51.000
> 2020 05 12 21 01  0.0000000  0 19        .000000000000
G01  21027726.727 8 110501456.651 8     -1923.355          51.000    21027728.617 8  86105034.629 8     -1498.719          51.000
G03  20316164.773 8 106762157.551 8       -69.953          50.000    20316165.430 8  83191313.468 8       -54.509          50.000
G04  21596792.523 8 113491912.853 8      2711.570          49.000    21596793.664 8  88435264.338 8      2112.912          48.000
G11  23074574.266 8 121257694.670 8     -3793.863          50.000    23074573.023 7  94486489.498 7     -2956.260          43.000
G14  23849836.750 5 125331737.171 5     -2950.219          35.000
G22  21240769.320 8 111621004.815 8     -1426.691          51.000    21240765.438 7  86977399.762 7     -1111.708          43.000
R02  21085081.180 5 112514076.893 5     -3128.203          35.000
R03  19326755.367 7 103457723.182 7        85.930          47.000    19326756.133 7  80467107.228 7        66.834          44.000
R04  21824115.867 8 116867128.705 8      3130.688          49.000    21824120.023 7  90896709.448 7      2434.979          46.000
R17  21356620.852 7 114283581.071 7     -3866.457          46.000    21356623.023 7  88887223.133 7     -3007.244          46.000
R18  19237738.172 8 102692334.530 8      -445.082          48.000    19237742.594 8  79871836.286 8      -346.175          50.000
C05                                                                  39712350.484 6 159905178.064 6       -26.554          36.000
C20  25656967.492 6 133602613.281 6      2739.324          40.000
C27  23156902.258 8 120584075.888 8     -2749.133          51.000
C30  22234403.859 5 115780331.780 5       161.773          33.000
E04  26657052.336 6 140083731.914 6      2696.984          40.000    26657053.914 7 107336951.839 7      2066.503          44.000
E12  21698414.789 7 114025939.921 7       529.746          45.000    21698414.938 8  87370528.092 8       405.915          49.000
E19  23911800.672 8 125657360.527 8       504.188          48.000    23911801.953 8  96282922.586 8       386.251          50.000
E33  24722944.406 8 129919948.421 8     -2113.754          50.000    24722947.531 8  99549039.504 8     -1619.651          51.000
> 2020 05 12 21 01 30.0000000  0 19        .000000000000
G01  21038743.109 8 110559346.555 8     -1936.965          51.000    21038744.531 8  86150143.612 8     -1509.323          51.000
G03  20316593.836 8 106764412.410 8       -81.445          50.000    20316594.227 8  83193070.497 8       -63.461          50.000
G04  21581347.867 8 113410751.681 8      2698.141          49.000    21581349.055 7  88372021.873 7      2102.447          47.000
G11  23096248.812 7 121371597.207 7     -3800.758          46.000    23096247.703 7  94575244.698 7     -2961.629          43.000
G14  23866701.961 5 125420367.427 5     -2959.551          34.000
G22  21248934.484 8 111663913.127 8     -1434.953          50.000    21248930.859 7  87010834.819 7     -1118.142          43.000
R02  21102686.367 5 112608025.070 5     -3135.891          33.000    21102689.695 4  87583983.065 4     -2439.029          29.000
R03  19326322.570 7 103455405.569 7        67.699          46.000    19326323.516 7  80465304.633 7        52.655          43.000
R04  21806606.945 8 116773367.165 8      3119.070          50.000    21806610.148 7  90823783.835 7      2425.944          45.000
R17  21378331.055 7 114399762.112 7     -3880.094          46.000    21378334.242 7  88977586.178 7     -3017.851          44.000
R18  19240310.984 8 102706068.808 8      -471.469          48.000    19240315.539 8  79882518.494 8      -366.701          49.000
C05                                                                  39712548.945 5 159905977.125 5       -26.820          35.000
C20  25641195.258 6 133520492.332 6      2734.414          41.000
C27  23172767.719 8 120666689.551 8     -2759.531          51.000
C30  22233514.672 6 115775719.560 6       144.406          36.000
E04  26641670.320 6 140002892.526 6      2691.262          40.000    26641670.945 7 107275010.013 7      2062.303          44.000
E12  21695422.422 7 114010214.587 7       517.656          45.000    21695422.492 8  87358478.801 8       396.732          49.000
E19  23908953.594 7 125642399.406 7       492.469          47.000    23908954.680 8  96271458.854 8       377.337          50.000
E33  24735036.898 8 129983490.560 8     -2123.309          51.000    24735038.656 8  99597727.609 8     -1626.981          50.000
> 2020 05 12 21 02  0.0000000  0 18        .000000000000
G01  21049845.664 8 110617690.042 8     -1950.953          51.000    21049846.719 8  86195606.034 8     -1520.226          51.000
G03  20317096.430 8 106767053.773 8       -93.223          49.000    20317096.500 8  83195128.688 8       -72.641          49.000
G04  21565988.641 8 113330038.742 8      2684.195          50.000    21565989.320 7  88309128.689 7      2091.581          46.000
G11  23117969.805 7 121485748.468 7     -3808.008          43.000    23117970.078 7  94664193.709 7     -2967.279          43.000
G14  23883620.297 5 125509278.955 5     -2965.957          33.000
G22  21257154.648 8 111707110.612 8     -1443.508          50.000    21257151.305 7  87044495.185 7     -1124.811          44.000
R03  19326000.062 7 103453680.168 7        48.965          47.000    19326001.289 7  80463962.665 7        38.084          43.000
R04  21789170.906 8 116679997.576 8      3107.016          48.000    21789172.922 7  90751163.063 7      2416.568          44.000
R17  21400125.484 7 114516394.235 7     -3893.816          46.000    21400129.188 7  89068299.962 7     -3028.527          43.000
R18  19243040.125 8 102720635.614 8      -498.105          49.000    19243044.461 8  79893848.236 8      -387.415          49.000
C05                                                                  39712757.227 6 159906816.114 6       -27.783          36.000
C20  25625459.102 7 133438554.720 7      2729.332          45.000
C27  23188701.352 8 120749657.756 8     -2770.258          51.000
C30  22232736.195 6 115771668.719 6       127.191          38.000
E04  26626327.180 6 139922257.293 6      2685.684          38.000    26626327.383 7 107213224.642 7      2057.936          44.000
E12  21692506.445 7 113994890.924 7       505.328          45.000    21692506.586 8  87346737.301 8       387.143          49.000
E19  23906180.867 7 125627829.117 7       480.410          47.000    23906182.031 8  96260294.614 8       368.109          50.000
E33  24747192.297 8 130047362.165 8     -2133.371          51.000    24747192.680 8  99646668.174 8     -1634.616          51.000
> 2020 05 12 21 02 30.0000000  0 19        .000000000000
G01  21061003.484 8 110676323.996 8     -1964.039          51.000    21061004.344 8  86241294.795 8     -1530.420          51.000
G03  20317641.531 8 106769918.658 8      -104.141          49.000    20317641.367 8  83197361.086 8       -81.145          50.000
G04  21550684.391 8 113249613.454 8      2671.242          50.000    21550684.195 7  88246459.668 7      2081.487          44.000
G11  23139706.594 6 121599983.981 6     -3814.105          41.000    23139708.531 6  94753208.438 6     -2972.027          41.000
G14  23900560.805 5 125598297.380 5     -2974.941          34.000
G22  21265398.844 8 111750434.053 8     -1451.023          50.000    21265395.508 7  87078253.697 7     -1130.668          44.000
R02  21138019.625 6 112796519.908 6     -3149.738          37.000
R03  19325757.570 7 103452380.484 7        31.449          46.000    19325758.266 7  80462951.803 7        24.461          43.000
R04  21771777.172 8 116586855.600 8      3096.023          48.000    21771777.891 7  90678719.284 7      2408.018          43.000
R17  21421973.109 7 114633308.864 7     -3906.691          47.000    21421977.445 7  89159233.487 7     -3038.538          45.000
R18  19245894.328 8 102735870.173 8      -523.832          49.000    19245898.508 8  79905697.303 8      -407.425          49.000
C05                                                                  39712944.516 6 159907570.568 6       -27.448          36.000
C20  25609727.977 7 133356640.002 7      2725.266          45.000
C27  23204671.508 8 120832817.660 8     -2779.992          51.000
C30  22232034.531 6 115768018.865 6       110.266          38.000
E04  26610991.492 6 139841664.643 6      2680.953          37.000    26610992.109 7 107151471.879 7      2054.243          44.000
E12  21689636.172 7 113979807.435 7       493.883          45.000    21689636.430 8  87335179.819 8       378.496          49.000
E19  23903451.602 8 125613486.855 8       469.438          48.000    23903452.906 8  96249305.087 8       359.735          50.000
E33  24759379.172 8 130111400.076 8     -2142.141          51.000    24759378.703 8  99695736.182 8     -1641.377          51.000
> 2020 05 12 21 03  0.0000000  0 19        .000000000000
G01  21072250.297 8 110735426.113 8     -1976.648          51.000    21072250.883 8  86287348.392 8     -1540.246          51.000
G03  20318263.102 8 106773185.073 8      -114.301          50.000    20318262.961 8  83199906.368 8       -89.066          50.000
G04  21535469.203 8 113169656.178 8      2658.684          50.000    21535468.234 7  88184155.335 7      2071.702          44.000
G11  23161494.570 7 121714479.857 7     -3819.391          44.000    23161496.586 7  94842426.024 7     -2976.149          44.000
G14  23917557.227 5 125687611.622 5     -2980.789          34.000
G22  21273700.828 8 111794061.065 8     -1458.027          50.000    21273697.367 7  87112248.769 7     -1136.125          43.000
R02  21155741.586 5 112891091.546 5     -3155.906          35.000
R03  19325628.070 7 103451686.635 7        14.246          46.000    19325628.531 7  80462412.176 7        11.080          43.000
R04  21754461.766 8 116494124.022 8      3085.457          50.000    21754460.430 7  90606594.735 7      2399.803          43.000
R17  21443907.219 7 114750684.405 7     -3918.859          47.000    21443912.461 7  89250525.539 7     -3048.002          47.000
R18  19248907.859 8 102751954.089 8      -549.020          51.000    19248911.656 8  79918206.997 8      -427.015          48.000
C05                                                                  39713144.977 6 159908377.192 6       -26.880          36.000
C20  25594035.430 7 133274925.578 7      2721.809          45.000
C27  23220711.523 8 120916344.214 8     -2789.121          51.000
C30  22231444.328 6 115764947.178 6        93.945          39.000
E04  26595696.094 5 139761293.822 5      2676.941          35.000    26595698.727 7 107089889.076 7      2050.888          44.000
E12  21686845.680 7 113965143.520 7       482.988          45.000    21686845.906 8  87323943.830 8       370.046          49.000
E19  23900799.750 8 125599550.783 8       458.961          48.000    23900800.922 8  96238626.800 8       351.647          50.000
E33  24771631.180 8 130175782.102 8     -2150.516          51.000    24771630.820 8  99745067.860 8     -1647.819          51.000
> 2020 05 12 21 03 30.0000000  0 20        .000000000000
G01  21083550.383 8 110794808.863 8     -1990.398          50.000    21083550.961 8  86333620.673 8     -1550.960          50.000
G03  20318925.445 8 106776665.726 8      -125.852          51.000    20318925.570 8  83202618.567 8       -98.066          51.000
G04  21520307.820 8 113089981.906 8      2644.832          50.000    21520306.664 7  88122071.525 7      2060.911          45.000
G11  23183297.023 7 121829046.779 7     -3826.277          45.000    23183298.203 7  94931698.914 7     -2981.515          43.000
G14  23934573.539 5 125777032.650 5     -2988.562          33.000
G17  22128129.391 5 116284112.707 5       771.309          32.000
G22  21282024.883 8 111837804.267 8     -1466.309          50.000    21282021.227 7  87146334.369 7     -1142.578          43.000
R02  21173475.742 5 112985741.465 5     -3162.672          34.000
R03  19325575.750 7 103451407.073 7        -3.926          46.000    19325576.469 7  80462194.747 7        -3.053          42.000
R04  21737187.109 8 116401613.892 8      3073.570          50.000    21737185.172 7  90534642.438 7      2390.555          43.000
R17  21465892.055 8 114868327.341 8     -3932.180          48.000    21465897.523 8  89342025.596 8     -3058.362          49.000
R18  19252045.070 8 102768697.568 8      -575.508          51.000    19252048.352 8  79931229.689 8      -447.617          48.000
C05                                                                  39713322.703 6 159909092.847 6       -27.427          36.000
C20  25578345.836 7 133193226.654 7      2716.887          45.000
C27  23236785.664 8 121000050.340 8     -2799.484          49.000
C30  22230929.781 6 115762268.830 6        76.434          38.000
E04  26580405.516 5 139680982.911 5      2670.719          34.000    26580411.406 7 107028333.683 7      2046.488          43.000
E12  21684099.766 7 113950713.267 7       470.707          46.000    21684099.773 8  87312886.870 8       360.723          50.000
E19  23898189.547 8 125585833.706 8       447.203          48.000    23898190.531 8  96228116.312 8       342.680          50.000
E33  24783912.750 8 130240320.675 8     -2160.246          51.000    24783912.641 8  99794519.510 8     -1655.254          51.000
> 2020 05 12 21 04  0.0000000  0 18        .000000000000
G01  21094958.781 8 110854759.423 8     -2014.133          51.000    21094959.156 8  86380335.381 8     -1569.454          51.000
G03  20319683.219 8 106780648.029 8      -147.547          51.000    20319683.578 8  83205721.643 8      -114.972          51.000
G04  21505255.320 8 113010880.370 8      2620.902          49.000    21505254.234 7  88060433.988 7      2042.265          45.000
G11  23205167.297 7 121943970.199 7     -3843.102          46.000    23205167.586 6  95021249.575 6     -2994.625          41.000
G22  21290425.695 8 111881951.043 8     -1484.633          50.000    21290421.805 7  87180734.430 7     -1156.857          42.000
R02  21191279.367 5 113080759.778 5     -3179.746          35.000
R03  19325655.430 7 103451833.712 7       -32.375          44.000    19325655.977 7  80462526.577 7       -25.181          42.000
R04  21720007.805 8 116309619.500 8      3051.301          48.000    21720006.992 7  90463091.267 7      2373.234          45.000
R17  21487981.516 8 114986527.562 8     -3955.738          48.000    21487986.305 8  89433959.104 8     -3076.685          50.000
R18  19255360.570 8 102786393.333 8      -612.242          51.000    19255363.414 8  79944993.039 8      -476.188          48.000
C05                                                                  39713532.602 5 159909938.076 5       -35.398          35.000
C20  25562714.391 7 133111829.080 7      2701.969          47.000
C27  23252948.727 8 121084219.436 8     -2819.602          48.000
C30  22230545.625 6 115760269.409 6        49.020          39.000
E04  26565177.398 5 139600949.275 5      2655.938          33.000    26565185.023 7 106967026.884 7      2034.312          42.000
E12  21681453.289 7 113936805.467 7       448.602          47.000    21681453.164 8  87302230.243 8       343.623          49.000
E19  23895675.789 8 125572622.978 8       425.574          49.000    23895676.500 8  96217993.802 8       326.098          50.000
E33  24796278.633 8 130305302.951 8     -2179.832          51.000    24796278.492 8  99844311.145 8     -1670.264          51.000
> 2020 05 12 21 04 30.0000000  0 19        .000000000000
G01  21106443.656 8 110915110.722 8     -2014.590          51.000    21106443.664 8  86427362.349 8     -1569.810          51.000
G03  20320504.758 8 106784965.167 8      -145.672          50.000    20320505.266 8  83209085.630 8      -113.511          50.000
G04  21490280.344 8 112932187.104 8      2620.191          49.000    21490279.703 7  87999114.592 7      2041.708          46.000
G11  23227073.242 7 122059081.289 7     -3836.148          46.000    23227072.094 6  95110946.453 6     -2989.210          39.000
G22  21298871.461 8 111926334.046 8     -1479.512          49.000    21298867.461 7  87215318.579 7     -1152.866          43.000
G31  23332395.625 5 122612573.135 5       563.578          31.000
R02  21209121.367 5 113175974.714 5     -3173.094          32.000
R03  19325834.883 7 103452795.836 7       -37.066          43.000    19325835.609 6  80463274.898 6       -28.829          41.000
R04  21702892.172 7 116217972.527 7      3053.004          47.000    21702892.680 7  90391810.264 7      2374.559          44.000
R17  21510142.859 7 115105112.612 7     -3955.363          47.000    21510146.617 8  89526191.945 8     -3076.394          49.000
R18  19258822.922 8 102804872.744 8      -625.121          51.000    19258825.070 8  79959365.907 8      -486.208          48.000
C05                                                                  39713743.094 6 159910785.431 6       -25.361          36.000
C20  25547109.594 8 133030568.453 8      2710.160          48.000
C27  23269169.406 8 121168684.815 8     -2816.598          48.000
C30  22230260.594 6 115758784.487 6        44.543          37.000
E04  26549980.508 5 139521089.630 5      2663.074          33.000    26549988.570 6 106905841.834 6      2040.475          41.000
E12  21678874.695 7 113923254.742 7       449.609          47.000    21678874.430 8  87291847.222 8       344.530          50.000
E19  23893226.539 8 125559751.767 8       427.230          48.000    23893227.109 8  96208131.460 8       327.391          50.000
E33  24808696.969 8 130370561.993 8     -2176.012          51.000    24808696.930 8  99894314.835 8     -1667.331          51.000
> 2020 05 12 21 05  0.0000000  0 17        .000000000000
G01  21117994.375 8 110975807.985 8     -2024.879          51.000    21117993.844 8  86474658.898 8     -1577.828          51.000
G03  20321379.648 8 106789562.632 8      -153.930          50.000    20321380.398 8  83212668.073 8      -119.945          50.000
G04  21475372.891 8 112853849.867 8      2609.383          49.000    21475373.156 7  87938072.609 7      2033.285          47.000
G11  23249003.867 7 122174323.506 7     -3839.520          45.000    23249000.656 6  95200745.511 6     -2991.836          37.000
G22  21307351.852 8 111970898.566 8     -1484.434          49.000    21307347.602 7  87250044.155 7     -1156.702          43.000
R03  19326103.688 7 103454236.844 7       -51.852          44.000    19326104.789 6  80464395.698 6       -40.329          41.000
R04  21685832.406 8 116126619.149 8      3044.395          48.000    21685833.117 7  90320757.628 7      2367.862          44.000
R17  21532364.039 7 115224023.987 7     -3964.930          45.000    21532367.930 7  89618678.603 7     -3083.834          47.000
R18  19262421.391 8 102824080.812 8      -648.258          51.000    19262423.383 8  79974305.507 8      -504.204          48.000
C05                                                                  39713943.875 5 159911593.485 5       -23.050          35.000
C20  25531521.047 8 132949391.679 8      2708.379          48.000
C27  23285437.016 8 121253391.015 8     -2823.531          48.000
C30  22230063.875 6 115757760.833 6        30.805          37.000
E04                                                                  26534812.367 6 106844737.792 6      2038.756          41.000
E12  21676353.945 7 113910007.950 7       440.758          47.000    21676353.500 8  87281697.087 8       337.676          50.000
E19  23890831.430 8 125547165.893 8       419.113          48.000    23890832.039 8  96198487.758 8       321.049          49.000
E33  24821157.164 8 130436042.999 8     -2182.332          51.000    24821157.352 8  99944488.598 8     -1672.156          51.000
> 2020 05 12 21 05 30.0000000  0 18        .000000000000
G01  21129618.414 8 111036891.666 8     -2039.383          51.000    21129617.820 8  86522256.555 8     -1589.133          51.000
G03  20322315.648 8 106794481.171 8      -166.156          51.000    20322316.664 8  83216500.702 8      -129.472          51.000
G04  21460541.125 8 112775911.738 8      2594.410          49.000    21460542.398 7  87877341.585 7      2021.615          46.000
G11  23270966.500 7 122289735.683 7     -3846.719          44.000    23270961.641 6  95290676.975 6     -2997.443          36.000
G22  21315874.547 8 112015685.440 8     -1493.527          49.000    21315870.125 7  87284942.989 7     -1163.788          43.000
R02  21244899.297 5 113366848.240 5     -3184.922          33.000
R03  19326469.750 7 103456197.451 7       -70.777          44.000    19326471.086 6  80465920.629 6       -55.049          40.000
R04  21668836.469 8 116035602.290 8      3031.422          49.000    21668836.711 7  90249966.760 7      2357.773          44.000
R17  21554652.688 7 115343300.375 7     -3978.613          45.000    21554656.961 7  89711449.171 7     -3094.474          44.000
R18  19266163.977 8 102844059.037 8      -675.590          51.000    19266165.836 8  79989844.144 8      -525.459          48.000
C05                                                                  39714142.664 6 159912393.879 6       -24.116          36.000
C20  25515956.492 8 132868340.078 8      2702.742          48.000
C27  23301758.297 8 121338376.965 8     -2834.398          48.000
C30  22229963.922 6 115757239.479 6        12.020          37.000
E04  26519658.258 5 139361743.145 5      2653.934          34.000    26519664.570 6 106783746.871 6      2033.402          40.000
E12  21673899.172 7 113897107.246 7       427.297          47.000    21673898.477 8  87271812.124 8       327.418          50.000
E19  23888498.414 7 125534905.913 7       406.234          47.000    23888498.852 8  96189093.739 8       311.300          49.000
E33  24833667.172 8 130501786.479 8     -2192.707          50.000    24833667.883 8  99994863.453 8     -1680.159          51.000
> 2020 05 12 21 06  0.0000000  0 18        .000000000000
G01  21141310.961 8 111098336.394 8     -2056.707          51.000    21141310.844 8  86570135.564 8     -1602.629          51.000
G03  20323307.906 8 106799695.742 8      -181.336          51.000    20323308.938 8  83220564.004 8      -141.301          51.000
G04  21445781.312 8 112698349.947 8      2576.543          49.000    21445783.016 7  87816903.812 7      2007.696          45.000
G11  23292956.406 7 122405291.032 7     -3856.758          43.000    23292951.156 6  95380720.038 6     -3005.269          38.000
G22  21324434.836 8 112060669.506 8     -1505.367          49.000    21324430.547 7  87319995.494 7     -1173.013          44.000
R02  21262829.023 5 113462532.205 5     -3193.836          32.000
R03  19326928.062 7 103458651.016 7       -92.617          45.000    19326929.305 6  80467828.937 6       -72.036          40.000
R04  21651898.430 8 115944898.006 8      3015.621          49.000    21651899.242 7  90179419.000 7      2345.483          45.000
R17  21577005.469 8 115462913.784 8     -3995.352          49.000    21577007.656 6  89804481.764 6     -3107.499          41.000
R18  19270046.438 8 102864783.090 8      -705.871          51.000    19270048.180 8  80005962.850 8      -549.011          49.000
C05                                                                  39714334.836 6 159913167.715 6       -27.348          36.000
C20  25500411.383 8 132787389.817 8      2694.074          48.000
C27  23318127.852 8 121423616.370 8     -2848.117          49.000
C30  22229955.766 6 115757196.427 6        -9.023          37.000
E04  26504535.273 6 139282271.644 6      2644.227          37.000    26504540.820 6 106722850.813 6      2026.404          41.000
E12  21671505.602 7 113884528.908 7       411.414          46.000    21671505.039 8  87262174.171 8       315.281          50.000
E19  23886222.578 7 125522946.989 7       391.113          47.000    23886222.914 8  96179930.432 8       299.618          49.000
E33  24846222.398 8 130567767.129 8     -2205.848          50.000    24846223.625 8 100045420.006 8     -1690.219          51.000
> 2020 05 12 21 06 30.0000000  0 18        .000000000000
G01  21153092.836 8 111160251.830 8     -2069.824          51.000    21153093.430 8  86618381.344 8     -1612.850          51.000
G03  20324377.344 8 106805316.284 8      -192.301          51.000    20324378.266 8  83224943.644 8      -149.845          51.000
G04  21431114.906 8 112621276.646 8      2562.812          50.000    21431116.000 7  87756846.725 7      1996.997          44.000
G11  23314994.086 6 122521097.205 6     -3862.363          40.000    23314989.172 6  95470958.567 6     -3009.637          40.000
G22  21333053.453 8 112105960.308 8     -1512.938          49.000    21333049.289 7  87355287.011 7     -1178.915          44.000
R02  21280806.414 5 113558423.816 5     -3200.641          30.000
R03  19327499.266 7 103461708.539 7      -110.047          45.000    19327500.258 6  80470207.035 6       -85.589          40.000
R04  21635039.211 8 115854619.894 8      3004.070          48.000    21635041.086 7  90109202.684 7      2336.499          43.000
R17  21599442.227 8 115582973.258 8     -4007.473          50.000    21599442.484 7  89897861.247 7     -3116.926          42.000
R18  19274089.328 8 102886364.846 8      -731.793          51.000    19274091.133 8  80022748.640 8      -569.175          49.000
C05                                                                  39714541.406 6 159913999.578 6       -27.261          36.000
C20  25484906.750 8 132706650.745 8      2689.652          48.000
C27  23334566.688 8 121509216.759 8     -2857.461          51.000
C30  22230060.234 6 115757741.275 6       -26.113          38.000
E04  26489457.062 6 139203032.111 6      2639.301          36.000    26489461.945 6 106662134.912 6      2022.339          40.000
E12  21669194.461 7 113872384.300 7       399.523          47.000    21669194.148 8  87252868.558 8       306.137          51.000
E19  23884024.984 8 125511399.018 8       380.055          48.000    23884025.336 8  96171081.994 8       291.190          49.000
E33  24858843.969 8 130634094.603 8     -2214.746          51.000    24858845.211 8 100096242.323 8     -1697.043          51.000
> 2020 05 12 21 07  0.0000000  0 17        .000000000000
G01  21164939.188 8 111222508.004 8     -2081.746          48.000    21164940.266 8  86666892.661 8     -1622.137          49.000
G03  20325499.391 8 106811213.145 8      -202.102          51.000    20325500.344 8  83229538.604 8      -157.482          51.000
G04  21416517.375 8 112544564.446 8      2550.172          50.000    21416517.516 7  87697071.037 7      1987.150          44.000
G11  23337054.344 6 122637023.031 6     -3867.281          36.000    23337050.141 6  95561290.351 6     -3013.469          36.000
G22  21341705.602 8 112151427.738 8     -1519.375          48.000    21341701.633 7  87390716.172 7     -1183.926          45.000
R03  19328158.789 7 103465237.373 7      -126.418          44.000    19328159.148 6  80472951.702 6       -98.322          39.000
R04  21618234.930 8 115764637.336 8      2993.508          48.000    21618237.602 7  90039216.230 7      2328.284          42.000
R17  21621936.992 8 115703343.765 8     -4018.469          51.000    21621937.320 7  89991482.722 7     -3125.476          45.000
R18  19278268.047 8 102908672.997 8      -756.668          51.000    19278270.195 8  80040099.426 8      -588.523          49.000
C05                                                                  39714737.883 5 159914791.549 5       -26.729          35.000
C20  25469417.961 8 132625995.297 8      2686.250          48.000
C27  23351049.867 8 121595048.187 8     -2865.801          51.000
C30  22230252.484 6 115758746.320 6       -41.930          36.000
E04  26474398.336 5 139123899.270 5      2634.684          35.000    26474402.945 6 106601500.708 6      2019.098          39.000
E12  21666941.570 8 113860545.085 8       388.535          48.000    21666941.250 8  87243796.952 8       297.781          51.000
E19  23881881.031 8 125500132.486 8       370.051          48.000    23881881.523 8  96162449.213 8       283.414          49.000
E33  24871507.102 8 130700639.015 8     -2222.660          51.000    24871508.258 8 100147230.877 8     -1703.071          51.000
> 2020 05 12 21 07 30.0000000  0 16        .000000000000
G01  21176864.711 8 111285180.835 8     -2095.941          48.000    21176866.391 8  86715728.641 8     -1633.201          48.000
G03  20326688.648 8 106817462.650 8      -213.969          51.000    20326689.797 8  83234408.344 8      -166.729          51.000
G04  21402003.445 8 112468291.922 8      2535.246          50.000    21402003.266 7  87637637.949 7      1975.519          45.000
G22  21350405.797 7 112197148.245 7     -1528.035          47.000    21350402.297 7  87426342.546 7     -1190.677          45.000
R03  19328919.883 7 103469313.823 7      -144.957          43.000    19328920.195 6  80476122.319 6      -112.741          40.000
R04  21601500.141 7 115675029.814 7      2980.898          47.000    21601503.203 6  89969521.477 6      2318.480          40.000
R17  21644503.258 8 115824100.264 8     -4031.395          49.000    21644504.734 7  90085404.436 7     -3135.529          46.000
R18  19282597.164 8 102931785.397 8      -783.637          50.000    19282600.242 8  80058075.728 8      -609.495          50.000
C05                                                                  39714938.633 6 159915600.317 6       -27.073          36.000
C20  25453959.945 8 132545499.983 8      2680.754          49.000
C27  23367591.508 8 121681184.785 8     -2876.086          51.000
C30  22230547.680 6 115760287.876 6       -60.332          37.000
E04                                                                  26459378.445 6 106541007.602 6      2014.351          38.000
E12  21664761.508 7 113849088.887 7       375.625          47.000    21664761.367 8  87235018.826 8       287.823          51.000
E19  23879805.125 8 125489223.551 8       357.902          48.000    23879805.766 8  96154090.436 8       274.213          50.000
E33  24884226.102 8 130767476.315 8     -2232.578          51.000    24884227.109 8 100198443.879 8     -1710.665          51.000
> 2020 05 12 21 08  0.0000000  0 16        .000000000000
G01  21188863.406 8 111348236.516 8     -2108.617          49.000    21188865.156 8  86764862.930 8     -1643.078          49.000
G03  20327938.617 8 106824031.164 8      -224.566          51.000    20327939.930 8  83239526.665 8      -174.987          51.000
G04  21387567.250 8 112392427.741 8      2521.730          51.000    21387567.180 7  87578523.039 7      1964.988          46.000
G22  21359147.633 7 112243088.001 7     -1535.430          47.000    21359144.922 7  87462139.764 7     -1196.436          44.000
R03  19329777.438 7 103473902.945 7      -161.719          45.000    19329777.648 6  80479691.606 6      -125.781          40.000
R04  21584829.602 7 115585764.509 7      2969.473          47.000    21584832.484 6  89900092.941 6      2309.590          39.000
R17  21667134.219 8 115945205.804 8     -4042.863          49.000    21667137.047 7  90179597.647 7     -3144.449          45.000
R18  19287070.430 8 102955668.502 8      -809.293          50.000    19287074.469 8  80076651.448 8      -629.450          50.000
C05                                                                  39715137.797 6 159916401.676 6       -26.949          36.000
C20  25438526.289 8 132465132.496 8      2676.559          48.000
C27  23384185.070 8 121767591.768 8     -2884.996          51.000
C30  22230940.508 6 115762333.254 6       -77.152          39.000
E04                                                                  26444382.633 6 106480630.865 6      2010.280          38.000
E12  21662648.023 7 113837983.540 7       363.914          47.000    21662648.062 8  87226509.522 8       278.795          51.000
E19  23877790.961 8 125478638.716 8       347.016          49.000    23877791.625 8  96145979.990 8       265.916          50.000
E33  24896994.289 8 130834572.744 8     -2241.238          51.000    24896995.500 8 100249855.428 8     -1717.330          51.000
> 2020 05 12 21 08 30.0000000  0 17        .000000000000
G01  21200939.984 8 111411698.872 8     -2121.355          50.000    21200941.578 8  86814314.087 8     -1653.004          50.000
G03  20329253.930 8 106830942.904 8      -235.223          51.000    20329255.188 8  83244912.444 8      -183.290          51.000
G04  21373213.688 8 112316998.338 8      2508.000          51.000    21373213.906 7  87519746.896 7      1954.289          46.000
G11  23403433.258 6 122985877.211 6     -3884.500          37.000    23403439.422 5  95833158.793 5     -3026.883          35.000
G22  21367935.703 7 112289270.992 7     -1542.496          46.000    21367933.453 7  87498126.529 7     -1201.942          43.000
R03  19330735.078 7 103479028.267 7      -178.879          45.000    19330735.477 6  80483678.009 6      -139.128          40.000
R04  21568228.898 8 115496867.583 8      2958.027          48.000    21568231.031 6  89830950.879 6      2300.688          40.000
R17  21689834.555 8 116066682.072 8     -4054.363          49.000    21689837.836 7  90274079.207 7     -3153.394          43.000
R18  19291693.195 8 102980346.711 8      -834.934          51.000    19291697.695 8  80095845.622 8      -649.393          50.000
C05                                                                  39715339.656 6 159917214.396 6       -26.385          36.000
C20  25423121.711 8 132384917.730 8      2672.148          48.000
C27  23400834.781 8 121854291.648 8     -2893.945          51.000
C30  22231435.156 6 115764907.083 6       -93.984          39.000
E04  26429438.312 6 138887644.776 6      2618.438          37.000    26429421.078 6 106420389.971 6      2006.353          39.000
E12  21660606.172 7 113827254.566 7       352.355          47.000    21660605.977 8  87218288.617 8       269.957          51.000
E19  23875842.977 8 125468402.315 8       336.320          49.000    23875843.773 8  96138136.531 8       257.790          50.000
E33  24909815.977 8 130901952.170 8     -2249.793          50.000    24909817.695 8 100301483.800 8     -1723.831          51.000
> 2020 05 12 21 09  0.0000000  0 17        .000000000000
G01  21213083.688 8 111475512.934 8     -2134.734          51.000    21213085.625 8  86864039.291 8     -1663.429          51.000
G03  20330624.203 8 106838143.249 8      -246.586          51.000    20330625.234 8  83250523.097 8      -192.145          51.000
G04  21358932.523 8 112241951.279 8      2493.449          50.000    21358933.281 7  87461268.660 7      1942.947          47.000
G11  23425619.320 6 123102458.923 6     -3889.887          38.000    23425623.938 5  95924001.682 5     -3031.081          33.000
G22  21376759.773 7 112335642.513 7     -1550.723          46.000    21376757.609 7  87534260.183 7     -1208.355          44.000
R03  19331782.523 7 103484633.295 7      -196.559          44.000    19331782.742 6  80488037.450 6      -152.879          40.000
R04  21551687.055 8 115408284.873 8      2945.723          48.000    21551689.266 6  89762053.240 6      2291.118          40.000
R17  21712593.367 8 116188470.749 8     -4066.496          50.000    21712596.242 6  90368803.687 6     -3162.833          40.000
R18  19296454.969 8 103005765.128 8      -861.457          51.000    19296459.820 8  80115615.463 8      -670.022          50.000
C05                                                                  39715533.992 5 159917997.083 5       -26.551          35.000
C20  25407736.438 8 132304802.490 8      2667.020          49.000
C27  23417530.203 8 121941228.857 8     -2903.664          51.000
C30  22232020.891 6 115767955.958 6      -111.352          39.000
E04  26414499.086 6 138809149.041 6      2612.848          40.000    26414484.250 6 106360243.981 6      2001.995          40.000
E12  21658625.953 7 113816848.667 7       339.762          47.000    21658625.531 8  87210315.263 8       260.292          51.000
E19  23873950.906 8 125458459.690 8       324.801          49.000    23873951.891 8  96130518.165 8       248.906          51.000
E33  24922680.203 7 130969559.687 7     -2259.086          47.000    24922682.805 8 100353286.935 8     -1730.955          51.000
> 2020 05 12 21 09 30.0000000  0 17        .000000000000
G01  21225306.695 8 111539742.859 8     -2147.074          51.000    21225308.773 8  86914088.583 8     -1673.045          51.000
G03  20332061.656 8 106845696.765 8      -256.785          51.000    20332062.578 8  83256408.949 8      -200.092          51.000
G04  21344736.523 8 112167353.269 8      2479.926          48.000    21344738.125 8  87403140.347 8      1932.410          48.000
G11  23447841.484 6 123219227.287 6     -3894.566          39.000    23447845.820 6  96014990.049 6     -3034.724          37.000
G22  21385632.188 7 112382266.869 7     -1557.500          45.000    21385629.992 7  87570590.856 7     -1213.636          44.000
R03  19332930.750 7 103490782.720 7      -213.141          44.000    19332931.250 6  80492820.343 6      -165.773          40.000
R04  21535216.352 8 115320083.680 8      2934.473          48.000    21535218.102 6  89693452.312 6      2282.368          41.000
R17  21735422.484 8 116310634.565 8     -4077.504          50.000    21735423.883 6  90463819.879 6     -3171.395          40.000
R18  19301367.883 8 103031989.390 8      -886.699          51.000    19301372.625 8  80136012.087 8      -689.658          50.000
C05                                                                  39715733.242 6 159918799.478 6       -26.116          36.000
C20  25392382.453 8 132224851.594 8      2663.195          48.000
C27  23434282.859 8 122028465.796 8     -2912.027          51.000
C30  22232710.797 6 115771544.360 6      -127.605          40.000
E04  26399595.398 7 138730842.975 7      2607.957          43.000    26399584.602 7 106300243.298 7      1998.338          42.000
E12  21656719.758 8 113806831.682 8       328.336          48.000    21656719.500 8  87202639.909 8       251.555          51.000
E19  23872127.016 8 125448875.391 8       314.281          48.000    23872128.391 8  96123174.353 8       240.882          51.000
E33  24935599.547 7 131037459.505 7     -2267.316          46.000    24935603.516 8 100405314.062 8     -1737.333          51.000
> 2020 05 12 21 10  0.0000000  0 17        .000000000000
G01  21237601.805 8 111604351.862 8     -2160.441          51.000    21237603.922 8  86964433.261 8     -1683.461          51.000
G03  20333559.375 8 106853566.981 8      -268.137          51.000    20333560.289 8  83262541.569 8      -208.938          51.000
G04  21330619.758 8 112093170.086 8      2465.375          49.000    21330621.836 8  87345335.275 8      1921.071          49.000
G11  23470091.102 6 123336143.795 6     -3900.367          39.000    23470096.258 5  96106093.800 5     -3039.247          35.000
G22  21394545.820 7 112429107.622 7     -1565.531          45.000    21394543.391 7  87607090.148 7     -1219.894          43.000
R03  19334173.867 7 103497438.379 7      -230.934          44.000    19334174.930 6  80497996.977 6      -179.615          40.000
R04  21518810.523 8 115232228.415 8      2922.164          48.000    21518812.039 6  89625120.459 6      2272.794          41.000
R17  21758314.617 8 116433133.751 8     -4089.387          51.000    21758316.031 7  90559096.954 7     -3180.637          42.000
R18  19306424.930 8 103058982.715 8      -913.133          51.000    19306429.156 8  80157006.891 8      -710.214          49.000
C05                                                                  39715930.531 6 159919594.055 6       -26.952          36.000
C20  25377053.117 8 132145029.845 8      2658.070          48.000
C27  23451085.836 8 122115964.909 8     -2921.547          50.000
C30  22233497.234 6 115775636.800 6      -145.484          37.000
E04  26384720.648 7 138652691.340 7      2601.898          44.000    26384714.812 7 106240360.925 7      1993.785          42.000
E12  21654880.945 7 113797168.526 7       315.625          47.000    21654880.820 8  87195235.667 8       241.837          51.000
E19  23870364.328 8 125439612.814 8       302.785          48.000    23870366.102 8  96116077.067 8       232.022          51.000
E33  24948568.188 7 131105614.924 7     -2276.559          46.000    24948573.133 8 100457537.019 8     -1744.442          51.000
> 2020 05 12 21 10 30.0000000  0 18        .000000000000
G01  21249966.078 8 111669325.264 8     -2172.766          51.000    21249968.305 8  87015061.897 8     -1693.064          51.000
G03  20335114.555 8 106861739.593 8      -278.359          51.000    20335115.586 8  83268909.842 8      -216.903          51.000
G04  21316580.062 8 112019389.611 8      2451.633          50.000    21316581.844 8  87287843.986 8      1910.363          49.000
G11  23492365.812 6 123453191.938 6     -3904.578          40.000    23492372.359 4  96197300.137 4     -3042.528          29.000
G17  22076962.000 5 116015203.802 5       508.879          35.000    22076972.602 5  90401499.730 5       396.529          33.000
G22  21403497.711 7 112476149.920 7     -1572.383          45.000    21403495.023 7  87643746.482 7     -1225.233          43.000
R03  19335508.250 7 103504584.459 7      -247.199          45.000    19335509.523 6  80503555.033 6      -192.266          39.000
R04  21502466.578 8 115144705.826 8      2910.898          48.000    21502468.547 6  89557047.378 6      2264.032          41.000
R17  21781266.422 8 116555950.777 8     -4100.008          50.000    21781268.461 7  90654621.273 7     -3188.898          44.000
R18  19311623.219 8 103086730.914 8      -938.426          51.000    19311627.500 8  80178588.800 8      -729.887          50.000
C05                                                                  39716123.258 6 159920369.155 6       -26.267          36.000
C20  25361745.914 8 132065324.008 8      2654.047          48.000
C27  23467935.883 8 122203710.495 8     -2929.762          49.000
C30  22234376.086 5 115780219.715 5      -162.281          35.000
E04  26369873.094 7 138574681.059 7      2596.996          43.000    26369871.539 6 106180586.846 6      1989.981          41.000
E12  21653106.992 7 113787846.201 7       304.207          47.000    21653106.719 8  87188092.584 8       233.022          51.000
E19  23868660.227 8 125430657.895 8       292.418          48.000    23868661.906 8  96109215.505 8       224.099          51.000
E33  24961583.906 8 131174011.250 8     -2284.727          48.000    24961588.492 8 100509944.598 8     -1750.623          51.000
> 2020 05 12 21 11  0.0000000  0 19        .000000000000
G01  21262409.375 8 111734714.628 8     -2186.559          51.000    21262411.508 8  87066014.653 8     -1703.812          51.000
G03  20336737.141 8 106870266.580 8      -290.129          51.000    20336738.219 8  83275554.248 8      -226.074          51.000
G04  21302627.383 8 111946065.937 8      2436.551          51.000    21302628.562 8  87230708.664 8      1898.611          48.000
G11  23514674.695 6 123570422.077 6     -3910.441          38.000
G17  22074112.070 5 116000233.153 5       489.504          30.000    22074123.328 5  90389834.399 5       381.435          30.000
G22  21412497.734 7 112523445.862 7     -1580.734          44.000    21412494.844 7  87680600.453 7     -1231.738          42.000
R02  21444008.117 5 114429335.215 5     -3250.863          31.000
R03  19336944.688 7 103512273.037 7      -265.387          43.000    19336946.578 6  80509535.022 6      -206.409          40.000
R04  21486194.445 7 115057570.426 7      2898.055          47.000    21486197.227 6  89489275.373 6      2254.043          41.000
R17  21804287.086 8 116679135.695 8     -4112.230          49.000    21804289.242 7  90750431.739 7     -3198.401          44.000
R18  19316972.867 8 103115286.507 8      -965.328          50.000    19316976.727 8  80200798.695 8      -750.811          49.000
C05                                                                  39716321.438 6 159921167.042 6       -27.043          36.000
C20  25346470.969 7 131985786.495 7      2648.441          46.000
C27  23484842.836 8 122291752.538 8     -2939.602          48.000
C30  22235359.484 5 115785345.067 5      -179.586          35.000
E04  26355062.898 7 138496865.354 7      2590.598          43.000    26355064.102 6 106120961.828 6      1984.988          40.000
E12  21651407.922 7 113778917.980 7       291.082          47.000    21651407.711 8  87181251.461 8       223.022          51.000
E19  23867024.539 8 125422062.419 8       280.543          48.000    23867026.047 8  96102629.360 8       214.959          51.000
E33  24974655.914 8 131242700.260 8     -2294.516          50.000    24974659.547 8 100562576.427 8     -1758.132          51.000
> 2020 05 12 21 11 30.0000000  0 19        .000000000000
G01  21274922.273 8 111800470.078 8     -2194.820          51.000    21274924.070 8  87117252.675 8     -1710.250          51.000
G03  20338417.719 8 106879098.476 8      -296.422          51.000    20338418.766 8  83282436.242 8      -230.978          51.000
G04  21288752.461 8 111873151.761 8      2426.672          50.000    21288753.039 7  87173892.444 7      1890.913          47.000
G11  23537008.797 6 123687782.546 6     -3910.992          37.000
G17  22071368.844 5 115985819.922 5       474.703          32.000    22071377.234 5  90378619.218 5       369.886          33.000
G22  21421536.695 7 112570945.969 7     -1583.727          44.000    21421533.734 6  87717613.495 6     -1234.070          41.000
R02  21462316.359 5 114526928.732 5     -3251.875          33.000    21462296.156 4  89076509.980 4     -2529.230          26.000
R03  19338471.852 7 103520452.590 7      -277.582          45.000    19338475.055 6  80515896.919 6      -215.897          39.000
R04  21469985.922 8 114970773.219 8      2890.699          48.000    21469988.914 6  89421766.419 6      2248.322          40.000
R17  21827366.164 7 116802635.234 7     -4118.770          46.000    21827368.484 7  90846486.911 7     -3203.487          43.000
R18  19322464.328 8 103144599.644 8      -986.641          50.000    19322467.859 8  80223597.806 8      -767.387          49.000
C05                                                                  39716515.664 6 159921949.155 6       -23.566          36.000
C20  25331218.805 7 131906369.124 7      2648.215          45.000
C27  23501797.086 8 122380040.556 8     -2943.992          48.000
C30  22236438.922 6 115790964.527 6      -192.277          37.000
E04  26340280.773 7 138419195.922 7      2589.543          42.000    26340283.125 6 106061448.895 6      1984.249          39.000
E12  21649774.758 8 113770335.671 8       283.285          48.000    21649774.641 8  87174675.403 8       217.114          51.000
E19  23865447.812 8 125413777.055 8       274.109          48.000    23865449.539 8  96096280.838 8       210.032          51.000
E33  24987774.516 8 131311632.064 8     -2298.754          51.000    24987777.359 8 100615394.299 8     -1761.368          51.000
> 2020 05 12 21 12  0.0000000  0 18        .000000000000
G01  21287516.273 8 111866651.669 8     -2212.473          51.000    21287517.852 8  87168822.749 8     -1724.005          51.000
G03  20340167.805 8 106888295.724 8      -311.848          51.000    20340168.844 8  83289602.928 8      -242.998          51.000
G04  21274966.891 8 111800709.624 8      2407.422          49.000    21274967.406 7  87117444.060 7      1875.916          47.000
G11  23559378.469 6 123805331.864 6     -3920.859          36.000
G17  22068741.727 5 115972013.256 5       450.688          35.000    22068746.508 5  90367856.104 5       351.182          35.000
G22  21430626.008 7 112618710.297 7     -1595.895          42.000    21430623.406 6  87754832.463 6     -1243.554          41.000
R03  19340103.242 7 103529183.474 7      -299.602          44.000    19340105.594 6  80522687.566 6      -233.026          40.000
R04  21453853.109 8 114884377.151 8      2873.797          48.000    21453855.734 6  89354569.523 6      2235.178          39.000
R17  21850514.367 6 116926508.043 6     -4134.816          40.000    21850517.406 7  90942832.415 7     -3215.968          42.000
R18  19328108.539 8 103174731.422 8     -1017.477          49.000    19328112.633 8  80247033.615 8      -791.371          49.000
C05                                                                  39716717.633 6 159922763.131 6       -27.052          36.000
C20  25316001.617 7 131827132.803 7      2638.828          46.000
C27  23518810.148 8 122468632.871 8     -2957.477          49.000
C30  22237625.578 6 115797138.522 6      -214.773          39.000
E04  26325538.359 6 138341734.420 6      2579.352          41.000    26325540.477 6 106002095.340 6      1976.410          38.000
E12  21648219.359 8 113762161.022 8       266.332          48.000    21648218.930 8  87168411.717 8       204.070          51.000
E19  23863941.602 8 125405862.005 8       258.215          49.000    23863943.500 8  96090216.067 8       197.919          51.000
E33  25000950.648 8 131380866.833 8     -2312.238          51.000    25000953.102 8 100668444.295 8     -1771.685          51.000
> 2020 05 12 21 12 30.0000000  0 18        .000000000000
G01  21300187.375 8 111933238.475 8     -2225.199          51.000    21300188.383 8  87220708.536 8     -1733.925          51.000
G03  20341983.523 8 106897837.845 8      -322.809          51.000    20341984.781 8  83297038.342 8      -251.539          51.000
G04  21261267.438 8 111728721.196 8      2393.180          48.000    21261268.461 7  87061349.191 7      1864.815          47.000
G11  23581780.055 6 123923047.522 6     -3925.332          36.000
G17  22066210.969 5 115958721.062 5       431.887          31.000
G22  21439761.492 6 112666718.151 6     -1602.922          40.000    21439759.070 6  87792241.154 6     -1249.030          40.000
R03  19341833.398 7 103538443.808 7      -316.398          45.000    19341836.047 6  80529890.097 6      -246.088          40.000
R04  21437790.781 7 114798362.840 7      2861.852          45.000    21437792.227 6  89287669.617 6      2225.891          37.000
R17  21873720.812 5 117050712.250 5     -4145.445          32.000    21873730.992 6  91039449.899 6     -3224.226          38.000
R18  19333902.477 8 103205661.344 8     -1043.195          48.000    19333906.406 8  80271090.264 8      -811.371          48.000
C05                                                                  39716923.281 6 159923591.674 6       -27.070          36.000
C20  25300815.602 7 131748057.981 7      2634.125          45.000
C27  23535877.875 8 122557507.731 8     -2966.043          49.000
C30  22238914.992 6 115803847.172 6      -231.238          39.000
E04  26310832.570 6 138264461.523 6      2573.820          40.000    26310833.922 6 105942886.321 6      1972.046          39.000
E12  21646737.961 8 113754374.819 8       254.180          49.000    21646737.242 8  87162445.664 8       194.791          51.000
E19  23862502.086 8 125398297.004 8       247.363          49.000    23862503.891 8  96084419.518 8       189.619          51.000
E33  25014180.086 8 131450383.726 8     -2320.812          51.000    25014182.266 8 100721710.465 8     -1778.291          51.000
> 2020 05 12 21 13  0.0000000  0 17        .000000000000
G01  21312922.953 8 112000164.813 8     -2237.184          51.000    21312922.773 8  87272858.848 8     -1743.263          51.000
G03  20343852.523 8 106907659.547 8      -332.816          51.000    20343854.023 8  83304691.611 8      -259.337          51.000
G04  21247642.453 8 111657123.364 8      2379.238          49.000    21247643.867 8  87005558.677 8      1853.952          48.000
G11  23604200.797 6 124040862.706 6     -3929.699          37.000    23604199.875 5  96655246.802 5     -3062.109          32.000
G22  21448930.734 6 112714904.040 6     -1609.867          37.000    21448928.172 6  87829788.658 6     -1254.442          37.000
R03  19343649.992 7 103548166.164 7      -332.512          44.000    19343652.148 6  80537451.913 6      -258.620          40.000
R04  21421786.789 7 114712665.522 7      2850.578          46.000    21421786.812 6  89221016.233 6      2217.119          38.000
R17  21896983.828 6 117175214.839 6     -4155.531          41.000    21896993.562 5  91136285.171 5     -3232.089          30.000
R18  19339833.688 8 103237322.653 8     -1068.340          50.000    19339837.844 8  80295715.710 8      -830.931          49.000
C05                                                                  39717120.570 6 159924386.120 6       -26.291          36.000
