     3.02           OBSERVATION DATA    M (MIXED)           RINEX VERSION / TYPE
SAVERINEX           SC600               20200501 195932 LCL PGM / RUN BY / DATE
       G = GPS       R = GLONASS       C = COMPASS          COMMENT
       S = SBAS      J = QZSS          E = GALILEO          COMMENT
BEAN                                                        MARKER NAME
1                                                           MARKER NUMBER
GEODETIC                                                    MARKER TYPE
Unige DICCA         GTER                                    OBSERVER / AGENCY
SC60291900056       SC600               2.12(191226)        REC # / TYPE / VERS
                    HEMA45          NONE                    ANT # / TYPE
  4509407.8091   693652.4678  4442337.6214                  APPROX POSITION XYZ
        0.0000        0.0000        0.0000                  ANTENNA: DELTA H/E/N
G    8 C1C L1C D1C S1C C2Y L2Y D2Y S2Y                      SYS / # / OBS TYPES
R    8 C1C L1C D1C S1C C2P L2P D2P S2P                      SYS / # / OBS TYPES
C    8 C1I L1I D1I S1I C7I L7I D7I S7I                      SYS / # / OBS TYPES
E    8 C1C L1C D1C S1C C7Q L7Q D7Q S7Q                      SYS / # / OBS TYPES
DBHZ                                                        COMMENT
     30.000                                                 INTERVAL
  2020    05    01    17    00    0.0000000     GPS         TIME OF FIRST OBS
  2020    05    01    17    59   30.0000000     GPS         TIME OF LAST OBS
     0                                                      RCV CLOCK OFFS APPL
G L1C  0.00000                                              SYS / PHASE SHIFT
G L2Y  0.00000                                              SYS / PHASE SHIFT
R L1C  0.00000                                              SYS / PHASE SHIFT
R L2P  0.25000                                              SYS / PHASE SHIFT
C L1I  0.00000                                              SYS / PHASE SHIFT
C L7I  0.00000                                              SYS / PHASE SHIFT
E L1C  0.50000                                              SYS / PHASE SHIFT
E L7Q -0.25000                                              SYS / PHASE SHIFT
 12 R03  5 R04  6 R05  1 R06 -4 R09 -2 R10 -7 R11  0 R16 -1 GLONASS SLOT / FRQ #
    R18 -3 R19  3 R20  2 R21  4                             GLONASS SLOT / FRQ #
 C1C   71.950 C2C   71.950 C2P   71.950                     GLONASS COD/PHS/BIS
    18                                                      LEAP SECONDS
*** Above antenna height is from mark to ANTENNA BOTTOM.    COMMENT
    17     4        0.0000        ANT MEASURE TYPE/HEIGT    COMMENT
    0.0000    0.0000    0.0458    0.0405    0.0000          COMMENT
                    BASE STATION                            COMMENT
                                                            END OF HEADER
> 2020 05 01 17 00  0.0000000  0 17        .000000000000
G10  20945477.391 8 110069239.262 8       445.637          51.000    20945479.883 8  85768260.210 8       347.249          51.000
G16  21725071.453 8 114166024.826 8     -2720.051          50.000    21725070.273 7  88960540.449 7     -2119.523          44.000
G21  24485847.070 4 128673994.648 4     -2602.516          29.000
G27  20296702.828 8 106659882.706 8       306.504          51.000    20296703.914 8  83111590.435 8       238.834          51.000
R04  22582245.062 5 120926901.147 5     -2739.305          32.000
R05  20609682.523 7 110170611.416 7       978.633          42.000    20609690.250 4  85688218.359 4       761.168          29.000
R06  22439941.562 6 119743790.472 6      4244.840          37.000
R10  23153086.312 6 123418984.874 6     -4193.309          37.000
R11  21261167.180 5 113613223.394 5     -1417.172          30.000    21261170.727 5  88365833.359 5     -1102.242          32.000
R20  20560595.477 5 109946755.514 5     -1607.973          31.000    20560600.156 6  85514149.916 6     -1250.645          41.000
C05  39613943.977 5 206280201.012 5        -7.062          34.000    39613946.367 6 159508946.035 6        -5.340          37.000
C19  22694435.266 8 118175936.251 8       978.754          49.000
C20  24953183.867 5 129937787.950 5     -1890.133          32.000
C22  24807919.273 6 129181386.430 6      3266.797          39.000
C26  25369609.172 7 132106201.789 7     -2814.109          46.000
E12  22205292.219 8 116689632.675 8     -1109.277          48.000    22205291.766 8  89411489.899 8      -849.945          51.000
E24  24066607.367 8 126470873.198 8     -2764.750          48.000    24066622.242 7  96906289.251 7     -2118.529          46.000
> 2020 05 01 17 00 30.0000000  0 16        .000000000000
G10  20943001.453 8 110056227.235 8       422.797          51.000    20943003.453 8  85758120.962 8       329.452          51.000
G16  21740652.227 8 114247899.805 8     -2737.180          51.000    21740650.812 7  89024339.094 7     -2132.870          45.000
G27  20295005.023 8 106650960.592 8       289.227          51.000    20295005.969 8  83104638.137 8       225.371          51.000
R04  22597661.477 5 121009451.642 5     -2762.516          33.000
R05  20604279.797 6 110141729.663 6       947.855          41.000    20604283.289 5  85665780.697 5       737.218          32.000
R06  22416109.617 5 119616618.153 5      4234.352          35.000
R10  23176710.648 6 123544917.044 6     -4201.203          37.000
R20  20569652.453 5 109995183.452 5     -1620.191          31.000    20569655.781 6  85551816.167 6     -1260.149          40.000
R21  20406701.625 5 109200379.163 5      1682.605          32.000
C05  39613998.242 5 206280484.638 5       -11.008          35.000    39614000.867 6 159509165.315 6        -8.168          36.000
C19  22688857.453 8 118146891.600 8       958.559          49.000
C20  24964125.148 4 129994767.723 4     -1907.992          28.000
C22  24789126.633 6 129083529.080 6      3258.168          40.000
C26  25385844.188 7 132190744.557 7     -2821.035          45.000
E12  22211651.648 8 116723051.481 8     -1117.457          48.000    22211651.258 8  89437096.516 8      -856.221          51.000
E24  24082424.711 8 126553990.621 8     -2775.211          48.000    24082438.352 7  96969976.572 7     -2126.490          45.000
> 2020 05 01 17 01  0.0000000  0 14        .000000000000
G10  20940668.383 8 110043966.896 8       403.445          51.000    20940670.047 8  85748567.471 8       314.373          51.000
G16  21756343.398 8 114330355.148 8     -2750.891          51.000    21756342.188 7  89088589.976 7     -2143.551          45.000
G27  20293418.938 8 106642625.259 8       275.414          51.000    20293419.773 8  83098143.074 8       214.608          51.000
R04  22613224.234 5 121092786.875 5     -2783.254          33.000
R05  20599062.148 6 110113837.989 6       920.602          40.000    20599069.773 6  85644087.259 6       716.026          36.000
R06  22392350.969 5 119489838.833 5      4226.453          30.000
R10  23200391.500 5 123671145.972 5     -4204.973          34.000
R11  21277416.508 5 113700053.486 5     -1470.285          33.000
C05  39614086.852 5 206280945.404 5       -11.148          35.000    39614089.602 6 159509522.421 6        -8.603          37.000
C19  22683408.547 8 118118517.479 8       942.000          49.000
C22  24770396.836 6 128985998.711 6      3252.586          41.000
C26  25402132.000 7 132275565.260 7     -2824.652          44.000
E12  22218069.766 8 116756778.924 8     -1121.895          48.000    22218069.570 8  89462939.632 8      -859.729          51.000
E24  24098314.312 8 126637486.989 8     -2782.172          49.000    24098327.367 7  97033954.240 7     -2131.701          45.000
> 2020 05 01 17 01 30.0000000  0 14        .000000000000
G10  20938424.109 8 110032173.616 8       383.070          51.000    20938425.414 8  85739377.920 8       298.496          51.000
G16  21772090.250 8 114413103.761 8     -2765.363          51.000    21772089.180 7  89153069.383 7     -2154.832          46.000
G27  20291890.508 8 106634592.848 8       260.426          51.000    20291891.258 8  83091884.060 8       202.929          51.000
R04  22628879.523 5 121176613.397 5     -2804.656          32.000
R05  20593976.141 5 110086648.066 5       892.406          32.000    20593983.586 6  85622939.577 6       694.097          36.000
R11  21285744.445 5 113744547.916 5     -1496.641          32.000
C05  39614155.539 5 206281302.252 5       -12.266          35.000    39614158.328 6 159509800.143 6        -9.596          36.000
C19  22678034.352 8 118090532.639 8       924.055          50.000
C22  24751676.258 7 128888515.448 7      3246.238          42.000
C26  25418418.719 7 132360379.211 7     -2829.086          44.000
C29  24666922.117 5 128447148.752 5     -2462.238          31.000
E04  27463046.977 7 144319282.047 7      2924.711          43.000
E12  22224492.398 8 116790529.965 8     -1127.633          48.000    22224492.273 8  89488800.810 8      -864.027          50.000
E24  24114221.359 8 126721075.624 8     -2790.070          49.000    24114235.273 7  97098002.611 7     -2137.756          46.000
> 2020 05 01 17 02  0.0000000  0 14        .000000000000
G10  20936293.148 8 110020975.087 8       364.074          51.000    20936294.297 8  85730651.813 8       283.694          51.000
G16  21787916.602 8 114496270.566 8     -2778.500          51.000    21787915.656 7  89217874.664 7     -2165.065          45.000
G27  20290444.125 8 106626991.780 8       246.816          51.000    20290444.867 8  83085961.151 8       192.324          51.000
R04  22644650.992 5 121261057.413 5     -2824.574          32.000
R05  20589065.859 5 110060351.808 5       865.449          32.000    20589051.008 5  85602450.120 5       673.124          34.000
R11  21294212.648 5 113789810.541 5     -1520.551          33.000
C05  39614228.477 5 206281682.529 5       -12.680          35.000    39614231.312 6 159510094.182 6        -9.445          37.000
C19  22672759.758 8 118063064.380 8       907.656          50.000
C22  24732989.102 6 128791208.067 6      3241.473          41.000
C26  25434728.477 7 132445310.266 7     -2832.219          44.000
C29  24681119.148 4 128521077.998 4     -2466.129          28.000
E04  27446356.578 7 144231565.336 7      2923.875          44.000
E12  22230943.711 7 116824431.815 7     -1131.879          47.000    22230943.414 8  89514777.555 8      -867.269          50.000
E24  24130169.555 8 126804882.121 8     -2796.387          48.000    24130185.234 7  97162217.932 7     -2142.737          47.000
> 2020 05 01 17 02 30.0000000  0 16        .000000000000
G10  20934255.438 8 110010266.428 8       349.676          51.000    20934256.711 8  85722307.438 8       272.475          51.000
G16  21803801.883 8 114579748.426 8     -2786.965          50.000    21803801.344 7  89282922.313 7     -2171.661          44.000
G27  20289059.977 8 106619718.026 8       237.777          51.000    20289060.805 8  83080293.286 8       185.281          51.000
R04  22660517.211 4 121346008.629 4     -2839.223          29.000
R05  20584258.164 6 110034723.536 6       842.785          36.000    20584257.391 5  85582516.756 5       655.497          33.000
R06  22321245.523 5 119110488.338 5      4208.168          32.000
R11  21302806.828 6 113835723.654 6     -1540.332          37.000
R21  20369364.102 5 109000585.011 5      1653.883          30.000
C05  39614285.797 5 206281981.258 5        -7.484          35.000    39614288.719 6 159510325.208 6        -5.954          37.000
C19  22667564.492 8 118036009.596 8       895.758          50.000
C22  24714316.156 6 128693974.918 6      3240.578          40.000
C26  25451040.867 7 132530251.959 7     -2830.598          45.000
C29  24695329.359 5 128595059.398 5     -2465.316          34.000
E04  27429654.539 7 144143790.864 7      2927.535          45.000
E12  22237403.672 7 116858379.290 7     -1131.535          47.000    22237403.273 8  89540789.263 8      -866.925          49.000
E24  24146138.531 7 126888799.698 7     -2798.273          47.000    24146155.938 7  97226518.375 7     -2144.126          47.000
> 2020 05 01 17 03  0.0000000  0 16        .000000000000
G10  20932324.680 8 110000119.839 8       319.777          51.000    20932325.742 8  85714401.027 8       249.177          51.000
G16  21819759.297 8 114663607.176 8     -2810.566          49.000    21819759.312 7  89348266.773 7     -2190.055          43.000
G21  24575149.641 5 129143264.132 5     -2612.695          33.000
G26  23879045.289 5 125485231.422 5     -3671.199          34.000    23879051.648 5  97780718.172 5     -2860.675          35.000
G27  20287752.016 8 106612844.527 8       213.344          51.000    20287752.984 8  83074937.309 8       166.242          51.000
R04  22676493.852 5 121431574.957 5     -2869.805          33.000
R05  20579604.141 6 110009897.614 6       804.945          40.000    20579616.508 4  85563207.821 4       626.072          27.000
R06  22297622.211 6 118984414.433 6      4189.805          37.000
C05  39614341.211 5 206282269.994 5       -18.590          35.000    39614344.148 6 159510548.487 6       -14.414          37.000
C19  22662462.250 8 118009440.623 8       868.547          50.000
C22  24695672.562 6 128596889.840 6      3224.617          39.000
C26  25467368.922 7 132615273.234 7     -2844.367          45.000
C29  24709555.492 5 128669139.788 5     -2480.289          35.000
E04  27412955.242 7 144056032.636 7      2915.891          45.000
E12  22243886.008 7 116892444.234 7     -1146.320          46.000    22243885.656 8  89566890.975 8      -878.439          48.000
E24  24162141.500 7 126972898.506 7     -2815.355          46.000    24162160.336 7  97290957.703 7     -2157.211          46.000
> 2020 05 01 17 03 30.0000000  0 17        .000000000000
G10  20930527.648 8 109990676.348 8       310.223          51.000    20930528.844 8  85707042.495 8       241.732          51.000
G16  21835815.234 8 114747984.699 8     -2814.074          48.000    21835815.711 7  89414015.483 7     -2192.785          43.000
G21  24590043.070 5 129221534.098 5     -2603.488          32.000
G26  23899985.633 5 125595270.662 5     -3664.410          34.000    23899995.508 5  97866472.909 5     -2855.388          34.000
G27  20286547.320 8 106606513.143 8       209.266          51.000    20286548.195 8  83070003.763 8       163.064          51.000
R04  22692600.336 5 121517820.156 5     -2879.637          34.000
R05  20575134.047 7 109986019.401 7       787.703          43.000    20575153.953 4  85544636.568 4       612.658          28.000
R06  22274066.117 6 118858704.913 6      4191.578          39.000
C05  39614421.602 5 206282688.301 5        -9.113          35.000    39614424.438 6 159510871.956 6        -6.920          36.000
C19  22657480.273 8 117983498.013 8       861.512          50.000
C20  25031491.875 5 130345548.358 5     -1985.637          30.000
C22  24677083.477 6 128500094.922 6      3228.914          37.000
C26  25483738.648 7 132700511.304 7     -2837.746          46.000
C29  24723832.086 5 128743470.837 5     -2474.770          30.000
E04  27396286.164 7 143968433.643 7      2924.414          44.000
E12  22250417.445 7 116926767.349 7     -1141.234          46.000    22250417.266 7  89593190.481 7      -874.371          47.000
E24  24178205.234 7 127057317.575 7     -2811.938          45.000    24178224.211 7  97355642.443 7     -2154.823          44.000
> 2020 05 01 17 04  0.0000000  0 18        .000000000000
G10  20928813.625 8 109981669.264 8       291.477          51.000    20928815.320 8  85700024.027 8       227.125          51.000
G16  21851919.047 8 114832612.329 8     -2826.625          49.000    21851919.445 7  89479959.067 7     -2202.568          42.000
G26  23920917.133 5 125705263.134 5     -3666.633          34.000    23920924.188 5  97952174.048 5     -2857.116          34.000
G27  20285395.211 8 106600458.056 8       195.840          51.000    20285395.852 8  83065285.524 8       152.602          51.000
R04  22708786.719 5 121604507.089 5     -2898.590          33.000
R05  20570792.266 6 109962818.783 6       760.629          41.000    20570801.070 5  85526588.466 5       591.600          31.000
R06  22250527.508 6 118733093.573 6      4184.129          40.000
R10  23342731.758 4 124429895.198 4     -4221.590          29.000
R11  21329420.188 5 113977968.248 5     -1613.469          31.000    21329415.492 4  88649503.813 4     -1254.926          27.000
C05  39614476.148 5 206282972.044 5        -8.891          35.000    39614478.859 6 159511091.376 6        -6.700          37.000
C19  22652567.938 8 117957918.328 8       845.168          49.000
C20  25042976.992 5 130405333.227 5     -1999.203          33.000
C22  24658498.398 6 128403328.149 6      3223.562          39.000
C26  25500098.938 7 132785699.419 7     -2840.102          47.000
C29  24738106.938 4 128817803.196 4     -2478.961          29.000
E04  27379596.930 7 143880729.218 7      2923.949          44.000
E12  22256947.188 7 116961081.620 7     -1144.906          45.000    22256947.219 7  89619483.234 7      -877.398          46.000
E24  24194279.297 7 127141788.370 7     -2817.887          44.000    24194295.750 7  97420366.764 7     -2159.148          43.000
> 2020 05 01 17 04 30.0000000  0 16        .000000000000
G10  20927223.016 8 109973310.745 8       267.207          51.000    20927224.922 8  85693510.906 8       208.213          51.000
G16  21868110.703 8 114917699.718 8     -2844.562          49.000    21868110.531 7  89546260.890 7     -2216.545          43.000
G26  23941876.250 5 125815407.551 5     -3674.953          35.000    23941884.508 5  98037996.899 5     -2863.603          35.000
G27  20284336.117 8 106594892.250 8       176.652          51.000    20284336.719 8  83060948.534 8       137.651          51.000
R05  20566619.148 6 109940512.876 6       727.785          39.000    20566634.211 5  85509239.565 5       566.061          35.000
R06  22227048.547 6 118607800.101 6      4170.496          41.000
R10  23366518.758 4 124556695.972 4     -4230.641          28.000
R11  21338566.203 5 114026853.464 5     -1643.758          34.000    21338566.523 4  88687525.461 4     -1278.497          29.000
C05  39614545.102 5 206283331.421 5       -14.035          35.000    39614547.930 6 159511369.293 6       -10.856          37.000
C19  22647765.703 8 117932912.596 8       823.371          49.000
C20  25054549.484 5 130465587.330 5     -2016.285          30.000
C22  24639961.445 7 128306801.924 7      3212.957          43.000
C26  25516489.258 7 132871045.266 7     -2848.215          46.000
E04  27362927.875 7 143793133.424 7      2917.414          42.000
E12  22263515.602 7 116995598.951 7     -1154.707          44.000    22263515.688 7  89645931.559 7      -884.605          45.000
E24  24210403.930 7 127226521.093 7     -2829.371          44.000    24210416.078 7  97485291.780 7     -2167.702          42.000
> 2020 05 01 17 05  0.0000000  0 17        .000000000000
G10  20925755.945 8 109965601.782 8       248.520          51.000    20925758.148 8  85687503.938 8       193.652          51.000
G16  21884389.742 8 115003245.609 8     -2856.934          50.000    21884389.117 7  89612920.008 7     -2226.182          43.000
G26  23962865.781 5 125925700.164 5     -3676.492          35.000    23962873.320 5  98123939.143 5     -2864.805          35.000
G27  20283370.484 8 106589817.587 8       163.273          51.000    20283371.094 8  83056994.249 8       127.226          51.000
R05  20562615.523 6 109919103.968 6       701.113          38.000    20562625.977 6  85492588.172 6       545.310          36.000
R06  22203629.391 6 118482829.540 6      4162.449          40.000
R10  23390336.180 4 124683653.312 4     -4233.414          28.000
R11  21347866.062 6 114076537.633 6     -1667.047          36.000
C05  39614628.859 5 206283767.463 5       -13.734          35.000    39614631.680 6 159511705.446 6       -10.285          37.000
C19  22643074.062 8 117908482.659 8       807.012          48.000
C22  24621472.367 7 128210519.720 7      3207.598          45.000
C24  25182430.547 6 131131544.337 6     -1233.918          37.000
C26  25532909.453 7 132956547.342 7     -2850.289          44.000
C29  24766766.781 5 128967058.026 5     -2491.375          30.000
E04  27346279.281 7 143705649.213 7      2916.668          42.000
E12  22270122.773 7 117030320.030 7     -1158.438          45.000    22270122.906 7  89672536.032 7      -887.577          45.000
E24  24226578.641 7 127311514.802 7     -2834.941          45.000    24226587.367 6  97550416.795 6     -2172.306          41.000
> 2020 05 01 17 05 30.0000000  0 17        .000000000000
G10  20924374.523 8 109958343.547 8       230.785          51.000    20924377.109 8  85681848.190 8       179.833          51.000
G16  21900717.617 8 115089048.194 8     -2867.910          50.000    21900716.852 7  89679779.153 7     -2234.735          45.000
G26  23983844.906 5 126035944.955 5     -3677.156          35.000    23983852.273 5  98209844.045 5     -2865.317          35.000
G27  20282460.664 8 106585036.100 8       150.824          51.000    20282461.203 8  83053268.419 8       117.525          51.000
R05  20558742.188 6 109898391.177 6       675.285          38.000    20558753.117 6  85476478.311 6       525.222          36.000
R06  22180233.109 6 118357985.001 6      4155.406          38.000
R11  21357276.930 4 114126816.254 4     -1690.008          29.000
C05  39614689.492 5 206284083.123 5       -12.500          35.000    39614692.359 6 159511949.571 6        -9.340          37.000
C19  22638455.164 7 117884432.317 7       791.660          47.000
C20  25077914.922 5 130587283.952 5     -2040.984          30.000
C22  24602992.703 7 128114286.846 7      3203.398          45.000
C24  25189565.812 5 131168687.412 5     -1246.711          33.000
C26  25549320.992 6 133042006.213 6     -2851.680          41.000
C29  24781114.367 4 129041767.993 4     -2494.645          27.000
E04  27329614.344 7 143618079.881 7      2916.602          42.000
E12  22276730.922 7 117065045.882 7     -1161.082          44.000    22276730.844 7  89699144.158 7      -889.684          44.000
E24  24242764.555 7 127396568.806 7     -2839.609          43.000    24242771.766 6  97615588.015 6     -2175.838          41.000
> 2020 05 01 17 06  0.0000000  0 16        .000000000000
G10  20923092.633 8 109951608.459 8       214.199          51.000    20923095.461 8  85676600.076 8       166.908          51.000
G16  21917107.773 8 115175177.971 8     -2878.027          50.000    21917106.836 7  89746893.227 7     -2242.619          44.000
G26  24004828.539 6 126146211.631 6     -3676.930          37.000    24004832.578 6  98295766.174 6     -2865.137          37.000
G27  20281620.625 8 106580621.121 8       139.523          51.000    20281620.961 8  83049828.178 8       108.720          51.000
R04  22774649.641 5 121957196.806 5     -2975.164          32.000
R05  20555013.734 6 109878449.125 6       650.359          38.000    20555021.758 6  85460967.928 6       505.835          36.000
R06  22156872.484 5 118233344.246 5      4149.539          34.000
R11  21366811.969 5 114177760.218 5     -1710.770          33.000
C05  39614740.867 5 206284351.269 5        -9.027          35.000    39614743.633 6 159512156.207 6        -7.506          37.000
C19  22633922.906 7 117860834.118 7       777.520          46.000
C22  24584536.359 7 128018177.525 7      3200.160          44.000
C24  25196775.086 5 131206196.897 5     -1257.484          30.000
C26  25565736.961 6 133127491.104 6     -2851.695          38.000
E04  27312947.133 7 143530499.894 7      2917.922          43.000
E12  22283353.844 7 117099848.701 7     -1162.840          45.000    22283353.125 7  89725811.259 7      -891.160          44.000
E24  24258974.703 7 127481753.706 7     -2843.238          43.000    24258982.227 6  97680859.497 6     -2178.540          40.000
> 2020 05 01 17 06 30.0000000  0 16        .000000000000
G10  20921926.758 8 109945482.866 8       194.035          51.000    20921929.672 8  85671826.874 8       151.196          51.000
G16  21933576.203 8 115261719.071 8     -2891.395          49.000    21933574.883 7  89814327.816 7     -2253.035          45.000
G20  21692529.633 6 113994999.809 6     -2079.223          36.000
G26  24025832.070 5 126256584.237 5     -3680.469          35.000    24025835.594 6  98381770.698 6     -2867.904          36.000
G27  20280866.867 8 106576659.907 8       124.602          51.000    20280867.055 8  83046741.524 8        97.092          51.000
R04  22791374.102 5 122046750.977 5     -2994.980          35.000
R06  22133567.375 6 118108999.009 6      4139.777          36.000
C05  39614799.367 5 206284655.642 5       -10.352          35.000    39614802.031 6 159512391.528 6        -8.331          37.000
C19  22629494.086 7 117837774.422 7       759.715          47.000
C22  24566120.008 6 127922279.708 6      3193.211          41.000
C24  25204071.125 5 131244157.298 5     -1272.926          32.000
C26  25582172.273 6 133213085.287 6     -2855.090          37.000
C29  24809864.070 5 129191455.373 5     -2500.832          33.000
E04  27296295.070 7 143442997.641 7      2915.590          43.000
E12  22290007.812 7 117134814.658 7     -1168.113          44.000    22290006.703 7  89752603.354 7      -895.108          44.000
E24  24275225.531 7 127567153.916 7     -2850.168          43.000    24275233.734 6  97746295.972 6     -2183.775          39.000
> 2020 05 01 17 07  0.0000000  0 17        .000000000000
G10  20920906.133 8 109940120.002 8       167.777          51.000    20920909.125 8  85667648.010 8       130.736          51.000
G16  21950151.367 8 115348822.282 8     -2911.047          48.000    21950150.141 7  89882200.422 7     -2268.348          46.000
G26  24046884.430 5 126367213.577 5     -3690.254          35.000    24046887.586 5  98467975.227 5     -2875.532          35.000
G27  20280228.750 8 106573306.658 8       103.324          51.000    20280228.875 8  83044128.594 8        80.512          51.000
R04  22808238.680 6 122137057.891 6     -3020.859          37.000    22808237.117 4  94995497.414 4     -2349.557          28.000
R05  20548079.844 6 109841265.134 6       586.781          40.000    20548070.195 5  85432063.907 5       456.379          31.000
R06  22110349.961 6 117985109.766 6      4123.824          40.000
R11  21386335.062 5 114282082.716 5     -1766.379          32.000
C05  39614894.156 5 206285149.206 5       -17.992          35.000    39614896.836 6 159512773.177 6       -13.511          37.000
C19  22625198.617 8 117815405.963 8       735.805          48.000
C20  25113529.055 5 130772732.021 5     -2086.098          33.000
C22  24547770.977 6 127826747.786 6      3180.094          37.000
C26  25598659.250 6 133298938.096 6     -2864.566          40.000
C29  24824314.906 5 129266701.678 5     -2511.148          30.000
E04  27279687.766 7 143355728.476 7      2906.922          42.000    27279685.492 6 109843983.922 6      2227.325          37.000
E12  22296721.906 7 117170096.845 7     -1179.527          44.000    22296720.562 7  89779637.749 7      -903.722          44.000
E24  24291545.969 7 127652920.880 7     -2863.254          42.000    24291554.891 6  97812013.502 6     -2193.967          38.000
> 2020 05 01 17 07 30.0000000  0 18        .000000000000
G10  20919977.203 8 109935238.652 8       153.469          51.000    20919980.141 8  85663844.364 8       119.586          51.000
G16  21966779.023 7 115436203.440 7     -2918.586          47.000    21966778.602 7  89950289.612 7     -2274.223          46.000
G21  24709054.328 5 129846933.039 5     -2605.961          34.000
G26  24067931.039 5 126477815.975 5     -3687.543          35.000    24067932.703 5  98554158.855 5     -2873.407          34.000
G27  20279652.961 8 106570281.074 8        94.012          51.000    20279653.047 8  83041770.994 8        73.256          51.000
R04  22825189.961 5 122227827.412 5     -3034.277          33.000    22825187.281 4  95066095.941 4     -2359.993          29.000
R05  20544829.172 5 109823932.256 5       563.402          30.000    20544830.625 5  85418582.933 5       438.220          33.000
R06  22087166.180 7 117861395.432 7      4119.480          42.000
R10  23509553.656 5 125319149.442 5     -4243.879          30.000
R11  21396276.844 4 114335233.961 4     -1785.340          28.000
C05  39614971.852 6 206285553.371 6       -13.242          36.000    39614974.445 6 159513085.709 6        -9.998          37.000
C19  22620982.664 8 117793450.932 8       723.656          49.000
C20  25125556.680 5 130835354.920 5     -2093.586          35.000
C22  24529438.992 6 127731305.467 6      3178.582          40.000
C26  25615143.125 6 133384768.772 6     -2861.910          41.000
E04  27263071.914 7 143268413.288 7      2909.863          43.000    27263070.977 6 109777080.138 6      2229.803          39.000
E12  22303442.484 7 117205413.973 7     -1179.191          44.000    22303441.258 7  89806698.919 7      -903.369          44.000
E24  24307882.461 6 127738771.586 6     -2864.531          40.000    24307892.078 6  97877795.181 6     -2194.945          37.000
> 2020 05 01 17 08  0.0000000  0 16        .000000000000
G10  20919152.406 8 109930903.940 8       135.852          51.000    20919154.922 8  85660466.673 8       105.858          51.000
G16  21983471.383 7 115523925.621 7     -2929.336          47.000    21983471.969 7  90018644.557 7     -2282.599          45.000
G21  24723925.797 5 129925090.332 5     -2603.684          34.000
G26  24088984.727 5 126588454.255 5     -3687.566          32.000    24088984.523 5  98640370.408 5     -2873.437          33.000
G27  20279152.086 8 106567649.215 8        81.734          51.000    20279152.203 8  83039720.201 8        63.689          51.000
R05  20541730.656 6 109807399.171 6       538.191          39.000    20541738.344 4  85405723.794 4       418.578          25.000
R06  22064028.672 7 117737926.443 7      4111.965          44.000
C05  39615044.695 5 206285932.911 5       -11.672          35.000    39615047.289 6 159513379.225 6        -9.267          37.000
C19  22616858.695 8 117771974.656 8       708.324          49.000
C20  25137652.766 6 130898334.100 6     -2105.230          37.000
C22  24511140.812 7 127636019.641 7      3174.105          44.000
C24  25226466.711 4 131360822.662 4     -1315.074          27.000
C26  25631634.617 6 133470639.428 6     -2862.742          38.000
E04  27246459.977 7 143181119.310 7      2909.965          43.000    27246460.289 6 109710192.632 6      2229.845          41.000
E12  22310182.008 7 117240831.026 7     -1181.613          44.000    22310181.055 7  89833836.695 7      -905.497          44.000
E24  24324247.578 7 127824769.369 7     -2868.586          42.000    24324257.961 6  97943689.553 6     -2197.729          36.000
> 2020 05 01 17 08 30.0000000  0 16        .000000000000
G10  20918433.750 8 109927126.327 8       116.074          51.000    20918435.820 8  85657523.100 8        90.450          51.000
G16  22000230.672 8 115611997.393 8     -2942.098          48.000    22000231.961 7  90087271.910 7     -2292.544          45.000
G21  24738793.750 5 130003223.441 5     -2604.969          31.000
G26  24110046.961 5 126699136.530 5     -3690.480          33.000    24110046.156 5  98726616.237 5     -2875.699          33.000
G27  20278728.305 8 106565422.560 8        66.988          51.000    20278728.422 8  83037985.141 8        52.199          51.000
R05  20538789.156 6 109791677.384 6       510.379          38.000    20538796.891 5  85393491.792 5       396.964          31.000
R06  22040940.219 7 117614717.987 7      4102.258          45.000
R11  21416577.461 5 114443705.908 5     -1831.047          31.000    21416587.391 4  89011800.101 4     -1424.148          28.000
C05  39615114.742 5 206286298.307 5       -12.195          35.000    39615117.453 6 159513661.765 6        -9.442          37.000
C19  22612828.586 8 117750988.359 8       690.859          49.000
C20  25149818.953 6 130961678.309 6     -2117.934          37.000
C22  24492876.227 7 127540903.290 7      3167.074          47.000
C26  25648135.000 5 133556558.129 5     -2865.613          32.000
E04  27229854.336 7 143093859.238 7      2907.453          42.000    27229855.305 7 109643331.131 7      2227.789          42.000
E12  22316942.562 7 117276358.453 7     -1186.551          43.000    22316941.680 7  89861059.030 7      -909.265          44.000
E24  24340642.883 7 127910922.994 7     -2874.988          43.000    24340654.719 5  98009703.297 5     -2202.994          35.000
> 2020 05 01 17 09  0.0000000  0 15        .000000000000
G10  20917816.258 8 109923880.193 8        97.566          51.000    20917818.008 8  85654993.653 8        76.026          51.000
G16  22017051.602 8 115700390.287 8     -2953.578          49.000    22017052.805 7  90156149.467 7     -2301.489          46.000
G21  24753651.602 5 130081306.274 5     -2603.422          32.000
G26  24131111.922 5 126809834.799 5     -3692.152          30.000    24131111.398 5  98812874.503 5     -2877.011          31.000
G27  20278376.930 8 106563576.416 8        53.379          51.000    20278377.008 8  83036546.587 8        41.594          51.000
R04  22876623.031 4 122503286.073 4     -3087.609          28.000
R05  20535994.312 6 109776741.944 6       483.055          36.000    20535998.703 4  85381867.139 4       375.706          29.000
R06  22017896.508 7 117491748.914 7      4093.188          45.000
C05  39615177.219 5 206286623.408 5       -11.805          35.000    39615180.023 6 159513913.939 6        -9.204          37.000
C19  22608888.203 8 117730467.516 8       674.441          50.000
C20  25162049.273 6 131025360.451 6     -2130.195          36.000
C22  24474639.664 8 127445933.479 8      3161.457          49.000
E04  27213250.711 7 143006609.574 7      2906.359          43.000    27213251.742 6 109576477.600 6      2226.930          41.000
E12  22323719.391 7 117311970.543 7     -1190.219          43.000    22323718.727 7  89888346.226 7      -912.123          44.000
E24  24357062.711 7 127997205.019 7     -2879.863          44.000    24357076.070 6  98075815.401 6     -2206.906          36.000
> 2020 05 01 17 09 30.0000000  0 16        .000000000000
G10  20917317.539 8 109921258.564 8        78.062          51.000    20917319.070 8  85652950.857 8        60.828          51.000
G16  22033951.133 8 115789195.060 8     -2965.879          50.000    22033951.578 7  90225347.939 7     -2311.074          45.000
G21  24768517.945 5 130159432.057 5     -2604.004          34.000
G26  24152197.539 5 126920652.892 5     -3694.031          33.000    24152197.156 5  98899208.009 5     -2878.469          33.000
G27  20278115.734 8 106562204.847 8        38.715          51.000    20278115.836 8  83035477.858 8        30.167          51.000
R04  22893980.422 4 122596210.710 4     -3106.246          29.000    22893977.102 4  95352596.573 4     -2415.969          26.000
R05  20533365.609 6 109762688.714 6       454.699          39.000    20533372.672 5  85370936.870 5       353.652          33.000
R06  21994915.500 7 117369118.356 7      4083.125          43.000
R11  21437389.656 5 114554896.142 5     -1877.582          32.000    21437391.305 5  89098269.890 5     -1460.342          33.000
C05  39615250.086 5 206287002.678 5       -12.758          35.000    39615252.867 6 159514207.224 6        -9.494          37.000
C19  22605054.992 8 117710505.211 8       657.086          49.000
C20  25174362.008 5 131089471.081 5     -2142.824          34.000
C22  24456449.250 8 127351204.965 8      3154.664          51.000
E04  27196667.398 7 142919465.685 7      2904.199          45.000    27196667.828 7 109509705.071 7      2225.307          42.000
E12  22330530.070 7 117347760.365 7     -1194.777          43.000    22330529.430 7  89915769.590 7      -915.607          43.000
E24  24373524.578 7 128083706.829 7     -2886.082          44.000    24373537.789 6  98142095.912 6     -2211.333          36.000
> 2020 05 01 17 10  0.0000000  0 17        .000000000000
G10  20916931.781 8 109919230.831 8        54.188          51.000    20916932.820 8  85651370.805 8        42.224          51.000
G16  22050922.664 8 115878378.792 8     -2982.598          49.000    22050922.242 7  90294841.707 7     -2324.102          44.000
G21  24783387.477 5 130237569.490 5     -2608.547          35.000
G26  24173297.086 5 127031531.719 5     -3700.332          32.000    24173296.039 5  98985607.022 5     -2883.379          33.000
G27  20277939.125 8 106561278.254 8        19.965          51.000    20277939.430 8  83034755.836 8        15.557          51.000
R05  20530897.164 6 109749487.475 6       422.234          38.000    20530902.445 5  85360669.127 5       328.395          34.000
R06  21971991.766 7 117246799.584 7      4068.461          42.000
R11  21448007.680 6 114611659.384 6     -1905.238          38.000    21448003.672 5  89142366.166 5     -1481.852          32.000
C05  39615327.336 5 206287405.046 5       -17.469          35.000    39615330.000 6 159514518.348 6       -13.173          38.000
C19  22601323.031 8 117691071.871 8       635.477          48.000
C20  25186750.148 4 131154017.285 4     -2160.449          28.000
C22  24438299.594 8 127256689.958 8      3143.480          51.000
C24  25257394.789 5 131521887.852 5     -1373.957          30.000
C26  25697707.875 4 133814699.017 4     -2875.406          28.000
E04  27180098.969 7 142832399.123 7      2897.395          45.000    27180099.016 7 109442991.796 7      2220.156          44.000
E12  22337368.516 7 117383697.271 7     -1203.828          43.000    22337367.914 7  89943305.659 7      -922.342          43.000
E24  24390022.180 7 128170396.018 7     -2896.289          42.000    24390034.273 6  98208519.994 6     -2219.297          39.000
> 2020 05 01 17 10 30.0000000  0 15        .000000000000
G10  20916656.766 8 109917785.314 8        40.387          51.000    20916657.828 8  85650244.442 8        31.470          51.000
G16  22067963.555 8 115967927.956 8     -2989.223          49.000    22067962.531 7  90364620.252 7     -2329.267          44.000
G20  21790209.594 6 114508275.271 6     -2194.043          38.000
G21  24798257.086 6 130315706.982 6     -2602.621          37.000
G26  24194407.633 5 127142470.572 5     -3697.031          31.000    24194406.398 5  99072052.756 5     -2880.813          31.000
G27  20277845.148 8 106560786.015 8        11.047          51.000    20277845.805 8  83034372.255 8         8.608          51.000
R05  20528585.992 5 109737127.476 5       399.887          34.000    20528590.797 6  85351055.764 6       311.023          37.000
R06  21949125.430 6 117124785.231 6      4063.824          41.000
R11  21458744.820 6 114669055.287 6     -1922.980          37.000    21458745.875 4  89187018.052 4     -1495.648          25.000
C05  39615406.836 5 206287819.108 5       -12.023          35.000    39615409.477 6 159514838.554 6        -9.361          37.000
C19  22597690.391 7 117672156.838 7       623.602          46.000
C22  24420188.984 8 127162379.490 8      3142.078          51.000
E04  27163543.453 7 142745400.435 7      2900.598          45.000    27163543.867 7 109376330.535 7      2222.476          46.000
E12  22344232.680 7 117419769.628 7     -1202.945          42.000    22344232.188 7  89970945.513 7      -921.731          43.000
E24  24406552.719 6 128257259.255 6     -2896.504          38.000    24406564.188 6  98275077.445 6     -2219.462          41.000
> 2020 05 01 17 11  0.0000000  0 15        .000000000000
G10  20916480.922 8 109916861.141 8        20.223          51.000    20916482.047 8  85649524.325 8        15.758          51.000
G16  22085061.836 8 116057778.783 8     -3001.910          50.000    22085060.633 7  90434633.872 7     -2339.151          44.000
G20  21802774.812 6 114574308.271 6     -2209.266          38.000
G21  24813115.289 5 130393783.761 5     -2603.477          34.000
G26  24215517.484 5 127253404.268 5     -3699.078          32.000    24215517.289 5  99158496.055 5     -2882.402          32.000
G27  20277822.555 8 106560668.249 8        -4.180          51.000    20277823.555 8  83034280.489 8        -3.257          51.000
R05  20526421.219 5 109725547.613 5       371.402          31.000    20526424.461 6  85342049.241 6       288.878          37.000
R06  21926306.477 7 117003018.693 7      4052.852          43.000
R11  21469598.344 5 114727086.567 5     -1947.273          32.000    21469618.820 4  89232205.038 4     -1514.555          26.000
C05  39615477.289 5 206288184.984 5       -12.902          35.000    39615479.742 6 159515121.469 6       -10.249          37.000
C19  22594145.219 7 117653700.658 7       605.500          45.000
C22  24402106.414 8 127068215.844 8      3134.379          51.000
E04  27146990.047 7 142658411.083 7      2897.445          45.000    27146990.969 7 109309676.425 7      2220.192          47.000
E12  22351110.922 6 117455916.613 6     -1208.152          41.000    22351110.227 7  89998642.577 7      -925.658          42.000
E24  24423104.734 5 128344280.988 5     -2902.996          31.000    24423115.602 7  98341720.364 7     -2224.416          42.000
> 2020 05 01 17 11 30.0000000  0 17        .000000000000
G10  20916416.492 8 109916522.966 8         1.602          51.000    20916417.555 8  85649260.835 8         1.248          51.000
G16  22102229.555 8 116147993.971 8     -3013.148          51.000    22102228.117 7  90504931.396 7     -2347.911          44.000
G21  24827974.000 5 130471864.348 5     -2602.906          32.000
G26  24236639.133 5 127364399.362 5     -3701.160          33.000    24236638.188 4  99244985.698 4     -2884.018          28.000
G27  20277883.805 8 106560990.703 8       -18.078          51.000    20277885.109 8  83034531.752 8       -14.087          51.000
R05  20524414.602 5 109714815.132 5       344.074          33.000    20524416.836 6  85333701.591 6       267.607          40.000
R06  21903547.516 7 116881569.575 7      4042.867          44.000
R11  21480583.602 5 114785815.441 5     -1969.320          30.000
C05  39615550.680 5 206288567.990 5       -13.098          35.000    39615553.047 6 159515416.865 6       -10.095          37.000
C19  22590701.641 8 117635768.290 8       589.059          48.000
C20  25224338.141 5 131349708.172 5     -2193.184          34.000
C22  24384064.711 8 126974265.665 8      3128.117          51.000
C24  25281413.062 5 131646959.886 5     -1409.676          32.000
C29  24955187.984 4 129948212.768 4     -2542.695          27.000
E04  27130451.250 7 142571497.977 7      2895.977          46.000    27130452.891 8 109243080.741 8      2218.944          48.000
E12  22358015.680 6 117492202.995 6     -1211.629          40.000    22358014.484 6  90026446.430 6      -928.394          41.000
E24                                                                  24439700.047 7  98408497.011 7     -2227.995          42.000
> 2020 05 01 17 12  0.0000000  0 17        .000000000000
G10  20916462.180 8 109916763.215 8       -16.363          51.000    20916463.133 8  85649448.069 8       -12.751          51.000
G16  22119464.758 8 116238563.950 8     -3023.902          51.000    22119463.031 7  90575505.374 7     -2356.291          45.000
G20  21828129.023 5 114707593.773 5     -2235.441          30.000
G21  24842831.836 5 130549941.207 5     -2600.043          31.000
G26  24257770.070 5 127475443.986 5     -3701.246          32.000    24257767.508 4  99331513.819 4     -2884.082          28.000
G27  20278027.648 8 106561746.827 8       -31.215          51.000    20278029.195 8  83035120.918 8       -24.323          51.000
R05  20522569.273 4 109704888.578 4       316.496          28.000    20522566.609 6  85326018.168 6       246.164          40.000
R06  21880847.844 7 116760435.498 7      4033.645          45.000
C05  39615625.875 5 206288958.959 5       -11.812          35.000    39615628.125 6 159515719.179 6        -9.267          37.000
C19  22587357.648 8 117618353.023 8       573.066          48.000
C20  25237005.305 5 131415678.936 5     -2204.465          35.000
C22  24366062.836 8 126880524.049 8      3122.273          50.000
C24  25289574.117 4 131689443.715 4     -1422.285          29.000
C29  24969852.656 4 130024554.754 4     -2544.617          29.000
E04  27113925.906 7 142484655.906 7      2894.883          47.000    27113928.164 8 109176539.465 8      2218.118          48.000
E12  22364945.781 6 117528621.296 6     -1214.805          40.000    22364944.312 7  90054351.366 7      -930.860          42.000
E24  24456294.789 5 128518705.499 5     -2912.660          33.000    24456315.859 7  98475400.335 7     -2231.240          43.000
> 2020 05 01 17 12 30.0000000  0 17        .000000000000
G10  20916614.922 8 109917566.142 8       -35.723          51.000    20916615.445 8  85650073.753 8       -27.833          51.000
G16  22136763.812 8 116329470.301 8     -3035.422          51.000    22136762.141 7  90646341.458 7     -2365.264          46.000
G20  21840924.102 5 114774864.955 5     -2249.043          35.000
G21  24857685.680 5 130627998.855 5     -2601.332          33.000
G26  24278907.469 5 127586520.187 5     -3702.680          32.000    24278903.727 4  99418066.540 4     -2885.208          29.000
G27  20278251.320 8 106562921.980 8       -45.715          51.000    20278252.797 8  83036036.613 8       -35.622          51.000
R05  20520874.188 5 109695802.255 5       288.934          35.000    20520872.086 6  85318963.576 6       224.723          41.000
R06  21858204.625 7 116639605.042 7      4023.121          43.000
R11  21502964.906 5 114905318.409 5     -2013.582          33.000
C05  39615699.742 5 206289343.620 5       -12.266          35.000    39615702.047 6 159516016.590 6        -9.252          37.000
C19  22584109.531 8 117601440.086 8       555.707          49.000
C20  25249740.250 6 131482007.372 6     -2216.504          36.000
C22  24348097.828 8 126786978.132 8      3115.371          48.000
C24  25297809.742 4 131732313.965 4     -1434.613          28.000
E04  27097411.250 7 142397871.476 7      2892.375          46.000    27097414.211 8 109110042.362 8      2216.131          48.000
E12  22371897.961 6 117565155.863 6     -1219.316          39.000    22371896.953 7  90082345.399 7      -934.254          42.000
E24  24472942.344 5 128606175.923 5     -2917.473          34.000    24472959.891 7  98542417.019 7     -2235.421          44.000
> 2020 05 01 17 13  0.0000000  0 14        .000000000000
G10  20916871.656 8 109918915.449 8       -55.609          51.000    20916871.781 8  85651125.185 8       -43.329          51.000
G16  22154123.219 8 116420694.766 8     -3047.773          51.000    22154121.984 7  90717425.430 7     -2374.888          47.000
G20  21853803.516 6 114842540.402 6     -2263.613          36.000
G21  24872533.156 5 130706020.959 5     -2601.555          34.000
G27  20278551.820 8 106564500.979 8       -61.016          51.000    20278553.219 8  83037266.998 8       -47.545          51.000
R05  20519326.117 6 109687544.767 6       260.090          39.000    20519324.812 6  85312541.116 6       202.286          40.000
R06  21835616.039 7 116519066.862 7      4011.406          44.000
C05  39615769.336 6 206289706.277 6       -13.418          36.000    39615771.727 6 159516296.052 6       -10.131          37.000
C19  22580955.656 8 117585014.347 8       537.805          51.000
C20  25262540.070 6 131548675.882 6     -2228.938          36.000
C22  24330166.305 7 126693614.478 7      3107.527          46.000
E04  27080904.500 7 142311130.773 7      2888.949          45.000    27080908.398 7 109043578.783 7      2213.616          47.000
E12  22378869.250 6 117601790.647 6     -1224.488          39.000    22378868.688 6  90110416.217 6      -938.148          41.000
E24  24489613.945 5 128693768.505 5     -2923.316          34.000    24489628.219 7  98609533.399 7     -2240.034          44.000
> 2020 05 01 17 13 30.0000000  0 16        .000000000000
G10  20917251.125 8 109920910.166 8       -76.387          51.000    20917251.656 8  85652679.538 8       -59.522          51.000
G11  22830674.539 6 119976012.847 6      3051.875          36.000
G16  22171561.492 8 116512334.414 8     -3060.812          51.000    22171560.977 7  90788832.927 7     -2385.049          46.000
G21  24887392.469 5 130784106.237 5     -2603.195          32.000
G27  20278948.180 8 106566583.895 8       -77.027          51.000    20278949.742 8  83038890.037 8       -60.021          51.000
R05  20517950.859 5 109680198.647 5       231.664          31.000    20517952.805 6  85306827.483 6       180.198          40.000
R06  21813101.898 7 116398925.577 7      3998.844          44.000
R11  21525835.172 5 115027536.945 5     -2060.797          34.000
C05                                                                  39615855.969 6 159516635.634 6       -11.720          37.000
C19  22577914.008 8 117569174.693 8       518.996          49.000
C20  25275424.602 5 131615781.021 5     -2243.246          34.000
C22  24312289.180 8 126600533.772 8      3098.770          48.000
C24  25314497.180 5 131819231.014 5     -1463.566          35.000
E04  27064425.523 7 142224535.153 7      2884.844          44.000    27064429.711 7 108977226.373 7      2210.483          47.000
E12  22385878.727 6 117638624.833 6     -1230.191          41.000    22385877.945 7  90138639.783 7      -942.707          42.000
E24  24506327.906 5 128781615.696 5     -2930.594          35.000    24506339.914 7  98676824.093 7     -2245.197          44.000
> 2020 05 01 17 14  0.0000000  0 18        .000000000000
G10  20917731.234 8 109923434.220 8       -93.098          51.000    20917732.383 8  85654646.348 8       -72.544          51.000
G11  22813253.336 5 119884462.108 5      3050.070          31.000
G16  22189056.273 8 116604270.659 8     -3069.621          50.000    22189056.273 7  90860471.551 7     -2391.913          47.000
G21  24902241.609 4 130862138.887 4     -2600.977          29.000
G27  20279418.641 8 106569055.820 8       -89.121          51.000    20279420.352 8  83040816.190 8       -69.445          51.000
R04  23054599.539 5 123456300.622 5     -3261.895          32.000    23054603.484 4  96021592.079 4     -2537.029          27.000
R05  20516724.047 6 109673646.699 6       205.141          40.000    20516727.117 6  85301731.398 6       159.548          38.000
R06  21790640.945 7 116279068.345 7      3990.168          44.000
R11  21537455.719 6 115089644.591 6     -2080.703          36.000    21537445.906 4  89514124.024 4     -1618.331          25.000
R21  20168884.727 5 107927738.064 5      1457.344          31.000
C05  39615930.664 5 206290546.457 5       -12.672          35.000    39615933.008 6 159516945.742 6        -9.989          37.000
C19  22574963.148 8 117553807.017 8       504.141          49.000
C20  25288371.914 5 131683206.261 5     -2252.812          34.000
C22  24294446.531 8 126507623.675 8      3094.047          50.000
C24  25322963.430 5 131863285.397 5     -1473.758          31.000
E04  27047952.852 7 142137971.047 7      2884.762          44.000    27047956.750 7 108910898.083 7      2210.363          46.000
E12  22392904.188 7 117675542.491 7     -1232.184          42.000    22392903.102 7  90166927.337 7      -944.075          42.000
E24  24523062.094 6 128869545.695 6     -2932.992          36.000    24523072.781 7  98744198.998 7     -2247.403          44.000
> 2020 05 01 17 14 30.0000000  0 14        .000000000000
G10  20918309.391 8 109926473.850 8      -111.645          51.000    20918310.867 8  85657014.896 8       -86.996          51.000
G16  22206604.500 8 116696487.546 8     -3080.188          50.000    22206604.805 7  90932328.850 7     -2400.146          47.000
G27  20279960.836 8 106571904.103 8      -102.961          51.000    20279962.281 8  83043035.630 8       -80.229          51.000
R04  23072913.156 5 123554380.354 5     -3278.465          35.000
R05  20515642.273 6 109667849.501 6       177.461          36.000    20515647.438 6  85297241.809 6       138.028          36.000
R06  21768230.992 7 116159485.813 7      3979.984          42.000
C05  39615997.898 6 206290896.259 6       -12.414          36.000    39616000.102 6 159517216.255 6        -9.793          37.000
C19  22572100.031 7 117538898.579 7       487.605          47.000
C20  25301378.969 5 131750936.534 5     -2264.668          32.000
C22  24276635.289 8 126414873.389 8      3087.309          50.000
E04  27031483.938 7 142051427.156 7      2882.828          43.000    27031487.477 7 108844585.301 7      2208.860          45.000
E11  23151302.156 5 121660913.146 5       992.480          31.000
E12  22399943.016 6 117712530.174 6     -1235.508          41.000    22399941.727 6  90195268.562 6      -947.041          41.000
E24  24539814.336 6 128957570.333 6     -2937.281          38.000    24539823.617 7  98811646.429 7     -2250.734          42.000
> 2020 05 01 17 15  0.0000000  0 17        .000000000000
G10  20919020.352 8 109930211.412 8      -133.035          51.000    20919022.570 8  85659927.278 8      -103.664          51.000
G11  22778483.859 6 119701764.508 6      3039.410          36.000
G16  22224240.492 8 116789165.351 8     -3093.699          50.000    22224240.734 7  91004545.289 7     -2410.675          46.000
G21  24931936.648 5 131018216.391 5     -2602.145          31.000
G27  20280609.531 8 106575312.263 8      -119.727          51.000    20280610.680 8  83045691.341 8       -93.293          51.000
R04  23091345.359 4 123653091.009 4     -3297.645          28.000
R05  20514751.898 6 109663045.692 6       147.246          40.000    20514751.086 5  85293505.335 5       114.519          34.000
R06  21745907.594 6 116040368.561 6      3965.984          40.000
C05  39616090.039 5 206291375.963 5       -14.973          35.000    39616092.125 6 159517587.173 6       -11.677          37.000
C19  22569359.953 7 117524630.957 7       468.105          46.000
C20  25314479.781 5 131819151.013 5     -2279.410          32.000
C22  24258889.844 8 126322466.299 8      3077.680          49.000
C24  25340097.320 5 131952544.547 5     -1501.996          31.000
E04  27015054.000 7 141965088.260 7      2877.863          43.000    27015057.164 7 108778429.586 7      2205.008          45.000
E11  23145666.883 5 121631292.110 5       986.406          34.000
E12  22407029.961 6 117749770.514 6     -1242.406          41.000    22407028.375 7  90223803.301 7      -951.830          42.000
E24  24556618.695 6 129045870.432 6     -2944.637          40.000    24556627.367 7  98879304.913 7     -2256.127          42.000
> 2020 05 01 17 15 30.0000000  0 17        .000000000000
G10  20919818.953 8 109934407.807 8      -149.797          51.000    20919821.578 8  85663197.194 8      -116.725          51.000
G11  22761135.117 5 119610573.092 5      3036.883          35.000
G16  22241918.391 8 116882062.970 8     -3102.340          49.000    22241918.117 7  91076933.008 7     -2417.411          44.000
G21  24946772.438 5 131096176.852 5     -2599.691          32.000
G27  20281319.414 8 106579042.376 8      -131.965          51.000    20281320.539 8  83048597.916 8      -102.830          51.000
R05  20513982.508 6 109658994.619 6       121.484          36.000    20513986.492 5  85290332.727 5        94.488          33.000
R06  21723627.039 6 115921478.269 6      3957.031          39.000
R11  21573053.312 5 115279854.629 5     -2146.770          32.000
C05  39616161.820 6 206291750.186 6       -12.914          36.000    39616163.789 6 159517875.807 6       -10.086          37.000
C19  22566697.453 7 117510768.177 7       453.242          44.000
C20  25327627.523 5 131887611.319 5     -2287.852          32.000
C22  24241164.461 7 126230168.316 7      3072.535          47.000
C24  25348761.836 5 131997676.065 5     -1512.984          31.000
E04  26998618.008 7 141878717.744 7      2877.391          44.000    26998621.266 7 108712249.663 7      2204.604          44.000
E11  23140038.070 5 121601715.982 5       983.422          34.000
E12  22414119.391 7 117787024.664 7     -1244.273          42.000    22414118.148 7  90252348.681 7      -953.452          42.000
E24  24573428.984 6 129134205.500 6     -2947.395          41.000    24573438.703 6  98946990.160 6     -2258.229          41.000
> 2020 05 01 17 16  0.0000000  0 16        .000000000000
G10  20920722.930 8 109939157.530 8      -168.184          51.000    20920725.320 8  85666898.283 8      -131.052          51.000
G16  22259655.617 8 116975272.417 8     -3112.832          49.000    22259654.742 7  91149563.704 7     -2425.583          44.000
G21  24961603.203 5 131174109.518 5     -2598.137          33.000
G27  20282108.773 8 106583190.130 8      -145.867          51.000    20282109.961 8  83051829.929 8      -113.663          51.000
R05  20513377.719 6 109655737.487 6        94.098          38.000    20513376.727 5  85287799.232 5        73.184          34.000
R06  21701408.453 6 115802915.702 6      3946.027          41.000
R11  21585157.852 6 115344547.288 6     -2167.617          39.000    21585179.047 4  89712466.157 4     -1685.924          28.000
C05  39616231.180 6 206292111.074 6       -12.738          36.000    39616233.062 6 159518154.864 6        -9.675          38.000
C19  22564130.398 7 117497404.681 7       436.410          43.000
C20  25340839.156 5 131956409.688 5     -2299.914          34.000
C22  24223477.586 7 126138075.820 7      3065.715          46.000
C24  25357509.406 5 132043221.061 5     -1524.988          31.000
E04  26982194.602 7 141792412.703 7      2875.129          45.000    26982198.172 7 108646119.887 7      2202.937          44.000
E11  23134433.867 5 121572269.707 5       979.449          33.000
E12  22421229.469 7 117824387.473 7     -1248.008          42.000    22421229.133 7  90280977.290 7      -956.083          43.000
E24  24590263.227 6 129222668.521 6     -2951.523          41.000    24590274.789 6  99014773.464 6     -2261.515          40.000
> 2020 05 01 17 16 30.0000000  0 16        .000000000000
G10  20921743.680 8 109944520.553 8      -187.926          51.000    20921746.062 8  85671077.270 8      -146.436          51.000
G16  22277462.914 8 117068851.959 8     -3124.379          48.000    22277461.898 7  91222482.800 7     -2434.584          43.000
G21  24976439.406 5 131252074.348 5     -2598.465          33.000
G27  20282989.242 8 106587816.630 8      -161.133          51.000    20282990.359 8  83055434.996 8      -125.558          51.000
R05  20512928.391 6 109653363.752 6        65.719          40.000    20512930.961 6  85285953.048 6        51.109          36.000
R06  21679263.281 6 115684746.813 6      3933.434          41.000
R11  21597396.945 5 115409937.138 5     -2189.707          34.000    21597417.922 3  89763324.741 3     -1703.112          23.000
C05  39616309.586 6 206292519.509 6       -13.324          36.000    39616311.539 6 159518470.684 6       -10.258          37.000
C19  22561671.516 7 117484600.791 7       418.559          46.000
C20  25354127.820 5 132025604.015 5     -2312.355          34.000
C22  24205842.984 7 126046251.061 7      3057.375          47.000
C24  25366339.828 5 132089191.719 5     -1538.340          30.000
C29  25102772.469 5 130716689.546 5     -2580.637          31.000
E04  26965795.344 7 141706235.577 7      2871.527          45.000    26965799.289 7 108580088.101 7      2200.243          44.000
E12  22428371.688 7 117861919.175 7     -1252.805          42.000    22428372.141 7  90309735.353 7      -959.938          43.000
E24  24607132.578 6 129311318.008 6     -2956.969          40.000    24607146.188 6  99082699.622 6     -2265.762          38.000
> 2020 05 01 17 17  0.0000000  0 15        .000000000000
G10  20922868.727 8 109950431.580 8      -206.625          51.000    20922871.102 8  85675683.283 8      -161.006          51.000
