     3.02           OBSERVATION DATA    M (MIXED)           RINEX VERSION / TYPE
SAVERINEX           SC600               20200512 115930 LCL PGM / RUN BY / DATE
       G = GPS       R = GLONASS       C = COMPASS          COMMENT
       S = SBAS      J = QZSS          E = GALILEO          COMMENT
BEAN                                                        MARKER NAME
1                                                           MARKER NUMBER
GEODETIC                                                    MARKER TYPE
Unige DICCA         GTER                                    OBSERVER / AGENCY
SC60291900056       SC600               2.12(191226)        REC # / TYPE / VERS
                    HEMA45          NONE                    ANT # / TYPE
  4509407.8091   693652.4678  4442337.6214                  APPROX POSITION XYZ
        0.0000        0.0000        0.0000                  ANTENNA: DELTA H/E/N
G    8 C1C L1C D1C S1C C2Y L2Y D2Y S2Y                      SYS / # / OBS TYPES
R    8 C1C L1C D1C S1C C2P L2P D2P S2P                      SYS / # / OBS TYPES
C    8 C1I L1I D1I S1I C7I L7I D7I S7I                      SYS / # / OBS TYPES
E    8 C1C L1C D1C S1C C7Q L7Q D7Q S7Q                      SYS / # / OBS TYPES
DBHZ                                                        COMMENT
     30.000                                                 INTERVAL
  2020    05    12    09    00    0.0000000     GPS         TIME OF FIRST OBS
  2020    05    12    09    59   30.0000000     GPS         TIME OF LAST OBS
     0                                                      RCV CLOCK OFFS APPL
G L1C  0.00000                                              SYS / PHASE SHIFT
G L2Y  0.00000                                              SYS / PHASE SHIFT
R L1C  0.00000                                              SYS / PHASE SHIFT
R L2P  0.25000                                              SYS / PHASE SHIFT
C L1I  0.00000                                              SYS / PHASE SHIFT
C L7I  0.00000                                              SYS / PHASE SHIFT
E L1C  0.50000                                              SYS / PHASE SHIFT
E L7Q -0.25000                                              SYS / PHASE SHIFT
 13 R05  1 R06 -4 R07  5 R08  6 R09 -2 R10 -7 R15  0 R16 -1 GLONASS SLOT / FRQ #
    R17  4 R18 -3 R19  3 R20  2 R21  4                      GLONASS SLOT / FRQ #
 C1C   71.950 C2C   71.950 C2P   71.950                     GLONASS COD/PHS/BIS
    18                                                      LEAP SECONDS
*** Above antenna height is from mark to ANTENNA BOTTOM.    COMMENT
    17     4        0.0000        ANT MEASURE TYPE/HEIGT    COMMENT
    0.0000    0.0000    0.0458    0.0405    0.0000          COMMENT
                    BASE STATION                            COMMENT
                                                            END OF HEADER
> 2020 05 12 09 00  0.0000000  0 12        .000000000000
G12  20093618.031 8 105592668.244 8      -410.754          51.000    20093616.250 8  82279995.392 8      -320.068          51.000
G24  21109159.898 8 110929366.968 8     -2144.406          51.000    21109161.594 8  86438473.648 8     -1670.966          51.000
G29  23464953.086 4 123309160.619 4      3686.828          29.000
R08  22498528.328 7 120478541.114 7     -3279.238          44.000    22498530.211 6  93705573.904 6     -2550.519          39.000
R09  20250427.703 7 108136140.045 7     -1596.000          46.000    20250428.156 6  84105889.182 6     -1241.330          40.000
R20  20553334.227 6 109907881.667 6      2724.008          37.000    20553338.086 7  85483928.127 7      2118.673          47.000
C12  24116339.875 7 125580160.787 7      3235.242          42.000    24116339.781 7  97106564.890 7      2501.568          47.000
C24  22128714.305 5 115230026.007 5      1038.082          32.000
C26  22252866.883 8 115876488.465 8     -1530.066          51.000
E07  26548943.406 6 139515615.877 6     -2804.914          37.000    26548934.633 6 106901534.976 6     -2149.154          38.000
E15  26275583.250 6 138079124.351 6      3036.379          41.000    26275591.812 7 105800893.382 7      2326.417          47.000
E30  22664897.992 8 119104816.606 8      -955.750          51.000    22664900.000 8  91262126.057 8      -732.352          50.000
> 2020 05 12 09 00 30.0000000  0 13        .000000000000
G02  23470798.117 5 123339850.617 5      1693.574          32.000
G12  20095958.922 8 105604970.117 8      -409.234          51.000    20095957.250 8  82289581.274 8      -318.884          51.000
G24  21121399.016 8 110993685.223 8     -2143.477          50.000    21121401.375 8  86488591.757 8     -1670.241          50.000
G29  23443892.898 5 123198479.424 5      3693.281          32.000
R08  22516898.523 7 120576909.708 7     -3278.566          44.000    22516899.055 6  93782082.755 6     -2549.999          40.000
R09  20259386.070 7 108183979.867 7     -1593.062          46.000    20259387.102 6  84143097.898 6     -1239.049          39.000
R20  20538075.961 6 109826289.623 6      2715.875          38.000    20538080.102 7  85420467.637 7      2112.344          47.000
C12  24097680.922 7 125483005.221 7      3241.973          42.000    24097682.039 8  97031438.049 8      2506.811          48.000
C24  22122717.773 5 115198804.459 5      1043.695          34.000
C26  22261668.172 8 115922319.433 8     -1525.160          51.000
E07  26564930.438 6 139599620.319 6     -2795.273          38.000    26564921.227 6 106965902.005 6     -2141.956          38.000
E15  26258221.430 7 137987886.930 7      3046.145          44.000    26258229.984 8 105730984.207 8      2333.972          48.000
E30  22670329.320 8 119133357.723 8      -946.992          51.000    22670331.195 8  91283995.204 8      -725.572          49.000
> 2020 05 12 09 01  0.0000000  0 13        .000000000000
G02  23461194.867 5 123289387.625 5      1672.348          33.000
G12  20098358.508 8 105617580.586 8      -429.805          51.000    20098356.820 8  82299407.611 8      -334.913          51.000
G24  21133699.000 8 111058323.332 8     -2164.312          49.000    21133702.008 8  86538959.110 8     -1686.477          49.000
G29  23422855.250 5 123087921.396 5      3678.613          33.000    23422864.695 5  95912728.903 5      2866.443          33.000
R08  22535331.180 7 120675614.108 7     -3300.059          44.000    22535330.977 6  93858852.759 6     -2566.715          41.000
R09  20268395.781 7 108232091.036 7     -1612.453          46.000    20268396.734 6  84180517.716 6     -1254.130          39.000
R20  20522933.312 6 109745314.628 6      2684.426          39.000    20522937.148 7  85357487.073 7      2087.887          47.000
C12  24079050.492 7 125385993.368 7      3227.066          44.000    24079052.078 8  96956422.326 8      2495.394          48.000
C24  22116758.648 4 115167775.974 4      1025.977          29.000
C26  22270508.133 8 115968351.793 8     -1541.938          51.000
E07  26580929.234 6 139683692.778 6     -2807.938          39.000    26580921.008 6 107030321.127 6     -2151.560          39.000
E15  26240870.180 7 137896702.432 7      3034.320          45.000    26240878.148 8 105661115.592 8      2324.858          49.000
E30  22675777.203 8 119161985.716 8      -960.094          51.000    22675778.898 8  91305930.918 8      -735.599          49.000
> 2020 05 12 09 01 30.0000000  0 11        .000000000000
G12  20100841.930 8 105630631.467 8      -439.895          51.000    20100840.320 8  82309577.117 8      -342.775          51.000
G24  21146084.914 8 111123413.515 8     -2174.645          48.000    21146088.461 8  86589678.729 8     -1694.528          48.000
G29  23401869.102 6 122977628.109 6      3674.473          37.000    23401876.336 6  95826786.150 6      2863.232          36.000
R08  22553850.711 7 120774784.651 7     -3311.020          43.000    22553849.648 6  93935985.337 6     -2575.237          40.000
R09  20277481.141 7 108280608.377 7     -1621.449          44.000    20277482.281 6  84218253.442 6     -1261.127          40.000
R20  20507932.242 6 109665095.310 6      2663.836          40.000    20507935.797 7  85295094.300 7      2071.875          46.000
C12  24060473.898 7 125289258.961 7      3222.230          43.000    24060475.375 8  96881621.147 8      2491.709          49.000
C26  22279412.195 8 116014716.833 8     -1548.684          50.000
E07  26596964.688 6 139767963.761 6     -2809.984          36.000    26596958.336 6 107094892.386 6     -2152.982          38.000
E15  26223554.484 7 137805705.471 7      3032.473          45.000    26223562.180 8 105591390.649 8      2323.646          49.000
E30  22681266.852 8 119190833.092 8      -962.797          51.000    22681268.164 8  91328034.724 8      -737.701          49.000
> 2020 05 12 09 02  0.0000000  0 11        .000000000000
G12  20103372.695 8 105643931.020 8      -457.086          51.000    20103371.414 8  82319940.409 8      -356.171          51.000
G24  21158519.875 7 111188764.036 7     -2192.340          45.000    21158524.469 7  86640601.225 7     -1708.314          45.000
G29  23380897.141 6 122867411.317 6      3663.035          38.000    23380900.469 6  95740902.980 6      2854.316          37.000
R08  22572419.938 7 120874222.916 7     -3328.918          44.000    22572418.484 6  94013326.160 6     -2589.158          41.000
R09  20286606.391 7 108329338.155 7     -1637.594          47.000    20286608.016 6  84256154.393 6     -1273.681          40.000
R20  20493036.383 6 109585441.176 6      2635.855          39.000    20493040.039 7  85233141.132 7      2050.113          46.000
C12  24041914.992 7 125192615.100 7      3210.367          45.000    24041915.883 8  96806890.010 8      2482.324          49.000
C26  22288343.305 8 116061225.698 8     -1562.242          49.000
E07                                                                  26612996.047 6 107159468.234 6     -2159.953          37.000
E15  26206238.219 7 137714707.437 7      3023.469          44.000    26206245.984 8 105521664.895 8      2316.603          50.000
E30  22686761.859 8 119219709.197 8      -972.797          51.000    22686762.844 8  91350160.560 8      -745.498          49.000
> 2020 05 12 09 02 30.0000000  0 13        .000000000000
G12  20106019.242 8 105657838.812 8      -462.691          51.000    20106018.109 8  82330777.638 8      -360.539          51.000
G24  21171072.609 7 111254733.896 7     -2198.395          46.000    21171078.344 7  86692006.316 7     -1713.035          46.000
G25  20691580.781 5 108734992.515 5      1467.926          32.000    20691576.156 5  84728553.800 5      1143.826          32.000
G29  23360008.422 6 122757633.606 6      3662.863          36.000    23360009.414 6  95655361.948 6      2854.182          36.000
R08  22591106.398 7 120974291.099 7     -3334.836          43.000    22591105.734 7  94091156.914 7     -2593.761          42.000
R09  20295840.109 7 108378646.050 7     -1642.055          43.000    20295841.695 6  84294504.998 6     -1277.154          41.000
R20  20478315.273 6 109506722.243 6      2619.648          38.000    20478319.156 7  85171915.329 7      2037.504          46.000
C12  24023442.773 7 125096420.807 7      3209.902          46.000    24023442.422 7  96732506.491 7      2482.142          47.000
C24  22099223.992 5 115076520.470 5      1005.254          32.000
C26  22297370.641 8 116108235.015 8     -1564.430          50.000
E07                                                                  26629102.727 6 107224322.956 6     -2158.017          36.000
E15  26188989.859 7 137624070.402 7      3026.219          44.000    26188998.422 8 105452215.736 8      2318.806          50.000
E30  22692330.805 8 119248973.981 8      -970.918          51.000    22692331.805 8  91372584.205 8      -744.019          49.000
> 2020 05 12 09 03  0.0000000  0 11        .000000000000
G12  20108726.406 8 105672065.037 8      -482.312          51.000    20108725.031 8  82341863.014 8      -375.828          51.000
G24  21183688.992 8 111321033.499 8     -2218.203          49.000    21183694.578 8  86743668.323 8     -1728.470          49.000
R08  22609854.008 6 121074690.178 6     -3354.961          41.000    22609855.086 7  94169245.048 7     -2609.417          42.000
R09  20305126.719 6 108428238.836 6     -1660.621          41.000    20305128.781 7  84333077.131 7     -1291.597          42.000
R20  20463714.805 6 109428647.565 6      2589.059          39.000    20463718.445 7  85111190.598 7      2013.712          46.000
C12  24005001.984 7 125000391.980 7      3195.516          45.000    24004999.898 7  96658250.956 7      2470.776          45.000
C24  22093482.023 5 115046659.319 5       988.992          32.000
C26  22306439.547 8 116155458.414 8     -1580.473          51.000
E07                                                                  26645223.391 5 107289233.669 5     -2166.436          35.000
E15  26171754.719 7 137533507.530 7      3014.668          42.000    26171764.750 8 105382823.394 8      2309.961          49.000
E30  22697918.711 8 119278338.506 8      -983.289          51.000    22697919.766 8  91395084.282 8      -753.417          49.000
> 2020 05 12 09 03 30.0000000  0 12        .000000000000
G12  20111469.305 8 105686479.069 8      -469.680          51.000    20111467.844 8  82353094.733 8      -365.981          51.000
G24  21196343.758 8 111387531.618 8     -2205.832          50.000    21196348.414 8  86795485.029 8     -1718.830          50.000
G29  23318303.016 5 122538488.617 5      3666.539          31.000
R08  22628637.680 6 121175283.157 6     -3342.102          41.000    22628640.578 7  94247484.013 7     -2599.412          42.000
R09  20314442.586 6 108477984.414 6     -1646.629          41.000    20314444.711 7  84371768.213 7     -1280.711          42.000
R20  20449210.891 6 109351089.159 6      2590.941          39.000    20449214.477 7  85050867.450 7      2015.180          46.000
C12  23986568.062 7 124904402.095 7      3212.824          43.000    23986563.859 7  96584025.519 7      2484.577          44.000
C24  22087759.391 5 115016880.076 5      1004.785          32.000
C26  22315524.797 8 116202767.217 8     -1564.555          51.000
E07                                                                  26661333.367 5 107354099.425 5     -2150.773          33.000
E15  26154509.609 7 137442890.956 7      3035.559          42.000    26154520.352 8 105313389.893 8      2325.834          48.000
E30  22703500.859 8 119307672.810 8      -963.109          51.000    22703501.977 8  91417561.208 8      -737.937          49.000
> 2020 05 12 09 04  0.0000000  0 12        .000000000000
G02  23405189.500 5 122995145.157 5      1592.738          35.000    23405184.156 5  95840334.150 5      1241.107          32.000
G12  20114297.234 8 105701339.693 8      -504.984          51.000    20114295.898 8  82364674.440 8      -393.494          51.000
G24  21209085.664 8 111454486.936 8     -2241.648          50.000    21209089.242 8  86847657.990 8     -1746.739          50.000
R08  22647506.445 6 121276330.185 6     -3378.031          41.000    22647511.148 7  94326076.106 7     -2627.358          43.000
R09  20323836.117 6 108528146.343 6     -1681.180          39.000    20323838.875 7  84410782.995 7     -1307.581          43.000
R20  20434853.406 6 109274313.896 6      2544.121          39.000    20434857.078 7  84991153.403 7      1978.761          47.000
C12  23968190.406 7 124808710.319 7      3182.559          42.000    23968185.492 7  96510030.595 7      2460.971          43.000
C24  22082105.391 5 114987440.648 5       973.695          32.000
C26  22324675.781 8 116250418.293 8     -1596.258          51.000
E07  26677490.516 5 140191157.466 5     -2833.910          31.000    26677481.367 5 107419162.287 5     -2171.270          30.000
E15  26137304.930 7 137352482.048 7      3008.094          44.000    26137314.625 7 105244115.543 7      2304.789          47.000
E30  22709126.484 8 119337236.215 8      -991.441          51.000    22709127.750 8  91440213.691 8      -759.685          49.000
> 2020 05 12 09 04 30.0000000  0 14        .000000000000
G02  23396119.875 5 122947488.464 5      1583.148          31.000    23396115.445 5  95803181.036 5      1233.622          32.000
G12  20117201.812 8 105716603.452 8      -513.727          51.000    20117200.492 8  82376568.274 8      -400.309          51.000
G24  21221906.172 8 111521856.234 8     -2250.801          50.000    21221909.117 8  86900153.503 8     -1753.874          51.000
G25  20658619.438 5 108561789.925 5      1421.168          33.000    20658615.180 5  84593575.541 5      1107.422          31.000
G29  23276736.977 5 122320077.968 5      3633.414          31.000    23276745.320 5  95314379.531 5      2831.232          31.000
R08  22666452.422 7 121377826.669 7     -3386.676          42.000    22666456.719 7  94404989.305 7     -2634.084          42.000
R09  20333299.789 5 108578681.572 5     -1688.273          34.000    20333302.312 7  84450088.243 7     -1313.102          43.000
R20  20420634.938 6 109198282.495 6      2523.820          38.000    20420639.008 8  84932017.879 8      1962.974          48.000
C12  23949861.312 6 124713276.831 6      3178.785          41.000    23949857.992 7  96436235.343 7      2457.833          44.000
C24  22076509.820 6 114958300.124 6       968.273          37.000
C26  22333884.555 8 116298369.684 8     -1601.691          51.000
E15  26120132.906 7 137262240.544 7      3006.887          45.000    26120140.242 7 105174969.509 7      2304.029          47.000
E27  24096255.609 5 126626670.597 5      1236.543          35.000    24096256.086 6  97025642.540 6       947.319          36.000
E30  22714787.648 8 119366986.413 8      -993.043          51.000    22714788.945 8  91463009.289 8      -760.957          49.000
> 2020 05 12 09 05  0.0000000  0 16        .000000000000
G02  23387099.797 5 122900055.834 5      1562.867          30.000
G12  20120148.156 8 105732086.867 8      -534.160          51.000    20120146.734 8  82388633.265 8      -416.229          51.000
G19  23916944.336 5 125684360.523 5     -3490.199          31.000
G24  21234770.352 8 111589455.263 8     -2271.527          51.000    21234772.359 8  86952828.063 8     -1770.021          51.000
G25  20650516.844 5 108519215.442 5      1401.781          33.000    20650517.719 5  84560400.707 5      1092.300          33.000
G29  23255993.438 5 122211075.859 5      3617.738          35.000    23255977.680 5  95229358.239 5      2819.017          33.000
R08  22685438.609 7 121479495.737 7     -3407.047          43.000    22685442.086 7  94484065.213 7     -2649.925          42.000
R09  20342799.008 5 108629404.625 5     -1708.398          32.000    20342801.133 7  84489539.504 7     -1328.757          43.000
R10  19633997.734 5 104660257.573 5       674.668          35.000
R20  20406521.055 6 109122812.286 6      2491.691          36.000    20406525.805 8  84873318.830 8      1937.982          48.000
C12  23931548.562 7 124617922.825 7      3162.754          44.000    23931546.648 7  96362501.557 7      2445.666          43.000
C24  22070936.523 6 114929278.408 6       951.184          37.000
C26  22343116.133 8 116346440.260 8     -1618.551          51.000
E15  26102958.820 7 137171985.810 7      2994.207          46.000    26102963.789 8 105105813.337 8      2294.379          48.000
E27  24089188.180 5 126589539.155 5      1223.633          32.000    24089187.641 5  96997185.055 5       937.993          34.000
E30  22720449.625 8 119396740.637 8     -1006.203          51.000    22720450.953 8  91485807.959 8      -770.999          49.000
> 2020 05 12 09 05 30.0000000  0 14        .000000000000
G12  20123196.562 8 105748106.709 8      -527.926          51.000    20123195.258 8  82401116.253 8      -411.371          51.000
G24  21247738.414 8 111657600.857 8     -2265.625          51.000    21247739.047 8  87005928.486 8     -1765.425          51.000
G25  20642512.430 5 108477133.072 5      1408.898          33.000    20642514.805 5  84527623.288 5      1097.843          33.000
G29  23235324.562 6 122102460.065 6      3629.328          36.000    23235309.609 6  95144722.561 6      2828.051          36.000
R08  22704524.938 7 121581699.156 7     -3400.223          42.000    22704528.930 7  94563556.673 7     -2644.621          43.000
R09  20352393.094 4 108680637.654 4     -1701.094          28.000    20352395.828 7  84529387.503 7     -1323.067          45.000
R10  19630198.820 5 104640004.168 5       681.445          32.000
R20  20392573.547 6 109048229.537 6      2486.488          37.000    20392578.359 8  84815310.015 8      1933.935          48.000
C12  23913313.328 7 124522964.680 7      3173.480          47.000    23913311.312 7  96289073.921 7      2453.982          42.000
C24  22065447.758 6 114900690.679 6       960.691          37.000
C26  22352430.930 8 116394944.313 8     -1609.211          51.000
E15  26085843.078 8 137082037.072 8      3008.121          48.000    26085846.750 8 105036891.612 8      2305.044          49.000
E27                                                                  24082176.039 5  96968944.239 5       948.627          31.000
E30  22726172.742 8 119426816.085 8      -992.879          51.000    22726174.117 8  91508852.755 8      -760.777          49.000
> 2020 05 12 09 06  0.0000000  0 15        .000000000000
G02  23369326.281 5 122806637.959 5      1542.293          33.000
G12  20126252.906 8 105764168.076 8      -551.117          51.000    20126251.852 8  82413631.612 8      -429.442          51.000
G24  21260716.133 8 111725797.743 8     -2289.055          51.000    21260715.602 8  87059068.897 8     -1783.679          51.000
G25  20634511.336 5 108435085.190 5      1386.531          34.000    20634513.391 5  84494858.707 5      1080.417          35.000
G29  23214635.375 6 121993738.310 6      3610.758          37.000    23214620.578 6  95060004.379 6      2813.581          36.000
G32  22218760.898 6 116760377.916 6       751.211          37.000    22218761.430 6  90982119.927 6       585.362          36.000
R08  22723617.469 6 121683928.968 6     -3423.418          41.000    22723621.062 7  94643068.660 7     -2662.658          43.000
R10  19626404.305 4 104619776.595 4       658.223          29.000
R20  20378699.016 6 108974035.324 6      2451.277          40.000    20378703.516 7  84757603.419 7      1906.549          47.000
C12  23895061.016 8 124427915.237 8      3155.027          48.000    23895058.227 7  96215575.724 7      2439.477          43.000
C24  22059949.086 6 114872048.633 6       940.742          39.000
C26  22361735.039 8 116443392.380 8     -1628.820          51.000
E15  26068691.961 8 136991902.544 8      2992.559          49.000    26068695.250 8 104967827.533 8      2292.981          50.000
E27                                                                  24075127.508 5  96940565.803 5       936.430          30.000
E30  22731862.984 8 119456718.863 8     -1008.840          51.000    22731864.742 8  91531765.246 8      -772.995          49.000
> 2020 05 12 09 06 30.0000000  0 14        .000000000000
G12  20129428.672 8 105780856.604 8      -560.645          51.000    20129427.492 8  82426635.657 8      -436.866          51.000
G24  21273814.977 8 111794631.955 8     -2299.055          51.000    21273814.164 8  87112705.895 8     -1791.471          51.000
G25  20626624.805 5 108393640.345 5      1377.340          31.000    20626625.172 4  84462564.104 4      1073.255          28.000
G29  23194038.258 5 121885499.036 5      3606.641          35.000    23194022.625 5  94975662.125 5      2810.372          35.000
G32  22214524.773 5 116738109.936 5       734.098          34.000    22214535.141 5  90964768.091 5       572.012          33.000
R08  22742825.039 6 121786778.195 6     -3432.371          39.000    22742828.562 7  94723062.474 7     -2669.625          44.000
R10  19622725.164 5 104600206.259 5       649.375          33.000
R20  20365010.031 6 108900829.139 6      2429.801          41.000    20365013.055 7  84700665.289 7      1889.848          46.000
C12  23876903.156 8 124333357.802 8      3149.707          49.000    23876900.047 7  96142457.964 7      2435.517          45.000
C24  22054551.547 6 114843934.156 6       934.148          40.000
C26  22371139.711 8 116492365.483 8     -1635.098          51.000
E15  26051617.578 8 136902170.684 8      2990.359          50.000    26051620.781 8 104899071.971 8      2291.320          51.000
E27                                                                  24068155.555 5  96912488.113 5       935.440          30.000
E30  22737631.914 8 119487035.343 8     -1011.395          51.000    22737634.273 8  91554994.736 8      -774.980          49.000
> 2020 05 12 09 07  0.0000000  0 15        .000000000000
G02  23351881.984 5 122714932.388 5      1524.617          31.000
G12  20132711.328 8 105798106.789 8      -565.312          51.000    20132709.852 8  82440077.358 8      -440.503          51.000
G24  21287022.344 8 111864037.202 8     -2304.039          51.000    21287021.805 8  87166787.857 8     -1795.355          51.000
G25  20618840.914 5 108352723.538 5      1372.949          34.000    20618841.852 5  84430696.275 5      1069.837          34.000
G29  23173520.008 6 121777680.373 6      3605.676          37.000    23173503.430 6  94891647.654 6      2809.621          37.000
R08  22762133.906 6 121890176.673 6     -3436.324          39.000    22762138.188 7  94803483.497 7     -2672.697          45.000
R09  20381537.906 4 108836250.120 4     -1736.766          29.000    20381513.758 7  84650335.315 7     -1350.818          44.000
R10  19619154.258 5 104581137.428 5       644.605          32.000
R20  20351494.070 6 108828548.767 6      2413.145          41.000    20351495.797 7  84644447.271 7      1876.893          46.000
C12  23858827.547 8 124239230.378 8      3149.250          49.000    23858825.016 8  96069672.705 8      2435.263          48.000
C24  22049243.297 6 114816284.251 6       932.527          40.000
C26  22380632.914 8 116541799.454 8     -1636.664          51.000
E07  26774802.922 5 140702535.675 5     -2843.641          35.000    26774810.539 5 107811063.321 5     -2179.133          35.000
E15  26034607.875 8 136812778.892 8      2993.043          51.000    26034611.016 8 104830576.988 8      2293.427          51.000
E30  22743467.359 8 119517700.915 8     -1009.023          51.000    22743470.172 8  91578491.727 8      -773.142          50.000
> 2020 05 12 09 07 30.0000000  0 15        .000000000000
G02  23343235.484 5 122669558.603 5      1497.188          34.000
G12  20136004.156 8 105815410.353 8      -590.707          51.000    20136002.727 8  82453560.648 8      -460.291          51.000
G24  21300241.375 8 111933504.932 8     -2329.672          50.000    21300241.391 8  87220918.518 8     -1815.329          50.000
G25  20611060.555 5 108311848.433 5      1348.809          32.000    20611064.461 5  84398845.572 5      1051.023          33.000
G32  22206399.953 5 116695431.345 5       688.438          34.000
R08  22781446.422 6 121993602.342 6     -3461.258          41.000    22781452.281 7  94883925.637 7     -2692.092          44.000
R09  20391350.352 5 108888614.377 5     -1760.484          34.000    20391324.578 7  84691098.193 7     -1369.266          44.000
R10  19615587.773 4 104562132.616 4       620.254          29.000
R20  20338054.625 6 108756680.702 6      2375.820          40.000    20338055.828 7  84588549.951 7      1847.863          46.000
C12  23840738.023 8 124145032.092 8      3128.219          49.000    23840736.469 8  95996832.630 8      2418.937          50.000
C24  22043926.844 6 114788596.822 6       910.492          39.000
C26  22390117.984 8 116591191.190 8     -1658.637          51.000
E07  26791078.383 5 140788067.163 5     -2860.430          33.000    26791086.234 6 107876598.868 6     -2192.024          37.000
E15  26017566.516 8 136723221.467 8      2974.996          51.000    26017569.555 8 104761955.107 8      2279.519          51.000
E30  22749272.742 8 119548207.820 8     -1027.191          51.000    22749275.609 8  91601867.127 8      -787.036          50.000
> 2020 05 12 09 08  0.0000000  0 15        .000000000000
G12  20139377.977 8 105833139.914 8      -599.734          51.000    20139376.820 8  82467375.887 8      -467.325          51.000
G24  21313543.086 8 112003407.439 8     -2338.957          50.000    21313543.852 8  87275387.987 8     -1822.564          50.000
G25  20603360.125 6 108271378.470 6      1340.598          36.000    20603363.242 6  84367310.540 6      1044.619          36.000
G29  23132494.594 5 121562100.707 5      3580.844          35.000    23132495.570 5  94723705.656 5      2790.271          35.000
G32  22202502.406 6 116674937.212 6       671.684          37.000
R08  22800835.281 7 122097431.306 7     -3469.328          42.000    22800841.367 7  94964681.471 7     -2698.366          44.000
R09  20401217.531 5 108941345.599 5     -1768.660          34.000    20401215.070 7  84732165.344 7     -1375.625          43.000
R10  19612100.781 5 104543551.422 5       610.445          35.000
R20  20324763.031 6 108685608.327 6      2353.980          39.000    20324765.125 7  84533271.483 7      1830.874          46.000
C12  23822706.070 8 124051135.051 8      3123.121          48.000    23822705.531 8  95924225.486 8      2415.038          50.000
C24  22038674.047 6 114761242.661 6       904.543          40.000
C26  22399666.219 8 116640910.515 8     -1664.504          51.000
E07                                                                  26807393.969 6 107942263.622 6     -2192.356          37.000
E15  26000564.859 8 136633873.868 8      2973.008          51.000    26000567.969 8 104693493.988 8      2277.992          51.000
E30  22755119.000 8 119578929.440 8     -1029.332          50.000    22755121.695 8  91625407.047 8      -788.688          50.000
> 2020 05 12 09 08 30.0000000  0 15        .000000000000
G02  23326232.164 5 122580177.109 5      1460.426          32.000
G12  20142808.406 8 105851166.851 8      -624.684          51.000    20142807.219 8  82481422.841 8      -486.766          51.000
G24  21326903.211 8 112073616.019 8     -2364.230          51.000    21326904.719 8  87330095.957 8     -1842.258          51.000
G25  20595712.188 5 108231185.978 5      1316.613          34.000    20595712.469 5  84335991.785 5      1025.935          34.000
G29  23112047.070 5 121454653.368 5      3559.969          31.000    23112050.078 5  94639980.432 5      2774.002          31.000
R08  22820275.398 7 122201529.081 7     -3493.555          43.000    22820280.734 7  95045646.361 7     -2717.212          44.000
R09  20411154.422 4 108994426.936 4     -1792.809          29.000    20411153.594 6  84773450.907 6     -1394.410          41.000
R10  19608670.203 6 104525265.518 6       585.543          36.000
R20  20311596.234 6 108615205.226 6      2316.426          37.000    20311599.844 7  84478513.514 7      1801.668          47.000
C12  23804707.891 8 123957415.091 8      3102.344          48.000    23804708.094 8  95851755.267 8      2398.980          51.000
C24  22033461.539 6 114734096.487 6       882.590          41.000
C26  22409253.070 8 116690831.096 8     -1685.992          51.000
E07                                                                  26823708.578 6 108007958.403 6     -2204.748          36.000
E15  25983578.602 8 136544610.622 8      2955.223          50.000    25983582.234 8 104625097.512 8      2264.421          51.000
E30  22760981.805 8 119609738.265 8     -1047.250          51.000    22760984.516 8  91649013.802 8      -802.429          50.000
> 2020 05 12 09 09  0.0000000  0 14        .000000000000
G02  23317862.812 5 122536186.994 5      1464.312          30.000
G12  20146354.047 8 105869799.436 8      -617.727          51.000    20146352.625 8  82495941.734 8      -481.345          51.000
G24  21340380.391 8 112144438.635 8     -2357.688          51.000    21340382.414 8  87385282.417 8     -1837.159          51.000
G25  20588175.539 5 108191580.400 5      1323.609          34.000    20588175.297 5  84305130.234 5      1031.387          34.000
R08  22839823.672 7 122306205.791 7     -3485.188          43.000    22839828.234 7  95127061.523 7     -2710.704          44.000
R09  20421199.047 6 109048094.984 6     -1785.297          36.000    20421204.844 6  84815192.613 6     -1388.570          39.000
R10  19605354.430 5 104507589.031 5       592.879          35.000
R20  20298614.500 6 108545788.740 6      2311.031          38.000    20298618.922 7  84424522.917 7      1797.472          47.000
C12  23786802.859 8 123864180.415 8      3112.844          48.000    23786803.602 8  95779660.307 8      2407.100          51.000
C24  22028347.383 6 114707465.352 6       892.004          40.000
C26  22418937.094 8 116741258.911 8     -1676.207          51.000
E07                                                                  26840089.039 5 108073918.403 5     -2192.937          34.000
E15  25966666.711 8 136455742.748 8      2968.930          48.000    25966671.430 8 104557003.950 8      2274.930          51.000
E30  22766919.922 8 119640943.195 8     -1033.469          50.000    22766922.367 8  91672924.073 8      -791.888          50.000
> 2020 05 12 09 09 30.0000000  0 13        .000000000000
G12  20149919.906 8 105888538.423 8      -635.508          51.000    20149918.398 8  82510543.542 8      -495.201          51.000
G24  21353879.406 8 112215375.961 8     -2375.590          50.000    21353882.055 8  87440558.242 8     -1851.109          50.000
G25  20580655.398 5 108152063.354 5      1306.848          33.000    20580657.375 4  84274337.681 4      1018.323          29.000
R08  22859384.312 7 122410948.651 7     -3501.906          44.000    22859388.148 7  95208528.159 7     -2723.705          43.000
R09  20431264.648 6 109101842.866 6     -1802.426          38.000    20431267.742 6  84856996.622 6     -1401.881          36.000
R10  19602058.234 5 104490017.752 5       575.723          33.000
R20  20285723.391 6 108476854.605 6      2280.602          38.000    20285728.055 7  84370907.503 7      1773.804          47.000
C12  23768896.617 8 123770939.309 8      3099.082          48.000    23768897.930 8  95707560.393 8      2396.392          51.000
C24  22023236.781 6 114680856.315 6       877.254          38.000
C26  22428623.852 8 116791699.941 8     -1690.574          51.000
E07  26856452.391 5 141131609.768 5     -2870.785          34.000    26856439.992 5 108139760.201 5     -2199.725          30.000
E15  25949734.984 8 136366773.807 8      2958.219          48.000    25949741.219 8 104488832.922 8      2266.663          51.000
E30  22772838.562 8 119672045.810 8     -1044.133          50.000    22772840.820 8  91696755.944 8      -800.062          50.000
> 2020 05 12 09 10  0.0000000  0 15        .000000000000
G12  20153523.055 8 105907473.088 8      -638.383          51.000    20153521.648 8  82525297.829 8      -497.441          51.000
G24  21367417.055 8 112286517.210 8     -2378.723          49.000    21367420.258 8  87495992.963 8     -1853.550          49.000
G25  20573170.031 5 108112736.278 5      1304.227          33.000    20573173.148 5  84243699.632 5      1016.280          33.000
G29  23050990.203 5 121133779.232 5      3558.910          34.000
G32  22187969.227 6 116598548.485 6       601.238          37.000    22187969.898 5  90856021.832 5       468.506          31.000
R08  22878973.250 7 122515845.758 7     -3502.883          43.000    22878976.531 6  95290114.765 6     -2724.464          41.000
R09  20441360.797 6 109155762.259 6     -1804.633          39.000    20441366.016 5  84898933.871 5     -1403.600          34.000
R10  19598799.227 5 104472644.485 5       571.113          33.000
R20  20272940.594 6 108408498.094 6      2264.844          38.000    20272945.000 8  84317741.328 8      1761.548          48.000
C12  23751006.703 8 123677783.271 8      3099.840          48.000    23751008.523 8  95635526.237 8      2396.884          51.000
C24  22018147.078 6 114654359.699 6       877.547          37.000
C26  22438330.219 8 116842243.532 8     -1690.445          51.000
E07  26872792.695 4 141217477.994 4     -2865.961          29.000
E15  25932802.719 8 136277796.070 8      2962.023          49.000    25932809.445 8 104420655.175 8      2269.581          51.000
E30  22778754.883 8 119703136.349 8     -1040.215          48.000    22778757.109 8  91720578.562 8      -797.069          50.000
> 2020 05 12 09 10 30.0000000  0 15        .000000000000
G02  23293140.789 5 122406285.060 5      1420.059          34.000
G12  20157249.570 8 105927055.839 8      -656.691          51.000    20157248.234 8  82540557.117 8      -511.708          51.000
G24  21381079.219 8 112358313.408 8     -2397.379          49.000    21381082.914 8  87551938.057 8     -1868.087          49.000
G25  20565804.734 5 108074030.276 5      1286.652          35.000    20565808.430 5  84213539.142 5      1002.589          34.000
G29  23030746.492 6 121027389.918 6      3544.148          40.000    23030756.812 6  94307104.933 6      2761.677          40.000
G32  22184638.344 6 116581063.514 6       574.398          38.000    22184637.953 5  90842397.129 5       447.589          32.000
R08  22898675.945 7 122621353.680 7     -3520.059          42.000    22898678.406 6  95372176.440 6     -2737.823          40.000
R09  20451576.742 6 109210313.502 6     -1821.828          38.000    20451580.688 5  84941362.676 5     -1416.971          32.000
R10  19595664.352 5 104455929.636 5       552.879          32.000
R20  20260352.336 6 108341183.101 6      2233.141          37.000    20260356.789 8  84265385.241 8      1736.887          48.000
C12  23733220.023 8 123585163.123 8      3085.062          49.000    23733221.883 8  95563906.460 8      2385.675          51.000
C24  22013165.219 6 114628425.282 6       861.883          37.000
C26  22448142.195 8 116893338.297 8     -1705.629          51.000
E15  25915956.234 8 136189264.415 8      2950.410          51.000    25915962.555 8 104352819.259 8      2260.749          51.000
E30  22784755.094 8 119734667.637 8     -1051.457          48.000    22784757.297 8  91744738.892 8      -805.653          51.000
> 2020 05 12 09 11  0.0000000  0 16        .000000000000
G02  23285067.062 5 122363862.174 5      1407.047          33.000
G12  20161025.477 8 105946898.314 8      -666.883          51.000    20161024.070 8  82556018.780 8      -519.649          51.000
G24  21394792.164 8 112430376.903 8     -2407.746          49.000    21394796.359 8  87608091.429 8     -1876.166          49.000
G25  20558486.375 5 108035568.787 5      1276.316          35.000    20558488.695 6  84183569.169 6       994.535          36.000
G29  23010529.109 7 120921143.729 7      3538.109          43.000    23010536.742 7  94224315.715 7      2756.968          42.000
G32  22181405.445 6 116564080.102 6       556.320          38.000    22181400.844 5  90829163.469 5       433.509          30.000
R08  22918418.008 6 122727072.818 6     -3528.621          41.000    22918419.938 6  95454402.365 6     -2744.486          40.000
R09  20461837.906 5 109265102.414 5     -1831.598          35.000    20461841.898 5  84983976.285 5     -1424.579          32.000
R10  19592579.180 4 104439468.809 4       542.113          29.000
R20  20247885.070 6 108274517.697 6      2210.020          37.000    20247889.805 8  84213534.369 8      1718.901          48.000
C12  23715463.055 8 123492696.742 8      3078.434          49.000    23715464.516 8  95492405.614 8      2380.455          51.000
C24  22008218.781 6 114602669.633 6       854.211          38.000
C26  22457986.016 8 116944599.847 8     -1712.707          49.000
E07  26905604.680 6 141389906.251 6     -2875.699          36.000
E15  25899121.562 8 136100793.030 8      2946.801          51.000    25899126.984 8 104285029.546 8      2257.950          50.000
E30  22790765.133 7 119766251.899 7     -1054.883          46.000    22790767.672 8  91768939.819 8      -808.320          51.000
> 2020 05 12 09 11 30.0000000  0 16        .000000000000
G02  23277073.539 4 122321844.715 4      1393.375          29.000
G12  20164865.367 8 105967077.515 8      -677.941          51.000    20164863.867 8  82571742.840 8      -528.266          51.000
G24  21408570.516 8 112502784.089 8     -2419.055          48.000    21408575.086 8  87664512.599 8     -1884.978          48.000
G25  20551229.484 6 107997430.528 6      1266.320          37.000    20551227.820 6  84153851.121 6       986.743          36.000
G29  22990354.219 7 120815121.094 7      3530.723          43.000    22990359.133 7  94141700.673 7      2751.212          43.000
G32  22178283.648 5 116547677.438 5       537.766          35.000    22178277.977 4  90816382.134 4       419.029          28.000
R08  22938214.070 6 122833078.497 6     -3538.012          40.000    22938216.266 6  95536851.149 6     -2751.787          40.000
R09  20472158.742 5 109320208.826 5     -1842.008          35.000    20472162.164 4  85026836.773 4     -1432.679          29.000
R10  19589559.320 5 104423369.232 5       530.875          34.000
R20  20235555.047 6 108208585.090 6      2185.703          38.000    20235560.156 8  84162253.469 8      1699.994          49.000
C12  23697751.008 8 123400464.093 8      3070.848          48.000    23697751.719 8  95421085.511 8      2374.559          51.000
C24  22003322.648 6 114577171.574 6       846.027          40.000
C26  22467876.531 8 116996105.858 8     -1720.703          48.000
E07  26922032.383 6 141476221.019 6     -2877.973          38.000
E15  25882313.547 8 136012462.562 8      2942.363          50.000    25882317.727 7 104217347.820 7      2254.412          47.000
E30  22796800.102 7 119797967.678 7     -1059.156          45.000    22796803.336 8  91793241.530 8      -811.549          51.000
> 2020 05 12 09 12  0.0000000  0 15        .000000000000
G12  20168777.023 8 105987633.871 8      -691.379          51.000    20168775.555 8  82587760.791 8      -538.737          51.000
G24  21422422.312 8 112575575.635 8     -2432.773          50.000    21422426.648 8  87721233.260 8     -1895.668          50.000
G25  20544040.906 5 107959656.882 5      1253.109          34.000    20544039.797 5  84124417.115 5       976.449          33.000
G29  22970229.539 7 120709365.353 7      3520.695          43.000    22970232.883 7  94059293.626 7      2743.402          43.000
G32  22175279.688 6 116531896.912 6       515.602          37.000    22175277.219 5  90804051.579 5       401.752          34.000
R08  22958070.430 6 122939408.024 6     -3549.539          41.000    22958072.953 6  95619551.855 6     -2760.756          39.000
R09  20482547.227 6 109375674.308 6     -1854.977          37.000
R10  19586611.578 5 104407656.938 5       517.566          33.000
R20  20223370.969 6 108143430.030 6      2159.234          39.000    20223376.289 8  84111577.327 8      1679.405          49.000
C12  23680091.805 7 123308507.927 7      3060.590          47.000    23680091.867 8  95349979.174 8      2366.694          51.000
C24  21998484.117 7 114551972.743 7       835.105          43.000
C26  22477822.250 8 117047896.932 8     -1731.090          49.000
E07  26938480.633 6 141562646.534 6     -2882.711          40.000
E15  25865539.867 8 135924316.093 8      2935.238          48.000    25865542.828 7 104149807.072 7      2249.055          44.000
E30  22802868.000 7 119829856.018 7     -1065.711          45.000    22802871.836 8  91817675.461 8      -816.620          51.000
> 2020 05 12 09 12 30.0000000  0 15        .000000000000
G12  20172762.844 8 106008579.168 8      -705.992          51.000    20172761.461 8  82604081.803 8      -550.121          51.000
G24  21436349.594 8 112648762.691 8     -2447.582          51.000    21436353.039 8  87778262.106 8     -1907.207          50.000
G25  20536923.352 5 107922260.438 5      1238.812          31.000    20536925.219 5  84095268.961 5       965.311          30.000
G29  22950158.461 7 120603890.989 7      3509.664          44.000    22950160.148 7  93977105.826 7      2734.803          45.000
R08  22977988.828 6 123046069.476 6     -3562.090          40.000    22977990.922 6  95702510.745 6     -2770.514          38.000
R09  20493004.836 5 109431511.679 5     -1868.730          34.000    20493007.812 5  85113373.706 5     -1453.457          30.000
R10  19583739.820 5 104392348.246 5       502.000          34.000
R20  20211335.406 6 108079067.792 6      2130.918          40.000    20211340.695 8  84061517.831 8      1657.381          49.000
C12  23662488.156 7 123216842.692 7      3049.293          46.000    23662488.133 8  95279097.795 8      2357.970          51.000
C24  21993705.555 7 114527086.379 7       823.090          42.000
C26  22487825.688 8 117099985.292 8     -1742.555          50.000
E07  26954951.523 6 141649193.229 6     -2888.098          41.000
E15  25848803.148 7 135836368.074 7      2926.969          46.000    25848803.938 6 104082418.448 6      2242.769          41.000
E27  23986386.242 5 126049310.058 5      1164.699          34.000
E30  22808971.383 7 119861929.324 7     -1073.363          45.000    22808975.367 8  91842251.136 8      -822.534          51.000
> 2020 05 12 09 13  0.0000000  0 13        .000000000000
G12  20176805.297 8 106029822.279 8      -713.582          51.000    20176804.078 8  82620634.873 8      -556.038          51.000
G24  21450334.867 8 112722253.494 8     -2455.320          51.000    21450337.367 8  87835527.614 8     -1913.237          51.000
G25  20529861.289 5 107885151.143 5      1231.680          35.000    20529864.859 5  84066352.610 5       959.747          34.000
G29  22930124.328 7 120498610.200 7      3505.586          45.000    22930124.680 7  93895068.847 7      2731.625          45.000
R08  22997950.555 6 123152966.275 6     -3567.633          41.000    22997951.969 6  95785652.644 6     -2774.829          37.000
R10  19580927.062 5 104377352.410 5       492.977          32.000
R20  20199431.648 6 108015409.752 6      2109.562          40.000    20199436.375 8  84012006.046 8      1640.774          48.000
C12  23644923.070 7 123125381.048 7      3044.738          45.000    23644923.891 8  95208373.855 8      2354.400          51.000
C24  21988969.453 6 114502424.111 6       817.680          41.000
C26  22497869.117 8 117152281.422 8     -1747.199          51.000
E07  26971427.445 6 141735768.974 6     -2886.832          39.000
E15  25832087.133 7 135748530.343 7      2925.508          46.000    25832085.898 7 104015114.274 7      2241.740          42.000
E30  22815093.141 7 119894097.485 7     -1074.422          47.000    22815096.898 8  91866899.485 8      -823.327          51.000
> 2020 05 12 09 13 30.0000000  0 14        .000000000000
G12  20180906.062 8 106051372.068 8      -724.246          51.000    20180904.930 8  82637426.918 8      -564.345          51.000
G24  21464379.578 8 112796056.180 8     -2466.168          51.000    21464380.969 8  87893036.154 8     -1921.692          51.000
G25  20522856.398 5 107848338.752 5      1220.633          33.000    20522859.797 5  84037667.586 5       951.145          33.000
G29  22910129.523 7 120393534.634 7      3498.203          45.000    22910128.773 7  93813191.797 7      2725.873          45.000
R08  23017957.445 7 123260104.036 7     -3576.141          42.000    23017958.070 6  95868981.949 6     -2781.446          36.000
R09  20514080.648 5 109544037.383 5     -1886.062          35.000    20514072.078 4  85200895.486 4     -1466.938          29.000
R10  19578175.031 4 104362688.196 4       483.418          28.000
R20  20187661.852 6 107952468.301 6      2085.219          41.000    20187666.016 7  83963051.629 7      1621.837          47.000
C12  23627399.391 7 123034134.529 7      3037.172          44.000    23627400.695 8  95137816.268 8      2348.446          49.000
C24  21984277.859 7 114477996.243 7       809.441          42.000
C26  22507954.312 8 117204794.586 8     -1754.910          51.000
E07  26987910.109 6 141822381.280 6     -2888.598          37.000
E15  25815394.500 7 135660814.372 7      2920.953          46.000    25815394.773 7 103947903.383 7      2238.148          45.000
E30  22821235.133 8 119926369.941 8     -1078.379          48.000    22821238.078 8  91891627.734 8      -826.296          51.000
> 2020 05 12 09 14  0.0000000  0 14        .000000000000
G12  20185076.797 8 106073289.479 8      -736.355          51.000    20185075.594 8  82654505.406 8      -573.783          51.000
G24  21478495.172 8 112870231.932 8     -2478.363          51.000    21478496.109 8  87950835.389 8     -1931.192          51.000
G25  20515919.789 6 107811885.143 6      1209.117          37.000    20515922.336 6  84009262.198 6       942.169          38.000
G29  22890186.383 7 120288728.148 7      3489.598          44.000    22890184.578 7  93731524.461 7      2719.170          44.000
R08  23038021.273 7 123367540.814 7     -3585.852          44.000    23038021.359 6  95952543.818 6     -2788.999          38.000
R09  20524703.453 5 109600796.833 5     -1896.883          33.000    20524710.883 5  85245041.211 5     -1475.356          35.000
R10  19575495.156 5 104348403.337 5       470.734          32.000
R20  20176038.195 6 107890309.189 6      2059.336          41.000    20176041.812 7  83914705.718 7      1601.709          46.000
C12  23609929.336 7 122943166.449 7      3027.828          44.000    23609929.930 7  95067474.006 7      2341.402          46.000
C24  21979643.211 6 114453864.901 6       799.801          40.000
C26  22518092.633 8 117257585.800 8     -1763.965          51.000
E07  27004410.992 6 141909089.874 6     -2891.168          37.000
E15  25798737.750 7 135573283.891 7      2914.910          47.000    25798740.500 7 103880834.601 7      2233.452          47.000
E30  22827408.773 8 119958808.448 8     -1083.672          49.000    22827410.727 8  91916483.222 8      -830.334          50.000
> 2020 05 12 09 14 30.0000000  0 14        .000000000000
G12  20189304.000 8 106095503.351 8      -748.543          51.000    20189302.531 8  82671814.906 8      -583.280          51.000
G24  21492668.148 8 112944709.648 8     -2490.668          51.000    21492668.766 8  88008869.911 8     -1940.783          51.000
G25  20509038.508 6 107775720.395 6      1197.727          39.000    20509039.898 6  83981081.935 6       933.296          37.000
G29  22870282.133 6 120184122.990 6      3480.547          40.000    22870279.078 6  93650014.008 6      2712.117          40.000
G32  22161941.844 5 116461789.725 5       416.891          34.000
R08  23058127.344 7 123475200.667 7     -3595.621          44.000    23058127.195 6  96036279.205 6     -2796.594          38.000
R10  19572874.648 5 104334436.851 5       456.941          33.000
R20  20164547.594 6 107828885.784 6      2033.195          39.000    20164549.711 7  83866923.393 7      1581.374          46.000
C12  23592500.297 7 122852409.245 7      3018.707          45.000    23592498.656 7  94997294.849 7      2334.238          44.000
C24  21975052.844 7 114429961.551 7       790.059          42.000
C26  22528270.852 8 117310585.408 8     -1773.164          51.000
E07  27020916.805 6 141995822.692 6     -2894.625          36.000    27020904.312 5 108801990.780 5     -2217.977          33.000
E15  25782103.859 8 135485870.805 8      2908.785          48.000    25782108.422 8 103813855.735 8      2228.768          48.000
E30  22833600.555 8 119991342.889 8     -1089.043          49.000    22833601.672 8  91941412.185 8      -834.444          50.000
> 2020 05 12 09 15  0.0000000  0 15        .000000000000
G12  20193608.555 8 106118124.043 8      -757.559          51.000    20193607.047 8  82689441.422 8      -590.302          51.000
G24  21506919.492 8 113019599.497 8     -2500.031          51.000    21506919.633 8  88067225.592 8     -1948.076          51.000
G25  20502232.320 5 107739956.068 5      1188.867          35.000    20502232.367 5  83953213.640 5       926.387          34.000
G29  22850439.859 5 120079832.954 5      3474.445          33.000    22850433.484 5  93568749.088 5      2707.360          33.000
G32  22159607.781 5 116449510.694 5       399.574          33.000
R08  23078294.664 7 123583192.261 7     -3601.836          42.000    23078295.250 6  96120272.644 6     -2801.425          38.000
R09  20546151.969 5 109715324.173 5     -1917.750          30.000    20546143.508 6  85334098.580 6     -1491.580          37.000
R10  19570334.422 5 104320901.873 5       447.086          33.000
R20  20153211.250 6 107768268.323 6      2010.492          37.000    20153214.094 7  83819769.541 7      1563.713          46.000
C12  23575134.125 7 122761975.461 7      3012.191          46.000    23575130.547 7  94927365.786 7      2329.233          45.000
C24  21970527.938 7 114406397.452 7       782.902          43.000
C26  22538510.320 8 117363903.621 8     -1779.406          51.000
E07  27037447.523 6 142082689.088 6     -2894.391          36.000    27037433.609 5 108868550.659 5     -2217.795          33.000
E15  25765513.906 8 135398688.491 8      2905.371          48.000    25765519.820 8 103747053.715 8      2226.211          50.000
E30  22839831.289 8 120024084.633 8     -1091.668          48.000    22839831.617 8  91966499.988 8      -836.410          49.000
> 2020 05 12 09 15 30.0000000  0 14        .000000000000
G12  20197967.656 8 106141031.297 8      -770.699          51.000    20197966.312 8  82707291.220 8      -600.545          51.000
G24  21521225.828 8 113094779.631 8     -2513.188          51.000    21521225.617 8  88125807.492 8     -1958.328          51.000
G25  20495479.445 5 107704472.611 5      1175.422          34.000    20495479.852 5  83925564.237 5       915.919          34.000
G29  22830619.664 5 119975708.630 5      3463.777          35.000    22830622.898 5  93487565.886 5      2699.053          35.000
G32  22157394.430 6 116437911.237 6       378.215          36.000    22157388.570 5  90730801.222 5       294.713          33.000
R08  23098496.242 7 123691403.233 7     -3612.414          42.000    23098503.711 6  96204439.851 6     -2809.655          38.000
R09  20556951.320 4 109772918.614 4     -1930.055          29.000    20556953.359 6  85378965.983 6     -1501.154          38.000
R10  19567853.250 5 104307678.384 5       433.156          30.000
R20  20142006.094 6 107708363.487 6      1982.340          36.000    20142012.039 8  83773176.848 8      1541.820          48.000
C12  23557807.789 7 122671748.369 7      3001.828          47.000    23557804.328 7  94857596.545 7      2321.095          47.000
C24  21966045.578 7 114383054.836 7       772.012          44.000
C26  22548787.922 8 117417421.614 8     -1789.633          51.000
E15  25748945.750 8 135311619.189 8      2898.137          50.000    25748951.875 8 103680338.287 8      2220.578          50.000
E30  22846078.133 7 120056913.892 7     -1098.152          47.000    22846078.070 7  91991654.859 7      -841.411          47.000
> 2020 05 12 09 16  0.0000000  0 13        .000000000000
G12  20202420.828 8 106164432.786 8      -775.156          51.000    20202419.719 8  82725526.135 8      -604.018          51.000
G24  21535626.352 8 113170457.620 8     -2517.793          48.000    21535626.352 8  88184777.330 8     -1961.917          48.000
G25  20488820.359 6 107669478.398 6      1171.316          36.000    20488821.453 5  83898295.987 5       912.711          34.000
G29  22810892.219 6 119872023.680 6      3462.379          41.000    22810884.609 7  93406772.579 7      2697.964          42.000
G32  22155313.852 5 116426961.621 5       364.938          35.000
R08  23118777.305 7 123800013.314 7     -3613.895          42.000    23118786.992 6  96288914.314 6     -2810.810          40.000
R10  19565469.398 5 104294978.511 5       427.801          31.000
R20  20130977.492 6 107649383.679 6      1963.984          39.000    20130983.820 8  83727303.628 8      1527.543          50.000
C12  23540561.250 7 122581936.436 7      2999.707          47.000    23540558.547 8  94788148.257 8      2319.639          49.000
C24  21961645.656 7 114360141.066 7       769.625          45.000
C26  22559143.414 8 117471345.570 8     -1791.246          51.000
E15  25732439.352 8 135224873.151 8      2899.266          51.000    25732444.867 8 103613870.544 8      2221.542          50.000
E30  22852381.031 7 120090038.947 7     -1096.047          47.000    22852381.047 7  92017036.372 7      -839.807          47.000
> 2020 05 12 09 16 30.0000000  0 13        .000000000000
G12  20206925.844 8 106188106.505 8      -786.250          51.000    20206924.719 8  82743973.183 8      -612.662          51.000
G24  21550078.992 7 113246411.649 7     -2529.207          46.000    21550079.984 7  88243962.288 7     -1970.811          46.000
G25  20482212.961 6 107634753.083 6      1160.648          37.000    20482213.578 6  83871237.170 6       904.401          36.000
G29  22791198.734 7 119768528.210 7      3454.031          46.000    22791191.188 7  93326126.889 7      2691.456          45.000
G32  22153330.086 4 116416546.002 4       345.430          29.000
R08  23139094.445 7 123908806.786 7     -3621.828          42.000    23139104.656 6  96373531.385 6     -2816.980          41.000
R09  20578793.773 5 109889629.563 5     -1945.207          35.000    20578798.867 6  85469710.313 6     -1512.936          41.000
R20  20120080.406 6 107591107.376 6      1938.387          41.000    20120085.867 8  83681977.623 8      1507.634          50.000
C12  23523352.375 7 122492323.215 7      2991.168          47.000    23523350.781 8  94718853.648 8      2312.767          51.000
C24  21957286.109 7 114337438.538 7       760.480          45.000
C26  22569534.719 8 117525456.763 8     -1799.547          51.000
E15  25715952.922 8 135138231.857 8      2893.484          51.000    25715957.664 8 103547483.098 8      2217.073          50.000
E30  22858698.234 7 120123239.242 7     -1100.750          46.000    22858698.695 7  92042475.564 7      -843.447          46.000
> 2020 05 12 09 17  0.0000000  0 13        .000000000000
G12  20211472.594 8 106211999.171 8      -804.785          51.000    20211471.078 8  82762590.828 8      -627.105          51.000
G24  21564574.148 7 113322588.354 7     -2547.586          47.000    21564576.297 7  88303320.757 7     -1985.135          47.000
G25  20475646.500 5 107600244.245 5      1141.742          35.000    20475651.703 5  83844347.151 5       889.672          35.000
G29  22771531.852 7 119665171.761 7      3438.215          47.000    22771525.125 7  93245589.467 7      2679.131          47.000
R08  23159435.625 7 124017725.762 7     -3637.441          42.000    23159444.805 6  96458246.074 6     -2829.124          41.000
R09  20589776.273 5 109948286.485 5     -1963.730          35.000    20589781.828 6  85515332.315 6     -1527.352          39.000
R10  19560863.586 5 104270404.326 5       396.566          31.000
R20  20109306.352 7 107533492.087 7      1904.871          42.000    20109310.734 8  83637175.635 8      1481.566          50.000
C12  23506171.391 7 122402858.630 7      2974.961          47.000    23506171.195 8  94649673.939 8      2300.462          51.000
C24  21952956.734 7 114314895.997 7       744.160          45.000
C26  22579951.672 8 117579702.883 8     -1815.086          50.000
E15  25699476.688 8 135051644.625 8      2880.684          51.000    25699479.867 8 103481137.074 8      2207.253          48.000
E30  22865019.992 7 120156462.184 7     -1112.414          47.000    22865021.273 7  92067932.098 7      -852.357          46.000
> 2020 05 12 09 17 30.0000000  0 15        .000000000000
G02  23187523.938 5 121851259.960 5      1223.492          30.000
G12  20216120.414 8 106236423.103 8      -812.863          51.000    20216118.414 8  82781622.456 8      -633.400          51.000
