     3.04           OBSERVATION DATA    M (MIXED)           RINEX VERSION / TYPE
Convert 2.6.2       NovAtel             20200515 161113 UTC PGM / RUN BY / DATE 
Rinex Version 3.04 Observation File                         COMMENT             
                                                            MARKER NAME         
                                                            MARKER NUMBER       
                                                            MARKER TYPE         
                                                            OBSERVER / AGENCY   
                    NovAtel GPSCard                         REC # / TYPE / VERS 
                                                            ANT # / TYPE        
        0.0000        0.0000        0.0000                  APPROX POSITION XYZ 
        0.0000        0.0000        0.0000                  ANTENNA: DELTA H/E/N
G    8 C1C L1C D1C S1C C2W L2W D2W S2W                      SYS / # / OBS TYPES 
R    8 C1C L1C D1C S1C C2P L2P D2P S2P                      SYS / # / OBS TYPES 
E    8 C1C L1C D1C S1C C7Q L7Q D7Q S7Q                      SYS / # / OBS TYPES 
C    8 C2I L2I D2I S2I C7I L7I D7I S7I                      SYS / # / OBS TYPES 
DBHZ                                                        SIGNAL STRENGTH UNIT
    30.000                                                  INTERVAL            
  2020    05    13    06    00    0.0000000     GPS         TIME OF FIRST OBS   
  2020    05    13    06    59   30.0000000     GPS         TIME OF LAST OBS    
G L1C  0.00000  09 G15 G17 G13 G19 G12 G28 G20 G24 G25      SYS / PHASE SHIFT   
G L2W  0.00000  08 G15 G13 G19 G12 G17 G24 G28 G25          SYS / PHASE SHIFT   
R L1C  0.00000  06 R10 R09 R07 R18 R11 R08                  SYS / PHASE SHIFT   
R L2P  0.25000  05 R09 R07 R18 R11 R08                      SYS / PHASE SHIFT   
E L1C  0.50000  05 E24 E05 E25 E09 E31                      SYS / PHASE SHIFT   
E L7Q -0.25000  05 E24 E05 E25 E09 E31                      SYS / PHASE SHIFT   
C L2I  0.00000  05 C22 C05 C21 C29 C30                      SYS / PHASE SHIFT   
C L7I  0.00000  01 C05                                      SYS / PHASE SHIFT   
  6 R10 -7 R09 -2 R07  5 R18 -3 R11  0 R08  6               GLONASS SLOT / FRQ #
 C1C  -71.950 C2C  -71.950 C2P  -71.950                     GLONASS COD/PHS/BIS 
     0     0     0     0GPS                                 LEAP SECONDS        
                                                            END OF HEADER       
> 2020 05 13 06 00  0.0000000  0 15      -0.000000000000
G15  20410008.703 8 107255314.530 8      -785.512          51.000    20410007.938 8  83575576.481 8      -612.087          51.000  
G17  22565757.992 6 118583869.23426      1055.414          36.000                                                                  
G13  21039996.539 8 110565923.160 8     -2152.344          51.000    21039993.625 7  86155259.252 7     -1677.155          44.000  
G19  22936904.773 7 120534235.902 7      2834.883          45.000    22936904.289 7  93922780.083 7      2209.003          43.000  
G12  23864937.156 6 125411059.478 6      3752.422          39.000    23864928.805 4  97722887.834 4      2923.963          25.000  
R10  20170982.336 5 107522282.705 5      1580.125          33.000                                                                  
R09  19513301.562 5 104199531.540 5      -951.539          35.000    19513301.289 5  81044086.330 5      -740.083          35.000  
R07  20191098.711 8 108084155.482 8     -2782.871          51.000    20191100.805 7  84065445.589 7     -2164.456          47.000  
R18  22886229.812 5 122167835.222 5       170.449          35.000    22886227.961 4  95019436.772 4       132.566          27.000  
E24  21591618.742 8 113464713.559 8      -133.543          51.000    21591630.219 8  86940589.001 8      -102.331          51.000  
E05  23670005.188 8 124386718.272 8      -521.312          51.000    23670005.969 8  95309312.577 8      -399.465          51.000  
E25  25607937.852 8 134570600.736 8      2154.559          51.000    25607941.953 8 103112542.061 8      1650.947          51.000  
E09  23872807.484 7 125452423.079 7     -2773.332          46.000    23872808.391 8  96125906.783 8     -2124.992          50.000  
C22  23544695.867 8 122603383.990 8     -2471.352          50.000                                                                  
C05  39772467.586 5 207105675.01525        26.594          34.000    39772463.898 6 160147230.121 6        19.842          36.000  
> 2020 05 13 06 00 30.0000000  0 15      -0.000000000000
G15  20414546.766 8 107279163.005 8      -803.852          51.000    20414546.367 8  83594159.701 8      -626.378          51.000  
G17  22559779.578 5 118552469.579 5      1038.320          33.000    22559785.461 5  92378533.170 5       809.078          33.000  
G13  21052325.734 8 110630712.734 8     -2166.414          51.000    21052322.898 7  86205744.558 7     -1688.118          44.000  
G19  22920756.656 7 120449377.235 7      2823.410          44.000    22920756.562 7  93856656.506 7      2200.063          43.000  
G12  23843533.680 6 125298581.646 6      3747.211          38.000    23843525.203 4  97635248.976 4      2919.918          28.000  
R10  20162126.859 5 107475095.843 5      1566.840          30.000                                                                  
R09  19518685.852 6 104228286.235 6      -964.871          40.000    19518684.953 5  81066451.126 5      -750.458          34.000  
R07  20206756.078 8 108167969.939 8     -2804.109          51.000    20206758.469 7  84130634.609 7     -2180.974          47.000  
R18  22885345.469 5 122163111.631 5       144.758          32.000    22885346.477 5  95015762.919 5       112.586          31.000  
E24  21592410.109 8 113468873.059 8      -142.941          51.000    21592421.617 8  86943776.156 8      -109.503          51.000  
E05  23673021.328 8 124402567.862 8      -534.547          51.000    23673022.352 8  95321457.068 8      -409.627          51.000  
E25  25595658.930 8 134506073.848 8      2147.895          51.000    25595663.273 8 103063099.396 8      1645.793          51.000  
E09  23888658.812 7 125535727.623 7     -2779.609          46.000    23888662.164 8  96189737.578 8     -2129.862          51.000  
C22  23558967.742 8 122677701.238 8     -2482.609          51.000                                                                  
C05  39772319.492 5 207104903.827 5        26.086          35.000    39772315.672 5 160146633.72825        20.374          35.000  
> 2020 05 13 06 01  0.0000000  0 14      -0.000000000000
G15  20419198.750 8 107303610.002 8      -822.961          51.000    20419198.727 8  83613209.269 8      -641.268          51.000  
G17  22553908.828 6 118521587.837 6      1020.773          36.000    22553912.828 6  92354508.246 6       795.405          36.000  
G13  21064743.898 8 110695971.709 8     -2181.191          51.000    21064741.539 7  86256595.685 7     -1699.630          45.000  
G19  22904685.312 7 120364921.343 7      2810.410          45.000    22904684.992 6  93790846.760 6      2189.931          41.000  
G12  23822170.547 5 125186316.730 5      3741.188          32.000                                                                  
R10  20153364.016 5 107428366.839 5      1552.531          33.000                                                                  
R09  19524154.164 6 104257478.983 6      -978.289          38.000    19524149.531 5  81089156.511 5      -760.889          33.000  
R07  20222541.633 8 108252472.673 8     -2826.277          51.000    20222544.117 7  84196358.893 7     -2198.219          46.000  
E24  21593264.539 8 113473362.475 8      -153.262          51.000    21593275.820 8  86947216.099 8      -117.413          51.000  
E05  23676122.688 8 124418864.628 8      -548.887          51.000    23676124.023 8  95333944.200 8      -420.552          51.000  
E25  25583426.703 8 134441794.044 8      2140.430          51.000    25583430.648 8 103013846.033 8      1640.115          51.000  
E09  23904557.008 8 125619272.647 8     -2786.938          49.000    23904561.938 8  96253752.600 8     -2135.429          51.000  
C22  23573314.195 8 122752403.054 8     -2494.523          51.000                                                                  
C05  39772180.727 5 207104181.332 5        25.055          34.000    39772176.797 6 160146074.030 6        19.431          36.000  
> 2020 05 13 06 01 30.0000000  0 14      -0.000000000000
G15  20423927.867 8 107328460.908 8      -839.504          51.000    20423927.672 8  83632573.593 8      -654.159          51.000  
G17  22548112.500 5 118491125.110 5      1005.031          32.000    22548114.750 5  92330770.936 5       783.132          34.000  
G13  21077213.672 8 110761504.631 8     -2193.457          50.000    21077212.789 7  86307660.326 7     -1709.185          46.000  
G19  22888653.719 7 120280676.856 7      2800.023          43.000    22888653.586 6  93725201.721 6      2181.837          41.000  
G12  23800818.844 4 125074146.83524      3738.062          28.000                                                                  
R09  19529664.008 5 104286910.286 5      -989.637          31.000    19529662.000 5  81112047.662 5      -769.715          34.000  
R07  20238418.352 8 108337462.151 8     -2845.535          51.000    20238420.727 7  84262461.741 7     -2213.194          46.000  
R18  22884004.383 6 122155980.280 6        93.898          36.000    22884009.398 5  95010215.976 5        73.026          33.000  
E24  21594144.547 8 113477986.424 8      -160.719          51.000    21594155.555 8  86950759.140 8      -123.232          51.000  
E05  23679272.070 8 124435414.081 8      -560.246          51.000    23679274.031 8  95346624.934 8      -429.298          51.000  
E25  25571204.195 8 134377567.018 8      2135.590          51.000    25571207.320 8 102964633.119 8      1636.302          50.000  
E09  23920464.391 8 125702862.266 8     -2791.348          50.000    23920469.688 8  96317801.797 8     -2138.880          51.000  
C22  23587697.266 8 122827294.507 8     -2503.863          51.000                                                                  
C05  39772014.289 5 207103314.615 5        27.262          34.000    39772010.453 6 160145404.819 6        20.851          36.000  
> 2020 05 13 06 02  0.0000000  0 14      -0.000000000000
G15  20428768.102 8 107353895.762 8      -859.805          51.000    20428767.375 8  83652392.956 8      -669.978          51.000  
G17  22542429.672 5 118461248.77825       985.590          35.000                                                                  
G13  21089769.828 8 110827490.544 8     -2209.359          51.000    21089770.016 7  86359077.942 7     -1721.576          47.000  
G28  22728302.703 5 119438036.19625     -2776.438          32.000                                                                  
G19  22872696.688 6 120196827.618 6      2786.012          41.000    22872696.938 6  93659864.625 6      2170.916          41.000  
G12  23779501.828 5 124962123.897 5      3729.637          32.000                                                                  
R09  19535254.375 5 104316762.227 5     -1004.582          34.000    19535253.578 5  81135265.827 5      -781.339          32.000  
R07  20254419.539 8 108423119.175 8     -2868.617          51.000    20254422.117 7  84329083.834 7     -2231.150          46.000  
E24  21595084.156 8 113482924.641 8      -172.066          51.000    21595095.148 8  86954542.971 8      -131.804          51.000  
E05  23682503.930 8 124452396.714 8      -575.516          51.000    23682506.578 8  95359637.589 8      -440.986          51.000  
E25  25559026.438 8 134313573.529 8      2126.996          51.000    25559028.219 8 102915599.137 8      1629.735          50.000  
E09  23936414.469 8 125786675.681 8     -2799.711          51.000    23936419.469 8  96382022.462 8     -2145.252          51.000  
C22  23602150.492 8 122902552.327 8     -2516.945          51.000                                                                  
C05  39771854.438 5 207102481.56525        25.305          34.000    39771850.734 5 160144761.419 5        19.178          35.000  
> 2020 05 13 06 02 30.0000000  0 16      -0.000000000000
G15  20433727.672 8 107379958.236 8      -875.371          51.000    20433726.781 8  83672701.354 8      -682.108          51.000  
G17  22536846.328 5 118431939.559 5       970.652          35.000    22536847.023 5  92284617.485 5       756.353          35.000  
G13  21102421.227 8 110893972.993 8     -2220.488          51.000    21102421.391 7  86410882.440 7     -1730.251          47.000  
G28  22744158.289 5 119521357.95525     -2780.348          31.000                                                                  
G19  22856825.188 7 120113421.214 7      2776.316          44.000    22856824.359 6  93594872.586 6      2163.361          39.000  
G12  23758227.633 5 124850331.583 5      3726.461          33.000    23758224.336 3  97285954.967 3      2903.737          20.000  
R10  20127476.133 5 107290348.130 5      1514.410          33.000                                                                  
R09  19540930.555 5 104347077.468 5     -1013.883          35.000    19540929.664 5  81158844.309 5      -788.576          31.000  
R07  20270552.617 8 108509485.374 8     -2886.734          50.000    20270555.805 7  84396257.536 7     -2245.241          47.000  
R18  22883251.656 5 122151959.15925        42.203          32.000    22883252.570 4  95007086.21924        32.825          29.000  
E24  21596091.984 8 113488220.498 8      -178.660          51.000    21596103.039 8  86958600.829 8      -136.872          51.000  
E05  23685826.469 8 124469856.713 8      -586.090          51.000    23685829.750 8  95373016.016 8      -449.082          51.000  
E25  25546902.062 8 134249857.958 8      2123.195          51.000    25546902.734 8 102866778.125 8      1626.847          50.000  
E09  23952415.156 8 125870755.761 8     -2803.281          51.000    23952419.641 8  96446447.460 8     -2147.925          51.000  
C22  23616681.336 8 122978218.195 8     -2525.215          51.000                                                                  
C05                                                                  39771706.000 5 160144178.728 5        21.503          35.000  
> 2020 05 13 06 03  0.0000000  0 15      -0.000000000000
G15  20438777.578 8 107406495.470 8      -890.566          51.000    20438776.680 8  83693379.704 8      -693.948          51.000  
G17  22531352.352 5 118403054.80525       957.066          30.000    22531355.422 4  92262128.44524       745.751          25.000  
G13  21115138.023 8 110960798.236 8     -2231.324          51.000    21115137.742 7  86462954.038 7     -1738.695          47.000  
G19  22841010.547 7 120030308.425 7      2767.430          46.000    22841007.719 6  93530109.385 6      2156.439          38.000  
G12  23736973.047 5 124738633.931 5      3723.484          32.000                                                                  
R09  19546664.531 6 104377699.905 6     -1023.723          36.000    19546666.586 5  81182661.780 5      -796.226          33.000  
R07  20286788.734 8 108596401.968 8     -2904.418          49.000    20286792.312 7  84463859.348 7     -2258.992          47.000  
R18  22883084.781 6 122151081.886 6        19.578          36.000    22883090.250 5  95006403.714 5        15.227          31.000  
E24  21597138.633 8 113493720.760 8      -184.840          51.000    21597149.898 8  86962815.310 8      -141.616          51.000  
E05  23689210.586 8 124487641.670 8      -596.387          51.000    23689214.289 8  95386643.433 8      -456.966          51.000  
E25  25534801.586 8 134186268.172 8      2119.387          51.000    25534801.766 8 102818053.496 8      1624.006          50.000  
E31  25772151.648 5 135433560.163 5     -2283.797          32.000                                                                  
E09  23968437.008 8 125954948.711 8     -2806.410          51.000    23968441.398 8  96510958.944 8     -2150.323          51.000  
C22  23631260.320 8 123054138.831 8     -2532.969          50.000                                                                  
C05  39771550.922 5 207100900.899 5        30.812          33.000    39771547.258 6 160143539.841 6        24.010          36.000  
> 2020 05 13 06 03 30.0000000  0 14      -0.000000000000
G15  20443943.445 8 107433641.846 8      -915.133          51.000    20443942.336 8  83714532.718 8      -713.088          51.000  
G13  21127945.375 8 111028100.048 8     -2251.328          51.000    21127944.438 7  86515396.966 7     -1754.282          47.000  
G19  22825277.875 8 119947626.739 8      2748.758          48.000    22825273.867 6  93465682.173 6      2141.893          38.000  
R10  20110586.172 5 107200402.532 5      1483.883          34.000                                                                  
R09  19552482.164 5 104408764.561 5     -1043.156          35.000    19552484.906 4  81206823.258 4      -811.341          26.000  
R07  20303153.852 8 108684003.100 8     -2931.543          51.000    20303157.094 8  84531993.562 8     -2280.089          48.000  
R18  22883078.859 5 122151049.477 5       -12.695          35.000    22883085.359 4  95006378.675 4        -9.868          24.000  
E24  21598249.680 8 113499559.163 8      -200.117          51.000    21598260.867 8  86967288.890 8      -153.322          51.000  
E05  23692682.016 8 124505886.121 8      -615.770          51.000    23692686.039 8  95400622.934 8      -471.815          51.000  
E25  25522750.062 8 134122938.950 8      2106.762          49.000    25522750.891 8 102769528.531 8      1614.252          51.000  
E31  25785227.672 5 135502284.785 5     -2293.535          33.000                                                                  
E09  23984505.383 8 126039387.773 8     -2818.613          51.000    23984510.164 8  96575659.016 8     -2159.706          49.000  
C22  23645913.430 8 123130445.528 8     -2550.117          49.000                                                                  
C05  39771403.766 5 207100135.50325        24.031          33.000    39771400.156 5 160142947.998 5        18.906          35.000  
> 2020 05 13 06 04  0.0000000  0 13      -0.000000000000
G15  20449208.688 8 107461310.688 8      -931.426          51.000    20449207.508 8  83736092.869 8      -725.787          51.000  
G13  21140826.727 8 111095790.965 8     -2263.168          51.000    21140825.273 7  86568143.086 7     -1763.511          47.000  
G19  22809611.328 8 119865293.699 8      2738.262          49.000    22809606.852 6  93401526.590 6      2133.714          39.000  
R10  20102260.969 5 107156022.055 5      1473.406          30.000                                                                  
R09  19558364.867 5 104440182.564 5     -1053.457          35.000    19558360.383 4  81231221.84724      -819.356          27.000  
R07  20319630.789 8 108772198.170 8     -2950.074          51.000    20319633.188 8  84600589.691 8     -2294.503          48.000  
R18  22883215.781 5 122151775.060 5       -36.773          35.000                                                                  
E24  21599408.680 8 113505649.187 8      -207.527          51.000    21599419.688 8  86971955.260 8      -158.976          51.000  
E05  23696224.625 8 124524504.332 8      -627.191          51.000    23696228.812 8  95414888.816 8      -480.522          51.000  
E25  25510731.734 8 134059784.849 8      2101.797          49.000    25510733.695 8 102721137.721 8      1610.531          51.000  
E09  24000603.938 8 126123985.911 8     -2822.945          51.000    24000610.172 7  96640480.993 7     -2163.010          44.000  
C22  23660624.156 8 123207051.182 8     -2558.785          48.000                                                                  
C05  39771252.117 5 207099345.78925        26.219          34.000    39771248.492 5 160142336.323 5        20.337          35.000  
> 2020 05 13 06 04 30.0000000  0 12      -0.000000000000
G15  20454573.125 8 107489501.886 8      -948.766          51.000    20454572.297 8  83758060.025 8      -739.301          51.000  
G13  21153781.852 8 111163870.286 8     -2276.238          51.000    21153780.586 8  86621191.869 8     -1773.693          48.000  
G19  22794011.234 8 119783312.995 8      2726.270          48.000    22794006.977 6  93337645.584 6      2124.366          41.000  
R09  19564313.844 6 104471952.499 6     -1065.430          37.000    19564318.562 5  81255931.286 5      -828.668          31.000  
R07  20336218.086 8 108860983.655 8     -2969.707          51.000    20336219.320 8  84669645.037 8     -2309.773          48.000  
R18  22883494.156 5 122153258.652 5       -62.512          35.000    22883497.727 5  95008099.753 5       -48.617          32.000  
E24  21600615.219 8 113511989.937 8      -216.031          51.000    21600626.562 8  86976813.770 8      -165.575          51.000  
E05  23699838.523 8 124543496.184 8      -639.820          51.000    23699842.523 8  95429441.005 8      -490.231          51.000  
E25  25498747.141 8 133996806.005 8      2095.961          50.000    25498749.844 8 102672881.226 8      1605.913          51.000  
E09  24016732.719 8 126208741.740 8     -2828.289          51.000    24016745.719 6  96705423.928 6     -2167.237          40.000  
C22  23675391.875 8 123283953.559 8     -2568.801          48.000                                                                  
C05  39771095.820 5 207098531.75525        27.387          34.000    39771092.141 5 160141706.839 5        21.062          35.000  
> 2020 05 13 06 05  0.0000000  0 14      -0.000000000000
G15  20460026.969 8 107518162.300 8      -967.617          51.000    20460026.523 8  83780392.808 8      -753.988          51.000  
G13  21166800.469 8 111232284.769 8     -2290.566          51.000    21166799.992 8  86674501.832 8     -1784.857          48.000  
G28  22824026.375 5 119941045.351 5     -2814.105          33.000                                                                  
G19  22778467.875 7 119701635.400 7      2712.938          44.000    22778464.203 6  93274000.721 6      2113.981          41.000  
R10  20085817.656 5 107068323.87925      1446.066          30.000                                                                  
R09  19570319.125 6 104504019.305 6     -1078.082          37.000    19570321.781 4  81280872.228 4      -838.511          29.000  
R07  20352904.266 8 108950302.861 8     -2990.730          51.000    20352904.984 8  84739115.519 8     -2326.124          48.000  
R18  22883905.227 5 122155447.724 5       -89.289          32.000    22883906.883 5  95009802.382 5       -69.444          33.000  
E24  21601859.492 8 113518528.425 8      -225.586          51.000    21601871.039 8  86981823.786 8      -172.873          51.000  
E05  23703513.664 8 124562809.448 8      -653.527          51.000    23703517.117 8  95444239.470 8      -500.773          51.000  
E25  25486786.422 8 133933950.462 8      2088.707          51.000    25486789.539 8 102624719.201 8      1600.478          51.000  
E09  24032881.391 8 126293601.723 8     -2834.746          51.000    24032898.406 6  96770446.650 6     -2172.244          41.000  
C22  23690206.586 8 123361098.740 8     -2579.934          48.000                                                                  
C05  39770925.023 5 207097642.732 5        26.445          33.000    39770920.961 5 160141017.604 5        20.467          35.000  
> 2020 05 13 06 05 30.0000000  0 13      -0.000000000000
G15  20465610.562 8 107547503.652 8      -997.438          51.000    20465610.234 8  83803256.193 8      -777.224          51.000  
G13  21179923.109 8 111301245.735 8     -2315.742          51.000    21179923.094 8  86728237.667 8     -1804.472          48.000  
G28  22840117.617 5 120025604.465 5     -2831.785          30.000                                                                  
G19  22763021.633 6 119620475.686 6      2689.090          38.000    22763019.789 6  93210759.457 6      2095.398          37.000  
R10  20077731.461 5 107025221.70125      1420.988          32.000                                                                  
R09  19576420.102 6 104536597.058 6     -1102.480          36.000    19576417.531 4  81306242.438 4      -857.485          29.000  
R07  20369728.852 8 109040369.070 8     -3022.727          50.000    20369730.203 8  84809167.035 8     -2351.010          49.000  
E24  21603181.680 8 113525476.123 8      -246.332          51.000    21603192.961 8  86987147.334 8      -188.742          51.000  
E05  23707290.180 8 124582656.380 8      -678.418          51.000    23707293.102 8  95459446.832 8      -519.809          51.000  
E25  25474890.016 8 133871447.719 8      2070.371          51.000    25474893.156 8 102576836.481 8      1586.326          51.000  
E09  24049089.992 8 126378776.849 8     -2852.297          51.000    24049102.133 7  96835710.779 7     -2185.617          47.000  
C22  23705108.469 8 123438694.919 8     -2602.004          49.000                                                                  
C05  39770779.961 5 207096886.96725        15.035          34.000    39770775.875 5 160140433.183 5        11.747          34.000  
> 2020 05 13 06 06  0.0000000  0 14      -0.000000000000
G15  20471320.320 8 107577507.759 8      -996.301          51.000    20471319.828 8  83826636.009 8      -776.339          51.000  
G17  22500563.258 5 118241237.568 5       854.305          33.000    22500564.828 5  92136050.014 5       665.692          34.000  
G13  21193146.273 8 111370733.636 8     -2310.156          51.000    21193146.438 8  86782384.106 8     -1800.122          48.000  
G20  23217496.609 5 122008784.211 5      -358.277          35.000                                                                  
G19  22747672.031 6 119539819.762 6      2694.391          37.000    22747671.586 6  93147910.703 6      2099.526          37.000  
R10  20069720.633 5 106982605.656 5      1426.996          31.000                                                                  
R09  19582612.922 5 104569666.159 5     -1094.938          34.000    19582610.852 5  81331962.805 5      -851.621          30.000  
R07  20386688.531 8 109131160.200 8     -3023.289          50.000    20386690.953 8  84879782.358 8     -2351.448          48.000  
E24  21604577.945 8 113532814.262 8      -236.277          51.000    21604589.211 8  86992770.063 8      -181.092          51.000  
E05  23711164.898 8 124603018.963 8      -672.473          51.000    23711167.477 8  95475049.302 8      -515.284          51.000  
E25  25463053.414 8 133809246.068 8      2082.906          51.000    25463056.398 8 102529175.474 8      1596.009          51.000  
E09  24065354.672 8 126464247.828 8     -2839.133          51.000    24065361.586 8  96901201.550 8     -2175.450          51.000  
C22  23720093.695 8 123516722.197 8     -2593.414          51.000                                                                  
C05                                                                  39770653.055 5 160139938.886 5        26.007          35.000  
> 2020 05 13 06 06 30.0000000  0 14      -0.000000000000
G15  20477072.078 8 107607732.257 8     -1022.473          51.000    20477071.352 8  83850187.554 8      -796.732          51.000  
G17  22495745.141 5 118215932.312 5       828.375          30.000    22495744.805 4  92116331.712 4       645.490          27.000  
G13  21206385.609 8 111440305.735 8     -2331.828          51.000    21206385.852 8  86836596.133 8     -1817.010          48.000  
G20  23219604.820 5 122019861.728 5      -385.320          33.000                                                                  
G19  22732335.180 6 119459229.179 6      2674.090          37.000    22732335.539 6  93085112.753 6      2083.707          37.000  
R09  19588812.383 6 104602775.998 6     -1115.902          36.000    19588811.750 5  81357714.894 5      -867.927          30.000  
R07  20403699.070 8 109222222.819 8     -3051.441          50.000    20403701.922 7  84950608.829 7     -2373.344          47.000  
R18  22886077.273 5 122167032.89325      -167.734          34.000                                                                  
E24  21605964.305 8 113540100.153 8      -253.309          51.000    21605975.891 8  86998352.759 8      -194.094          51.000  
E05  23715054.055 8 124623455.234 8      -693.789          51.000    23715056.289 8  95490708.249 8      -531.653          51.000  
E25  25451193.203 8 133746920.865 8      2068.207          50.000    25451195.906 8 102481419.798 8      1584.716          51.000  
E09  24081590.875 8 126549571.388 8     -2852.938          51.000    24081594.727 8  96966579.343 8     -2186.042          51.000  
C22  23735077.570 8 123594740.522 8     -2611.707          51.000                                                                  
C05                                                                  39770468.586 5 160139196.058 5        20.256          35.000  
> 2020 05 13 06 07  0.0000000  0 13      -0.000000000000
G15  20482960.422 8 107638674.971 8     -1039.965          51.000    20482959.547 8  83874298.733 8      -810.365          51.000  
G13  21219735.508 8 111510459.312 8     -2344.684          51.000    21219735.875 7  86891261.244 7     -1827.024          47.000  
G20  23221851.891 5 122031670.034 5      -403.094          35.000                                                                  
G19  22717107.133 7 119379205.127 7      2661.562          42.000    22717108.219 6  93022756.272 6      2073.945          41.000  
R09  19595115.203 6 104636431.550 6     -1127.594          36.000    19595115.133 5  81383891.351 5      -877.021          33.000  
R07  20420855.242 8 109314061.380 8     -3070.664          51.000    20420857.477 7  85022038.813 7     -2388.295          46.000  
R18  22887093.344 6 122172462.326 6      -193.332          37.000    22887099.062 5  95023064.087 5      -150.366          33.000  
E24  21607435.555 8 113547831.437 8      -261.590          51.000    21607447.391 8  87004276.716 8      -200.433          51.000  
E05  23719052.000 8 124644463.595 8      -706.312          51.000    23719054.148 8  95506805.558 8      -541.231          51.000  
E25  25439404.266 8 133684970.805 8      2062.320          50.000    25439406.797 8 102433951.564 8      1580.277          51.000  
E31  25877191.023 5 135985530.280 5     -2311.305          34.000                                                                  
E09  24097892.977 8 126635244.647 8     -2858.047          49.000    24097896.016 8  97032225.103 8     -2189.951          51.000  
C22  23750153.906 8 123673241.617 8     -2621.262          50.000                                                                  
> 2020 05 13 06 07 30.0000000  0 13      -0.000000000000
G15  20488947.883 8 107670138.921 8     -1049.391          51.000    20488946.914 8  83898816.065 8      -817.707          51.000  
G13  21233158.484 8 111580997.083 8     -2349.703          51.000    21233158.484 7  86946225.707 7     -1830.938          46.000  
G28  22904807.406 5 120365544.583 5     -2836.453          34.000                                                                  
G19  22701950.922 7 119299554.511 7      2656.430          44.000    22701952.031 6  92960690.899 6      2069.946          41.000  
R09  19601483.617 5 104670431.350 5     -1131.133          34.000    19601483.250 5  81410335.638 5      -879.770          32.000  
R07  20438118.695 8 109406472.593 8     -3081.676          51.000    20438119.672 7  85093914.168 7     -2396.863          45.000  
R18  22888252.117 5 122178654.297 5      -210.508          30.000    22888257.992 5  95027880.160 5      -163.722          33.000  
E24  21608954.117 8 113555811.195 8      -262.301          51.000    21608965.992 8  87010391.062 8      -200.984          51.000  
E05  23723121.188 8 124665847.869 8      -711.172          51.000    23723123.406 8  95523190.896 8      -544.885          51.000  
E25  25427649.578 8 133623199.956 8      2063.773          50.000    25427652.078 8 102386620.660 8      1581.457          51.000  
E09  24114223.453 8 126721070.197 8     -2855.520          48.000    24114227.359 8  97097987.573 8     -2188.030          51.000  
C22  23765284.125 8 123752029.011 8     -2623.285          48.000                                                                  
C05                                                                  39770161.617 5 160137960.549 5        26.952          34.000  
> 2020 05 13 06 08  0.0000000  0 13      -0.000000000000
G15  20495015.172 8 107702022.284 8     -1080.906          51.000    20495014.062 8  83923660.224 8      -842.268          51.000  
G13  21246634.969 8 111651816.538 8     -2376.562          51.000    21246634.312 7  87001409.660 7     -1851.867          45.000  
G28  22921040.586 6 120450855.676 6     -2855.656          36.000                                                                  
G19  22686847.328 7 119220179.566 7      2630.238          44.000    22686848.078 7  92898840.327 7      2049.540          43.000  
R10  20038318.633 5 106815146.192 5      1361.898          32.000                                                                  
R09  19607895.750 6 104704671.111 6     -1156.852          41.000    19607893.961 5  81436966.588 5      -899.777          30.000  
R07  20455468.758 8 109499349.698 8     -3115.125          50.000    20455469.172 7  85166151.889 7     -2422.875          46.000  
R18  22889536.789 5 122185460.842 5      -251.098          31.000    22889541.195 5  95033174.261 5      -195.292          33.000  
E24  21610500.398 8 113563937.348 8      -284.391          51.000    21610512.398 8  87016617.593 8      -217.952          51.000  
E05  23727242.680 8 124687506.701 8      -737.648          51.000    23727244.773 8  95539786.611 8      -565.208          51.000  
E25  25415909.922 8 133561507.328 8      2044.023          50.000    25415912.555 8 102339349.690 8      1566.213          51.000  
E09  24130563.867 8 126806945.477 8     -2874.492          48.000    24130568.703 8  97163788.141 8     -2202.543          51.000  
C22  23780447.492 7 123831000.102 7     -2646.602          43.000                                                                  
> 2020 05 13 06 08 30.0000000  0 15      -0.000000000000
G15  20501229.695 8 107734680.246 8     -1095.434          51.000    20501228.664 8  83949107.966 8      -853.585          51.000  
G17  22477615.125 5 118120673.955 5       756.523          32.000    22477619.625 5  92042067.970 5       589.505          32.000  
G13  21260232.445 8 111723272.229 8     -2386.359          51.000    21260231.422 7  87057089.365 7     -1859.504          45.000  
G19  22671864.023 7 119141439.372 7      2620.113          44.000    22671864.922 7  92837484.417 7      2041.650          43.000  
G12  23505478.117 5 123522117.958 5      3651.137          33.000    23505472.375 5  96250992.147 5      2845.036          34.000  
R10  20030686.219 5 106774473.834 5      1351.535          32.000                                                                  
R09  19614420.977 6 104739510.740 6     -1165.457          38.000    19614417.547 5  81464063.988 5      -906.467          32.000  
R07  20472972.633 8 109593051.850 8     -3131.008          50.000    20472973.656 7  85239031.311 7     -2435.229          47.000  
R18  22891012.055 5 122193333.011 5      -273.629          34.000    22891015.211 5  95039297.042 5      -212.823          33.000  
E24  21612142.141 8 113572564.764 8      -289.859          51.000    21612154.023 8  87023228.195 8      -222.079          51.000  
E05  23731484.414 8 124709795.633 8      -747.418          51.000    23731486.148 8  95556865.130 8      -572.679          51.000  
E25  25404252.820 8 133500248.777 8      2040.812          50.000    25404255.492 8 102292411.321 8      1563.779          50.000  
E09  24146982.086 8 126893224.810 8     -2876.637          48.000    24146987.227 8  97229898.279 8     -2204.115          51.000  
C22  23795711.891 7 123910505.104 7     -2652.980          42.000                                                                  
C05                                                                  39769848.016 5 160136697.534 5        19.996          35.000  
> 2020 05 13 06 09  0.0000000  0 14      -0.000000000000
G15  20507518.320 8 107767728.440 8     -1111.062          51.000    20507517.516 8  83974859.802 8      -865.763          51.000  
G13  21273877.859 8 111794979.174 8     -2397.379          51.000    21273876.828 7  87112964.867 7     -1868.088          45.000  
G19  22656928.945 7 119062952.885 7      2609.094          45.000    22656929.242 7  92776326.135 7      2033.061          42.000  
G12  23484639.891 5 123412615.19425      3646.562          32.000    23484633.391 5  96165659.91725      2841.475          32.000  
R10  20023102.469 5 106734048.533 5      1340.578          33.000                                                                  
R09  19620983.172 5 104774558.570 5     -1175.152          34.000    19620982.547 5  81491323.492 5      -914.005          34.000  
R07  20490556.859 8 109687184.163 8     -3148.000          49.000    20490559.102 7  85312245.339 7     -2448.442          47.000  
R18  22892605.180 5 122201836.277 5      -296.574          32.000    22892606.273 5  95045910.691 5      -230.669          30.000  
E24  21613806.016 8 113581308.727 8      -296.434          51.000    21613817.617 8  87029928.107 8      -227.087          51.000  
E05  23735773.172 8 124732330.649 8      -758.262          51.000    23735774.484 8  95574132.214 8      -581.003          51.000  
E25  25392604.781 8 133439040.602 8      2036.402          49.000    25392607.539 8 102245511.578 8      1560.355          50.000  
E09  24163404.562 8 126979522.925 8     -2879.867          50.000    24163409.438 8  97296022.804 8     -2206.680          51.000  
C22  23811009.359 7 123990161.560 7     -2660.715          46.000                                                                  
C05                                                                  39769684.562 5 160136039.044 5        21.863          34.000  
> 2020 05 13 06 09 30.0000000  0 16      -0.000000000000
G24  21202991.336 5 111422468.44625      1965.320          30.000    21202984.359 4  86822680.69824      1531.416          29.000  
G15  20513912.828 8 107801333.694 8     -1127.965          51.000    20513912.391 8  84001045.710 8      -878.934          51.000  
G13  21287602.648 8 111867103.756 8     -2409.555          51.000    21287601.883 7  87169165.834 7     -1877.573          45.000  
G28  22970024.094 5 120708289.220 5     -2866.449          31.000                                                                  
G19  22642074.648 7 118984890.883 7      2596.289          46.000    22642073.844 6  92715498.587 6      2023.083          41.000  
G12  23463841.461 5 123303319.994 5      3641.316          33.000    23463835.648 5  96080493.327 5      2837.390          34.000  
R10  20015596.414 5 106694040.021 5      1328.262          32.000                                                                  
R09  19627616.914 6 104809983.147 6     -1185.703          40.000    19627617.211 5  81518876.005 5      -922.217          34.000  
R07  20508253.328 8 109781914.116 8     -3166.043          51.000    20508256.430 8  85385924.187 8     -2462.478          48.000  
R18  22894348.031 5 122211140.569 5      -322.367          30.000    22894349.117 4  95053147.413 4      -250.724          25.000  
E24  21615523.547 8 113590336.039 8      -304.102          51.000    21615535.281 8  87036845.154 8      -233.052          51.000  
E05  23740140.648 8 124755279.248 8      -770.262          51.000    23740141.445 8  95591716.202 8      -590.225          51.000  
E25  25380998.109 8 133378050.674 8      2030.938          48.000    25381001.242 8 102198779.045 8      1556.126          50.000  
E09  24179862.422 8 127066006.083 8     -2884.363          51.000    24179866.758 8  97362289.096 8     -2210.014          51.000  
C22  23826369.430 8 124070133.313 8     -2669.441          49.000                                                                  
C05                                                                  39769524.078 5 160135393.072 5        22.464          34.000  
> 2020 05 13 06 10  0.0000000  0 14      -0.000000000000
G15  20520413.648 8 107835497.439 8     -1149.656          51.000    20520413.477 8  84027666.804 8      -895.836          51.000  
G13  21301406.742 8 111939646.714 8     -2426.539          51.000    21301406.719 7  87225692.812 7     -1890.810          45.000  
G28  22986413.703 5 120794422.536 5     -2875.887          33.000                                                                  
G19  22627302.250 7 118907258.770 7      2578.879          47.000    22627300.312 6  92655006.018 6      2009.517          41.000  
R10  20008167.977 5 106654450.319 5      1311.027          33.000                                                                  
R09  19634321.914 6 104845785.478 6     -1201.195          39.000    19634322.023 6  81546722.257 6      -934.263          36.000  
R07  20526061.586 8 109877240.205 8     -3188.879          51.000    20526064.750 7  85460066.668 7     -2480.243          47.000  
R18  22896240.141 5 122221247.882 5      -351.824          33.000                                                                  
E24  21617295.523 8 113599648.062 8      -316.582          51.000    21617307.344 8  87043980.329 8      -242.576          51.000  
E05  23744587.078 8 124778643.495 8      -787.199          51.000    23744587.398 8  95609618.671 8      -603.203          51.000  
E25  25369433.578 8 133317281.397 8      2020.344          49.000    25369437.203 8 102152215.566 8      1548.107          50.000  
E09  24196355.430 8 127152675.154 8     -2893.508          51.000    24196359.070 8  97428697.825 8     -2217.078          50.000  
C22  23841790.266 8 124150420.350 8     -2683.004          51.000                                                                  
C05                                                                  39769367.117 5 160134761.088 5        20.026          34.000  
> 2020 05 13 06 10 30.0000000  0 14      -0.000000000000
G24  21180695.734 5 111305309.596 5      1944.289          34.000    21180685.852 5  86731382.259 5      1515.028          35.000  
G15  20527019.648 8 107870213.278 8     -1166.102          51.000    20527019.578 8  84054718.114 8      -908.651          50.000  
G13  21315289.320 8 112012602.037 8     -2438.430          51.000    21315289.922 7  87282541.100 7     -1900.076          46.000  
G28  23002838.961 4 120880740.096 4     -2880.797          29.000                                                                  
G19  22612611.164 7 118830053.936 7      2566.562          46.000    22612608.320 7  92594846.455 7      1999.922          42.000  
R09  19641095.125 6 104881958.010 6     -1211.523          37.000    19641096.727 6  81574856.448 6      -942.296          36.000  
R07  20543979.617 8 109973153.353 8     -3206.605          51.000    20543982.312 7  85534665.769 7     -2494.027          46.000  
R18  22898282.406 6 122232153.099 6      -376.562          36.000                                                                  
E24  21619120.703 8 113609238.481 8      -323.957          51.000    21619132.516 8  87051328.810 8      -248.194          51.000  
E05  23749111.297 8 124802417.766 8      -799.012          51.000    23749111.562 8  95627835.308 8      -612.173          51.000  
E25  25357910.562 8 133256727.418 8      2015.312          51.000    25357914.961 8 102105817.065 8      1544.252          51.000  
E09  24212882.461 8 127239523.298 8     -2897.535          51.000    24212885.109 8  97495243.740 8     -2220.211          49.000  
C22  23857269.680 8 124231014.971 8     -2691.270          51.000                                                                  
C05                                                                  39769212.539 5 160134138.079 5        21.014          34.000  
> 2020 05 13 06 11  0.0000000  0 15      -0.000000000000
G15  20533738.070 8 107905519.342 8     -1188.039          51.000    20533737.875 8  84082229.308 8      -925.745          51.000  
G13  21329257.758 8 112086006.333 8     -2455.629          51.000    21329258.531 7  87339739.226 7     -1913.481          47.000  
G19  22598008.805 7 118753318.710 7      2548.238          44.000    22598005.570 6  92535052.878 6      1985.644          41.000  
G12  23401681.773 5 122976649.664 5      3614.445          33.000    23401691.766 5  95826000.700 5      2816.452          35.000  
R10  19993561.539 5 106576552.797 5      1282.246          34.000                                                                  
R09  19647945.461 6 104918538.322 6     -1227.469          41.000    19647947.125 6  81603307.728 6      -954.701          36.000  
R07  20562013.602 8 110069689.410 8     -3229.551          51.000    20562015.453 7  85609749.353 7     -2511.876          44.000  
R18  22900482.266 6 122243894.891 6      -406.797          36.000    22900486.961 4  95078639.271 4      -316.401          28.000  
E24  21621005.711 8 113619145.180 8      -336.852          51.000    21621018.078 8  87058919.659 8      -258.050          51.000  
E05  23753720.781 8 124826640.593 8      -816.184          51.000    23753721.289 8  95646395.663 8      -625.439          51.000  
E25  25346436.578 8 133196427.706 8      2004.344          51.000    25346441.773 8 102059613.395 8      1535.773          51.000  
E31  25983208.375 5 136542676.294 5     -2335.691          34.000    25983208.180 5 104623617.077 5     -1789.866          31.000  
E09  24229450.820 8 127326587.812 8     -2906.969          51.000    24229452.648 8  97561955.444 8     -2227.485          49.000  
C22  23872814.414 8 124311953.304 8     -2705.027          51.000                                                                  
C05                                                                  39769067.789 5 160133555.64325        17.722          34.000  
> 2020 05 13 06 11 30.0000000  0 13      -0.000000000000
G15  20540550.383 8 107941317.665 8     -1202.074          51.000    20540550.000 8  84110124.079 8      -936.682          51.000  
G13  21343293.086 8 112159761.215 8     -2464.887          51.000    21343293.672 7  87397210.533 7     -1920.695          47.000  
G19  22583477.695 6 118676958.257 6      2538.531          41.000    22583474.172 6  92475551.286 6      1978.080          39.000  
G12  23381043.484 5 122868193.450 5      3612.211          35.000    23381055.281 5  95741489.440 5      2814.714          35.000  
R10  19986363.781 5 106538180.858 5      1272.742          31.000                                                                  
R09  19654853.305 6 104955426.222 6     -1235.371          36.000    19654854.508 6  81631998.249 6      -960.847          36.000  
R07  20580144.430 8 110166745.548 8     -3244.457          50.000    20580145.172 6  85685237.444 6     -2523.467          41.000  
R18  22902820.797 6 122256374.459 6      -428.855          37.000    22902824.695 5  95088350.464 5      -333.557          30.000  
E24  21622932.281 8 113629270.084 8      -341.668          51.000    21622945.133 8  87066677.706 8      -261.822          51.000  
E05  23758397.141 8 124851214.514 8      -825.523          51.000    23758397.828 8  95665225.045 8      -632.535          51.000  
E25  25334992.609 8 133136285.136 8      2001.570          51.000    25334998.164 8 102013530.133 8      1533.734          51.000  
E09  24246041.617 8 127413770.154 8     -2908.586          51.000    24246043.148 8  97628757.445 8     -2228.724          49.000  
C22  23888404.758 8 124393136.748 8     -2710.742          51.000                                                                  
> 2020 05 13 06 12  0.0000000  0 13      -0.000000000000
G15  20547460.680 8 107977629.898 8     -1219.746          51.000    20547460.000 8  84138419.288 8      -950.452          51.000  
G13  21357399.234 8 112233888.017 8     -2477.891          51.000    21357399.352 7  87454971.647 7     -1930.824          47.000  
G19  22569021.195 6 118600998.772 6      2525.016          39.000    22569019.195 6  92416361.991 6      1967.539          37.000  
G12  23360440.492 6 122759919.831 6      3605.352          36.000    23360452.859 5  95657120.406 5      2809.366          35.000  
R09  19661821.625 6 104992642.652 6     -1246.949          36.000    19661822.133 5  81660944.348 5      -969.850          33.000  
R07  20598375.867 8 110264341.209 8     -3262.898          50.000    20598374.922 6  85761145.129 6     -2537.810          41.000  
R18  22905301.695 4 122269614.552 4      -454.750          29.000    22905306.719 5  95098648.301 5      -353.695          30.000  
E24  21624904.727 8 113639634.751 8      -350.191          51.000    21624917.500 8  87074619.438 8      -268.350          51.000  
E05  23763144.477 8 124876161.755 8      -838.496          51.000    23763145.430 8  95684340.460 8      -642.517          51.000  
E25  25323582.594 8 133076322.297 8      1995.043          51.000    25323587.695 8 101967584.593 8      1528.676          51.000  
E09  24262658.531 8 127501091.282 8     -2913.773          50.000    24262660.375 8  97695665.791 8     -2232.540          50.000  
C22  23904044.711 8 124474585.189 8     -2720.078          49.000                                                                  
C05                                                                  39768756.523 5 160132302.058 5        20.685          33.000  
> 2020 05 13 06 12 30.0000000  0 13      -0.000000000000
G15  20554490.867 8 108014571.351 8     -1236.375          51.000    20554489.672 8  84167204.807 8      -963.409          51.000  
G13  21371597.812 8 112308501.805 8     -2489.648          50.000    21371597.578 7  87513112.219 7     -1939.992          47.000  
G19  22554664.344 6 118525559.063 6      2511.883          40.000    22554662.750 6  92357577.795 6      1957.312          38.000  
G12  23339895.078 6 122651946.390 6      3599.684          36.000    23339907.000 6  95572985.308 6      2804.952          36.000  
R09  19668874.242 6 105030304.095 6     -1256.602          38.000    19668874.961 5  81690236.577 5      -977.357          35.000  
R07  20616729.523 8 110362590.379 8     -3280.102          50.000    20616728.484 7  85837561.110 7     -2551.191          43.000  
E24  21626944.445 8 113650354.187 8      -357.656          51.000    21626957.328 8  87082833.026 8      -274.096          51.000  
E05  23767984.898 8 124901598.049 8      -850.559          51.000    23767986.047 8  95703830.592 8      -651.736          51.000  
E25  25312228.688 8 133016655.298 8      1989.445          51.000    25312232.391 8 101921865.741 8      1524.348          51.000  
E09  24279323.086 8 127588665.709 8     -2917.793          49.000    24279326.008 8  97762768.258 8     -2235.725          51.000  
C22  23919756.820 8 124556411.252 8     -2728.242          48.000                                                                  
C21  23319158.469 6 121428971.541 6        33.535          37.000                                                                  
C05                                                                  39768616.352 5 160131737.852 5        21.851          34.000  
> 2020 05 13 06 13  0.0000000  0 14      -0.000000000000
G15  20561581.312 8 108051829.552 8     -1255.703          51.000    20561579.758 8  84196237.170 8      -978.470          51.000  
G13  21385829.383 8 112383289.301 8     -2504.387          51.000    21385828.680 7  87571388.129 7     -1951.474          45.000  
G19  22540349.031 7 118450330.559 7      2495.531          44.000    22540346.539 5  92298958.271 5      1944.573          35.000  
G12  23319346.336 5 122543963.561 5      3591.172          32.000    23319361.188 5  95488842.767 5      2798.313          34.000  
R09  19675951.195 6 105068092.338 6     -1270.258          36.000    19675952.125 5  81719627.428 5      -987.975          34.000  
R07  20635146.070 8 110461172.800 8     -3300.332          51.000    20635145.359 7  85914236.285 7     -2566.926          45.000  
R18  22910697.547 5 122298470.91925      -507.168          33.000                                                                  
E24  21628992.195 8 113661116.156 8      -367.949          51.000    21629005.508 8  87091079.210 8      -281.932          51.000  
E05  23772859.195 8 124927211.661 8      -865.273          51.000    23772860.375 8  95723456.597 8      -662.981          51.000  
E25  25300871.523 8 132956972.764 8      1981.234          51.000    25300873.867 8 101876134.992 8      1518.075          50.000  
E09  24295975.953 8 127676180.586 8     -2924.652          48.000    24295980.039 8  97829825.122 8     -2241.022          50.000  
C22  23935481.867 8 124638304.111 8     -2739.355          48.000                                                                  
C21  23318998.688 5 121428132.554 5        14.234          31.000                                                                  
C05                                                                  39768434.484 5 160131006.095 5        20.322          33.000  
> 2020 05 13 06 13 30.0000000  0 14      -0.000000000000
G24  21115008.844 5 110960119.77025      1891.762          32.000                                                                  
G15  20568802.711 8 108089777.418 8     -1272.508          51.000    20568801.094 8  84225806.934 8      -991.565          51.000  
G13  21400164.977 8 112458622.696 8     -2516.180          51.000    21400164.047 7  87630089.445 7     -1960.663          45.000  
G19  22526146.117 7 118375689.955 7      2482.016          45.000    22526143.227 6  92240796.819 6      1934.039          38.000  
G12  23298865.883 5 122436346.636 5      3585.898          30.000    23298883.438 4  95404985.430 4      2794.201          29.000  
R09  19683122.242 5 105106385.208 5     -1280.949          35.000    19683122.750 5  81749410.855 5      -996.291          33.000  
R07  20653695.555 8 110560464.992 8     -3317.535          51.000    20653695.117 7  85991463.530 7     -2580.306          46.000  
E24  21631119.344 8 113672293.462 8      -375.449          51.000    21631132.602 8  87099643.630 8      -287.676          51.000  
E05  23777838.062 8 124953376.047 8      -877.281          51.000    23777839.539 8  95743504.624 8      -672.182          51.000  
E25  25289582.219 8 132897648.579 8      1975.484          50.000    25289584.352 8 101830678.818 8      1513.639          51.000  
E09  24312688.594 8 127764008.199 8     -2928.746          48.000    24312693.031 8  97897121.609 8     -2244.061          50.000  
C22  23951290.367 8 124720631.672 8     -2747.500          48.000                                                                  
C21  23318968.438 5 121427979.682 5        -2.344          31.000                                                                  
C05                                                                  39768282.172 5 160130391.936 5        22.044          34.000  
> 2020 05 13 06 14  0.0000000  0 11      -0.000000000000
G24  21104233.992 5 110903482.24725      1881.734          34.000                                                                  
G15  20576133.734 8 108128302.550 8     -1291.191          51.000    20576132.375 8  84255826.497 8     -1006.127          51.000  
G13  21414583.070 8 112534389.707 8     -2530.246          51.000    21414582.289 7  87689128.650 7     -1971.624          46.000  
G19  22512034.008 7 118301529.303 7      2466.883          43.000    22512030.883 6  92183009.347 6      1922.247          37.000  
R09  19690366.289 6 105145068.281 6     -1293.359          39.000    19690366.406 5  81779497.703 5     -1005.946          31.000  
R07  20672355.320 8 110660349.865 8     -3336.742          51.000    20672355.227 7  86069151.754 7     -2595.248          45.000  
E24  21633304.109 8 113683773.947 8      -385.227          51.000    21633316.977 8  87108440.363 8      -295.117          51.000  
E05  23782900.211 8 124979979.705 8      -891.508          51.000    23782902.203 8  95763889.226 8      -683.155          51.000  
E25  25278339.531 8 132838571.601 8      1967.719          49.000    25278342.844 8 101785412.035 8      1507.745          50.000  
E09  24329439.789 8 127852035.935 8     -2934.980          49.000    24329444.094 8  97964571.430 8     -2248.891          49.000  
C22  23967161.211 8 124803281.491 8     -2757.820          48.000                                                                  
> 2020 05 13 06 14 30.0000000  0 12      -0.000000000000
G24  21093498.109 5 110847059.816 5      1875.008          31.000    21093498.180 5  86374363.681 5      1461.046          33.000  
G15  20583538.148 8 108167213.291 8     -1307.430          51.000    20583537.211 8  84286146.549 8     -1018.777          51.000  
G13  21429046.789 8 112610397.788 8     -2541.680          49.000    21429046.266 7  87748355.695 7     -1980.533          47.000  
G28  23135365.320 5 121577129.301 5     -2921.520          35.000                                                                  
G19  22497977.148 7 118227660.286 7      2453.324          42.000    22497974.320 6  92125449.050 6      1911.682          37.000  
R09  19697647.086 6 105183945.943 6     -1303.488          38.000    19697644.555 5  81809735.773 5     -1013.831          32.000  
R07  20691088.203 8 110760629.164 8     -3353.312          50.000    20691088.133 7  86147146.753 7     -2608.135          44.000  
E24  21635509.930 8 113695365.644 8      -392.492          51.000    21635522.469 8  87117322.313 8      -300.681          51.000  
E05  23788009.617 8 125006831.240 8      -903.340          51.000    23788011.805 8  95784463.765 8      -692.185          51.000  
E25  25267107.359 8 132779550.897 8      1962.199          48.000    25267112.203 8 101740188.366 8      1503.537          50.000  
E09  24346192.789 8 127940071.237 8     -2938.852          49.000    24346196.734 8  98032027.012 8     -2251.777          48.000  
C22  23983058.609 8 124886061.843 8     -2765.578          51.000                                                                  
> 2020 05 13 06 15  0.0000000  0 12      -0.000000000000
G15  20591022.484 8 108206544.735 8     -1324.285          51.000    20591021.836 8  84316794.413 8     -1031.911          51.000  
G13  21443563.234 8 112686682.039 8     -2553.660          49.000    21443562.609 7  87807797.926 7     -1989.869          47.000  
G28  23152027.266 5 121664693.328 5     -2926.078          35.000                                                                  
G19  22483983.617 7 118154122.125 7      2439.445          42.000    22483980.570 5  92068146.595 5      1900.867          35.000  
