     3.04           OBSERVATION DATA    M (MIXED)           RINEX VERSION / TYPE
Convert 2.6.2       NovAtel             20200518 125149 UTC PGM / RUN BY / DATE 
Rinex Version 3.04 Observation File                         COMMENT             
                                                            MARKER NAME         
                                                            MARKER NUMBER       
                                                            MARKER TYPE         
                                                            OBSERVER / AGENCY   
                    NovAtel GPSCard                         REC # / TYPE / VERS 
                                                            ANT # / TYPE        
        0.0000        0.0000        0.0000                  APPROX POSITION XYZ 
        0.0000        0.0000        0.0000                  ANTENNA: DELTA H/E/N
G    8 C1C L1C D1C S1C C2W L2W D2W S2W                      SYS / # / OBS TYPES 
R    8 C1C L1C D1C S1C C2P L2P D2P S2P                      SYS / # / OBS TYPES 
E    8 C1C L1C D1C S1C C7Q L7Q D7Q S7Q                      SYS / # / OBS TYPES 
C    4 C2I L2I D2I S2I                                      SYS / # / OBS TYPES 
DBHZ                                                        SIGNAL STRENGTH UNIT
    30.000                                                  INTERVAL            
  2020    05    17    21    00    0.0000000     GPS         TIME OF FIRST OBS   
  2020    05    17    21    59   30.0000000     GPS         TIME OF LAST OBS    
G L1C  0.00000  09 G17 G04 G09 G03 G22 G11 G01 G31 G19      SYS / PHASE SHIFT   
G L2W  0.00000  09 G04 G09 G03 G22 G11 G01 G17 G31 G19      SYS / PHASE SHIFT   
R L1C  0.00000  08 R08 R23 R01 R22 R07 R09 R24 R02          SYS / PHASE SHIFT   
R L2P  0.25000  08 R08 R23 R01 R22 R07 R09 R24 R02          SYS / PHASE SHIFT   
E L1C  0.50000  04 E08 E05 E03 E15                          SYS / PHASE SHIFT   
E L7Q -0.25000  04 E08 E03 E15 E05                          SYS / PHASE SHIFT   
C L2I  0.00000  04 C29 C19 C22 C20                          SYS / PHASE SHIFT   
  8 R08  6 R23  3 R01  1 R22 -3 R07  5 R09 -2 R24  2 R02 -4 GLONASS SLOT / FRQ #
 C1C  -71.950 C2C  -71.950 C2P  -71.950                     GLONASS COD/PHS/BIS 
     0     0     0     0GPS                                 LEAP SECONDS        
                                                            END OF HEADER       
> 2020 05 17 21 00  0.0000000  0 19      -0.000000000000
G17  22041965.336 4 115831309.46524       137.535          29.000                                                                  
G04  21056822.172 8 110654471.118 8      2159.320          50.000    21056823.258 7  86224227.038 7      1682.588          47.000  
G09  23490017.586 6 123440862.262 6      3539.754          38.000    23490018.281 6  96187692.185 6      2758.251          38.000  
G03  20383596.523 8 107116551.346 8      -507.852          51.000    20383598.094 8  83467446.416 8      -395.729          51.000  
G22  21612968.930 7 113576931.909 7     -1736.141          42.000    21612967.000 6  88501499.263 6     -1352.840          37.000  
G11  23931619.656 6 125761438.417 6     -3989.020          40.000    23931608.016 4  97995949.554 4     -3108.343          27.000  
G01  21518844.922 8 113082275.684 8     -2428.832          51.000    21518847.195 8  88116062.802 8     -1892.597          51.000  
R08  19413474.406 6 103957980.499 6      -671.324          40.000    19413477.914 6  80856153.750 6      -522.141          40.000  
R23  19202101.516 8 102717927.625 8       -38.551          51.000    19202105.336 7  79891728.856 7       -29.984          42.000  
R01  20598661.133 6 110111263.301 6      2274.734          36.000    20598667.781 5  85642135.494 5      1769.235          32.000  
R22  21996450.641 7 117418159.628 7     -4109.203          44.000    21996464.773 5  91325233.952 5     -3196.029          30.000  
E08  24138980.586 8 126851183.572 8      2501.324          48.000    24138979.914 7  97197802.177 7      1916.474          45.000  
E05  25206738.062 6 132462309.558 6     -2091.422          37.000                                                                  
E03  23362825.984 8 122772481.717 8       381.301          51.000    23362828.547 8  94072464.701 8       292.106          51.000  
E15  23119891.094 8 121495859.190 8       107.652          51.000    23119893.531 8  93094233.459 8        82.523          51.000  
C29  24878015.016 5 129546294.512 5     -3410.668          32.000  
C19  21518727.430 8 112053635.640 8      -373.527          51.000  
C22  23755316.492 6 123700153.789 6      2149.715          36.000  
C20  24435334.828 5 127241150.318 5     -2510.637          34.000  
> 2020 05 17 21 00 30.0000000  0 18      -0.000000000000
G17  22041259.000 4 115827581.94424       112.871          29.000                                                                  
G04  21044538.227 8 110589916.759 8      2139.832          51.000    21044539.156 8  86173924.985 8      1667.405          48.000  
G09  23469831.031 6 123334782.120 6      3528.332          38.000    23469832.562 6  96105032.388 6      2749.354          38.000  
G03  20386525.734 8 107131944.659 8      -522.688          51.000    20386527.133 8  83479441.201 8      -407.289          51.000  
G22  21622899.758 7 113629118.609 7     -1747.320          43.000    21622897.711 6  88542164.228 6     -1361.546          37.000  
G11  23954403.914 6 125881168.824 6     -3996.992          36.000                                                                  
G01  21532745.383 8 113155324.211 8     -2445.309          51.000    21532747.680 8  88172983.721 8     -1905.436          51.000  
R08  19417280.547 6 103978359.576 6      -691.652          40.000    19417282.930 6  80872004.095 6      -537.955          38.000  
R23  19202393.469 8 102719489.503 8       -70.066          51.000    19202397.125 7  79892943.646 7       -54.496          42.000  
R01  20585935.891 5 110043239.233 5      2256.047          34.000    20585943.031 5  85589227.921 5      1754.707          34.000  
R22  22019575.336 7 117541593.391 7     -4124.211          45.000    22019589.508 6  91421238.144 6     -3207.717          39.000  
E08  24124718.516 7 126776234.449 7      2490.969          47.000    24124718.242 7  97140373.648 7      1908.692          45.000  
E05  25218693.102 5 132525126.502 5     -2101.344          32.000                                                                  
E03  23360679.969 8 122761204.398 8       366.078          51.000    23360682.547 8  94063823.645 8       280.508          51.000  
E15  23119312.875 8 121492819.726 8        90.535          51.000    23119315.266 8  93091904.518 8        69.398          51.000  
C19  21520906.133 8 112064981.570 8      -387.176          51.000  
C22  23742952.203 5 123635764.294 5      2138.766          34.000  
C20  24449819.227 5 127316522.487 5     -2517.766          33.000  
> 2020 05 17 21 01  0.0000000  0 17      -0.000000000000
G04  21032353.297 8 110525883.056 8      2124.855          50.000    21032354.211 8  86124028.618 8      1655.732          49.000  
G09  23449693.805 6 123228955.456 6      3522.250          40.000    23449695.438 6  96022570.107 6      2744.611          40.000  
G03  20389526.500 8 107147713.860 8      -532.703          51.000    20389527.805 8  83491728.883 8      -415.093          51.000  
G22  21632882.305 7 113681576.680 7     -1753.930          44.000    21632880.258 6  88583040.637 6     -1366.696          38.000  
G11  23977219.703 5 126001063.313 5     -3999.773          32.000                                                                  
G01  21546727.273 8 113228799.642 8     -2457.242          51.000    21546729.383 8  88230237.294 8     -1914.735          51.000  
R08  19421186.758 6 103999274.845 6      -707.074          40.000    19421188.461 6  80888271.532 6      -549.944          39.000  
R23  19202848.898 8 102721925.922 8       -96.766          51.000    19202852.680 7  79894838.629 7       -75.265          43.000  
R01  20573298.219 5 109975695.002 5      2242.449          34.000    20573308.367 5  85536693.579 5      1744.125          33.000  
R22  22042770.961 8 117665405.138 8     -4134.266          48.000    22042781.344 7  91517536.232 7     -3215.538          42.000  
E08  24110501.328 7 126701524.544 7      2485.434          46.000    24110501.828 7  97083128.433 7      1904.433          45.000  
E03  23358606.648 8 122750309.175 8       355.910          51.000    23358609.266 8  94055475.371 8       272.725          51.000  
E15  23118818.914 8 121490222.666 8        78.293          51.000    23118821.312 8  93089914.553 8        60.075          51.000  
C29  24917361.906 5 129751233.515 5     -3421.520          32.000  
C19  21523150.234 8 112076667.084 8      -396.109          51.000  
C22  23730639.961 5 123571643.114 5      2132.590          32.000  
C20  24464328.773 5 127392036.637 5     -2520.574          33.000  
> 2020 05 17 21 01 30.0000000  0 16      -0.000000000000
G04  21020253.594 8 110462298.402 8      2112.312          50.000    21020254.594 8  86074482.140 8      1645.955          48.000  
G09  23429591.383 7 123123311.263 7      3518.875          42.000    23429593.094 7  95940250.017 7      2741.981          42.000  
G03  20392584.805 8 107163785.532 8      -540.418          51.000    20392586.234 8  83504252.275 8      -421.105          51.000  
G22  21642902.500 7 113734232.574 7     -1758.129          45.000    21642899.898 6  88624071.220 6     -1369.971          36.000  
G01  21560776.273 8 113302627.933 8     -2466.453          50.000    21560778.289 8  88287765.796 8     -1921.915          50.000  
R08  19425178.867 6 104020650.166 6      -719.629          41.000    19425180.328 6  80904896.790 6      -559.715          37.000  
R23  19203454.211 8 102725163.061 8      -120.898          51.000    19203458.156 7  79897356.393 7       -94.032          43.000  
R01  20560738.156 6 109908556.942 6      2231.266          36.000    20560748.469 4  85484475.115 4      1735.429          27.000  
R22  22066022.883 8 117789517.625 8     -4141.691          49.000    22066029.500 7  91614068.223 7     -3221.316          44.000  
E08  24096315.508 7 126626981.602 7      2482.398          45.000    24096316.594 7  97026011.122 7      1901.925          45.000  
E05  25242716.430 6 132651374.618 6     -2108.957          38.000                                                                  
E03  23356592.086 8 122739722.688 8       348.191          51.000    23356594.711 8  94047363.659 8       266.760          51.000  
E15  23118395.312 8 121487995.773 8        68.453          51.000    23118397.594 8  93088208.230 8        52.415          51.000  
C29  24937069.320 5 129853869.258 5     -3422.492          35.000  
C19  21525445.523 8 112088619.163 8      -402.434          51.000  
C20  24478853.836 5 127467619.497 5     -2520.445          31.000  
> 2020 05 17 21 02  0.0000000  0 16      -0.000000000000
G04  21008238.195 8 110399157.814 8      2096.977          50.000    21008239.102 8  86025281.662 8      1634.008          48.000  
G09  23409522.695 6 123017845.185 6      3512.332          41.000    23409524.531 6  95858068.691 6      2736.886          41.000  
G03  20395699.391 8 107180152.838 8      -550.801          51.000    20395700.859 8  83517006.028 8      -429.196          51.000  
G22  21652958.836 7 113787079.322 7     -1764.961          45.000    21652955.852 6  88665250.532 6     -1375.295          36.000  
G11  24022899.039 5 126241189.867 5     -4003.828          34.000                                                                  
G01  21574890.750 8 113376801.645 8     -2478.395          48.000    21574893.008 8  88345563.470 8     -1931.217          48.000  
R08  19429255.156 6 104042477.130 6      -735.488          40.000    19429255.625 6  80921873.324 6      -572.047          36.000  
R23  19204207.922 8 102729195.131 8      -147.910          51.000    19204212.148 7  79900492.446 7      -115.041          44.000  
R01  20548254.305 5 109841818.952 5      2217.238          35.000    20548261.805 4  85432567.842 4      1724.519          28.000  
R22  22089328.922 8 117913921.175 8     -4151.828          49.000    22089333.492 7  91710826.564 7     -3229.200          46.000  
E08  24082160.484 7 126552599.908 7      2476.336          45.000    24082161.711 7  96969017.345 7      1897.459          45.000  
E05  25254771.586 6 132714719.930 6     -2113.887          37.000                                                                  
E03  23354635.047 8 122729438.134 8       337.457          51.000    23354637.477 8  94039483.290 8       258.583          51.000  
E15  23118041.023 8 121486133.351 8        55.645          51.000    23118043.203 8  93086781.163 8        42.703          51.000  
C29  24956796.703 6 129956595.947 6     -3425.840          39.000  
C19  21527790.672 8 112100830.704 8      -411.586          51.000  
> 2020 05 17 21 02 30.0000000  0 17      -0.000000000000
G04  20996312.906 8 110336491.209 8      2081.078          50.000    20996313.695 8  85976450.508 8      1621.620          48.000  
G09  23389493.414 6 122912587.651 6      3505.363          41.000    23389495.734 6  95776049.873 6      2731.456          41.000  
G03  20398875.578 8 107196843.839 8      -561.637          51.000    20398877.094 8  83530011.999 8      -437.639          51.000  
G22  21663056.898 7 113840144.973 7     -1772.402          46.000    21663053.703 5  88706600.342 5     -1381.096          34.000  
G11  24045764.656 5 126361359.185 5     -4006.988          33.000    24045796.570 5  98463515.888 5     -3122.330          30.000  
G01  21589075.898 7 113451348.195 7     -2490.930          47.000    21589079.008 8  88403651.699 8     -1940.982          48.000  
R08  19433420.578 6 104064783.160 6      -751.320          40.000    19433420.969 6  80939222.456 6      -584.360          37.000  
R23  19205115.773 8 102734051.885 8      -175.512          51.000    19205120.273 7  79904269.917 7      -136.509          43.000  
R01  20535854.258 4 109775501.269 4      2203.957          29.000    20535853.641 4  85380933.346 4      1714.186          27.000  
R22  22112693.797 8 118038640.977 8     -4162.422          48.000    22112697.578 7  91807830.891 7     -3237.437          45.000  
E08  24068042.219 7 126478408.519 7      2470.051          47.000    24068043.117 7  96912169.441 7      1892.661          45.000  
E05  25266859.992 5 132778244.056 5     -2119.477          34.000    25266863.258 5 101739188.617 5     -1624.291          30.000  
E03  23352740.695 8 122719483.568 8       326.391          51.000    23352742.922 8  94031855.756 8       250.116          51.000  
E15  23117761.719 8 121484664.583 8        42.500          51.000    23117763.797 8  93085655.742 8        32.586          51.000  
C29  24976546.680 6 130059439.781 6     -3429.723          38.000  
C19  21530191.156 8 112113329.253 8      -421.266          51.000  
C22  23693924.539 5 123380494.852 5      2113.164          33.000  
> 2020 05 17 21 03  0.0000000  0 16      -0.000000000000
G17  22039332.297 4 115817472.12624        20.191          29.000                                                                  
G04  20984474.406 8 110274280.379 8      2065.656          50.000    20984475.430 8  85927974.550 8      1609.603          48.000  
G09  23369500.305 6 122807521.177 6      3498.840          39.000    23369502.672 6  95694179.909 6      2726.370          39.000  
G03  20402109.570 8 107213838.570 8      -571.934          51.000    20402111.133 8  83543254.656 8      -445.663          51.000  
G22  21673192.953 8 113893409.671 8     -1779.250          48.000    21673189.102 5  88748105.332 5     -1386.429          34.000  
G01  21603328.250 8 113526247.040 8     -2502.926          48.000    21603332.172 8  88462014.460 8     -1950.332          48.000  
R08  19437670.047 6 104087546.230 6      -766.574          39.000    19437672.492 6  80956927.158 6      -596.221          37.000  
R23  19206173.922 8 102739713.807 8      -202.527          51.000    19206178.922 7  79908673.646 7      -157.524          43.000  
R01  20523523.992 4 109709628.134 4      2189.094          27.000    20523528.547 4  85329718.207 4      1702.635          28.000  
R22  22136113.070 7 118163654.297 7     -4172.207          47.000    22136116.656 7  91905063.549 7     -3245.048          42.000  
E08  24053957.305 8 126404388.702 8      2464.055          48.000    24053957.172 7  96855452.996 7      1888.169          45.000  
E03  23350905.180 8 122709839.061 8       315.973          51.000    23350907.688 8  94024465.801 8       242.163          51.000  
E15  23117553.656 8 121483570.692 8        29.848          51.000    23117555.562 8  93084817.556 8        22.903          51.000  
C29  24996314.852 6 130162379.444 6     -3433.270          39.000  
C19  21532642.844 8 112126094.757 8      -430.355          51.000  
C22  23681768.188 5 123317178.248 5      2107.133          35.000  
> 2020 05 17 21 03 30.0000000  0 17      -0.000000000000
G04  20972725.625 8 110212540.205 8      2049.520          50.000    20972726.906 8  85879865.348 8      1597.029          49.000  
G09  23349545.797 6 122702661.311 6      3490.949          37.000    23349548.938 6  95612470.895 6      2720.221          38.000  
G03  20405403.812 8 107231150.101 8      -582.824          51.000    20405405.453 8  83556744.155 8      -454.149          51.000  
G22  21683369.289 7 113946886.318 7     -1786.738          47.000    21683365.508 5  88789775.455 5     -1392.264          35.000  
G01  21617650.617 8 113601510.590 8     -2515.348          49.000    21617654.438 8  88520661.387 8     -1960.015          49.000  
R08  19442007.984 6 104110778.622 6      -782.441          41.000    19442009.906 6  80974996.706 6      -608.569          36.000  
R23  19207385.211 8 102746195.674 8      -230.238          50.000    19207390.781 7  79913715.076 7      -179.074          42.000  
R01  20511277.195 5 109644144.997 5      2174.488          33.000    20511277.469 4  85278778.995 4      1691.272          27.000  
R22  22159589.055 7 118288971.319 7     -4182.871          45.000    22159593.227 6  92002532.467 6     -3253.339          39.000  
E08  24039907.820 7 126330554.555 7      2457.473          47.000    24039906.578 7  96798878.814 7      1882.847          45.000  
E05  25291120.430 5 132905734.760 5     -2130.512          35.000                                                                  
E03  23349131.203 8 122700517.621 8       304.781          51.000    23349134.125 8  94017323.405 8       233.519          51.000  
E15  23117419.344 8 121482865.814 8        16.367          51.000    23117421.258 8  93084277.453 8        12.583          51.000  
C29  25016104.305 6 130265426.125 6     -3437.145          39.000  
C19  21535148.141 8 112139139.789 8      -439.984          51.000  
C22  23669652.641 5 123254075.020 5      2098.688          35.000  
C20  24537035.312 5 127770796.130 5     -2531.078          31.000  
> 2020 05 17 21 04  0.0000000  0 16      -0.000000000000
G04  20961065.562 8 110151265.388 8      2031.930          51.000    20961066.672 8  85832118.756 8      1583.322          48.000  
G09  23329629.375 5 122598003.251 5      3482.211          35.000    23329633.727 5  95530919.090 5      2713.406          35.000  
G03  20408756.992 8 107248771.292 8      -595.328          51.000    20408758.781 8  83570474.948 8      -463.892          51.000  
G22  21693584.578 7 114000567.476 7     -1795.551          46.000    21693581.156 6  88831604.922 6     -1399.131          38.000  
G01  21632041.016 8 113677131.150 8     -2529.379          50.000    21632044.672 8  88579586.452 8     -1970.948          49.000  
R08  19446431.883 6 104134471.464 6      -800.250          41.000    19446434.289 6  80993424.501 6      -622.417          38.000  
R23  19208748.875 8 102753490.869 8      -259.547          51.000    19208754.227 7  79919389.117 7      -201.870          42.000  
R01  20499112.812 6 109579089.101 6      2158.645          36.000    20499106.930 4  85228180.092 4      1678.949          29.000  
R22  22183119.742 7 118414581.956 7     -4194.758          44.000    22183125.922 6  92100229.803 6     -3262.587          38.000  
E08  24025892.070 7 126256900.093 7      2449.414          45.000    24025890.898 7  96742442.302 7      1876.936          46.000  
E05  25303296.844 6 132969717.737 6     -2138.391          37.000                                                                  
E03  23347417.664 8 122691512.148 8       292.098          51.000    23347420.258 8  94010423.103 8       223.863          51.000  
E15  23117357.766 8 121482543.971 8         1.582          51.000    23117360.000 8  93084030.836 8         1.200          51.000  
C29  25035912.172 6 130368571.216 6     -3442.535          37.000  
C19  21537705.625 8 112152457.060 8      -451.172          51.000  
C22  23657575.156 5 123191178.745 5      2090.320          34.000  
> 2020 05 17 21 04 30.0000000  0 17      -0.000000000000
G04  20949494.562 8 110090458.336 8      2019.121          51.000    20949495.359 8  85784736.653 8      1573.342          48.000  
G09  23309752.695 6 122493550.066 6      3478.375          36.000    23309755.703 5  95449526.878 5      2710.420          35.000  
G03  20412169.320 8 107266702.787 8      -602.852          51.000    20412171.227 8  83584447.539 8      -469.755          51.000  
G22  21703838.836 7 114054453.972 7     -1799.582          47.000    21703835.570 6  88873594.391 6     -1402.269          36.000  
G11  24137404.953 5 126842893.78125     -4019.535          32.000                                                                  
G01  21646499.344 8 113753108.774 8     -2538.398          50.000    21646502.922 8  88638789.749 8     -1977.973          50.000  
R08  19450942.219 7 104158624.040 7      -812.676          42.000    19450945.156 6  81012209.834 6      -632.084          37.000  
R23  19210265.352 8 102761601.244 8      -283.906          51.000    19210270.148 7  79925697.182 7      -220.816          42.000  
R01  20487025.500 5 109514453.090 5      2147.664          34.000    20487018.289 5  85177907.591 5      1670.400          31.000  
R22  22206704.844 7 118540483.887 7     -4201.480          43.000    22206713.141 6  92198153.633 6     -3267.816          39.000  
E08  24011910.539 7 126183427.059 7      2446.160          45.000    24011910.539 7  96686144.807 7      1874.421          47.000  
E05  25315502.930 6 133033854.875 6     -2140.234          36.000                                                                  
E03  23345764.484 8 122682823.275 8       284.477          51.000    23345766.344 8  94003765.392 8       217.964          51.000  
E15  23117369.703 8 121482606.888 8        -8.414          51.000    23117372.414 8  93084079.037 8        -6.444          51.000  
C29  25055738.859 6 130471813.719 6     -3442.734          36.000  
C19  21540315.289 8 112166046.865 8      -457.469          51.000  
C22  23645538.031 4 123128521.24124      2086.297          27.000  
> 2020 05 17 21 05  0.0000000  0 17      -0.000000000000
G17  22039762.422 5 115819711.92325       -57.730          31.000                                                                  
G04  20938015.172 8 110030132.940 8      2002.152          50.000    20938015.969 8  85737729.882 8      1560.119          48.000  
G09  23289918.352 6 122389316.255 6      3469.930          38.000    23289914.227 6  95368305.567 6      2703.842          38.000  
G03  20415643.016 8 107284956.738 8      -614.379          51.000    20415644.891 8  83598671.389 8      -478.740          51.000  
G22  21714134.344 7 114108557.672 7     -1807.812          47.000    21714131.148 6  88915753.121 6     -1408.682          36.000  
G11  24160353.906 6 126963522.753 6     -4022.449          36.000                                                                  
G01  21661027.602 8 113829454.722 8     -2551.719          50.000    21661031.250 8  88698280.070 8     -1988.353          50.000  
R08  19455540.672 6 104183247.236 6      -829.266          40.000    19455542.375 6  81031361.212 6      -644.984          38.000  
R23  19211936.727 8 102770539.967 8      -312.422          51.000    19211941.000 7  79932649.496 7      -242.995          42.000  
R01  20474997.547 5 109450246.895 5      2132.184          32.000    20475006.867 5  85127974.683 5      1658.362          30.000  
R22  22230346.586 7 118666686.658 7     -4212.203          42.000    22230355.039 6  92296311.421 6     -3276.156          41.000  
E08  23997966.125 7 126110148.740 7      2438.629          46.000    23997967.117 8  96629996.483 8      1868.678          48.000  
E05  25327740.297 6 133098157.654 6     -2146.984          36.000                                                                  
E03  23344173.656 8 122674463.137 8       272.641          51.000    23344175.336 8  93997359.582 8       208.931          51.000  
E15  23117457.484 8 121483067.848 8       -22.590          51.000    23117460.422 8  93084432.235 8       -17.351          51.000  
C29  25075587.078 5 130575164.079 5     -3447.672          30.000  
C19  21542979.484 8 112179920.980 8      -467.855          51.000  
> 2020 05 17 21 05 30.0000000  0 19      -0.000000000000
G17  22040122.008 5 115821623.80125       -75.465          32.000                                                                  
G04  20926605.852 8 109970177.104 8      1987.105          50.000    20926606.727 7  85691011.078 7      1548.394          47.000  
G09  23270104.688 6 122285190.339 6      3463.500          38.000    23270096.844 6  95287168.477 6      2698.832          38.000  
G03  20419156.469 8 107303419.294 8      -624.254          51.000    20419158.117 8  83613057.798 8      -486.432          51.000  
G22  21724449.656 8 114162764.669 8     -1813.848          48.000    21724446.516 5  88957992.339 5     -1413.388          34.000  
G11  24183302.195 6 127084117.786 6     -4024.488          37.000    24183304.289 5  99026585.434 5     -3135.966          33.000  
G01  21675603.969 8 113906054.541 8     -2562.789          49.000    21675607.961 8  88757968.241 8     -1996.979          49.000  
R08  19460204.508 7 104208224.020 7      -843.832          42.000    19460206.992 6  81050787.608 6      -656.314          39.000  
R23  19213741.328 8 102780191.948 8      -339.062          51.000    19213745.523 7  79940156.592 7      -263.718          43.000  
R01  20463050.969 5 109386361.356 5      2118.586          33.000    20463055.469 5  85078285.900 5      1647.792          31.000  
R22  22254022.570 6 118793071.674 6     -4221.379          41.000    22254030.516 7  92394610.942 7     -3283.295          43.000  
R07  22023488.039 4 117892949.661 4     -3352.895          29.000                                                                  
E08  23984037.055 7 126036952.277 7      2433.566          45.000    23984038.625 8  96573910.896 8      1864.604          48.000  
E05  25339985.906 5 133162530.253 5     -2150.902          34.000                                                                  
E03  23342623.609 8 122666317.858 8       262.746          51.000    23342625.438 8  93991118.409 8       201.424          51.000  
E15  23117599.273 8 121483814.058 8       -34.703          51.000    23117602.180 8  93085004.004 8       -26.588          51.000  
C19  21545676.547 8 112193966.272 8      -476.211          51.000  
C22  23621570.977 5 123003736.576 5      2071.195          31.000  
C20  24595451.742 5 128074900.476 5     -2540.934          33.000  
> 2020 05 17 21 06  0.0000000  0 16      -0.000000000000
G04  20915324.797 8 109910896.375 8      1970.219          48.000    20915325.688 7  85644818.341 7      1535.236          46.000  
G09  23250369.922 6 122181478.689 6      3455.688          38.000    23250360.773 6  95206354.166 6      2692.741          38.000  
G03  20422767.406 8 107322394.308 8      -635.531          51.000    20422768.938 8  83627843.522 8      -495.219          51.000  
G22  21734842.312 8 114217378.849 8     -1821.664          48.000    21734838.672 5  89000548.845 5     -1419.479          34.000  
G11  24206304.438 6 127204994.345 6     -4028.336          36.000    24206301.211 4  99120755.620 4     -3138.964          29.000  
G01  21690286.453 8 113983211.441 8     -2575.738          51.000    21690290.453 8  88818090.486 8     -2007.069          51.000  
R08  19464992.359 6 104233862.204 6      -859.977          41.000    19464994.609 6  81070728.411 6      -668.874          38.000  
R23  19215737.297 8 102790867.525 8      -367.371          51.000    19215741.461 7  79948459.841 7      -285.733          43.000  
R01  20451219.711 5 109323103.598 5      2103.816          34.000    20451222.922 5  85029085.521 5      1636.305          32.000  
R22  22277789.438 6 118919944.445 6     -4231.379          36.000    22277797.406 7  92493289.831 7     -3291.070          43.000  
E08  23970181.258 7 125964142.655 7      2425.879          46.000    23970183.359 8  96518121.718 8      1858.941          48.000  
E05  25352300.469 5 133227236.939 5     -2158.555          32.000                                                                  
E03  23341172.320 8 122658691.267 8       251.020          51.000    23341174.125 8  93985274.670 8       192.337          51.000  
E15  23117853.148 8 121485150.448 8       -48.918          51.000    23117856.375 8  93086027.995 8       -37.483          51.000  
C19  21548464.250 8 112208483.519 8      -486.332          51.000  
C20  24610122.977 5 128151262.465 5     -2544.770          34.000  
> 2020 05 17 21 06 30.0000000  0 18      -0.000000000000
G04  20904099.070 7 109851906.917 7      1956.656          46.000    20904099.891 7  85598852.553 7      1524.668          46.000  
G09  23230640.891 5 122077798.071 5      3451.773          35.000    23230631.711 5  95125564.052 5      2689.694          35.000  
G03  20426402.406 8 107341496.190 8      -643.492          51.000    20426403.992 8  83642728.107 8      -501.423          51.000  
G22  21745239.180 7 114272014.742 7     -1826.469          46.000    21745235.297 6  89043122.248 6     -1423.223          37.000  
G11  24229286.211 6 127325765.219 6     -4028.684          36.000    24229284.148 5  99214866.953 5     -3139.235          31.000  
G01  21705001.805 8 114060539.134 8     -2585.164          51.000    21705005.180 8  88878345.823 8     -2014.414          51.000  
R08  19469830.125 6 104259767.181 6      -872.496          41.000    19469831.594 6  81090876.709 6      -678.608          39.000  
R23  19217851.242 8 102802174.989 8      -392.328          51.000    19217855.414 7  79957254.537 7      -305.144          42.000  
R01  20439431.641 5 109260082.441 5      2091.570          32.000    20439433.742 4  84980069.082 4      1626.777          28.000  
R22  22301573.180 6 119046910.474 6     -4238.680          36.000    22301581.484 7  92592041.226 7     -3296.749          42.000  
R07  22061099.492 5 118094329.058 5     -3358.395          35.000    22061104.781 4  91851216.066 4     -2612.088          29.000  
E08  23956326.188 8 125891335.281 8      2422.113          48.000    23956328.484 8  96462334.291 8      1855.915          49.000  
E03  23339746.398 8 122651197.712 8       242.836          51.000    23339748.000 8  93979532.863 8       186.054          51.000  
E15  23118146.320 8 121486692.491 8       -59.590          51.000    23118149.984 8  93087209.552 8       -45.666          51.000  
C29  25135222.664 4 130885691.614 4     -3455.527          28.000  
C19  21551269.203 8 112223090.373 8      -493.086          51.000  
C22  23597786.039 5 122879892.894 5      2059.660          31.000  
C20  24624769.945 5 128227515.045 5     -2544.773          32.000  
> 2020 05 17 21 07  0.0000000  0 16      -0.000000000000
G04  20892992.602 7 109793545.147 7      1938.504          43.000    20892993.344 7  85553375.875 7      1510.523          44.000  
G03  20430125.164 8 107361059.681 8      -656.113          51.000    20430126.805 8  83657972.388 8      -511.257          51.000  
G22  21755703.844 7 114327006.802 7     -1835.391          46.000    21755700.445 6  89085973.204 6     -1430.175          38.000  
G11  24252310.859 6 127446762.749 6     -4033.328          36.000                                                                  
G01  21719813.438 8 114138371.674 8     -2599.191          51.000    21719816.195 8  88938994.542 8     -2025.348          51.000  
R08  19474781.016 6 104286279.200 6      -889.863          41.000    19474783.141 6  81111497.193 6      -692.116          39.000  
R23  19220147.156 8 102814455.455 8      -421.836          51.000    19220150.891 7  79966806.007 7      -328.098          42.000  
R01  20427749.773 5 109197639.029 5      2075.938          31.000    20427750.961 4  84931505.860 4      1614.615          26.000  
R22  22325439.297 5 119174307.111 5     -4249.711          35.000    22325446.148 6  92691127.529 6     -3305.328          40.000  
R07  22079949.664 5 118195226.831 5     -3363.816          33.000    22079955.969 4  91929692.010 4     -2616.305          27.000  
E08  23942535.930 8 125818866.035 8      2413.730          49.000    23942538.000 8  96406805.929 8      1849.423          49.000  
E03  23338409.445 8 122644171.897 8       230.121          51.000    23338410.961 8  93974149.454 8       176.306          51.000  
E15  23118542.805 8 121488775.956 8       -74.789          51.000    23118546.609 8  93088805.976 8       -57.297          51.000  
C19  21554155.188 8 112238118.212 8      -504.352          51.000  
C22  23585961.344 6 122818336.714 6      2049.461          36.000  
C20  24639458.203 5 128304119.362 5     -2549.129          30.000  
> 2020 05 17 21 07 30.0000000  0 16      -0.000000000000
G04  20881962.820 7 109735585.500 7      1922.176          43.000    20881963.156 7  85508212.554 7      1497.803          43.000  
G09  23191335.422 5 121871294.33425      3432.871          31.000    23191340.883 5  94964634.88625      2674.965          30.000  
G03  20433892.539 8 107380857.581 8      -667.016          51.000    20433894.148 8  83673399.319 8      -519.753          51.000  
G22  21766192.852 7 114382127.790 7     -1842.750          46.000    21766190.180 6  89128924.621 6     -1435.910          38.000  
G11  24275335.156 5 127567758.011 5     -4037.047          35.000                                                                  
G01  21734677.617 8 114216481.092 8     -2611.469          51.000    21734679.898 8  88999858.998 8     -2034.914          51.000  
R08  19479802.133 7 104313165.128 7      -905.707          42.000    19479803.523 6  81132408.472 6      -704.439          38.000  
R23  19222581.820 8 102827478.644 8      -449.758          51.000    19222585.125 6  79976935.124 6      -349.815          41.000  
R01  20416132.656 5 109135542.983 5      2060.805          35.000    20416135.664 4  84883209.083 4      1602.851          27.000  
R22  22349342.164 5 119301900.154 5     -4259.887          32.000    22349347.391 6  92790366.650 6     -3313.243          38.000  
E08  23928767.195 8 125746508.738 8      2406.977          50.000    23928768.711 8  96351363.372 8      1844.245          50.000  
E03  23337118.320 8 122637386.573 8       218.953          51.000    23337119.914 8  93968950.312 8       167.817          51.000  
E15  23118999.234 8 121491174.703 8       -88.414          51.000    23119003.094 8  93090643.980 8       -67.719          51.000  
C19  21557078.727 8 112253341.540 8      -513.816          51.000  
C22  23574162.750 6 122756917.814 6      2041.637          36.000  
C20  24654142.906 5 128380539.69625     -2552.270          30.000  
> 2020 05 17 21 08  0.0000000  0 17      -0.000000000000
G17  22043669.156 4 115840245.869 4      -170.113          29.000                                                                  
G04  20871030.578 7 109678136.298 7      1909.238          45.000    20871030.562 7  85463446.938 7      1487.719          44.000  
G09  23171752.625 5 121768375.075 5      3428.914          35.000    23171751.742 5  94884439.571 5      2671.885          34.000  
G03  20437724.844 8 107400996.478 8      -674.223          51.000    20437726.438 8  83689091.960 8      -525.368          51.000  
G22  21776726.734 7 114437484.503 7     -1846.281          45.000    21776724.086 6  89172059.748 6     -1438.661          40.000  
G11  24298379.562 5 127688855.677 5     -4036.082          32.000                                                                  
G01  21749614.438 8 114294973.307 8     -2619.984          51.000    21749616.352 8  89061021.734 8     -2041.550          51.000  
R08  19484912.781 7 104340531.885 7      -917.336          42.000    19484914.297 6  81153693.739 6      -713.484          39.000  
R23  19225175.695 8 102841353.460 8      -473.938          51.000    19225178.805 6  79987726.631 6      -368.618          41.000  
R01  20404603.258 5 109073903.733 5      2049.934          35.000    20404607.422 4  84835267.552 4      1594.399          29.000  
R22  22373300.984 6 119429795.452 6     -4265.531          36.000    22373305.570 5  92889840.866 5     -3317.633          35.000  
E08  23915040.164 8 125674371.078 8      2403.699          50.000    23915040.938 8  96296089.097 8      1841.797          49.000  
E03  23335893.148 8 122630948.293 8       211.535          51.000    23335895.211 8  93964017.090 8       162.091          51.000  
E15  23119536.133 8 121493996.400 8       -98.328          51.000    23119540.203 8  93092806.054 8       -75.366          51.000  
C19  21560060.047 8 112268865.810 8      -519.734          51.000  
C22  23562407.469 5 122695742.519 5      2038.012          33.000  
C20  24668846.547 5 128457111.750 5     -2550.812          33.000  
> 2020 05 17 21 08 30.0000000  0 18      -0.000000000000
G17  22044699.844 5 115845675.218 5      -190.102          34.000                                                                  
G04  20860183.805 7 109621134.854 7      1892.070          47.000    20860183.758 7  85419030.188 7      1474.341          45.000  
G09  23152205.164 6 121665648.613 6      3419.879          36.000    23152198.453 6  94804393.075 6      2664.844          36.000  
G03  20441609.844 8 107421412.070 8      -685.648          51.000    20441611.383 8  83705000.213 8      -534.272          51.000  
G22  21787293.188 7 114493012.313 7     -1854.395          44.000    21787290.508 6  89215328.175 6     -1444.983          38.000  
G11  24321431.734 5 127809989.903 5     -4039.207          32.000                                                                  
G01  21764611.305 8 114373783.230 8     -2632.863          49.000    21764612.961 8  89122432.068 8     -2051.583          49.000  
R08  19490101.477 6 104368313.002 6      -933.547          41.000    19490102.891 6  81175301.293 6      -726.089          39.000  
R23  19227916.562 8 102856015.607 8      -502.348          51.000    19227919.617 6  79999130.519 6      -390.715          41.000  
R01  20393146.070 5 109012656.595 5      2034.395          32.000    20393150.992 4  84787630.758 4      1582.301          25.000  
R22  22397304.219 7 119557924.619 7     -4275.402          42.000    22397307.344 4  92989496.847 4     -3325.313          29.000  
E08  23901342.664 8 125602389.829 8      2396.262          50.000    23901342.898 8  96240934.659 8      1836.086          49.000  
E03  23334721.719 8 122624792.670 8       200.023          51.000    23334724.188 8  93959300.452 8       153.268          51.000  
E15  23120141.789 8 121497177.749 8      -112.570          51.000    23120145.945 8  93095243.709 8       -86.246          51.000  
C29  25215004.203 5 131301127.076 5     -3467.562          30.000  
C19  21563086.898 8 112284626.907 8      -529.852          51.000  
C22  23550686.242 5 122634747.937 5      2029.527          31.000  
C20  24683554.883 6 128533722.043 6     -2554.871          36.000  
> 2020 05 17 21 09  0.0000000  0 19      -0.000000000000
G17  22045838.922 5 115851671.53225      -210.422          31.000                                                                  
G04  20849427.992 7 109564610.861 7      1875.418          47.000    20849428.352 7  85374985.512 7      1461.365          47.000  
G09  23132698.883 6 121563142.954 6      3412.727          37.000    23132686.594 5  94724518.702 5      2659.277          34.000  
G03  20445552.898 8 107442132.478 8      -696.566          51.000    20445554.156 8  83721145.989 8      -542.779          51.000  
G22  21797897.836 7 114548739.431 7     -1861.500          43.000    21797894.883 6  89258751.854 6     -1450.523          41.000  
G11  24344495.016 5 127931186.598 5     -4041.930          33.000    24344493.953 5  99686626.515 5     -3149.557          32.000  
G01  21779673.133 8 114452938.272 8     -2644.996          48.000    21779675.297 8  89184111.365 8     -2061.037          48.000  
R08  19495371.867 6 104396535.555 6      -948.953          41.000    19495372.406 6  81197252.164 6      -738.078          38.000  
R23  19230809.781 8 102871493.834 8      -530.398          51.000    19230813.320 6  80011169.117 6      -412.532          41.000  
R01  20381765.211 5 108951830.850 5      2019.594          32.000                                                                  
R22  22421356.719 7 119686313.196 7     -4284.746          45.000                                                                  
R07  22155470.141 5 118599511.150 5     -3375.418          31.000    22155467.562 4  92244120.157 4     -2625.326          25.000  
E08  23887680.289 8 125530594.118 8      2389.398          50.000    23887680.500 8  96185922.392 8      1830.812          50.000  
E03  23333609.586 8 122618947.783 8       188.934          51.000    23333611.781 8  93954821.892 8       144.779          51.000  
E15  23120821.508 8 121500747.843 8      -126.215          51.000    23120825.602 8  93097979.237 8       -96.686          51.000  
C29  25234985.719 5 131405169.084 5     -3469.293          31.000  
C19  21566164.406 8 112300652.400 8      -539.309          51.000  
C22  23539011.000 5 122573962.276 5      2021.832          35.000  
C20  24698277.977 5 128610397.362 5     -2558.199          33.000  
> 2020 05 17 21 09 30.0000000  0 17      -0.000000000000
G04  20838777.273 8 109508638.762 8      1859.523          48.000    20838777.977 8  85331370.928 8      1448.980          48.000  
G09  23113249.492 5 121460933.407 5      3404.867          35.000    23113238.039 5  94644875.151 5      2653.153          35.000  
G03  20449567.758 8 107463230.514 8      -706.590          51.000    20449568.789 8  83737586.025 8      -550.590          51.000  
G22  21808554.312 7 114604738.377 7     -1868.172          44.000    21808551.156 6  89302387.429 6     -1455.722          40.000  
G11  24367583.227 5 128052516.666 5     -4043.602          33.000    24367582.227 5  99781169.515 5     -3150.862          32.000  
G01  21794814.711 8 114532510.566 8     -2656.527          49.000    21794817.352 8  89246115.794 8     -2070.022          49.000  
R08  19500738.273 6 104425271.949 6      -963.355          41.000    19500738.703 6  81219602.674 6      -749.277          40.000  
R23  19233869.883 8 102887862.760 8      -557.500          51.000    19233873.578 7  80023900.490 7      -433.611          42.000  
R01  20370473.242 5 108891486.71425      2005.984          30.000                                                                  
R22  22445471.391 7 119815032.243 7     -4293.176          46.000    22445477.688 5  93189477.100 5     -3339.140          31.000  
E08  23874067.359 8 125459057.808 8      2383.230          50.000    23874067.648 8  96131108.899 8      1826.038          50.000  
E03  23332570.344 8 122613486.362 8       178.535          51.000    23332572.344 8  93950637.172 8       136.791          51.000  
E15  23121589.125 8 121504780.541 8      -139.148          51.000    23121593.172 8  93101069.227 8      -106.632          51.000  
C29  25254992.789 4 131509375.05024     -3471.887          28.000  
C19  21569306.484 8 112317014.170 8      -548.047          51.000  
C22  23527392.141 6 122513458.565 6      2015.164          39.000  
C20  24713028.297 4 128687224.10124     -2560.035          27.000  
> 2020 05 17 21 10  0.0000000  0 13      -0.000000000000
G04  20828203.359 8 109453070.832 8      1842.465          49.000    20828204.094 8  85288071.278 8      1435.690          48.000  
G03  20453626.000 8 107484556.902 8      -717.781          51.000    20453627.047 8  83754203.985 8      -559.310          51.000  
G22  21819233.906 6 114660860.037 6     -1875.848          40.000    21819230.836 6  89346118.584 6     -1461.700          41.000  
G11  24390667.695 5 128173828.968 5     -4046.195          34.000    24390668.016 4  99875698.623 4     -3152.865          29.000  
G01  21810007.703 8 114612349.994 8     -2668.996          50.000    21810010.469 8  89308328.325 8     -2079.738          50.000  
R08  19506172.609 6 104454368.725 6      -978.879          40.000    19506173.000 6  81242233.504 6      -761.350          39.000  
R23  19237068.367 8 102904971.236 8      -585.789          51.000    19237071.703 6  80037207.088 6      -455.614          41.000  
R22  22469618.812 7 119943927.202 7     -4302.523          44.000    22469625.203 6  93289728.716 6     -3346.408          37.000  
E08  23860475.562 8 125387632.636 8      2375.922          50.000    23860476.055 8  96076380.532 8      1820.528          50.000  
E03  23331575.516 8 122608258.987 8       167.309          51.000    23331577.859 8  93946631.797 8       128.219          51.000  
E15  23122416.609 8 121509127.523 8      -153.266          51.000    23122420.328 8  93104400.027 8      -117.378          51.000  
C19  21572484.891 8 112333563.971 8      -557.812          51.000  
C22  23515800.258 6 122453089.518 6      2007.012          38.000  
> 2020 05 17 21 10 30.0000000  0 16      -0.000000000000
G04  20817716.133 8 109397959.194 8      1826.719          50.000    20817717.078 8  85245127.160 8      1423.418          48.000  
G09  23074459.977 5 121257061.215 5      3388.969          32.000    23074455.273 5  94486043.519 5      2640.765          32.000  
G03  20457737.273 8 107506162.098 8      -727.531          51.000    20457738.500 8  83771039.188 8      -566.908          51.000  
G22  21829946.523 6 114717154.720 6     -1881.793          41.000    21829943.672 6  89389984.564 6     -1466.333          40.000  
G11  24413758.594 5 128295166.86225     -4047.660          30.000    24413759.758 4  99970264.43924     -3154.022          28.000  
G01  21825261.031 8 114692506.348 8     -2679.820          50.000    21825263.594 8  89370787.814 8     -2088.172          50.000  
R08  19511682.789 6 104483876.039 6      -993.164          41.000    19511682.625 6  81265183.627 6      -772.461          39.000  
R23  19240414.266 8 102922870.853 8      -612.559          51.000    19240417.875 7  80051129.011 7      -476.435          42.000  
R22  22493808.195 7 120073046.473 7     -4310.324          43.000    22493813.305 6  93390154.757 6     -3352.475          39.000  
R07  22212256.742 4 118903545.00924     -3384.531          29.000                                                                  
E08  23846914.500 8 125316370.106 8      2370.098          50.000    23846915.711 8  96021776.795 8      1816.023          50.000  
E03  23330634.875 8 122603316.103 8       157.488          51.000    23330637.352 8  93942844.404 8       120.694          51.000  
E15  23123313.555 8 121513840.233 8      -165.746          51.000    23123316.953 8  93108011.069 8      -127.018          51.000  
C29  25295019.031 5 131717792.222 5     -3477.926          31.000  
C19  21575708.867 8 112350351.504 8      -566.160          51.000  
C22  23504245.055 6 122392905.769 6      2000.234          38.000  
> 2020 05 17 21 11  0.0000000  0 16      -0.000000000000
G04  20807324.711 8 109343351.726 8      1807.516          49.000    20807326.172 8  85202575.903 8      1408.457          49.000  
G09  23055122.508 6 121155453.274 6      3378.551          37.000    23055118.141 6  94406868.605 6      2632.641          37.000  
G03  20461910.359 8 107528092.457 8      -740.680          51.000    20461911.812 8  83788127.779 8      -577.153          51.000  
G22  21840699.969 6 114773668.711 6     -1891.758          36.000    21840697.992 6  89434021.538 6     -1474.091          36.000  
G11  24436864.164 5 128416581.03825     -4052.512          30.000                                                                  
G01  21840583.211 8 114773025.130 8     -2694.176          49.000    21840585.828 8  89433529.715 8     -2099.358          48.000  
R08  19517278.484 6 104513839.353 6     -1010.574          41.000    19517279.195 6  81288488.435 6      -786.002          40.000  
R23  19243916.781 8 102941609.144 8      -642.934          51.000    19243920.945 7  80065703.235 7      -500.060          42.000  
R22  22518048.250 6 120202433.991 6     -4321.637          40.000    22518051.844 6  93490789.479 6     -3361.277          41.000  
E08  23833393.539 8 125245317.618 8      2360.680          50.000    23833395.312 8  95967334.002 8      1808.801          51.000  
E03  23329757.109 8 122598703.965 8       143.949          51.000    23329759.312 8  93939310.430 8       110.317          51.000  
E15  23124288.891 8 121518966.022 8      -182.027          51.000    23124292.391 8  93111938.614 8      -139.449          51.000  
C29  25315053.742 4 131822118.077 4     -3483.594          28.000  
C19  21578987.117 8 112367422.400 8      -577.969          51.000  
C22  23492735.625 5 122332953.881 5      1990.441          34.000  
C20  24757274.867 4 128917631.093 4     -2570.223          29.000  
> 2020 05 17 21 11 30.0000000  0 15      -0.000000000000
G04  20797028.492 8 109289245.032 8      1796.973          50.000    20797030.055 8  85160414.870 8      1400.239          48.000  
G09  23035832.695 6 121054093.450 6      3375.879          37.000    23035828.086 6  94327887.017 6      2630.562          38.000  
G03  20466144.445 8 107550343.026 8      -745.184          51.000    20466146.000 8  83805465.885 8      -580.663          51.000  
G22  21851493.398 5 114830331.477 5     -1892.461          32.000    21851493.258 5  89478192.660 5     -1474.642          33.000  
G11  24459980.570 5 128538065.25525     -4048.344          31.000    24459978.844 3 100159524.24123     -3154.554          23.000  
G01  21855972.969 8 114853900.603 8     -2699.898          48.000    21855976.141 8  89496549.532 8     -2103.818          48.000  
R08  19522957.641 6 104544252.279 6     -1019.422          40.000    19522959.000 6  81312142.967 6      -792.884          39.000  
R23  19247575.617 8 102961181.300 8      -664.480          51.000    19247579.680 7  80080926.031 7      -516.818          42.000  
R22  22542336.703 5 120332081.669 5     -4323.828          33.000    22542339.344 6  93591626.513 6     -3362.981          41.000  
E08  23819911.930 8 125174471.246 8      2360.020          51.000    23819913.562 8  95913049.126 8      1808.256          50.000  
E05                                                                  25489374.375 5 102635139.315 5     -1691.309          34.000  
E03  23328941.125 8 122594417.478 8       139.203          51.000    23328943.312 8  93936025.979 8       106.716          51.000  
E15  23125342.070 8 121524500.857 8      -189.438          51.000    23125345.609 8  93116179.583 8      -145.195          51.000  
C19  21582318.805 8 112384771.470 8      -581.125          51.000  
C20  24772067.484 4 128994634.701 4     -2565.711          29.000  
> 2020 05 17 21 12  0.0000000  0 16      -0.000000000000
G17  22054972.602 5 115899686.84825      -326.609          33.000                                                                  
G04  20786827.703 8 109235638.418 8      1776.828          50.000    20786828.656 8  85118643.509 8      1384.545          48.000  
G09  23016588.930 6 120952981.723 6      3364.383          39.000    23016586.102 6  94249098.749 6      2621.601          40.000  
G03  20470439.039 8 107572911.512 8      -759.246          51.000    20470440.672 8  83823051.721 8      -591.620          51.000  
G22  21862330.297 6 114887272.429 6     -1903.688          36.000    21862328.922 5  89522562.267 5     -1483.390          35.000  
G01  21871430.031 8 114935129.765 8     -2715.090          48.000    21871433.664 8  89559844.990 8     -2115.655          48.000  
R08  19528720.320 6 104575111.175 6     -1037.684          39.000    19528720.711 6  81336144.251 6      -807.087          38.000  
R23  19251390.094 8 102981585.911 8      -695.656          51.000    19251394.125 7  80096796.282 7      -541.063          43.000  
R01  20315169.242 5 108595852.023 5      1932.953          34.000    20315182.117 4  84463471.02924      1503.408          24.000  
E08  23806469.438 8 125103829.765 8      2349.809          51.000    23806470.352 8  95858921.259 8      1800.420          50.000  
E05                                                                  25501999.164 5 102685969.974 5     -1697.523          33.000  
E03  23328186.750 8 122590454.378 8       125.207          51.000    23328189.172 8  93932989.334 8        95.983          51.000  
E15  23126472.883 8 121530443.520 8      -206.395          51.000    23126476.078 8  93120733.046 8      -158.141          51.000  
C19  21585703.586 8 112402396.220 8      -593.688          51.000  
C22  23469836.922 5 122213615.74825      1976.875          30.000  
C20  24786869.422 4 129071726.14924     -2571.023          28.000  
> 2020 05 17 21 12 30.0000000  0 17      -0.000000000000
G17  22056881.555 6 115909694.496 6      -341.570          37.000    22056884.648 5  90319176.461 5      -266.156          35.000  
G04  20776720.320 8 109182522.639 8      1764.023          50.000    20776721.078 8  85077254.608 8      1374.564          49.000  
G09  22997390.344 7 120852109.793 7      3360.031          42.000    22997389.188 7  94170497.305 7      2618.210          42.000  
G03  20474792.203 8 107595787.357 8      -766.031          51.000    20474793.859 8  83840877.056 8      -596.908          51.000  
G22  21873204.680 6 114944414.733 6     -1906.695          37.000    21873203.414 6  89567088.760 6     -1485.737          37.000  
G01  21886952.531 8 115016701.040 8     -2723.113          49.000    21886956.312 8  89623407.067 8     -2121.907          49.000  
R08  19534563.391 5 104606403.772 5     -1048.297          35.000    19534565.148 6  81360482.979 6      -815.336          39.000  
R23  19255357.781 8 103002811.892 8      -719.512          51.000    19255361.883 6  80113305.374 6      -559.620          41.000  
R01  20304354.180 5 108538019.314 5      1922.121          31.000                                                                  
R22  22591055.477 5 120592156.002 5     -4340.258          32.000    22591053.945 6  93793905.291 6     -3375.760          40.000  
E08  23793064.219 8 125033383.461 8      2346.664          51.000    23793064.508 8  95804942.950 8      1798.079          50.000  
E05                                                                  25514649.898 5 102736906.876 5     -1697.966          32.000  
E03  23327491.977 8 122586803.788 8       118.227          51.000    23327494.594 8  93930192.136 8        90.577          51.000  
E15  23127679.312 8 121536784.172 8      -216.238          51.000    23127682.289 8  93125591.460 8      -165.683          51.000  
C19  21589139.211 8 112420285.658 8      -599.082          51.000  
C22  23458458.000 5 122154333.432 5      1974.320          35.000  
C20  24801685.445 4 129148883.13024     -2569.793          28.000  
> 2020 05 17 21 13  0.0000000  0 15      -0.000000000000
G17  22058889.602 5 115920223.216 5      -361.270          35.000    22058891.391 5  90327380.722 5      -281.503          34.000  
G04  20766696.688 8 109129847.826 8      1746.789          49.000    20766697.484 8  85036209.313 8      1361.135          49.000  
G09  22978228.547 7 120751428.614 7      3351.227          43.000    22978228.234 7  94092044.481 7      2611.349          43.000  
G03  20479194.141 8 107618919.094 8      -777.043          51.000    20479195.695 8  83858901.798 8      -605.488          51.000  
G22  21884107.438 6 115001706.877 6     -1913.734          37.000    21884104.609 6  89611732.049 6     -1491.219          37.000  
G01  21902530.445 8 115098562.287 8     -2735.074          49.000    21902534.273 8  89687195.077 8     -2131.224          49.000  
R08  19540477.141 6 104638075.630 6     -1063.625          38.000    19540480.086 6  81385116.648 6      -827.264          36.000  
R23  19259468.852 8 103024807.321 8      -747.719          51.000    19259473.281 6  80130412.935 6      -581.559          41.000  
R07  22307270.336 5 119412064.565 5     -3396.195          32.000    22307267.812 4  92876127.06024     -2641.486          25.000  
E08  23779686.266 8 124963081.974 8      2339.316          51.000    23779686.352 8  95751075.602 8      1792.512          49.000  
E05                                                                  25527317.555 5 102787928.169 5     -1702.614          32.000  
E03  23326846.898 8 122583414.224 8       106.961          51.000    23326849.570 8  93927594.942 8        81.948          51.000  
E15  23128951.812 8 121543472.413 8      -230.387          51.000    23128954.820 8  93130716.200 8      -176.554          51.000  
C19  21592615.609 8 112438388.571 8      -608.625          51.000  
C22  23447105.148 5 122095217.630 5      1966.016          34.000  
> 2020 05 17 21 13 30.0000000  0 15      -0.000000000000
G04  20756786.000 8 109077767.612 8      1734.391          48.000    20756786.578 8  84995627.320 8      1351.474          48.000  
G09  22959132.500 7 120651092.593 7      3347.062          43.000    22959133.891 7  94013860.624 7      2608.104          43.000  
G03  20483673.695 8 107642458.920 8      -783.262          51.000    20483675.227 8  83877244.522 8      -610.334          51.000  
G22  21895067.875 6 115059301.183 6     -1916.191          37.000    21895064.742 6  89656610.767 6     -1493.137          37.000  
G01  21918192.398 8 115180864.925 8     -2742.492          49.000    21918196.023 8  89751327.019 8     -2137.008          49.000  
R08  19546491.000 6 104670280.855 6     -1074.027          39.000    19546492.836 6  81410165.120 6      -835.355          36.000  
R23  19263753.008 8 103047726.878 8      -771.031          51.000    19263757.781 6  80148239.228 6      -599.691          41.000  
R22  22639951.625 5 120853185.229 5     -4352.844          35.000    22639947.562 6  93996921.942 6     -3385.543          38.000  
E08  23766364.820 8 124893078.464 8      2336.750          51.000    23766364.805 8  95697436.568 8      1790.543          49.000  
E05  25540021.039 5 134213716.808 5     -2222.258          34.000    25540031.250 5 102839120.799 5     -1703.180          31.000  
