     3.02           OBSERVATION DATA    M (MIXED)           RINEX VERSION / TYPE
SAVERINEX           SC600               20200514 025931 LCL PGM / RUN BY / DATE
       G = GPS       R = GLONASS       C = COMPASS          COMMENT
       S = SBAS      J = QZSS          E = GALILEO          COMMENT
BEAN                                                        MARKER NAME
1                                                           MARKER NUMBER
GEODETIC                                                    MARKER TYPE
Unige DICCA         GTER                                    OBSERVER / AGENCY
SC60291900056       SC600               2.12(191226)        REC # / TYPE / VERS
                    HEMA45          NONE                    ANT # / TYPE
  4509407.8091   693652.4678  4442337.6214                  APPROX POSITION XYZ
        0.0000        0.0000        0.0000                  ANTENNA: DELTA H/E/N
G    8 C1C L1C D1C S1C C2Y L2Y D2Y S2Y                      SYS / # / OBS TYPES
R    8 C1C L1C D1C S1C C2P L2P D2P S2P                      SYS / # / OBS TYPES
C    8 C1I L1I D1I S1I C7I L7I D7I S7I                      SYS / # / OBS TYPES
E    8 C1C L1C D1C S1C C7Q L7Q D7Q S7Q                      SYS / # / OBS TYPES
DBHZ                                                        COMMENT
     30.000                                                 INTERVAL
  2020    05    14    00    00    0.0000000     GPS         TIME OF FIRST OBS
  2020    05    14    00    59   30.0000000     GPS         TIME OF LAST OBS
     0                                                      RCV CLOCK OFFS APPL
G L1C  0.00000                                              SYS / PHASE SHIFT
G L2Y  0.00000                                              SYS / PHASE SHIFT
R L1C  0.00000                                              SYS / PHASE SHIFT
R L2P  0.25000                                              SYS / PHASE SHIFT
C L1I  0.00000                                              SYS / PHASE SHIFT
C L7I  0.00000                                              SYS / PHASE SHIFT
E L1C  0.50000                                              SYS / PHASE SHIFT
E L7Q -0.25000                                              SYS / PHASE SHIFT
 13 R02 -4 R03  5 R04  6 R05  1 R10 -5 R13 -2 R14 -7 R15  0 GLONASS SLOT / FRQ #
    R16 -1 R18 -3 R19  3 R20  2 R21  4                      GLONASS SLOT / FRQ #
 C1C   71.950 C2C   71.950 C2P   71.950                     GLONASS COD/PHS/BIS
    18                                                      LEAP SECONDS
*** Above antenna height is from mark to ANTENNA BOTTOM.    COMMENT
    17     4        0.0000        ANT MEASURE TYPE/HEIGT    COMMENT
    0.0000    0.0000    0.0458    0.0405    0.0000          COMMENT
                    BASE STATION                            COMMENT
                                                            END OF HEADER
> 2020 05 14 00 00  0.0000000  0 14        .000000000000
G04  21795361.211 5 114535400.984 5     -2381.727          32.000
G06  21094550.125 7 110852619.926 7      -499.070          45.000    21094552.711 7  86378636.248 7      -388.886          45.000
G07  22093602.062 8 116102642.447 8      2573.195          49.000    22093600.820 8  90469551.003 8      2005.087          49.000
G09  20314197.500 8 106751922.207 8      -462.355          51.000    20314198.438 8  83183323.145 8      -360.277          51.000
R05  20062283.609 8 107244398.927 8     -1229.523          51.000    20062285.750 8  83412314.085 8      -956.299          50.000
R14  22256553.641 6 118639929.901 6     -2235.387          36.000
R15  20733984.500 5 110796065.994 5      1569.648          33.000    20733970.297 5  86174718.990 5      1220.838          31.000
R16  22749377.312 6 121523066.108 6      4368.508          39.000
R21  21023247.375 5 112499612.632 5     -1140.914          33.000    21023246.531 4  87499698.636 4      -887.381          27.000
C05  39779211.445 6 207140792.722 6       -18.539          36.000
C23  23705839.609 8 123442510.939 8      2431.594          51.000
C30  24713073.484 5 128687428.293 5     -2144.344          34.000
E07  23973022.656 8 125979181.409 8     -1085.641          51.000    23973025.031 8  96529516.275 8      -831.816          51.000
E26  24603557.383 8 129292578.978 8     -2719.902          51.000    24603559.016 8  99068323.783 8     -2084.018          51.000
> 2020 05 14 00 00 30.0000000  0 14        .000000000000
G06  21097484.336 7 110868041.972 7      -522.051          44.000    21097487.680 7  86390653.456 7      -406.793          44.000
G07  22078972.898 7 116025770.470 7      2558.789          46.000    22078972.984 7  90409650.753 7      1993.862          46.000
G09  20316899.750 8 106766122.636 8      -477.289          51.000    20316900.672 8  83194388.415 8      -371.914          51.000
R05  20069239.453 8 107281586.020 8     -1241.957          51.000    20069241.266 8  83441235.920 8      -965.967          50.000
R14  22269227.812 4 118707514.711 4     -2261.602          26.000    22269233.438 4  92328087.531 4     -1759.020          27.000
R15  20725260.375 5 110749529.792 5      1540.918          32.000    20725265.203 5  86138524.310 5      1198.492          31.000
R16  22724888.695 6 121392247.399 6      4360.250          36.000
R21  21029739.891 5 112534401.980 5     -1170.574          32.000    21029751.047 4  87526789.119 4      -910.441          27.000
C05  39779346.328 6 207141494.233 6       -21.004          36.000
C23  23691890.977 8 123369874.783 8      2417.766          51.000
C25  23588947.047 5 122833824.694 5      -449.047          35.000
C30  24725479.859 5 128752046.771 5     -2156.926          33.000
E07  23979262.188 8 126011970.200 8     -1093.316          51.000    23979264.766 8  96554640.150 8      -837.694          51.000
E26  24619133.938 8 129374434.269 8     -2730.082          51.000    24619136.117 8  99131044.057 8     -2091.914          51.000
> 2020 05 14 00 01  0.0000000  0 15        .000000000000
G02  22848607.172 6 120070228.956 6      1632.352          37.000
G06  21100546.445 7 110884135.480 7      -542.922          45.000    21100550.078 7  86403193.868 7      -423.056          45.000
G07  22064422.938 7 115949313.096 7      2546.441          47.000    22064423.844 7  90350073.542 7      1984.240          46.000
G09  20319683.789 8 106780752.809 8      -490.129          51.000    20319684.758 8  83205788.556 8      -381.919          51.000
R05  20076259.695 8 107319114.666 8     -1252.027          51.000    20076262.055 8  83470424.856 8      -973.799          51.000
R14  22282034.211 5 118775761.697 5     -2284.477          32.000
R15  20716704.023 5 110703802.649 5      1515.289          35.000    20716707.508 4  86102959.219 4      1178.570          28.000
R16  22700443.922 5 121261657.181 5      4353.777          33.000
R21  21036407.539 4 112570032.172 4     -1197.738          29.000
C05  39779493.211 6 207142259.377 6       -22.035          36.000
C23  23678018.375 8 123297634.988 8      2406.000          51.000
C25  23591606.906 4 122847699.572 4      -467.355          29.000
C30  24737958.609 6 128817035.585 6     -2167.938          36.000
E07  23985540.828 8 126044964.713 8     -1098.602          51.000    23985543.625 8  96579921.664 8      -841.792          51.000
E26  24634763.703 8 129456571.327 8     -2737.910          51.000    24634767.461 8  99193980.241 8     -2097.918          51.000
> 2020 05 14 00 01 30.0000000  0 15        .000000000000
G02  22839341.086 5 120021527.186 5      1608.418          35.000
G03  24070275.711 5 126490173.217 5     -3137.172          32.000    24070283.375 4  98563753.703 4     -2444.550          29.000
G06  21103713.203 7 110900777.289 7      -572.102          45.000    21103716.156 7  86416161.476 7      -445.796          46.000
G07  22049929.648 8 115873149.506 8      2525.707          49.000    22049930.586 8  90290725.305 8      1968.083          49.000
G09  20322526.125 8 106795689.090 8      -511.082          51.000    20322527.094 8  83217427.216 8      -398.246          51.000
R05  20083321.977 8 107356866.698 8     -1270.406          51.000    20083324.312 8  83499787.548 8      -988.094          51.000
R15  20708277.703 6 110658779.357 6      1480.914          39.000
R21  21043216.258 5 112606449.691 5     -1233.312          32.000
C05  39779628.430 6 207142963.507 6       -30.441          36.000    39779622.672 6 160176076.619 6       -23.730          36.000
C23  23664198.586 8 123225672.070 8      2386.090          50.000
C25  23594368.234 6 122862016.553 6      -493.129          40.000
C30  24750485.922 6 128882271.032 6     -2187.020          39.000
E07  23991835.086 8 126078041.818 8     -1112.148          51.000    23991838.062 8  96605266.460 8      -852.175          51.000
E26  24650423.070 8 129538865.547 8     -2753.934          49.000    24650428.820 8  99257036.857 8     -2110.139          51.000
E27  27494078.695 6 144482354.614 6      3014.871          39.000    27494078.680 6 110707257.018 6      2309.884          36.000
> 2020 05 14 00 02  0.0000000  0 12        .000000000000
G06  21106997.492 7 110918034.600 7      -580.840          47.000    21106999.352 7  86429608.723 7      -452.602          47.000
G07  22035505.875 8 115797349.320 8      2525.180          50.000    22035505.805 8  90231660.226 8      1967.672          50.000
G09  20325439.367 8 106810998.335 8      -512.020          51.000    20325440.203 8  83229356.506 8      -398.976          51.000
R05  20090438.984 8 107394910.781 8     -1268.465          51.000    20090441.719 8  83529377.381 8      -986.587          51.000
R15  20699995.109 6 110614530.949 6      1466.629          39.000
C05  39779765.055 6 207143674.779 6       -19.227          36.000    39779759.258 5 160176604.623 5       -14.864          35.000
C23  23650444.281 7 123154055.222 7      2385.984          47.000
C25  23597220.766 6 122876860.798 6      -498.875          38.000
C30  24763073.992 6 128947817.689 6     -2185.574          40.000
E07  23998157.883 8 126111268.899 8     -1105.504          51.000    23998160.922 8  96630726.174 8      -847.053          51.000
E26  24666124.984 8 129621382.752 8     -2749.742          49.000    24666132.203 8  99320264.345 8     -2106.903          51.000
E27  27476830.047 6 144391707.728 6      3025.777          36.000    27476829.383 5 110637800.345 5      2318.543          34.000
> 2020 05 14 00 02 30.0000000  0 14        .000000000000
G06  21110384.031 7 110935829.892 7      -602.254          47.000    21110385.227 7  86443475.164 7      -469.289          46.000
G07  22021136.852 8 115721837.234 8      2511.973          51.000    22021135.812 8  90172819.664 8      1957.381          51.000
G09  20328408.758 8 106826602.483 8      -525.207          51.000    20328409.375 8  83241515.588 8      -409.249          51.000
R05  20097596.000 8 107433168.500 8     -1279.074          51.000    20097598.906 8  83559133.374 8      -994.836          51.000
R14  22321184.812 5 118984410.123 5     -2349.496          35.000
R15  20691844.633 5 110570981.474 5      1439.793          31.000    20691848.617 5  85999629.131 5      1119.848          32.000
R16  22627224.102 4 120870568.901 4      4338.645          29.000
C05  39779888.258 6 207144316.887 6       -20.145          36.000    39779882.555 5 160177102.150 5       -15.631          35.000
C23  23636741.992 7 123082710.218 7      2373.422          45.000
C25  23600145.000 5 122892145.921 5      -516.961          31.000
C30  24775706.742 6 129013596.945 6     -2196.898          41.000
E07  24004494.523 8 126144568.452 8     -1111.449          51.000    24004497.570 8  96656241.422 8      -851.591          51.000
E26  24681854.883 8 129704043.998 8     -2758.012          50.000    24681862.320 8  99383602.207 8     -2113.303          51.000
E27  27459568.531 5 144301007.538 5      3024.164          33.000
> 2020 05 14 00 03  0.0000000  0 12        .000000000000
G06  21113883.555 8 110954218.963 8      -624.355          48.000    21113884.766 8  86457804.308 8      -486.511          48.000
G07  22006833.773 8 115646671.539 8      2498.176          51.000    22006831.875 8  90114248.998 8      1946.630          51.000
G09  20331444.742 8 106842557.025 8      -539.203          51.000    20331445.375 8  83253947.703 8      -420.158          51.000
R05  20104803.656 8 107471697.094 8     -1290.426          51.000    20104806.539 8  83589100.052 8     -1003.668          51.000
R14  22334475.781 5 119055235.183 5     -2373.363          34.000
R15  20683836.383 6 110528190.272 6      1412.270          38.000    20683844.062 6  85966347.109 6      1098.432          37.000
C05  39780008.969 6 207144945.567 6       -22.391          36.000    39780003.312 5 160177588.785 5       -17.447          35.000
C23  23623103.570 7 123011694.958 7      2360.141          47.000
C25  23603172.305 4 122907912.123 4      -535.492          29.000
C30  24788394.781 7 129079662.131 7     -2208.336          42.000
E07  24010855.539 8 126177996.408 8     -1117.875          50.000    24010858.789 8  96681855.054 8      -856.521          51.000
E26  24697623.070 8 129786903.686 8     -2766.770          50.000    24697629.516 8  99447092.095 8     -2119.971          50.000
> 2020 05 14 00 03 30.0000000  0 13        .000000000000
G02  22803117.281 5 119831198.415 5      1561.039          33.000
G06  21117529.414 8 110973376.597 8      -639.516          48.000    21117530.922 8  86472732.349 8      -498.324          48.000
G07  21992630.297 8 115572029.564 8      2491.234          51.000    21992628.016 8  90056086.431 8      1941.222          51.000
G09  20334580.625 8 106859036.298 8      -546.129          51.000    20334581.234 8  83266788.703 8      -425.555          51.000
R05  20112095.203 8 107510674.272 8     -1294.641          51.000    20112098.023 8  83619415.633 8     -1006.943          51.000
R14  22347911.766 5 119126909.276 5     -2389.961          35.000
R15  20676005.156 6 110486338.131 6      1391.367          36.000    20676010.203 6  85933795.499 6      1082.174          36.000
C05  39780160.492 6 207145734.399 6       -17.230          36.000    39780154.734 6 160178197.252 6       -13.260          36.000
C23  23609563.422 8 122941185.238 8      2353.680          48.000
C25  23606328.516 5 122924362.987 5      -547.684          32.000
C30  24801170.648 7 129146184.598 7     -2213.176          43.000
E07  24017274.234 8 126211727.724 8     -1117.488          49.000    24017277.797 8  96707701.125 8      -856.206          51.000
E26  24713462.086 8 129870135.249 8     -2768.555          50.000    24713467.125 8  99510866.918 8     -2121.357          49.000
> 2020 05 14 00 04  0.0000000  0 12        .000000000000
G02  22794271.383 5 119784713.988 5      1537.086          31.000
G06  21121260.836 8 110992983.273 8      -667.637          49.000    21121262.102 8  86488010.318 8      -520.233          49.000
G07  21978466.125 8 115497594.288 8      2471.070          51.000    21978463.836 8  89998084.929 8      1925.512          51.000
G09  20337755.594 8 106875720.455 8      -566.094          51.000    20337756.023 8  83279789.345 8      -441.112          51.000
R05  20119409.852 8 107549775.474 8     -1312.129          51.000    20119412.500 8  83649827.671 8     -1020.545          51.000
R14  22361445.766 5 119199072.448 5     -2419.438          33.000
C05  39780282.117 6 207146366.417 6       -24.941          36.000    39780276.414 6 160178686.749 6       -19.184          36.000
C23  23596060.234 8 122870867.069 8      2334.250          48.000
C30  24813972.641 7 129212845.882 7     -2230.895          43.000
E07  24023690.016 8 126245443.033 8     -1130.129          49.000    24023693.727 8  96733534.944 8      -865.985          51.000
E26  24729310.609 8 129953417.796 8     -2783.414          50.000    24729314.312 8  99574680.815 8     -2132.752          48.000
E27  27407819.109 5 144029061.795 5      3018.551          35.000
> 2020 05 14 00 04 30.0000000  0 12        .000000000000
G06  21125129.523 8 111013311.919 8      -691.777          48.000    21125130.758 8  86503850.835 8      -539.047          49.000
G07  21964393.383 8 115423640.816 8      2455.039          51.000    21964391.297 8  89940458.880 8      1913.017          51.000
G09  20341021.336 8 106892881.975 8      -581.977          51.000    20341021.742 8  83293161.975 8      -453.488          51.000
R05  20126799.625 8 107589278.576 8     -1325.527          51.000    20126802.008 8  83680552.305 8     -1030.966          50.000
R14  22375120.188 5 119271987.123 5     -2445.480          32.000
R16  22530150.430 5 120352074.346 5      4303.852          31.000    22530161.008 5  93607173.133 5      3347.443          30.000
C05  39780425.742 6 207147114.639 6       -28.906          36.000    39780420.258 6 160179266.320 6       -22.470          36.000
C23  23582645.969 8 122801013.507 8      2318.676          49.000
C30  24826851.469 7 129279914.634 7     -2244.512          42.000
E07  24030154.812 8 126279415.462 8     -1138.797          48.000    24030158.414 8  96759565.770 8      -872.564          51.000
E26  24745220.141 8 130037022.895 8     -2794.230          49.000    24745222.914 8  99638741.858 8     -2141.082          48.000
E27  27390585.320 6 143938505.300 6      3014.367          37.000    27390586.750 5 110290540.710 5      2309.536          33.000
> 2020 05 14 00 05  0.0000000  0 14        .000000000000
G06  21129106.023 8 111034208.462 8      -703.098          49.000    21129107.359 8  86520133.850 8      -547.868          49.000
G07  21950383.391 8 115350018.146 8      2451.461          51.000    21950381.461 8  89883090.598 8      1910.232          51.000
G09  20344348.562 8 106910366.573 8      -585.270          51.000    20344349.070 8  83306786.346 8      -456.054          51.000
R05  20134235.406 8 107629027.594 8     -1326.125          51.000    20134237.836 8  83711468.199 8     -1031.431          50.000
R14  22388919.227 5 119345518.454 5     -2457.902          33.000
R15  20653333.719 6 110365069.006 6      1309.945          36.000    20653336.438 5  85839498.029 5      1018.840          33.000
R16  22505968.125 5 120222911.304 5      4305.242          32.000    22505980.688 5  93506713.020 5      3348.525          32.000
C05  39780562.484 6 207147826.022 6       -20.219          36.000    39780556.961 6 160179817.421 6       -15.900          36.000
C23  23569292.258 8 122731474.601 8      2315.586          50.000
C25  23616369.086 4 122976655.465 4      -601.168          28.000
C30  24839777.750 6 129347236.385 6     -2245.293          41.000
E07  24036639.227 8 126313491.198 8     -1134.785          48.000    24036642.641 8  96785675.771 8      -869.568          51.000
E26  24761161.305 8 130120795.207 8     -2792.418          49.000    24761163.547 8  99702931.012 8     -2139.666          48.000
E27  27373348.195 6 143847928.346 6      3022.453          40.000    27373351.344 5 110221137.538 5      2315.876          35.000
> 2020 05 14 00 05 30.0000000  0 14        .000000000000
G03  24214079.086 5 127245856.711 5     -3174.617          32.000    24214080.961 5  99152601.601 5     -2473.719          31.000
G06  21133208.586 8 111055768.038 8      -732.750          48.000    21133209.625 8  86536933.545 8      -570.974          48.000
G07  21936454.688 8 115276823.687 8      2429.777          51.000    21936452.875 8  89826055.971 8      1893.333          51.000
G09  20347755.352 8 106928269.109 8      -606.676          51.000    20347755.945 8  83320736.376 8      -472.734          51.000
R05  20141735.367 8 107669119.479 8     -1345.156          51.000    20141737.617 8  83742650.775 8     -1046.233          49.000
R15  20646079.555 6 110326317.438 6      1274.684          39.000    20646083.469 4  85809358.046 4       991.427          26.000
R16  22481835.305 4 120093927.807 4      4289.832          28.000    22481849.320 5  93406458.645 5      3336.539          32.000
C05  39780710.328 6 207148595.388 6       -29.473          36.000    39780704.820 6 160180412.357 6       -22.769          36.000
C23  23556017.820 8 122662347.284 8      2294.445          51.000
C25  23619897.883 4 122995011.907 4      -627.785          28.000
C30  24852769.781 6 129414903.746 6     -2264.523          38.000
E07  24043161.414 8 126347765.674 8     -1148.828          48.000    24043164.664 8  96811938.035 8      -880.214          51.000
E26  24777151.938 8 130204828.600 8     -2808.371          48.000    24777154.211 8  99767320.217 8     -2151.806          49.000
E27  27356126.297 7 143757428.670 7      3012.512          42.000    27356129.648 6 110151793.594 6      2308.207          38.000
> 2020 05 14 00 06  0.0000000  0 16        .000000000000
G03  24232184.289 5 127340989.300 5     -3173.086          33.000
G04  21961593.523 5 115408977.709 5     -2464.098          35.000
G06  21137417.094 8 111077884.894 8      -745.492          48.000    21137417.469 8  86554167.475 8      -580.903          48.000
G07  21922587.844 8 115203953.912 8      2424.379          51.000    21922586.266 8  89769274.328 8      1889.126          51.000
G09  20351221.422 8 106946483.483 8      -611.457          51.000    20351222.000 8  83334929.392 8      -476.460          51.000
R05  20149279.352 8 107709447.208 8     -1347.312          51.000    20149281.742 8  83774016.773 8     -1047.910          49.000
R15  20638964.430 6 110288303.945 6      1255.504          38.000
R16  22457736.859 5 119965191.556 5      4288.988          35.000    22457748.031 5  93306330.561 5      3335.880          31.000
R21  21111097.555 5 112969723.211 5     -1462.930          31.000
C05  39780849.242 6 207149318.653 6       -22.617          36.000    39780843.758 6 160180971.612 6       -17.344          36.000
C23  23542803.094 8 122593529.444 8      2289.586          51.000
C25  23623522.359 5 123013936.705 5      -637.234          31.000
C30  24865808.828 6 129482809.974 6     -2266.680          40.000
E07  24049701.367 8 126382133.380 8     -1146.301          49.000    24049704.438 8  96838271.734 8      -878.313          51.000
E26  24793171.555 7 130289015.992 7     -2807.785          46.000    24793174.461 8  99831827.434 8     -2151.489          48.000
E27  27338899.203 7 143666903.200 7      3018.773          42.000    27338903.250 6 110082429.880 6      2313.323          40.000
> 2020 05 14 00 06 30.0000000  0 16        .000000000000
G03  24250301.180 6 127436186.077 6     -3176.938          36.000    24250293.945 5  99300864.243 5     -2475.536          35.000
G04  21975674.219 5 115482971.008 5     -2471.008          34.000    21975686.445 4  89986761.491 4     -1925.461          28.000
G06  21141726.742 8 111100533.050 8      -766.633          49.000    21141726.594 8  86571815.379 8      -597.376          49.000
G07  21908778.438 8 115131385.269 8      2411.176          51.000    21908777.148 8  89712727.340 8      1878.838          51.000
G09  20354741.719 8 106964983.442 8      -624.125          51.000    20354742.289 8  83349344.943 8      -486.331          51.000
R05  20156862.672 8 107749984.866 8     -1357.457          51.000    20156865.172 8  83805546.064 8     -1055.800          49.000
R15  20631984.719 7 110251005.017 7      1228.629          42.000
R16  22433665.672 6 119836596.218 6      4281.371          38.000    22433672.250 4  93206311.985 4      3329.955          29.000
R21  21119359.492 5 113013958.410 5     -1489.160          31.000    21119374.648 4  87899774.593 4     -1158.242          24.000
C05  39780974.508 6 207149972.658 6       -23.270          36.000    39780969.102 6 160181476.780 6       -17.755          36.000
C23  23529643.008 8 122524998.034 8      2276.891          51.000
C25  23627235.922 4 123033296.163 4      -656.211          27.000
C30  24878889.984 6 129550927.628 6     -2276.844          41.000
E07  24056254.289 8 126416568.644 8     -1151.699          49.000    24056257.094 8  96864657.209 8      -882.450          51.000
E26  24809214.938 7 130373330.111 7     -2815.281          43.000    24809218.945 8  99896431.787 8     -2157.152          48.000
E27  27321663.109 7 143576328.653 7      3017.352          43.000    27321667.195 7 110013028.618 7      2311.904          42.000
> 2020 05 14 00 07  0.0000000  0 15        .000000000000
G03  24268454.078 5 127531574.477 5     -3181.152          31.000    24268448.320 5  99375192.707 5     -2478.832          33.000
G04  21989800.203 5 115557202.027 5     -2476.742          34.000
G06  21146160.922 8 111123834.770 8      -785.691          51.000    21146160.555 8  86589972.544 8      -612.227          51.000
G07  21895050.070 8 115059243.154 8      2399.438          51.000    21895048.938 8  89656512.703 8      1869.692          51.000
G09  20358339.664 8 106983891.068 8      -635.281          51.000    20358340.312 8  83364078.152 8      -495.024          51.000
R05  20164508.773 8 107790857.371 8     -1366.172          51.000    20164511.406 8  83837335.772 8     -1062.581          49.000
R15  20625162.195 5 110214547.731 5      1203.180          32.000    20625163.805 4  85722470.465 4       935.816          27.000
R16  22409644.633 6 119708271.414 6      4274.758          37.000    22409646.367 4  93106503.884 4      3324.818          29.000
C05  39781109.453 6 207150675.351 6       -22.246          36.000    39781104.070 6 160182020.174 6       -17.438          36.000
C23  23516561.445 8 122456876.945 8      2265.566          51.000
C25  23631070.164 5 123053135.395 5      -671.062          31.000
C30  24892035.539 7 129619376.198 7     -2285.332          44.000
E07  24062843.555 8 126451194.114 8     -1155.465          49.000    24062846.117 8  96891188.419 8      -885.341          51.000
E26  24825305.539 6 130457892.081 6     -2821.008          41.000    24825310.727 8  99961226.083 8     -2161.602          48.000
E27  27304441.812 7 143485830.045 7      3017.160          42.000    27304445.242 7 109943685.536 7      2311.736          44.000
> 2020 05 14 00 07 30.0000000  0 17        .000000000000
G03  24286627.609 5 127627071.322 5     -3185.688          34.000    24286621.266 5  99449605.814 5     -2482.351          34.000
G04  22003955.234 5 115631587.519 5     -2482.582          34.000    22003953.305 5  90102509.614 5     -1934.480          33.000
G06  21150703.812 8 111147707.244 8      -805.441          51.000    21150703.625 8  86608574.443 8      -627.617          51.000
G07  21881387.453 8 114987446.984 8      2387.414          50.000    21881386.062 8  89600567.625 8      1860.323          51.000
G09  20361999.461 8 107003123.327 8      -646.547          51.000    20362000.117 8  83379064.326 8      -503.803          51.000
R05  20172202.062 8 107831981.066 8     -1375.004          51.000    20172204.844 8  83869320.870 8     -1069.447          49.000
R14  22459661.320 4 119722632.302 4     -2566.273          29.000
R15  20618483.266 5 110178850.730 5      1177.539          33.000    20618484.711 5  85694705.902 5       915.855          31.000
R16  22385659.188 6 119580137.684 6      4267.398          36.000    22385658.930 5  93006844.345 5      3319.088          32.000
R21  21136343.195 5 113104758.938 5     -1539.145          33.000
C05  39781238.477 6 207151347.367 6       -21.773          36.000    39781233.023 6 160182539.814 6       -17.045          36.000
C23  23503543.234 8 122389086.888 8      2254.008          51.000
C25  23634983.734 5 123073524.973 5      -687.762          34.000
C30  24905228.727 7 129688071.896 7     -2294.059          45.000
E07  24069453.320 8 126485927.363 8     -1159.684          49.000    24069455.664 8  96917802.207 8      -888.601          51.000
E26  24841428.422 7 130542617.902 7     -2826.926          42.000    24841433.812 7 100026145.893 7     -2166.137          47.000
E27  27287219.812 7 143395327.357 7      3016.625          43.000    27287222.367 7 109874339.342 7      2311.419          44.000
> 2020 05 14 00 08  0.0000000  0 17        .000000000000
G02  22726788.383 5 119430079.300 5      1415.516          30.000
G04  22018150.312 6 115706183.971 6     -2487.820          36.000
G06  21155366.148 8 111172207.672 8      -825.133          51.000    21155366.570 8  86627665.666 8      -642.961          51.000
G07  21867802.078 8 114916056.103 8      2374.945          50.000    21867799.977 8  89544938.373 8      1850.607          50.000
G09  20365731.875 8 107022737.311 8      -658.148          51.000    20365732.375 8  83394347.958 8      -512.843          51.000
R05  20179953.117 8 107873414.668 8     -1384.262          51.000    20179955.953 8  83901547.009 8     -1076.648          49.000
R14  22474193.594 5 119800021.534 5     -2587.324          35.000    22474196.266 4  93177861.787 4     -2012.372          26.000
R15  20611956.500 5 110143974.237 5      1150.984          34.000    20611958.367 4  85667579.812 4       895.219          29.000
R16  22361720.992 5 119452258.487 5      4260.809          34.000    22361720.305 5  92907382.735 5      3313.965          34.000
R21  21145057.992 6 113151362.263 6     -1564.609          36.000
C05  39781372.562 6 207152046.130 6       -21.961          36.000    39781367.242 6 160183080.137 6       -16.764          36.000
C23  23490599.664 8 122321687.346 8      2242.133          51.000
C25  23638996.578 4 123094460.220 4      -704.035          29.000
C30  24918479.742 7 129757069.756 7     -2302.961          47.000
E07  24076094.492 8 126520826.031 8     -1163.859          50.000    24076096.625 8  96944542.754 8      -891.869          50.000
E26  24857594.312 7 130627563.654 7     -2833.152          43.000    24857598.367 7 100091234.216 7     -2170.812          46.000
E27  27270008.555 7 143304880.612 7      3015.973          43.000    27270010.180 7 109805036.033 7      2310.952          44.000
> 2020 05 14 00 08 30.0000000  0 17        .000000000000
G02  22718776.562 5 119387989.147 5      1398.840          32.000
G04  22032373.227 6 115780926.343 6     -2495.152          38.000
G06  21160135.539 8 111197271.707 8      -846.254          50.000    21160136.758 8  86647196.081 8      -659.419          51.000
G07  21854282.141 8 114845009.607 8      2361.105          49.000    21854279.734 8  89489577.481 8      1839.825          49.000
G09  20369524.594 8 107042668.403 8      -671.020          51.000    20369525.000 8  83409878.687 8      -522.872          51.000
R05  20187749.930 8 107915093.277 8     -1394.773          51.000    20187752.875 8  83933963.715 8     -1084.824          48.000
R14  22488815.938 6 119877955.061 6     -2608.957          38.000    22488822.641 4  93238476.668 4     -2029.192          28.000
R15  20605572.305 7 110109856.192 7      1123.355          42.000    20605567.289 4  85641044.073 4       873.721          27.000
R16  22337819.609 5 119324574.016 5      4251.574          31.000    22337818.273 6  92808072.639 6      3306.783          36.000
R21  21153905.516 6 113198696.786 6     -1591.414          39.000
C05  39781499.805 6 207152708.718 6       -22.930          37.000    39781494.438 6 160183592.487 6       -17.468          36.000
C23  23477718.984 8 122254617.322 8      2228.805          51.000
C25  23643110.352 5 123115803.525 5      -721.742          32.000
C30  24931775.992 7 129826304.291 7     -2312.945          45.000
E07  24082754.906 8 126555826.150 8     -1169.719          50.000    24082756.625 8  96971361.027 8      -896.245          49.000
E26  24873790.141 7 130712663.773 7     -2840.738          44.000    24873791.695 7 100156440.789 7     -2176.556          44.000
E27  27252796.367 7 143214428.211 7      3013.816          43.000    27252797.141 7 109735728.405 7      2309.201          43.000
> 2020 05 14 00 09  0.0000000  0 15        .000000000000
G04  22046634.062 5 115855867.878 5     -2501.203          33.000    22046637.148 4  90277292.021 4     -1948.989          29.000
G06  21165022.320 8 111222952.993 8      -865.797          51.000    21165024.320 8  86667207.475 8      -674.647          51.000
G07  21840838.281 8 114774363.396 8      2348.617          49.000    21840836.383 8  89434528.524 8      1830.091          50.000
G09  20373387.883 8 107062970.230 8      -682.402          51.000    20373388.422 8  83425698.286 8      -531.742          51.000
R05  20195602.828 8 107957072.266 8     -1403.766          51.000    20195605.688 7  83966614.046 7     -1091.818          47.000
R14  22503556.617 5 119956530.431 5     -2630.051          34.000    22503563.258 4  93299590.891 4     -2045.592          28.000
R15  20599339.898 6 110076553.428 6      1097.137          41.000    20599342.188 5  85615141.522 5       853.335          32.000
R21  21162898.211 5 113246815.055 5     -1616.414          33.000
C05  39781630.516 6 207153388.998 6       -22.168          37.000    39781625.133 6 160184118.554 6       -17.338          37.000
C23  23464912.367 8 122187932.759 8      2216.918          51.000
C25  23647315.789 5 123137711.515 5      -738.383          34.000
C30  24945127.297 7 129895827.085 7     -2321.598          46.000
E07  24089444.797 8 126590981.919 8     -1173.855          51.000    24089445.828 7  96998298.557 7      -899.469          47.000
E26  24890025.453 7 130797970.814 7     -2846.473          45.000    24890024.141 7 100221805.910 7     -2180.902          42.000
E27  27235593.922 7 143124026.693 7      3013.062          42.000    27235593.750 6 109666459.733 6      2308.680          41.000
> 2020 05 14 00 09 30.0000000  0 14        .000000000000
G06  21170033.250 8 111249285.309 8      -887.820          51.000    21170035.711 8  86687726.172 8      -691.808          51.000
G07  21827477.656 8 114704153.398 8      2333.840          50.000    21827476.445 8  89379819.442 8      1818.577          50.000
G09  20377328.031 8 107083676.319 8      -696.117          51.000    20377328.914 8  83441832.899 8      -542.429          51.000
R05  20203518.375 8 107999386.533 8     -1415.316          51.000    20203521.086 7  83999525.117 7     -1100.802          46.000
R15  20593267.500 6 110044103.252 6      1067.926          39.000    20593270.516 5  85589902.572 5       830.612          34.000
R16  22290151.922 5 119070096.667 5      4234.402          31.000    22290161.547 6  92610017.213 6      3293.424          37.000
R21  21172043.000 5 113295749.428 5     -1644.359          31.000
C05  39781771.195 6 207154121.259 6       -24.262          37.000    39781765.828 6 160184684.791 6       -19.002          37.000
C23  23452187.656 8 122121669.884 8      2202.500          51.000
C25  23651624.766 5 123160173.217 5      -757.223          32.000
C30  24958540.164 7 129965669.889 7     -2332.582          46.000
E07  24096170.664 8 126626327.455 8     -1180.555          51.000    24096171.336 7  97025381.498 7      -904.602          46.000
E26  24906306.125 7 130883517.413 7     -2854.750          44.000    24906302.711 6 100287354.556 6     -2187.445          40.000
E27  27218408.039 6 143033712.712 6      3009.523          39.000    27218406.922 6 109597258.091 6      2306.262          40.000
> 2020 05 14 00 10  0.0000000  0 14        .000000000000
G06  21175148.125 8 111276163.471 8      -901.098          51.000    21175150.516 8  86708670.219 8      -702.154          51.000
G07  21814180.836 8 114634277.958 8      2327.484          51.000    21814180.250 8  89325371.065 8      1813.624          50.000
G09  20381325.133 8 107104681.483 8      -701.297          51.000    20381326.195 8  83458200.568 8      -546.465          51.000
R05  20211477.164 8 108041930.010 8     -1418.016          51.000    20211479.227 7  84032614.485 7     -1102.904          44.000
R14  22533391.828 5 120115568.074 5     -2666.336          31.000    22533396.156 4  93423306.404 4     -2073.817          26.000
R15  20587334.789 5 110012401.398 5      1048.441          34.000    20587337.141 5  85565245.529 5       815.451          34.000
R16  22266394.398 6 118943152.136 6      4232.387          36.000    22266400.016 6  92511282.445 6      3291.856          36.000
C05  39781901.875 6 207154802.175 6       -18.148          36.000    39781896.516 6 160185211.316 6       -13.943          36.000
C23  23439524.609 8 122055727.310 8      2196.527          51.000
C25  23656023.758 5 123183084.958 5      -767.793          31.000
C30  24971994.266 7 130035726.963 7     -2334.941          46.000
E07  24102912.758 8 126661758.187 8     -1178.379          50.000    24102913.570 7  97052529.705 7      -903.018          45.000
E26  24922611.406 6 130969197.292 6     -2854.188          40.000    24922608.172 6 100353005.331 6     -2187.062          40.000
E27                                                                  27201217.398 6 109528045.156 6      2310.270          40.000
> 2020 05 14 00 10 30.0000000  0 12        .000000000000
G06  21180359.781 8 111303551.702 8      -926.004          51.000    21180362.031 8  86730011.700 8      -721.561          51.000
G07  21800941.328 8 114564703.372 8      2309.484          51.000    21800941.180 8  89271157.130 8      1799.601          51.000
G09  20385372.469 8 107125949.877 8      -717.941          51.000    20385373.414 8  83474773.336 8      -559.435          51.000
R05  20219471.953 8 108084666.640 8     -1432.496          50.000    20219473.461 7  84065854.095 7     -1114.164          43.000
R14  22548464.430 5 120195906.836 5     -2691.477          34.000    22548468.352 4  93485795.907 4     -2093.377          26.000
R16  22242661.938 5 118816369.666 5      4218.688          35.000    22242666.445 5  92412673.873 5      3281.201          34.000
C05  39782016.141 6 207155397.112 6       -23.090          36.000    39782010.891 6 160185671.361 6       -17.661          37.000
C23  23426916.531 8 121990072.437 8      2179.102          51.000
C30  24985482.445 7 130105961.253 7     -2348.633          47.000
E07  24109664.484 8 126697238.878 8     -1188.152          50.000    24109665.391 7  97079716.175 7      -910.393          45.000
E26  24938933.688 5 131054980.653 5     -2865.582          32.000    24938933.477 6 100418730.032 6     -2195.523          41.000
E27                                                                  27184018.859 6 109458795.758 6      2305.385          40.000
> 2020 05 14 00 11  0.0000000  0 15        .000000000000
G04  22104017.844 5 116157407.276 5     -2526.043          34.000
G06  21185710.602 8 111331672.436 8      -947.047          51.000    21185712.641 8  86751923.938 8      -737.959          51.000
G07  21787801.969 8 114495654.587 8      2295.379          51.000    21787802.047 8  89217352.898 8      1788.607          51.000
G09  20389512.258 8 107147703.840 8      -730.750          51.000    20389512.984 8  83491724.478 8      -569.416          51.000
R05  20227545.445 8 108127823.801 8     -1442.957          50.000    20227546.961 7  84099420.773 7     -1122.300          43.000
R14  22563678.281 6 120276994.278 6     -2712.746          38.000
R15  20575913.680 5 109951391.882 5       988.320          32.000    20575908.641 4  85517749.398 4       768.694          25.000
R16  22219001.797 6 118689979.981 6      4208.828          37.000    22219005.688 5  92314370.815 5      3273.533          30.000
C05  39782156.359 6 207156127.421 6       -23.992          37.000    39782151.203 6 160186236.098 6       -18.628          37.000
C23  23414405.883 8 121924928.437 8      2165.383          51.000
C25  23665111.273 5 123230479.233 5      -807.223          33.000
C30  24999046.625 7 130176591.528 7     -2358.367          47.000
E07  24116468.078 8 126732992.530 8     -1193.711          50.000    24116468.977 7  97107111.809 7      -914.596          45.000
E26                                                                  24955319.719 6 100484698.260 6     -2201.001          41.000
E27                                                                  27166853.930 6 109389682.512 6      2303.517          38.000
> 2020 05 14 00 11 30.0000000  0 14        .000000000000
G06  21191151.008 8 111360263.303 8      -963.918          51.000    21191152.852 8  86774202.528 8      -751.105          51.000
G07  21774713.320 8 114426872.203 8      2285.211          51.000    21774712.953 8  89163756.259 8      1780.684          51.000
G09  20393694.469 8 107169681.017 8      -739.379          51.000    20393695.266 8  83508849.567 8      -576.139          51.000
R05  20235647.734 8 108171135.072 8     -1449.395          49.000    20235649.578 7  84133107.310 7     -1127.307          42.000
R14  22578982.500 6 120358561.872 6     -2729.805          40.000    22578986.297 4  93612319.306 4     -2123.181          25.000
R15  20570414.227 6 109922026.561 6       964.598          38.000    20570418.375 4  85494938.684 4       750.237          27.000
R16  22195364.867 6 118563721.848 6      4203.680          37.000    22195368.594 4  92216170.153 4      3269.532          26.000
R21  21209968.094 5 113498752.151 5     -1741.148          30.000
C05  39782272.812 6 207156734.006 6       -21.527          36.000    39782267.742 6 160186705.158 6       -16.604          36.000
C23  23401943.445 8 121860038.259 8      2155.676          50.000
C30  25012636.414 8 130247356.335 8     -2364.105          48.000
E07  24123273.820 8 126768757.414 8     -1195.430          50.000    24123274.703 7  97134516.063 7      -915.988          45.000
E26  24971707.984 6 131227204.056 6     -2875.465          38.000    24971715.641 6 100550708.202 6     -2203.299          41.000
E27                                                                  27149673.742 6 109320506.741 6      2304.595          38.000
> 2020 05 14 00 12  0.0000000  0 14        .000000000000
G06  21196717.469 8 111389516.138 8      -972.887          51.000    21196719.375 8  86796996.933 8      -758.094          51.000
G07  21761712.148 8 114358550.378 8      2282.754          51.000    21761710.758 8  89110518.486 8      1778.769          51.000
G09  20397955.625 8 107192073.239 8      -740.133          51.000    20397956.664 8  83526298.060 8      -576.727          51.000
R05  20243815.484 8 108214796.549 8     -1447.930          48.000    20243816.914 7  84167066.242 7     -1126.168          42.000
R14  22594411.547 6 120440801.586 6     -2739.316          36.000
R15  20565084.234 7 109893537.949 7       948.336          43.000    20565094.672 5  85472781.142 5       737.601          31.000
R16  22171789.586 6 118437795.942 6      4205.363          39.000    22171790.867 5  92118242.903 5      3270.838          31.000
C05  39782402.219 6 207157407.866 6       -10.512          37.000    39782397.141 6 160187226.229 6        -8.065          37.000
C23  23389567.398 8 121795594.885 8      2153.664          51.000
C25  23674581.414 5 123279760.304 5      -826.383          33.000
C30  25026287.883 7 130318444.183 7     -2361.859          47.000
E07  24130118.367 8 126804725.907 8     -1189.230          50.000    24130119.266 7  97162076.329 7      -911.249          45.000
E26  24988151.250 6 131313597.914 6     -2870.777          41.000    24988156.531 6 100616906.042 6     -2199.558          41.000
E27                                                                  27132515.953 6 109251417.753 6      2311.572          39.000
> 2020 05 14 00 12 30.0000000  0 14        .000000000000
G06  21202406.961 8 111419413.831 8     -1006.121          51.000    21202408.867 8  86820293.842 8      -783.990          51.000
G07  21748795.883 8 114290675.162 8      2256.137          51.000    21748793.641 8  89057628.729 8      1758.029          51.000
G09  20402292.398 8 107214863.409 8      -765.172          51.000    20402293.602 8  83544056.634 8      -596.238          51.000
R05  20252045.750 7 108258791.694 7     -1470.918          47.000    20252048.039 7  84201284.670 7     -1144.047          42.000
R14  22609962.180 5 120523693.590 5     -2772.496          32.000
R15  20559915.453 7 109865911.115 7       907.504          43.000    20559921.094 5  85451293.657 5       705.836          32.000
R16  22148275.688 7 118312190.065 7      4182.754          42.000    22148277.453 5  92020549.457 5      3253.253          35.000
C05  39782541.453 6 207158133.079 6       -23.645          37.000    39782536.453 6 160187787.055 6       -18.561          37.000
C23  23377274.617 8 121731584.258 8      2127.523          50.000
C25  23679464.797 5 123305210.990 5      -856.289          33.000
C30  25039997.562 7 130389836.663 7     -2383.695          47.000
E07  24136998.586 8 126840881.623 8     -1207.211          50.000    24136999.742 7  97189780.046 7      -924.958          45.000
E26  25004635.461 6 131400219.030 6     -2890.086          40.000    25004638.922 6 100683277.985 6     -2214.550          41.000
E27  27115380.320 6 142492301.143 6      3001.605          38.000    27115377.250 6 109182404.720 6      2300.045          40.000
> 2020 05 14 00 13  0.0000000  0 16        .000000000000
G04  22161923.242 5 116461698.478 5     -2553.719          32.000
G06  21208197.281 8 111449840.564 8     -1030.512          51.000    21208198.609 8  86844002.992 8      -802.996          51.000
G07  21735943.164 8 114223133.551 8      2238.352          51.000    21735940.586 8  89004998.902 8      1744.170          51.000
G09  20406682.805 8 107237935.676 8      -781.215          51.000    20406684.094 8  83562035.019 8      -608.739          51.000
R05  20260316.734 7 108303003.564 7     -1484.934          45.000    20260319.016 6  84235671.694 6     -1154.948          41.000
R14  22625612.852 5 120607118.175 5     -2796.875          34.000
R15  20554885.523 7 109839030.692 7       876.055          43.000    20554890.062 6  85430386.698 6       681.376          36.000
R16  22124801.461 7 118186791.893 7      4168.918          44.000    22124803.453 6  91923017.572 6      3242.495          36.000
R21  21239919.953 5 113658977.865 5     -1822.758          33.000    21239901.648 4  88401443.090 4     -1417.701          26.000
C05  39782668.766 6 207158795.840 6       -28.453          37.000    39782663.734 6 160188299.495 6       -21.754          37.000
C23  23365043.203 8 121667894.460 8      2110.238          50.000
C25  23684447.812 4 123331095.753 4      -877.590          29.000
C30  25053743.461 8 130461417.406 8     -2396.500          48.000
E07  24143892.531 8 126877109.366 8     -1216.199          50.000    24143893.883 7  97217538.972 7      -931.935          45.000
E26  25021139.195 6 131486950.467 6     -2900.484          39.000    25021142.211 7 100749734.496 7     -2222.299          43.000
E27  27098236.867 6 142402219.636 6      2995.570          40.000    27098235.805 6 109113381.254 6      2295.328          41.000
> 2020 05 14 00 13 30.0000000  0 15        .000000000000
G04  22176486.539 5 116538224.327 5     -2551.082          33.000
G06  21214106.164 8 111480890.995 8     -1042.219          51.000    21214106.867 8  86868198.108 8      -812.119          51.000
G07  21723172.250 8 114156022.538 8      2232.938          49.000    21723170.234 8  88952704.602 8      1739.951          49.000
G09  20411144.938 8 107261384.889 8      -784.727          51.000    20411146.234 8  83580307.133 8      -611.475          51.000
R05  20268646.281 7 108347529.158 7     -1486.246          45.000    20268648.820 6  84270302.744 6     -1155.969          41.000
R14  22641379.508 4 120691168.692 4     -2809.559          28.000    22641378.320 5  93870985.791 5     -2185.206          30.000
R15  20550014.359 7 109812995.831 7       856.805          42.000    20550019.367 6  85410137.374 6       666.401          36.000
R16  22101385.211 7 118061703.303 7      4167.676          44.000    22101387.094 6  91825726.508 6      3241.526          37.000
R21  21250180.227 5 113713873.913 5     -1839.582          32.000    21250160.539 4  88444140.687 4     -1430.777          26.000
C05  39782802.250 6 207159489.914 6       -20.746          36.000    39782797.336 6 160188836.995 6       -15.852          37.000
C23  23352892.359 8 121604622.225 8      2105.219          51.000
C30  25067543.109 7 130533278.830 7     -2396.871          47.000
E07  24150818.289 8 126913504.548 8     -1212.836          50.000    24150819.492 7  97245426.197 7      -929.343          45.000
E26  25037680.227 5 131573886.007 5     -2898.086          34.000    25037684.984 7 100816347.454 7     -2220.683          44.000
E27  27081109.617 7 142312222.281 7      3001.480          42.000    27081109.930 6 109044422.277 6      2299.866          40.000
> 2020 05 14 00 14  0.0000000  0 14        .000000000000
G04  22191078.023 5 116614883.683 5     -2557.918          33.000
G06  21220122.391 8 111512504.978 8     -1064.016          51.000    21220122.352 8  86892832.356 8      -829.103          51.000
G07  21710471.969 7 114089284.819 7      2217.570          47.000    21710471.211 7  88900701.163 7      1727.977          47.000
G09  20415667.445 8 107285150.948 8      -798.133          51.000    20415668.648 8  83598826.147 8      -621.922          51.000
R05  20277023.062 7 108392308.546 7     -1497.520          44.000    20277026.086 6  84305131.238 6     -1164.734          40.000
R15  20545290.398 5 109787747.542 5       827.789          31.000    20545292.883 6  85390499.775 6       643.839          37.000
R16  22078016.445 7 117936868.863 7      4156.051          44.000    22078017.781 6  91728633.107 6      3232.487          36.000
C05  39782930.711 6 207160158.900 6       -22.473          36.000    39782925.836 6 160189355.341 6       -17.707          37.000
C23  23340811.141 8 121541710.910 8      2090.258          51.000
C25  23694685.398 5 123384401.903 5      -904.164          32.000
C30  25081384.867 7 130605359.966 7     -2407.137          47.000
E07  24157764.633 8 126950007.821 8     -1219.324          49.000    24157765.547 7  97273396.237 7      -934.272          44.000
E26                                                                  25054255.250 7 100883070.089 7     -2226.523          44.000
E27  27063987.672 7 142222252.112 7      2997.602          43.000    27063989.414 6 108975484.116 6      2296.989          41.000
> 2020 05 14 00 14 30.0000000  0 14        .000000000000
G02  22629510.258 5 118918861.085 5      1209.266          34.000
G04  22205690.016 5 116691670.210 5     -2558.734          33.000
G06  21226241.578 8 111544660.879 8     -1078.312          51.000    21226241.562 8  86917888.870 8      -840.244          51.000
G07  21697839.094 7 114022901.330 7      2209.355          47.000    21697839.305 7  88848973.739 7      1721.576          47.000
G09  20420246.227 8 107309212.298 8      -804.441          51.000    20420247.289 8  83617575.252 8      -626.837          51.000
R05  20285443.711 7 108437320.628 7     -1501.660          43.000    20285446.648 6  84340140.642 6     -1167.958          39.000
R16  22054691.719 7 117812272.193 7      4151.930          43.000    22054693.359 6  91631724.566 6      3229.279          38.000
C05  39783050.188 6 207160781.340 6       -17.500          36.000    39783045.367 6 160189836.632 6       -13.538          37.000
C23  23328796.180 8 121479142.009 8      2082.406          51.000
C25  23699930.828 5 123411730.471 5      -916.051          34.000
C30  25095264.703 7 130677637.844 7     -2409.961          47.000
E07  24164727.602 8 126986598.268 8     -1218.562          49.000    24164728.617 7  97301433.081 7      -933.803          44.000
E26                                                                  25070848.578 7 100949885.096 7     -2226.693          43.000
E27  27046868.156 7 142132290.544 7      3001.340          43.000    27046870.477 6 108906552.601 6      2299.387          41.000
> 2020 05 14 00 15  0.0000000  0 15        .000000000000
G02  22622656.758 5 118882863.432 5      1184.930          33.000
G06  21232465.891 8 111577369.336 8     -1106.703          51.000    21232466.539 8  86943375.988 8      -862.366          51.000
G07  21685276.883 8 113956885.571 8      2187.207          49.000    21685276.977 8  88797532.897 8      1704.317          49.000
G09  20424883.297 8 107333579.736 8      -824.539          51.000    20424884.219 8  83636562.864 8      -642.498          51.000
R05  20293910.359 7 108482576.738 7     -1520.008          45.000    20293913.719 6  84375339.826 6     -1182.228          37.000
R14  22689309.984 5 120946692.946 5     -2872.582          31.000    22689305.672 4  94069703.805 4     -2234.230          27.000
R15  20536273.562 6 109739523.480 6       769.527          37.000    20536280.852 5  85352960.410 5       598.524          32.000
R16  22031414.047 7 117687929.390 7      4133.145          44.000    22031416.820 6  91535013.477 6      3214.665          41.000
C05  39783163.008 6 207161368.851 6       -25.988          37.000    39783158.188 6 160190290.952 6       -20.150          37.000
C23  23316849.203 8 121416929.022 8      2060.703          51.000
C25  23705268.188 4 123439516.964 4      -941.074          28.000
C30  25109184.398 7 130750121.656 7     -2426.645          47.000
E07  24171709.273 8 127023287.325 8     -1231.660          50.000    24171710.531 7  97329545.462 7      -943.782          44.000
E26                                                                  25087466.602 7 101016799.993 7     -2237.657          42.000
E27  27029753.289 7 142042351.407 7      2990.312          44.000    27029755.289 6 108837638.237 6      2291.386          40.000
> 2020 05 14 00 15 30.0000000  0 12        .000000000000
G06  21238846.000 8 111610896.485 8     -1120.156          51.000    21238847.242 8  86969501.077 8      -872.846          51.000
G07  21672836.234 8 113891506.450 8      2179.785          51.000    21672835.219 8  88746588.176 8      1698.537          51.000
G09  20429629.195 8 107358519.559 8      -829.699          51.000    20429629.938 8  83655996.497 8      -646.516          51.000
R05  20302473.289 7 108528349.119 7     -1522.977          44.000    20302475.539 5  84410940.583 5     -1184.537          34.000
R15  20532034.492 6 109716876.784 6       748.566          41.000    20532048.688 4  85335435.431 4       582.218          26.000
R16  22008236.633 7 117564116.951 7      4129.465          47.000    22008239.523 7  91438714.884 7      3211.803          42.000
C05  39783319.969 6 207162186.249 6       -20.203          37.000    39783315.219 6 160190923.006 6       -15.350          37.000
C23  23305021.406 8 121355338.625 8      2053.602          50.000
C30  25123194.008 7 130823073.706 7     -2428.535          47.000
E07  24178760.562 8 127060341.978 8     -1230.184          49.000    24178761.930 7  97357937.980 7      -942.518          43.000
E26                                                                  25104159.539 6 101084018.071 6     -2237.124          40.000
E27  27012694.227 7 141952704.030 7      2994.547          45.000    27012695.516 6 108768947.467 6      2294.559          40.000
> 2020 05 14 00 16  0.0000000  0 14        .000000000000
G06  21245299.836 8 111644811.019 8     -1140.188          51.000    21245301.469 8  86995927.996 8      -888.458          51.000
G07  21660435.266 8 113826335.366 8      2165.617          51.000    21660432.844 8  88695805.559 8      1687.494          51.000
G09  20434401.859 8 107383600.622 8      -841.762          51.000    20434402.570 8  83675540.176 8      -655.918          51.000
G30  23575162.648 6 123888339.417 6      3551.148          37.000    23575165.172 6  96536344.987 6      2767.129          37.000
R05  20311050.477 7 108574199.439 7     -1532.992          44.000    20311052.102 5  84446601.945 5     -1192.327          32.000
R15  20527910.953 6 109694847.367 6       720.848          40.000
R16  21985077.789 8 117440401.771 8      4118.703          48.000    21985080.055 7  91342491.964 7      3203.436          42.000
C05  39783439.273 6 207162807.232 6       -20.664          37.000    39783434.484 6 160191403.224 6       -16.054          37.000
C23  23293231.383 8 121293946.367 8      2039.746          49.000
C25  23716245.773 5 123496708.770 5      -968.422          32.000
C30  25137211.266 7 130896065.139 7     -2437.035          46.000
E07  24185799.562 8 127097331.645 8     -1235.164          49.000    24185801.078 7  97386280.708 7      -946.439          42.000
E26  25120849.820 5 132010971.017 5     -2925.582          35.000    25120845.492 6 101151208.139 6     -2241.784          39.000
E27  26995609.297 7 141862920.253 7      2991.758          45.000    26995610.367 6 108700152.144 6      2292.494          41.000
> 2020 05 14 00 16 30.0000000  0 14        .000000000000
G06  21251864.570 8 111679308.302 8     -1160.402          51.000    21251866.172 8  87022808.990 8      -904.210          51.000
G07  21648111.570 8 113761570.962 8      2151.285          51.000    21648108.125 8  88645339.820 8      1676.329          51.000
G09  20439238.727 8 107409018.500 8      -853.723          51.000    20439239.453 8  83695346.301 8      -665.238          51.000
G30  23554906.992 6 123781887.537 6      3545.289          38.000    23554907.617 6  96453395.541 6      2762.566          38.000
R05  20319679.523 7 108620328.179 7     -1543.211          43.000    20319680.594 4  84482479.921 4     -1200.269          28.000
R15  20523941.500 7 109673636.612 7       692.672          42.000    20523948.445 5  85301782.561 5       538.748          34.000
R16  21961975.227 7 117316988.505 7      4107.922          47.000    21961976.820 6  91246503.868 6      3195.050          40.000
C05  39783558.219 6 207163426.714 6       -21.656          37.000    39783553.484 6 160191882.242 6       -16.374          37.000
C23  23281516.891 8 121232948.869 8      2025.902          50.000
C25  23721871.625 5 123526000.386 5      -985.340          32.000
C30  25151272.789 7 130969288.346 7     -2445.496          44.000
E07  24192863.500 8 127134452.671 8     -1240.246          49.000    24192865.617 7  97414724.074 7      -950.336          42.000
E26  25137562.750 6 132098817.859 6     -2931.527          37.000    25137561.773 6 101218519.330 6     -2246.265          37.000
E27  26978535.961 7 141773198.762 7      2988.871          43.000    26978537.281 7 108631404.532 7      2290.237          42.000
> 2020 05 14 00 17  0.0000000  0 14        .000000000000
G06  21258541.078 8 111714393.919 8     -1179.402          51.000    21258541.938 8  87050148.416 8      -919.015          51.000
G07  21635866.430 8 113697221.279 8      2137.949          51.000    21635862.594 8  88595197.238 8      1665.937          51.000
G09  20444140.820 8 107434779.025 8      -864.590          51.000    20444141.602 8  83715419.435 8      -673.706          51.000
G30  23534683.312 6 123675598.069 6      3539.895          39.000    23534680.219 6  96370572.646 6      2758.362          38.000
R05  20328361.094 6 108666741.802 6     -1552.367          38.000    20328361.742 4  84518578.447 4     -1207.403          29.000
R15  20520127.359 6 109653252.566 6       665.316          38.000    20520129.266 5  85285928.298 5       517.468          34.000
R16  21938930.625 7 117193888.200 7      4097.859          46.000    21938930.656 6  91150759.217 6      3187.227          36.000
C05  39783678.188 6 207164051.315 6       -21.020          37.000    39783673.414 6 160192365.253 6       -16.371          38.000
C23  23269880.180 8 121172354.702 8      2012.871          51.000
C25  23727594.703 4 123555786.065 4     -1000.984          28.000
C30  25165379.289 7 131042747.553 7     -2452.832          44.000
E07  24199953.734 8 127171711.547 8     -1244.367          49.000    24199956.250 6  97443273.063 6      -953.428          41.000
E26  25154308.453 6 132186827.494 6     -2936.250          36.000    25154309.016 5 101285955.318 5     -2249.893          35.000
E27  26961475.680 7 141683548.406 7      2987.012          42.000    26961477.391 7 108562711.390 7      2288.659          44.000
