     3.02           OBSERVATION DATA    M (MIXED)           RINEX VERSION / TYPE
SAVERINEX           SC600               20200515 005930 LCL PGM / RUN BY / DATE
       G = GPS       R = GLONASS       C = COMPASS          COMMENT
       S = SBAS      J = QZSS          E = GALILEO          COMMENT
BEAN                                                        MARKER NAME
1                                                           MARKER NUMBER
GEODETIC                                                    MARKER TYPE
Unige DICCA         GTER                                    OBSERVER / AGENCY
SC60291900056       SC600               2.12(191202)        REC # / TYPE / VERS
                    HEMA45          NONE                    ANT # / TYPE
  4509407.8091   693652.4678  4442337.6214                  APPROX POSITION XYZ
        0.0000        0.0000        0.0000                  ANTENNA: DELTA H/E/N
G    8 C1C L1C D1C S1C C2Y L2Y D2Y S2Y                      SYS / # / OBS TYPES
R    8 C1C L1C D1C S1C C2P L2P D2P S2P                      SYS / # / OBS TYPES
C    8 C1I L1I D1I S1I C7I L7I D7I S7I                      SYS / # / OBS TYPES
E    8 C1C L1C D1C S1C C7Q L7Q D7Q S7Q                      SYS / # / OBS TYPES
DBHZ                                                        COMMENT
     30.000                                                 INTERVAL
  2020    05    14    22    00    0.0000000     GPS         TIME OF FIRST OBS
  2020    05    14    22    59   30.0000000     GPS         TIME OF LAST OBS
     0                                                      RCV CLOCK OFFS APPL
G L1C  0.00000                                              SYS / PHASE SHIFT
G L2Y  0.00000                                              SYS / PHASE SHIFT
R L1C  0.00000                                              SYS / PHASE SHIFT
R L2P  0.25000                                              SYS / PHASE SHIFT
C L1I  0.00000                                              SYS / PHASE SHIFT
C L7I  0.00000                                              SYS / PHASE SHIFT
E L1C  0.50000                                              SYS / PHASE SHIFT
E L7Q -0.25000                                              SYS / PHASE SHIFT
 16 R03  5 R04  6 R05  1 R06 -4 R07  5 R10 -5 R13 -2 R14 -7 GLONASS SLOT / FRQ #
    R15  0 R16 -1 R17  4 R18 -3 R19  3 R20  2 R21  4 R22 -3 GLONASS SLOT / FRQ #
 C1C   71.950 C2C   71.950 C2P   71.950                     GLONASS COD/PHS/BIS
    18                                                      LEAP SECONDS
*** Above antenna height is from mark to ANTENNA BOTTOM.    COMMENT
    17     4        0.0000        ANT MEASURE TYPE/HEIGT    COMMENT
    0.0000    0.0000    0.0458    0.0405    0.0000          COMMENT
                    BASE STATION                            COMMENT
                                                            END OF HEADER
> 2020 05 14 22 00  0.0000000  0 12        .000000000000
G01  23119941.602 8 121496097.511 8     -3397.840          49.000    23119944.633 8  94672290.439 8     -2647.667          48.000
G03  20913093.031 7 109899058.359 7     -1437.398          47.000    20913094.062 7  85635661.853 7     -1120.048          47.000
G04  20305411.195 8 106705659.620 8       559.699          51.000    20305410.344 8  83147315.922 8       436.132          51.000
G09  21771478.734 7 114409986.458 7      2649.992          47.000    21771479.453 7  89150631.448 7      2064.929          47.000
G17  22453738.469 6 117995185.412 6     -1597.008          36.000    22453734.297 6  91944296.854 6     -1244.419          36.000
R05  20118331.867 6 107543999.058 6     -1963.172          36.000    20118325.633 4  83645320.852 4     -1526.911          27.000
R20  20827319.430 5 111373034.425 5     -3464.000          35.000    20827323.844 7  86623470.373 7     -2694.225          44.000
C14  21851958.547 8 113788895.906 8     -1033.691          51.000    21851956.672 8  87988877.996 8      -799.301          51.000
C24  25707853.930 7 133867554.152 7      2777.762          45.000
C28  22666933.398 7 118032652.946 7     -1124.523          44.000
E03  24220677.664 8 127280517.934 8      1461.703          51.000    24220679.273 8  97526716.823 8      1120.012          51.000
E05  23741117.422 8 124760438.843 8     -1067.480          51.000    23741120.148 8  95595710.177 8      -817.919          51.000
> 2020 05 14 22 00 30.0000000  0 14        .000000000000
G01  23139319.852 7 121597931.115 7     -3395.340          47.000    23139323.703 7  94751641.307 7     -2645.719          46.000
G03  20921284.828 7 109942106.283 7     -1436.535          45.000    20921285.820 7  85669205.700 7     -1119.378          46.000
G04  20302224.016 8 106688910.988 8       552.613          51.000    20302223.172 8  83134265.058 8       430.608          51.000
G09  21756340.727 7 114330442.905 7      2648.500          45.000    21756342.867 7  89088649.429 7      2063.766          45.000
G17  22462861.539 5 118043133.423 5     -1603.004          31.000    22462859.453 5  91981652.888 5     -1249.106          32.000
G31  23846815.219 5 125315858.838 5     -1908.508          31.000
R05  20129336.172 6 107602809.200 6     -1962.117          40.000    20129333.133 5  83691058.016 5     -1526.088          31.000
R14  22883868.984 5 121983893.993 5       133.168          32.000    22883866.820 4  94876339.831 4       103.575          28.000
R20  20846759.312 6 111476988.789 6     -3470.902          36.000    20846763.594 7  86704323.747 7     -2699.591          44.000
C14  21857893.445 8 113819800.182 8     -1030.801          51.000    21857891.500 8  88012775.149 8      -797.081          51.000
C24  25691822.289 7 133784070.535 7      2783.582          47.000
C28  22673417.648 7 118066421.854 7     -1130.770          42.000
E03  24212314.625 8 127236571.633 8      1463.809          51.000    24212317.148 8  97493043.718 8      1121.572          51.000
E05  23747191.859 8 124792359.343 8     -1064.879          51.000    23747194.570 8  95620168.739 8      -815.934          51.000
> 2020 05 14 22 01  0.0000000  0 12        .000000000000
G01  23158749.039 7 121700034.891 7     -3402.875          44.000    23158753.812 7  94831202.697 7     -2651.591          44.000
G03  20929536.492 7 109985469.565 7     -1445.477          44.000    20929537.438 7  85702995.262 7     -1126.345          44.000
G04  20299143.008 8 106672721.296 8       535.672          51.000    20299142.500 8  83121649.722 8       417.407          51.000
G09  21741279.602 8 114251295.861 8      2636.906          48.000    21741282.008 8  89026976.442 8      2054.732          48.000
R05  20140401.758 6 107661948.920 6     -1971.188          38.000    20140402.375 5  83737055.586 5     -1533.140          33.000
R14  22883210.281 5 121980376.748 5       108.508          34.000    22883210.250 5  94873631.066 5        84.392          30.000
R20  20866307.203 6 111581518.200 6     -3488.484          38.000    20866311.219 7  86785624.361 7     -2713.269          44.000
C14  21863878.070 8 113850963.876 8     -1037.793          51.000    21863876.062 8  88036872.882 8      -802.421          51.000
C24  25675823.047 7 133700756.724 7      2779.629          47.000
C28  22680003.898 6 118100723.429 6     -1146.918          41.000
E03  24204006.562 8 127192914.679 8      1455.859          51.000    24204010.867 8  97459592.292 8      1115.559          51.000
E05  23753317.367 8 124824548.588 8     -1071.996          51.000    23753319.922 8  95644833.226 8      -821.382          51.000
> 2020 05 14 22 01 30.0000000  0 14        .000000000000
G01  23178213.031 7 121802323.320 7     -3418.367          42.000    23178217.961 7  94910907.981 7     -2663.660          42.000
G03  20937832.078 7 110029063.941 7     -1462.590          45.000    20937833.148 7  85736964.932 7     -1139.680          45.000
G04  20296152.445 8 106657006.490 8       510.254          51.000    20296151.805 8  83109404.396 8       397.597          51.000
G09  21726278.773 8 114172462.906 8      2616.840          51.000    21726280.953 8  88965548.221 8      2039.099          51.000
G17  22481388.992 5 118140494.787 5     -1642.695          33.000
G19  22218774.836 5 116760471.867 5      -701.074          31.000
R05  20151508.133 6 107721330.801 6     -1989.168          37.000    20151511.617 5  83783241.633 5     -1547.128          34.000
R14  22882692.430 5 121977601.701 5        74.984          34.000    22882689.906 5  94871472.670 5        58.321          33.000
R20  20885946.234 6 111686533.649 6     -3514.355          39.000    20885949.156 7  86867303.011 7     -2733.388          44.000
C14  21869896.453 8 113882303.258 8     -1053.230          51.000    21869894.414 8  88061106.482 8      -814.322          51.000
C24  25659840.922 7 133617532.258 7      2766.926          46.000
C28  22686676.992 7 118135473.594 7     -1171.352          43.000
E03  24195737.695 8 127149463.205 8      1439.301          51.000    24195743.305 8  97426298.323 8      1102.853          51.000
E05  23759477.883 8 124856921.756 8     -1087.750          51.000    23759480.039 8  95669638.645 8      -833.435          51.000
> 2020 05 14 22 02  0.0000000  0 13        .000000000000
G01  23197725.258 7 121904861.009 7     -3418.547          43.000    23197729.805 7  94990807.492 7     -2663.803          43.000
G03  20946184.273 7 110072955.560 7     -1464.512          44.000    20946185.414 7  85771166.213 7     -1141.178          44.000
G04  20293264.836 8 106641832.703 8       500.410          51.000    20293264.375 8  83097580.671 8       389.930          51.000
G09  21711350.828 8 114094011.782 8      2612.176          51.000    21711352.562 8  88904417.530 8      2035.465          51.000
G19  22222817.906 5 116781676.461 5      -713.855          33.000
R05  20162673.586 6 107781020.871 6     -1991.137          41.000    20162675.766 5  83829667.248 5     -1548.662          34.000
R14  22882316.945 5 121975609.986 5        57.168          34.000    22882317.367 5  94869923.573 5        44.467          33.000
R20  20905687.562 6 111792099.212 6     -3524.320          38.000    20905690.719 7  86949409.544 7     -2741.138          45.000
C14  21875961.055 8 113913883.515 8     -1053.074          51.000    21875959.086 8  88085526.342 8      -814.364          51.000
C24  25643889.266 8 133534465.514 8      2769.898          48.000
C28  22693449.531 7 118170736.931 7     -1180.336          46.000
E03  24187520.891 8 127106283.615 8      1438.355          51.000    24187526.391 8  97393212.697 8      1102.126          51.000
E05  23765685.953 8 124889544.321 8     -1088.016          51.000    23765687.852 8  95694635.157 8      -833.683          51.000
> 2020 05 14 22 02 30.0000000  0 14        .000000000000
G01  23217285.055 7 122007647.322 7     -3436.648          45.000    23217288.508 7  95070900.711 7     -2677.908          44.000
G03  20954593.367 7 110117145.043 7     -1484.301          45.000    20954594.227 7  85805599.601 7     -1156.595          44.000
G04  20290480.539 8 106627200.814 8       472.211          51.000    20290480.070 8  83086179.208 8       367.957          50.000
G09  21696495.742 8 114015945.049 8      2589.395          51.000    21696497.188 8  88843586.325 8      2017.713          51.000
G17  22500281.305 5 118239774.895 5     -1677.848          34.000    22500280.094 5  92134886.244 5     -1307.414          34.000
R05  20173898.203 6 107841018.409 6     -2011.738          41.000    20173897.055 6  83876331.965 6     -1564.691          36.000
R06  20243565.266 5 108023540.172 5      1684.098          30.000
R14  22882090.633 5 121974403.460 5        21.164          30.000    22882090.750 5  94868985.159 5        16.455          30.000
R20  20925531.062 6 111898211.778 6     -3552.590          38.000    20925534.688 7  87031941.556 7     -2763.125          46.000
C14  21882072.016 8 113945705.139 8     -1071.070          51.000    21882070.117 8  88110132.844 8      -828.204          51.000
C24  25627968.719 8 133451560.232 8      2754.398          48.000
C28  22700321.016 7 118206513.588 7     -1207.543          47.000
E03  24179356.359 8 127063377.141 8      1419.359          51.000    24179360.281 8  97360336.337 8      1087.540          50.000
E05  23771941.477 8 124922416.405 8     -1106.344          51.000    23771943.539 8  95719822.862 8      -847.679          51.000
> 2020 05 14 22 03  0.0000000  0 13        .000000000000
G01  23236888.445 7 122110661.623 7     -3435.527          44.000    23236890.297 7  95151171.519 7     -2677.037          44.000
G03  20963055.594 7 110161613.204 7     -1484.750          46.000    20963056.102 7  85840250.120 7     -1156.948          46.000
G04  20287795.836 8 106613091.636 8       463.734          51.000    20287795.016 8  83075185.046 8       361.351          51.000
G09  21681709.906 8 113938245.026 8      2585.953          50.000    21681711.656 8  88783040.868 8      2015.028          50.000
G17  22509865.758 5 118290137.354 5     -1684.375          34.000    22509861.359 5  92174129.742 5     -1312.494          35.000
R05  20185176.047 6 107901302.181 6     -2012.277          40.000    20185174.273 6  83923219.355 6     -1565.105          38.000
R14  22882009.211 5 121973963.472 5         4.141          33.000    22882008.070 4  94868642.880 4         3.220          29.000
R20  20945472.859 6 112004848.941 6     -3561.148          39.000    20945476.727 7  87114881.559 7     -2769.782          46.000
C14  21888225.641 8 113977748.875 8     -1069.656          51.000    21888223.828 8  88134911.099 8      -827.189          51.000
C24  25612076.031 8 133368800.300 8      2758.410          48.000
C28  22707287.039 7 118242783.750 7     -1215.363          46.000
E03  24171240.000 8 127020724.933 8      1419.617          51.000    24171242.867 8  97327654.767 8      1087.750          51.000
E05  23778240.648 8 124955518.184 8     -1105.051          51.000    23778242.945 8  95745186.569 8      -846.736          51.000
> 2020 05 14 22 03 30.0000000  0 12        .000000000000
G01  23256533.453 7 122213895.127 7     -3449.246          44.000    23256534.242 7  95231613.125 7     -2687.727          44.000
G03  20971569.617 7 110206352.539 7     -1500.266          47.000    20971569.727 7  85875111.953 7     -1169.038          47.000
G04  20285209.180 8 106599497.837 8       440.016          51.000    20285208.336 8  83064592.481 8       342.869          51.000
G09  21666992.219 8 113860905.899 8      2567.426          49.000    21666994.445 8  88722776.615 8      2000.592          49.000
G17  22519537.773 6 118340964.085 6     -1706.145          37.000    22519532.594 6  92213734.995 6     -1329.466          36.000
R05  20196504.109 6 107961863.304 6     -2027.969          39.000    20196504.242 6  83970322.491 6     -1577.309          39.000
R20  20965510.664 6 112111999.544 6     -3584.789          38.000    20965514.312 7  87198220.883 7     -2788.169          45.000
C14  21894420.438 8 114010007.004 8     -1083.238          51.000    21894418.742 8  88159855.127 8      -837.644          51.000
C24  25596210.000 8 133286181.284 8      2747.211          48.000
C28  22714345.352 7 118279539.277 7     -1237.609          46.000
E03  24163170.516 8 126978319.904 8      1404.859          51.000    24163173.602 8  97295162.593 8      1076.433          51.000
E05  23784581.883 8 124988841.593 8     -1118.918          51.000    23784584.094 8  95770720.100 8      -857.371          51.000
> 2020 05 14 22 04  0.0000000  0 13        .000000000000
G01  23276214.664 7 122317319.547 7     -3450.078          44.000    23276216.211 7  95312203.566 7     -2688.373          44.000
G03  20980130.047 7 110251336.274 7     -1502.891          47.000    20980130.172 7  85910164.200 7     -1171.084          47.000
G04  20282715.336 8 106586392.626 8       429.320          51.000    20282714.688 8  83054380.644 8       334.535          51.000
G09  21652338.492 8 113783902.512 8      2561.758          49.000    21652340.664 8  88662773.996 8      1996.175          49.000
G17  22529293.492 6 118392225.991 6     -1715.402          38.000    22529289.125 6  92253679.332 6     -1336.680          38.000
G19  22240169.930 5 116872881.351 5      -800.969          30.000
R05  20207878.750 6 108022673.089 6     -2030.535          39.000    20207880.453 6  84017619.001 6     -1579.305          40.000
R20  20985638.297 6 112219632.695 6     -3595.039          37.000    20985641.844 7  87281935.521 7     -2796.141          46.000
C14  21900651.250 8 114042452.764 8     -1084.031          51.000    21900649.617 8  88184944.241 8      -838.266          51.000
C24  25580366.312 8 133203679.638 8      2748.676          48.000
C28  22721491.625 7 118316752.808 7     -1247.352          46.000
E03  24155143.414 8 126936135.528 8      1403.082          51.000    24155146.898 8  97262839.505 8      1075.041          51.000
E05  23790960.023 8 125022359.261 8     -1119.918          51.000    23790961.852 8  95796402.479 8      -858.149          51.000
> 2020 05 14 22 04 30.0000000  0 13        .000000000000
G01  23295923.477 7 122420890.897 7     -3455.984          43.000    23295926.758 7  95392908.546 7     -2692.975          43.000
G03  20988728.703 7 110296521.742 7     -1510.598          47.000    20988728.781 7  85945373.650 7     -1177.089          47.000
G04  20280306.266 8 106573733.484 8       413.598          50.000    20280305.906 8  83044516.380 8       322.284          50.000
G09  21637741.422 8 113707193.925 8      2551.047          51.000    21637742.211 8  88603001.106 8      1987.829          51.000
G17  22539123.477 6 118443879.123 6     -1729.066          40.000    22539120.953 6  92293928.505 6     -1347.328          40.000
R05  20219292.188 6 108083687.009 6     -2038.078          39.000    20219294.984 6  84065074.301 6     -1585.169          39.000
R14  22882591.930 6 121977044.738 6       -70.703          38.000    22882589.688 4  94871056.113 4       -54.988          27.000
R20  21005847.180 6 112327702.230 6     -3610.555          36.000    21005851.984 7  87365989.591 7     -2808.209          47.000
C14  21906909.812 8 114075043.713 8     -1089.664          50.000    21906908.227 8  88210145.642 8      -842.706          51.000
C24  25564537.555 8 133121255.984 8      2745.242          48.000
C28  22728718.227 7 118354381.366 7     -1262.137          47.000
E03  24147150.531 8 126894129.715 8      1396.277          51.000    24147153.867 8  97230653.242 8      1069.806          51.000
E05  23797366.930 8 125056027.966 8     -1125.863          51.000    23797368.391 8  95822200.577 8      -862.701          51.000
> 2020 05 14 22 05  0.0000000  0 15        .000000000000
G01  23315675.859 7 122524691.783 7     -3453.398          44.000    23315680.531 7  95473792.369 7     -2690.957          44.000
G03  20997381.477 7 110341993.033 7     -1510.367          45.000    20997381.828 7  85980805.803 7     -1176.909          45.000
G04  20277997.953 8 106561604.408 8       405.734          50.000    20277998.078 8  83035065.162 8       316.157          50.000
G09  21623216.883 8 113630865.780 8      2548.199          51.000    21623216.688 8  88543524.674 8      1985.613          51.000
G17  22549043.320 6 118496005.878 6     -1735.391          39.000    22549042.297 6  92334546.752 6     -1352.252          39.000
G19  22249557.109 5 116922164.184 5      -831.777          35.000
R05  20230759.641 6 108144988.799 6     -2037.793          41.000    20230761.594 6  84112753.454 6     -1584.953          37.000
R06  20196865.281 5 107774326.766 5      1641.473          33.000
R14  22883067.391 6 121979566.726 6       -86.805          38.000    22883062.781 4  94873019.632 4       -67.515          27.000
R20  21026152.492 5 112436289.811 5     -3617.840          35.000    21026159.305 8  87450446.622 8     -2813.875          49.000
C14  21913212.273 8 114107862.820 8     -1087.582          51.000    21913210.680 8  88235523.471 8      -840.993          51.000
C24  25548740.148 7 133038996.667 7      2749.324          47.000
C28  22736040.352 7 118392507.469 7     -1269.078          47.000
E03  24139207.516 8 126852386.718 8      1397.227          51.000    24139209.875 8  97198668.378 8      1070.632          51.000
E05  23803818.500 8 125089931.150 8     -1123.758          51.000    23803819.805 8  95848178.330 8      -861.016          51.000
> 2020 05 14 22 05 30.0000000  0 16        .000000000000
G01  23335461.117 7 122628663.371 7     -3471.191          45.000    23335466.320 7  95554809.239 7     -2704.821          45.000
G03  21006077.344 7 110387692.566 7     -1530.125          44.000    21006077.953 7  86016415.809 7     -1192.305          44.000
G04  20275779.727 8 106549947.926 8       377.816          51.000    20275780.234 8  83025982.203 8       294.402          51.000
G09  21608753.734 8 113554862.233 8      2525.043          50.000    21608754.422 8  88484301.153 8      1967.569          50.000
G17  22559041.195 6 118548546.887 6     -1761.031          39.000    22559040.906 6  92375487.774 6     -1372.229          38.000
G19  22254410.031 5 116947687.007 5      -863.984          35.000
G22  22857189.945 5 120115356.047 5     -2384.898          35.000
G31  23960866.812 5 125915189.385 5     -2081.738          32.000    23960861.391 5  98115724.356 5     -1622.134          33.000
R05  20242267.961 6 108206536.652 6     -2057.719          39.000    20242269.930 6  84160638.961 6     -1600.448          37.000
R14  22883675.953 5 121982808.570 5      -123.395          31.000    22883674.359 5  94875541.110 5       -95.970          31.000
R20  21046543.734 6 112545333.830 6     -3645.301          36.000    21046551.984 8  87535258.634 8     -2835.234          49.000
C14  21919547.773 8 114140852.988 8     -1105.332          51.000    21919546.070 8  88261033.558 8      -854.731          51.000
C24  25532963.633 7 132956847.474 7      2733.633          47.000
C28  22743446.516 8 118431073.291 8     -1295.684          48.000
E03  24131303.352 8 126810849.529 8      1378.211          51.000    24131304.922 8  97166841.211 8      1056.077          51.000
E05  23810303.562 8 125124010.753 8     -1141.781          51.000    23810304.984 8  95874291.280 8      -874.841          51.000
> 2020 05 14 22 06  0.0000000  0 16        .000000000000
G01  23355304.352 7 122732939.699 7     -3479.121          45.000    23355309.531 7  95636063.558 7     -2711.003          45.000
G03  21014842.570 7 110433755.877 7     -1539.676          45.000    21014843.125 7  86052309.270 7     -1199.747          45.000
G04  20273677.406 8 106538899.478 8       359.945          51.000    20273678.070 8  83017373.039 8       280.477          51.000
G09  21594378.117 8 113479320.336 8      2512.277          49.000    21594380.383 8  88425437.335 8      1957.619          49.000
G17  22569143.273 6 118601635.560 6     -1776.453          37.000    22569142.906 6  92416855.567 6     -1384.249          37.000
G19  22259400.922 5 116973928.252 5      -885.113          35.000
G22  22870825.398 6 120187011.966 6     -2391.414          37.000
G31  23972801.844 5 125977915.228 5     -2098.934          35.000    23972801.531 5  98164601.621 5     -1635.536          35.000
R05  20253847.594 6 108268419.985 6     -2067.195          41.000    20253849.664 6  84208773.976 6     -1607.819          37.000
R14  22884445.625 5 121986956.888 5      -148.828          33.000    22884447.695 5  94878757.632 5      -115.761          34.000
R20  21067046.445 6 112654968.637 6     -3662.281          37.000    21067054.211 7  87620530.134 7     -2848.441          47.000
C14  21925941.938 8 114174148.145 8     -1113.039          51.000    21925940.102 8  88286779.499 8      -860.748          51.000
C24  25517234.625 7 132874945.749 7      2727.793          47.000
C28  22750962.797 8 118470212.227 8     -1312.324          49.000
E03  24123463.977 8 126769653.969 8      1369.352          51.000    24123465.586 8  97135275.798 8      1049.273          51.000
E05  23816847.828 8 125158401.604 8     -1149.734          51.000    23816849.445 8  95900642.725 8      -880.959          51.000
> 2020 05 14 22 06 30.0000000  0 15        .000000000000
G01  23375199.641 7 122837489.233 7     -3489.145          46.000    23375204.273 7  95717530.755 7     -2718.814          46.000
G03  21023671.469 7 110480152.724 7     -1551.621          47.000    21023671.195 7  86088462.623 7     -1209.058          46.000
G04  20271685.047 8 106528428.912 8       339.730          51.000    20271685.672 8  83009214.172 8       264.728          51.000
G09  21580085.336 8 113404211.607 8      2496.742          51.000    21580088.266 8  88366911.069 8      1945.516          51.000
G17  22579343.812 6 118655239.549 6     -1794.969          41.000    22579342.531 6  92458624.925 6     -1398.677          41.000
G19  22264522.570 6 117000857.307 6      -908.645          37.000    22264526.281 5  91169509.259 5      -708.035          34.000
G31  23984845.680 5 126041202.149 5     -2118.328          35.000    23984845.586 5  98213916.102 5     -1650.645          35.000
R05  20265490.156 7 108330646.747 7     -2079.508          43.000    20265489.656 6  84257172.506 6     -1617.395          37.000
R14  22885367.219 6 121991882.484 6      -177.574          37.000    22885372.445 5  94882593.098 5      -138.119          32.000
R20  21087653.516 6 112765160.169 6     -3682.039          38.000    21087659.875 7  87706234.586 7     -2863.811          47.000
C14  21932388.836 8 114207718.240 8     -1123.176          51.000    21932386.852 8  88312738.026 8      -868.411          51.000
C24  25501548.289 7 132793264.717 7      2719.434          46.000
C28  22758583.555 8 118509893.576 8     -1331.324          49.000
E03  24115683.742 8 126728770.263 8      1358.105          51.000    24115685.938 8  97103949.322 8      1040.617          51.000
E05  23823445.562 8 125193073.017 8     -1159.930          51.000    23823447.211 8  95927209.148 8      -888.774          51.000
> 2020 05 14 22 07  0.0000000  0 15        .000000000000
G01  23395098.156 7 122942055.232 7     -3486.820          47.000    23395102.000 7  95799010.747 7     -2717.006          47.000
G03  21032515.406 7 110526627.865 7     -1551.293          47.000    21032515.594 7  86124676.977 7     -1208.800          47.000
G04  20269754.086 8 106518280.959 8       331.914          51.000    20269754.734 8  83001306.706 8       258.634          51.000
G09  21565827.297 8 113329282.248 8      2493.754          51.000    21565829.492 8  88308524.601 8      1943.188          51.000
G17  22589593.352 6 118709102.082 6     -1800.637          40.000    22589591.734 6  92500595.676 6     -1403.097          40.000
G22  22898178.555 5 120330776.776 5     -2395.699          33.000
G31  23996947.320 5 126104793.328 5     -2125.988          32.000    23996946.961 5  98263467.646 5     -1656.614          33.000
R05  20277145.258 6 108392944.961 6     -2078.652          40.000    20277143.070 6  84305626.634 6     -1616.730          38.000
R14  22886397.312 4 121997379.473 4      -194.223          29.000    22886402.547 4  94886868.332 4      -151.065          28.000
R20  21108315.430 6 112875645.174 6     -3688.508          38.000    21108320.484 7  87792167.301 7     -2868.842          46.000
C14  21938839.773 8 114241310.058 8     -1121.027          51.000    21938837.680 8  88338713.349 8      -866.783          51.000
C24  25485856.633 7 132711554.112 7      2723.160          46.000
C28  22766259.625 8 118549863.576 8     -1338.090          49.000
E03  24107914.367 8 126687943.461 8      1359.000          51.000    24107916.906 8  97072666.448 8      1041.369          51.000
E05  23830048.086 8 125227769.081 8     -1157.836          51.000    23830049.586 8  95953794.448 8      -887.155          51.000
> 2020 05 14 22 07 30.0000000  0 13        .000000000000
G01  23415086.297 7 123047091.054 7     -3496.777          47.000    23415089.000 7  95880856.836 7     -2724.762          47.000
G03  21041460.797 7 110573636.151 7     -1563.570          46.000    21041462.531 7  86161306.770 7     -1218.366          46.000
G04  20267971.016 8 106508910.299 8       311.621          51.000    20267971.602 8  82994004.911 8       242.822          51.000
G09  21551690.406 8 113254988.732 8      2477.984          51.000    21551691.398 8  88250633.616 8      1930.897          51.000
G17  22599978.430 6 118763676.264 6     -1818.824          40.000    22599976.922 6  92543121.001 6     -1417.266          40.000
R05  20288898.766 6 108455775.760 6     -2090.738          41.000    20288898.430 6  84354495.041 6     -1626.130          40.000
R14  22887624.328 5 122003900.238 5      -222.875          32.000    22887630.094 5  94891942.973 5      -173.347          31.000
R20  21129117.633 6 112986882.954 6     -3708.051          38.000    21129122.180 8  87878685.550 8     -2884.039          48.000
C14  21945381.297 8 114275374.103 8     -1131.180          50.000    21945379.242 8  88365053.836 8      -874.772          51.000
C24  25470246.391 7 132630267.732 7      2714.617          45.000
C28  22774077.148 8 118590571.978 8     -1357.273          49.000
E03  24100242.898 8 126647628.733 8      1347.492          51.000    24100244.930 8  97041775.957 8      1032.458          51.000
E05  23836741.703 8 125262944.087 8     -1168.250          51.000    23836743.094 8  95980746.735 8      -895.165          51.000
> 2020 05 14 22 08  0.0000000  0 13        .000000000000
G01  23435072.703 8 123152117.451 8     -3507.285          48.000    23435074.805 8  95962695.557 8     -2732.953          48.000
G03  21050416.688 7 110620699.654 7     -1576.211          47.000    21050418.727 7  86197979.619 7     -1228.213          47.000
G04  20266244.695 8 106499838.994 8       290.855          51.000    20266245.273 8  82986936.370 8       226.641          51.000
G09  21537583.531 8 113180854.741 8      2461.961          51.000    21537584.031 8  88192866.920 8      1918.411          51.000
G17  22610407.875 7 118818482.446 7     -1837.258          42.000    22610406.695 7  92585827.108 7     -1431.629          43.000
R05  20300660.453 7 108518651.790 7     -2103.379          42.000    20300661.602 6  84403398.685 6     -1635.961          40.000
R14  22888950.453 5 122010982.330 5      -251.332          35.000    22888956.641 5  94897447.133 5      -195.480          30.000
R20  21149969.188 6 113098383.820 6     -3727.664          38.000    21149973.914 8  87965408.450 8     -2899.291          49.000
C14  21951922.461 8 114309436.551 8     -1141.930          51.000    21951920.617 8  88391393.068 8      -883.009          51.000
C24  25454627.234 7 132548934.892 7      2705.332          45.000
C28  22781944.680 8 118631544.288 8     -1376.699          49.000
E03  24092578.156 8 126607348.568 8      1335.582          51.000    24092578.852 8  97010911.939 8      1023.305          50.000
E05  23843435.328 8 125298119.508 8     -1179.094          51.000    23843436.766 8  96007699.340 8      -903.470          51.000
> 2020 05 14 22 08 30.0000000  0 15        .000000000000
G01  23455087.734 8 123257294.479 8     -3514.906          48.000    23455089.211 8  96044651.655 8     -2738.891          48.000
G03  21059413.773 7 110667979.965 7     -1586.180          47.000    21059415.375 7  86234821.406 7     -1235.984          47.000
G04  20264606.031 8 106491228.506 8       272.801          51.000    20264606.844 8  82980226.908 8       212.572          51.000
G09  21523537.305 8 113107043.349 8      2448.461          50.000    21523538.414 8  88135351.570 8      1907.892          50.000
G17  22620911.875 7 118873680.219 7     -1852.852          43.000    22620910.617 7  92628838.300 7     -1443.780          43.000
G19  22286120.031 5 117114355.475 5      -988.875          35.000
G22  22939446.906 5 120547590.869 5     -2419.867          33.000
R05  20312461.969 7 108581735.945 7     -2112.953          42.000    20312463.211 6  84452464.112 6     -1643.408          40.000
R14  22890413.781 5 122018775.061 5      -278.570          34.000
R20  21170900.164 6 113210308.597 6     -3744.520          38.000    21170905.109 8  88052461.066 8     -2912.404          50.000
C14  21958494.148 8 114343657.400 8     -1149.703          51.000    21958492.555 8  88417854.798 8      -889.102          51.000
C24  25439030.391 7 132467718.692 7      2698.781          45.000
C28  22789893.461 8 118672939.715 8     -1393.406          49.000
E03  24084950.570 8 126567264.795 8      1326.375          51.000    24084950.102 8  96980198.421 8      1016.286          50.000
E05  23850159.680 8 125333456.363 8     -1187.125          51.000    23850161.344 8  96034775.640 8      -909.600          51.000
> 2020 05 14 22 09  0.0000000  0 13        .000000000000
G01  23475175.266 7 123362853.316 7     -3519.953          47.000    23475176.016 8  96126905.278 8     -2742.821          48.000
G03  21068496.406 7 110715709.571 7     -1593.598          47.000    21068497.602 7  86272013.283 7     -1241.767          47.000
G04  20263099.461 8 106483311.359 8       257.293          51.000    20263100.391 8  82974057.697 8       200.488          51.000
G09  21509596.469 8 113033788.727 8      2437.531          49.000    21509598.531 8  88078270.020 8      1899.375          49.000
G17  22631534.422 7 118929500.017 7     -1865.914          43.000    22631532.211 7  92672334.191 7     -1453.959          43.000
R05  20324346.117 6 108645263.375 6     -2119.941          38.000    20324348.273 6  84501874.350 6     -1648.840          39.000
R14  22892050.906 5 122027509.014 5      -302.215          35.000
R20  21191954.086 6 113322890.642 6     -3758.367          37.000    21191958.961 8  88140024.879 8     -2923.174          49.000
C14  21965140.516 8 114378266.720 8     -1155.180          50.000    21965139.141 8  88444616.911 8      -893.249          51.000
C24  25423500.656 7 132386852.714 7      2694.445          43.000
C28  22797968.391 8 118714987.869 8     -1407.602          50.000
E03  24077404.562 8 126527610.402 8      1319.590          51.000    24077403.633 8  96949813.920 8      1011.096          50.000
E05  23856958.906 8 125369186.560 8     -1192.598          51.000    23856960.820 8  96062153.319 8      -913.764          51.000
> 2020 05 14 22 09 30.0000000  0 15        .000000000000
G01  23495272.445 7 123468466.045 7     -3522.930          46.000    23495273.156 7  96209200.883 7     -2745.140          46.000
G03  21077602.484 7 110763562.183 7     -1598.773          46.000    21077604.219 7  86309300.995 7     -1245.797          46.000
G04  20261662.578 8 106475760.896 8       244.074          51.000    20261663.430 8  82968174.218 8       190.188          51.000
G09  21495700.359 8 112960765.993 8      2428.570          51.000    21495702.492 8  88021369.173 8      1892.392          51.000
G17  22642212.828 7 118985613.630 7     -1876.945          45.000    22642209.914 7  92716059.075 7     -1462.555          44.000
G19  22297633.984 5 117174861.387 5     -1026.324          32.000
G22  22967116.352 5 120692999.815 5     -2425.188          34.000
R05  20336249.203 6 108708900.739 6     -2124.715          39.000    20336253.438 6  84551370.155 6     -1652.556          38.000
R14  22893805.836 6 122036861.738 6      -323.328          36.000    22893806.680 5  94917569.639 5      -251.471          32.000
R20  21213067.906 5 113435794.086 5     -3770.148          35.000    21213072.391 7  88227838.663 7     -2932.338          47.000
C14  21971799.336 8 114412940.973 8     -1158.441          50.000    21971798.148 8  88471429.237 8      -895.759          51.000
C24  25407977.164 7 132306016.202 7      2692.492          44.000
C28  22806107.172 8 118757364.245 8     -1419.633          51.000
E03  24069878.250 8 126488059.243 8      1315.141          51.000    24069877.680 8  96919508.496 8      1007.699          51.000
E05  23863770.664 8 125404983.143 8     -1195.828          51.000    23863772.758 8  96089581.868 8      -916.305          51.000
> 2020 05 14 22 10  0.0000000  0 14        .000000000000
G01  23515420.117 7 123574347.648 7     -3531.293          44.000    23515421.297 7  96291705.990 7     -2751.657          44.000
G03  21086773.125 7 110811754.043 7     -1609.434          47.000    21086775.656 7  86346853.077 7     -1254.104          47.000
G04  20260336.688 8 106468793.420 8       225.207          51.000    20260337.383 8  82962745.011 8       175.486          51.000
G09  21481890.547 8 112888193.053 8      2414.285          51.000    21481891.875 8  87964818.849 8      1881.261          51.000
G17  22652987.695 7 119042235.644 7     -1893.320          46.000    22652985.453 7  92760180.111 7     -1475.315          46.000
G22  22981005.016 6 120765953.530 6     -2433.180          36.000
R05  20348215.453 7 108772884.955 7     -2134.898          42.000    20348214.008 5  84601124.635 5     -1660.480          34.000
R14  22895717.266 5 122047051.708 5      -351.363          31.000    22895718.156 5  94925495.172 5      -273.286          32.000
R20  21234281.344 5 113549236.092 5     -3787.812          33.000    21234285.867 7  88316071.364 7     -2946.076          46.000
C14  21978511.680 8 114447894.264 8     -1167.047          49.000    21978510.633 8  88498457.339 8      -902.471          51.000
C24  25392501.547 7 132225426.636 7      2684.770          46.000
C28  22814350.094 8 118800282.359 8     -1436.957          51.000
E03  24062412.656 8 126448828.055 8      1305.020          51.000    24062412.984 8  96889448.230 8       999.914          51.000
E05  23870636.125 8 125441061.869 8     -1204.664          51.000    23870638.328 8  96117226.600 8      -923.057          51.000
> 2020 05 14 22 10 30.0000000  0 14        .000000000000
G01  23535581.570 7 123680299.283 7     -3546.184          47.000    23535583.109 7  96374265.698 7     -2763.257          47.000
G03  21095970.711 7 110860087.827 7     -1626.891          46.000    21095972.938 7  86384515.742 7     -1267.707          46.000
G04  20259084.180 8 106462211.388 8       199.648          51.000    20259084.742 8  82957616.159 8       155.570          51.000
G09  21468129.305 8 112815873.973 8      2392.945          51.000    21468129.617 8  87908466.356 8      1864.636          51.000
G17  22663821.359 7 119099166.650 7     -1916.270          46.000    22663820.195 7  92804541.953 7     -1493.197          46.000
G22  22994896.719 5 120838945.236 5     -2446.844          34.000
R05  20360208.094 6 108836977.789 6     -2152.043          40.000    20360203.258 5  84650974.521 5     -1673.817          34.000
R14  22897746.016 5 122057878.893 5      -384.633          31.000    22897748.180 4  94933916.324 4      -299.159          29.000
R20  21255556.977 5 113663011.838 5     -3811.516          34.000    21255561.977 7  88404563.632 7     -2964.512          45.000
C14  21985239.930 8 114482930.935 8     -1182.531          49.000    21985239.016 8  88525549.892 8      -914.393          51.000
C24  25377036.312 7 132144891.428 7      2670.320          44.000
C28  22822658.969 8 118843545.732 8     -1461.078          51.000
E03  24054970.289 8 126409719.765 8      1288.199          51.000    24054971.562 8  96859482.147 8       986.993          51.000
E05  23877517.711 8 125477224.876 8     -1220.223          51.000    23877520.062 8  96144935.919 8      -935.000          51.000
> 2020 05 14 22 11  0.0000000  0 14        .000000000000
G01  23555826.672 7 123786687.897 7     -3547.961          47.000    23555828.688 7  96457165.932 7     -2764.645          47.000
G03  21105265.445 7 110908931.988 7     -1630.934          46.000    21105267.102 7  86422576.091 7     -1270.860          46.000
G04  20257975.000 8 106456383.017 8       187.391          51.000    20257975.281 8  82953074.590 8       146.022          51.000
G09  21454486.359 8 112744178.711 8      2385.078          51.000    21454486.125 8  87852599.924 8      1858.502          51.000
G17  22674783.750 7 119156772.847 7     -1925.688          47.000    22674782.703 7  92849429.906 7     -1500.536          47.000
G19  22315772.703 5 117270173.140 5     -1092.883          32.000
R05  20372291.336 6 108901570.764 6     -2155.770          40.000    20372289.242 6  84701213.463 6     -1676.710          36.000
R06  20091907.062 5 107214261.934 5      1479.219          31.000
R20  21276965.938 6 113777492.781 6     -3822.176          36.000    21276970.297 7  88493604.353 7     -2972.803          45.000
C14  21992054.336 8 114518415.738 8     -1184.820          50.000    21992053.391 8  88552988.989 8      -916.118          51.000
C24  25361651.516 7 132064778.588 7      2668.883          44.000
C28  22831103.617 8 118887518.279 8     -1472.031          51.000
E03  24047621.562 8 126371103.165 8      1284.707          51.000    24047623.508 8  96829892.828 8       984.374          51.000
E05  23884485.352 8 125513839.884 8     -1222.355          51.000    23884487.883 8  96172991.569 8      -936.625          51.000
> 2020 05 14 22 11 30.0000000  0 14        .000000000000
G01  23576068.000 7 123893056.699 7     -3549.734          47.000    23576070.680 7  96540050.693 7     -2766.027          47.000
G03  21114570.672 7 110957831.120 7     -1635.363          45.000    21114572.484 7  86460679.285 7     -1274.312          45.000
G04  20256922.617 8 106450852.878 8       174.785          51.000    20256922.531 8  82948765.390 8       136.196          51.000
G09  21440875.211 8 112672653.483 8      2376.785          50.000    21440875.258 8  87796865.984 8      1852.040          50.000
G17  22685787.648 7 119214597.284 7     -1935.699          47.000    22685785.734 7  92894487.869 7     -1508.340          47.000
G22  23022814.117 5 120985675.397 5     -2448.875          33.000
R05  20384379.305 6 108966199.392 6     -2159.676          36.000    20384381.703 6  84751480.135 6     -1679.748          38.000
R14  22902292.984 5 122082088.070 5      -426.727          34.000
R20  21298419.547 6 113892212.188 6     -3832.371          36.000    21298423.039 7  88582830.507 7     -2980.733          44.000
C14  21998868.297 8 114553897.292 8     -1187.172          50.000    21998867.102 8  88580425.573 8      -917.978          51.000
C24  25346261.070 7 131984639.816 7      2667.266          42.000
C28  22839597.352 8 118931747.807 8     -1483.086          51.000
E03  24040280.016 8 126332523.202 8      1280.887          51.000    24040282.523 8  96800331.577 8       981.471          51.000
E05  23891452.180 8 125550451.047 8     -1224.773          51.000    23891454.812 8  96201044.274 8      -938.472          51.000
> 2020 05 14 22 12  0.0000000  0 15        .000000000000
G01  23596347.594 7 123999626.835 7     -3555.770          47.000    23596350.781 7  96623092.345 7     -2770.730          47.000
G03  21123928.680 7 111007007.770 7     -1644.246          45.000    21123930.562 7  86498998.706 7     -1281.231          45.000
G04  20255969.133 8 106445843.181 8       158.031          51.000    20255969.273 8  82944861.745 8       123.141          51.000
G09  21427339.438 8 112601522.210 8      2364.234          51.000    21427340.039 8  87741439.038 8      1842.261          51.000
G17  22696874.961 7 119272860.273 7     -1949.598          47.000    22696871.992 7  92939887.559 7     -1519.167          47.000
G19  22328417.195 5 117336623.620 5     -1127.691          34.000
G22  23036804.523 5 121059199.125 5     -2454.293          34.000
R05  20396515.117 5 109031088.422 5     -2167.602          35.000    20396520.586 6  84801949.569 6     -1685.909          37.000
R14  22904763.141 6 122095273.347 6      -451.965          37.000    22904768.930 5  94963009.937 5      -351.528          32.000
R20  21319959.883 6 114007392.927 6     -3847.219          37.000    21319962.180 7  88672415.486 7     -2992.284          45.000
C14  22005724.039 8 114589596.000 8     -1193.797          50.000    22005722.570 8  88608030.067 8      -923.086          51.000
C24  25330907.820 6 131904698.623 6      2661.410          41.000
C28  22848182.453 8 118976453.937 8     -1498.320          51.000
E03  24032987.953 8 126294202.670 8      1272.727          51.000    24032991.133 8  96770969.115 8       975.251          51.000
E05  23898460.453 8 125587280.301 8     -1231.473          51.000    23898463.023 8  96229264.090 8      -943.596          51.000
> 2020 05 14 22 12 30.0000000  0 12        .000000000000
G01  23616679.648 7 124106474.007 7     -3573.414          45.000    23616683.211 7  96706349.876 7     -2784.478          45.000
G03  21133354.227 7 111056539.271 7     -1664.246          43.000    21133356.070 7  86537594.655 7     -1296.815          43.000
G04  20255129.438 8 106441431.079 8       130.074          51.000    20255129.641 8  82941423.745 8       101.357          51.000
G09  21413893.711 8 112530863.640 8      2340.352          51.000    21413894.914 8  87686380.430 8      1823.654          51.000
G17  22708059.711 7 119331637.242 7     -1974.902          47.000    22708056.859 7  92985687.766 7     -1538.885          47.000
R05  20408715.992 6 109096315.742 6     -2186.879          36.000    20408723.109 6  84852681.877 6     -1700.909          37.000
R20  21341600.086 6 114123110.032 6     -3873.422          37.000    21341601.836 7  88762417.634 7     -3012.661          45.000
C14  22012636.062 8 114625588.171 8     -1211.625          50.000    22012634.469 8  88635861.491 8      -936.957          51.000
C24  25315608.547 7 131825034.536 7      2643.680          43.000
C28  22856873.438 8 119021711.956 8     -1524.891          50.000
E03  24025759.984 8 126256219.107 8      1253.359          51.000    24025763.805 8  96741864.850 8       960.375          51.000
E05  23905524.867 8 125624404.265 8     -1249.516          51.000    23905527.258 8  96257709.715 8      -957.457          51.000
> 2020 05 14 22 13  0.0000000  0 14        .000000000000
G01  23637037.828 7 124213459.991 7     -3568.703          44.000    23637041.445 7  96789715.588 7     -2780.805          45.000
G03  21142820.977 6 111106288.817 6     -1662.348          40.000    21142822.836 6  86576360.533 6     -1295.336          40.000
G04  20254377.422 8 106437479.515 8       123.996          51.000    20254377.500 8  82938344.602 8        96.620          51.000
G09  21400511.945 8 112460542.575 8      2338.250          51.000    21400513.594 8  87631584.812 8      1822.013          51.000
G17  22719315.438 7 119390789.337 7     -1978.133          47.000    22719314.219 7  93031780.270 7     -1541.405          47.000
G22  23064907.414 5 121206891.955 5     -2465.238          30.000
R05  20420955.656 6 109161740.597 6     -2184.324          39.000    20420962.953 6  84903567.853 6     -1698.919          37.000
R14  22910152.234 5 122124022.941 5      -503.461          32.000    22910159.742 5  94985365.697 5      -391.584          32.000
R20  21363313.891 6 114239220.681 6     -3877.219          37.000    21363315.148 7  88852725.870 7     -3015.615          45.000
C14  22019578.273 8 114661738.085 8     -1207.680          50.000    22019576.680 8  88663814.880 8      -933.830          51.000
C24  25300338.344 7 131745514.861 7      2647.855          45.000
C28  22865644.211 8 119067385.493 8     -1529.492          50.000
E03  24018570.047 8 126218436.123 8      1256.074          51.000    24018574.328 8  96712914.268 8       962.485          51.000
E05  23912619.352 8 125661685.701 8     -1245.363          51.000    23912621.578 8  96286275.995 8      -954.260          51.000
> 2020 05 14 22 13 30.0000000  0 15        .000000000000
G01  23657424.930 7 124320596.106 7     -3570.367          45.000    23657428.328 7  96873198.279 7     -2782.104          46.000
G03  21152331.922 6 111156269.206 6     -1666.488          40.000    21152333.695 6  86615306.237 6     -1298.562          40.000
G04  20253715.375 8 106434001.028 8       111.301          51.000    20253715.656 8  82935634.103 8        86.728          51.000
G09  21387196.836 8 112390573.242 8      2329.773          51.000    21387198.344 8  87577063.273 8      1815.408          51.000
G17  22730644.812 7 119450326.870 7     -1987.848          47.000    22730644.703 7  93078173.159 7     -1548.972          47.000
G22  23078998.258 5 121280970.363 5     -2465.336          32.000
R05  20433235.586 6 109227374.598 6     -2187.871          37.000    20433241.562 6  84954616.482 6     -1701.678          37.000
R06  20051082.367 4 106996438.215 4      1425.746          29.000
R14  22913060.430 5 122139485.930 5      -523.926          32.000    22913060.336 5  94997371.973 5      -407.498          32.000
R20  21385101.750 6 114355734.178 6     -3887.105          36.000    21385103.617 7  88943347.471 7     -3023.307          46.000
C14  22026553.172 8 114698058.247 8     -1210.320          50.000    22026551.562 8  88691899.929 8      -935.872          51.000
C24  25285099.203 7 131666155.274 7      2645.844          45.000
C28  22874497.047 8 119113486.038 8     -1540.590          50.000
E03  24011420.617 8 126180866.773 8      1252.055          51.000    24011425.203 8  96684127.385 8       959.361          51.000
E05  23919746.070 8 125699136.746 8     -1247.902          51.000    23919748.305 8  96314972.249 8      -956.155          51.000
> 2020 05 14 22 14  0.0000000  0 13        .000000000000
G01  23677855.000 7 124427955.656 7     -3580.977          46.000    23677857.758 7  96956855.068 7     -2790.371          46.000
G03  21161901.039 6 111206555.053 6     -1679.391          36.000    21161902.805 6  86654490.020 6     -1308.616          37.000
G04  20253157.586 8 106431070.109 8        89.965          51.000    20253158.102 8  82933350.288 8        70.102          51.000
G09  21373962.953 8 112321031.790 8      2312.332          50.000    21373963.977 8  87522875.172 8      1801.817          50.000
G17  22742061.594 8 119510322.940 8     -2006.074          48.000    22742061.891 8  93124923.287 8     -1563.178          48.000
R05  20445568.594 5 109293293.063 5     -2200.887          32.000    20445572.086 5  85005886.328 5     -1711.804          35.000
R14  22916115.273 5 122155704.726 5      -554.438          33.000    22916108.008 4  95010007.671 4      -431.229          29.000
R20  21406978.750 6 114472723.167 6     -3906.082          38.000    21406981.234 7  89034338.892 7     -3038.064          46.000
C14  22033575.047 8 114734622.545 8     -1221.508          50.000    22033573.320 8  88720173.774 8      -944.599          51.000
C24  25269905.328 7 131587032.889 7      2634.891          45.000
C28  22883446.070 8 119160086.676 8     -1560.359          50.000
E03  24004326.219 8 126143586.159 8      1239.168          51.000    24004330.656 8  96655561.737 8       949.513          51.000
E05  23926919.180 8 125736831.646 8     -1259.203          51.000    23926921.508 8  96343855.353 8      -964.859          51.000
> 2020 05 14 22 14 30.0000000  0 13        .000000000000
G01  23698314.578 7 124535470.082 7     -3586.512          46.000    23698316.008 7  97040632.516 7     -2794.684          46.000
G03  21171515.312 5 111257063.413 5     -1687.957          33.000    21171517.383 5  86693859.664 5     -1315.288          33.000
G04  20252691.281 8 106428619.384 8        73.426          51.000    20252691.617 8  82931440.634 8        57.218          51.000
G09  21360798.414 8 112251852.546 8      2299.797          51.000    21360799.195 8  87468969.319 8      1792.050          51.000
G17  22753552.656 8 119570708.470 8     -2019.500          48.000    22753552.227 8  93171976.883 8     -1573.639          48.000
G19  22362072.750 5 117513484.921 5     -1228.637          33.000
R05  20457941.258 4 109359425.526 4     -2207.898          28.000    20457942.883 5  85057322.708 5     -1717.254          34.000
R20  21428932.234 6 114590116.089 6     -3919.773          40.000    21428934.859 7  89125644.464 7     -3048.716          47.000
C14  22040630.969 8 114771364.287 8     -1227.855          50.000    22040629.141 8  88748584.811 8      -949.465          51.000
C24  25254744.406 7 131508084.023 7      2628.492          44.000
C28  22892478.414 8 119207119.761 8     -1575.133          51.000
E03  23997274.344 8 126106527.430 8      1231.434          51.000    23997278.078 8  96627166.108 8       943.563          51.000
E05  23934125.781 8 125774702.632 8     -1265.527          51.000    23934128.094 8  96372873.383 8      -969.705          51.000
> 2020 05 14 22 15  0.0000000  0 14        .000000000000
G01  23718785.711 7 124643044.684 7     -3592.125          46.000    23718784.344 7  97124456.839 7     -2799.061          46.000
G03  21181157.008 5 111307731.408 5     -1696.164          31.000    21181159.242 5  86733342.998 5     -1321.686          31.000
G04  20252298.484 8 106426555.285 8        57.113          50.000    20252298.820 8  82929832.257 8        44.504          50.000
G09  21347685.898 8 112182943.774 8      2287.004          51.000    21347686.953 8  87415274.208 8      1782.081          51.000
G17  22765099.766 8 119631388.113 8     -2032.824          49.000    22765098.391 8  93219259.694 8     -1584.019          49.000
G19  22369124.062 4 117550552.037 4     -1248.453          29.000
R05  20470330.859 5 109425683.398 5     -2216.164          31.000    20470336.164 5  85108865.273 5     -1723.683          33.000
R14  22922609.359 5 122190362.952 5      -604.219          34.000
R20  21450942.805 6 114707814.079 6     -3933.863          40.000    21450945.688 7  89217187.305 7     -3059.674          47.000
C14  22047703.141 8 114808190.927 8     -1234.273          50.000    22047701.352 8  88777061.513 8      -954.488          51.000
C24  25239599.438 7 131429219.240 7      2622.180          43.000
C28  22901576.070 8 119254491.776 8     -1589.992          51.000
E03  23990247.055 8 126069597.622 8      1223.449          51.000    23990250.125 8  96598869.268 8       937.400          51.000
E05  23941348.070 8 125812655.986 8     -1271.844          51.000    23941350.320 8  96401954.518 8      -974.578          51.000
> 2020 05 14 22 15 30.0000000  0 14        .000000000000
G01  23739309.750 7 124750897.287 7     -3598.277          46.000    23739305.594 7  97208497.761 7     -2803.856          46.000
G04  20252021.031 8 106425097.053 8        39.988          51.000    20252021.523 8  82928695.977 8        31.160          50.000
G09  21334666.938 8 112114526.170 8      2273.832          51.000    21334668.000 8  87361961.808 8      1771.817          51.000
G17  22776744.039 8 119692579.294 8     -2046.691          50.000    22776742.844 8  93266941.123 8     -1594.824          50.000
G19  22376305.094 5 117588283.117 5     -1267.332          33.000
G22  23135626.812 5 121578541.491 5     -2491.270          35.000
R05  20482791.922 5 109492251.773 5     -2224.074          35.000    20482798.359 5  85160661.499 5     -1729.836          33.000
R14  22926083.188 6 122208873.896 6      -629.703          38.000
R20  21473051.031 6 114826036.867 6     -3947.867          39.000    21473054.070 7  89309138.337 7     -3070.563          47.000
C14  22054833.422 8 114845319.676 8     -1241.156          50.000    22054831.703 8  88805771.825 8      -959.795          51.000
C24  25224512.992 7 131350659.003 7      2614.941          44.000
C28  22910780.227 8 119302419.190 8     -1605.293          51.000
E03  23983286.094 8 126033016.522 8      1215.004          51.000    23983288.578 8  96570839.615 8       930.983          51.000
E05  23948627.648 8 125850910.471 8     -1278.633          51.000    23948629.953 8  96431266.398 8      -979.729          51.000
> 2020 05 14 22 16  0.0000000  0 14        .000000000000
G01  23759859.188 7 124858884.853 7     -3601.383          45.000    23759856.242 7  97292643.844 7     -2806.272          45.000
G04  20251831.820 8 106424102.574 8        25.844          50.000    20251832.234 8  82927921.055 8        20.138          50.000
G09  21321714.273 8 112046459.533 8      2263.465          51.000    21321715.484 8  87308922.888 8      1763.739          51.000
G17  22788458.289 8 119754137.993 8     -2057.617          49.000    22788457.938 8  93314908.909 8     -1603.338          49.000
G19  22383591.352 5 117626566.623 5     -1284.820          33.000
G31  24230652.242 5 127332945.473 5     -2411.543          31.000
R05  20495283.344 4 109559035.756 4     -2228.355          28.000    20495287.680 5  85212602.092 5     -1733.165          30.000
R14  22929691.336 6 122228105.546 6      -652.238          36.000
R20  21495229.664 6 114944636.869 6     -3959.176          39.000    21495232.820 7  89401382.763 7     -3079.359          47.000
C14  22061994.703 8 114882610.101 8     -1245.285          50.000    22061993.109 8  88834607.153 8      -962.834          51.000
C24  25209458.344 7 131272265.854 7      2610.691          43.000
C28  22920063.406 8 119350760.254 8     -1617.824          51.000
E03  23976364.539 8 125996642.709 8      1209.465          51.000    23976366.172 8  96542968.787 8       926.781          51.000
E05  23955937.477 8 125889323.998 8     -1282.652          51.000    23955940.008 8  96460700.144 8      -982.773          51.000
> 2020 05 14 22 16 30.0000000  0 15        .000000000000
G01  23780452.258 7 124967102.964 7     -3609.281          45.000    23780452.539 7  97376969.609 7     -2812.430          46.000
G03  21210437.305 5 111461598.013 5     -1722.680          35.000    21210439.289 5  86853199.553 5     -1342.348          34.000
G04  20251749.273 8 106423668.641 8         6.898          51.000    20251749.383 8  82927582.920 8         5.375          51.000
G09  21308846.562 8 111978842.384 8      2248.289          49.000    21308848.078 8  87256234.210 8      1751.917          50.000
G17  22800260.562 8 119816159.387 8     -2073.258          50.000    22800260.617 8  93363237.218 8     -1615.529          50.000
G22  23164128.969 5 121728329.657 5     -2501.922          32.000
G31  24244476.641 5 127405587.373 5     -2428.012          31.000    24244475.883 4  99277075.148 4     -1891.966          29.000
R05  20507867.102 5 109626302.365 5     -2239.270          34.000
R14  22933453.078 6 122248156.150 6      -680.305          36.000    22933455.852 4  95081947.879 4      -529.132          26.000
R20  21517496.820 6 115063709.133 6     -3975.008          39.000    21517499.828 7  89493994.524 7     -3091.673          47.000
C14  22069205.398 8 114920158.121 8     -1253.992          49.000    22069203.906 8  88863641.672 8      -969.678          51.000
C24  25194454.797 7 131194138.929 7      2601.488          43.000
C28  22929443.953 8 119399610.061 8     -1634.926          50.000
E03  23969500.898 8 125960573.557 8      1199.168          51.000    23969501.625 8  96515331.392 8       918.816          51.000
E05  23963295.938 8 125927992.999 8     -1291.348          51.000    23963298.703 8  96490329.646 8      -989.477          51.000
> 2020 05 14 22 17  0.0000000  0 15        .000000000000
G01  23801068.883 7 125075446.292 7     -3614.480          45.000    23801072.047 7  97461392.989 7     -2816.478          45.000
G03  21220293.867 6 111513391.776 6     -1731.039          40.000    21220295.141 6  86893558.381 6     -1348.859          40.000
G04  20251753.789 8 106423691.144 8        -9.328          51.000    20251753.680 8  82927600.451 8        -7.269          51.000
G09  21296045.094 8 111911572.287 8      2235.660          50.000    21296046.945 8  87203815.989 8      1742.076          50.000
G17  22812130.680 8 119878537.622 8     -2085.961          49.000    22812130.516 8  93411843.599 8     -1625.424          49.000
G22  23178420.836 4 121803423.090 4     -2505.922          29.000
G31  24258378.914 5 127478641.911 5     -2442.430          33.000    24258378.828 5  99334000.774 5     -1903.195          31.000
