     3.02           OBSERVATION DATA    M (MIXED)           RINEX VERSION / TYPE
SAVERINEX           SC600               20200510 205931 LCL PGM / RUN BY / DATE
       G = GPS       R = GLONASS       C = COMPASS          COMMENT
       S = SBAS      J = QZSS          E = GALILEO          COMMENT
BEAN                                                        MARKER NAME
1                                                           MARKER NUMBER
GEODETIC                                                    MARKER TYPE
Unige DICCA         GTER                                    OBSERVER / AGENCY
SC60291900056       SC600               2.12(191226)        REC # / TYPE / VERS
                    HEMA45          NONE                    ANT # / TYPE
  4509407.8091   693652.4678  4442337.6214                  APPROX POSITION XYZ
        0.0000        0.0000        0.0000                  ANTENNA: DELTA H/E/N
G    8 C1C L1C D1C S1C C2Y L2Y D2Y S2Y                      SYS / # / OBS TYPES
R    8 C1C L1C D1C S1C C2P L2P D2P S2P                      SYS / # / OBS TYPES
C    8 C1I L1I D1I S1I C7I L7I D7I S7I                      SYS / # / OBS TYPES
E    8 C1C L1C D1C S1C C7Q L7Q D7Q S7Q                      SYS / # / OBS TYPES
DBHZ                                                        COMMENT
     30.000                                                 INTERVAL
  2020    05    10    17    59   30.0000000     GPS         TIME OF FIRST OBS
  2020    05    10    18    59   30.0000000     GPS         TIME OF LAST OBS
     0                                                      RCV CLOCK OFFS APPL
G L1C  0.00000                                              SYS / PHASE SHIFT
G L2Y  0.00000                                              SYS / PHASE SHIFT
R L1C  0.00000                                              SYS / PHASE SHIFT
R L2P  0.25000                                              SYS / PHASE SHIFT
C L1I  0.00000                                              SYS / PHASE SHIFT
C L7I  0.00000                                              SYS / PHASE SHIFT
E L1C  0.50000                                              SYS / PHASE SHIFT
E L7Q -0.25000                                              SYS / PHASE SHIFT
 12 R05  1 R06 -4 R07  5 R08  6 R09 -2 R10 -5 R11  0 R12 -1 GLONASS SLOT / FRQ #
    R19  3 R20  2 R21  4 R22 -3                             GLONASS SLOT / FRQ #
 C1C   71.950 C2C   71.950 C2P   71.950                     GLONASS COD/PHS/BIS
    18                                                      LEAP SECONDS
*** Above antenna height is from mark to ANTENNA BOTTOM.    COMMENT
    17     4        0.0000        ANT MEASURE TYPE/HEIGT    COMMENT
    0.0000    0.0000    0.0458    0.0405    0.0000          COMMENT
                    BASE STATION                            COMMENT
                                                            END OF HEADER
> 2020 05 10 17 59 30.0000000  0 14        .000000000000
G08  20348449.984 8 106931840.349 8      -367.996          51.000    20348451.625 8  83323504.829 8      -286.747          51.000
G10  22310778.477 5 117243971.369 5     -2592.836          34.000    22310778.359 5  91358919.127 5     -2020.404          33.000
G14  23369438.734 8 122807248.074 8      2618.375          49.000    23369438.086 6  95693965.092 6      2040.295          40.000
G22  22564135.586 8 118575315.040 8      2859.328          50.000    22564134.016 7  92396335.908 7      2228.051          47.000
G27  21506918.906 8 113019610.213 8     -2476.746          51.000    21506919.992 8  88067216.830 8     -1929.932          51.000
R07  19613477.523 8 104992546.628 8       401.629          51.000    19613480.133 8  81660822.490 8       312.378          48.000
R08  21329797.648 7 114220081.228 7      3858.598          47.000    21329800.742 7  88837894.823 7      3001.135          44.000
R22  19604838.492 8 104651976.231 8      -357.012          51.000    19604841.914 8  81395965.929 8      -277.676          51.000
C05                                                                  39641661.031 6 159620541.715 6       -18.468          38.000
C20  22669874.617 8 118048094.396 8      1993.125          51.000
C30  22223176.000 8 115721893.614 8     -1561.207          51.000
E03  25874147.500 8 135969608.759 8      2821.676          50.000    25874143.008 7 104184538.290 7      2162.093          47.000
E05  24762233.781 7 130126408.372 7       567.184          44.000    24762238.336 7  99707308.722 7       434.721          42.000
E09  25160407.555 5 132218833.398 5     -1951.090          33.000    25160407.320 6 101310529.528 6     -1495.105          39.000
> 2020 05 10 18 00  0.0000000  0 13        .000000000000
G08  20350566.984 8 106942965.716 8      -386.648          51.000    20350568.836 8  83332173.942 8      -301.284          51.000
G14  23354483.648 8 122728656.070 8      2608.102          48.000    23354482.609 6  95632724.646 6      2032.290          41.000
G22  22547808.047 8 118489513.697 8      2847.742          49.000    22547806.008 7  92329477.744 7      2219.023          47.000
G27  21521062.922 8 113093937.344 8     -2491.121          51.000    21521063.398 8  88125134.026 8     -1941.136          51.000
R07  19611271.070 8 104980733.239 8       372.750          51.000    19611272.820 7  81651634.312 7       289.917          47.000
R08  21308187.250 8 114104354.269 8      3843.176          48.000    21308189.891 7  88747885.053 7      2989.140          44.000
R22  19606852.609 8 104662727.230 8      -372.859          51.000    19606856.242 8  81404327.801 8      -289.999          51.000
C05                                                                  39641767.312 6 159620969.452 6       -20.108          39.000
C20  22658398.242 8 117988333.607 8      1978.082          51.000
C30  22232168.312 8 115768719.374 8     -1573.277          51.000
E03  25858022.859 8 135884877.152 8      2814.062          49.000    25858022.391 8 104119614.115 8      2156.212          50.000
E05  24759004.836 7 130109437.885 7       551.242          42.000    24759007.914 6  99694305.338 6       422.416          41.000
E09  25171543.945 5 132277355.782 5     -1963.699          34.000    25171543.180 6 101355369.745 6     -1504.105          39.000
> 2020 05 10 18 00 30.0000000  0 14        .000000000000
G08  20352821.672 8 106954814.089 8      -403.426          51.000    20352823.570 8  83341406.434 8      -314.358          51.000
G14  23339617.203 8 122650531.369 8      2600.125          48.000    23339616.117 6  95571848.322 6      2026.071          41.000
G22  22531577.109 8 118404220.879 8      2838.238          49.000    22531574.461 7  92263015.858 7      2211.614          45.000
G27  21535319.734 8 113168856.232 8     -2503.492          51.000    21535319.852 8  88183512.340 8     -1950.773          51.000
G32  22452684.531 6 117989668.374 6      1650.359          36.000
R07  19609256.633 8 104969949.089 8       346.039          51.000    19609258.000 8  81643246.677 8       269.145          48.000
R08  21286693.422 8 113989254.354 8      3829.809          48.000    21286695.703 7  88658362.975 7      2978.743          44.000
R22  19608986.211 8 104674116.949 8      -386.621          51.000    19608989.875 8  81413186.468 8      -300.705          51.000
C05                                                                  39641913.719 6 159621559.024 6       -19.730          39.000
C20  22647039.578 8 117929186.269 8      1964.906          50.000
C30  22241260.969 8 115816066.438 8     -1583.387          51.000
E03  25841971.969 8 135800531.729 8      2808.652          49.000    25841974.781 8 104054985.816 8      2152.192          51.000
E05  24755896.539 5 130093104.916 5       537.543          34.000    24755900.352 6  99681790.358 6       411.776          40.000
E09  25182778.383 5 132336396.137 5     -1972.961          34.000    25182778.555 6 101400610.780 6     -1511.944          39.000
> 2020 05 10 18 01  0.0000000  0 14        .000000000000
G08  20355174.031 8 106967175.375 8      -418.008          51.000    20355175.812 8  83351038.604 8      -325.720          51.000
G14  23324799.758 7 122572666.672 7      2593.848          47.000    23324798.945 7  95511174.588 7      2021.183          42.000
G22  22515403.062 7 118319227.590 7      2830.465          47.000    22515400.062 7  92196787.366 7      2205.560          45.000
G27  21549649.008 8 113244155.292 8     -2513.816          51.000    21549648.953 8  88242186.916 8     -1958.818          51.000
R07  19607394.281 8 104959979.893 8       321.352          51.000    19607395.461 7  81635492.864 7       249.937          47.000
R08  21265276.312 7 113874570.942 7      3818.516          47.000    21265279.219 7  88569164.830 7      2969.957          44.000
R21  22664050.352 4 121279915.522 4     -3075.828          29.000
R22  19611199.695 8 104685933.060 8      -398.320          51.000    19611203.305 8  81422376.764 8      -309.805          51.000
C05                                                                  39642060.312 6 159622149.339 6       -17.870          38.000
C20  22635759.055 8 117870445.201 8      1953.738          51.000
C30  22250413.875 8 115863726.266 8     -1591.312          51.000
E03  25825955.078 8 135716363.971 8      2805.262          48.000    25825959.969 8 103990493.673 8      2149.432          51.000
E05                                                                  24752875.453 6  99669602.976 6       402.578          38.000
E09  25194071.109 5 132395750.841 5     -1980.934          35.000    25194072.922 6 101446090.266 6     -1517.837          39.000
> 2020 05 10 18 01 30.0000000  0 14        .000000000000
G08  20357612.242 8 106979988.221 8      -436.832          51.000    20357614.047 8  83361022.625 8      -340.389          51.000
G11  20428577.930 5 107352901.583 5      1697.477          32.000
G14  23310019.969 7 122495003.052 7      2583.168          46.000    23310020.133 7  95450657.537 7      2012.858          43.000
G22  22499274.203 7 118234473.165 7      2818.863          46.000    22499271.367 7  92130744.998 7      2196.517          44.000
G27  21564038.625 8 113319771.521 8     -2528.051          51.000    21564038.758 8  88301108.619 8     -1969.910          51.000
R07  19605672.289 8 104950762.582 8       292.355          51.000    19605673.406 8  81628323.834 8       227.388          48.000
R08  21243925.578 7 113760245.119 7      3802.469          46.000    21243929.789 7  88480244.766 7      2957.476          45.000
R22  19613481.625 8 104698113.373 8      -414.344          51.000    19613484.844 8  81431850.343 8      -322.267          50.000
C05                                                                  39642195.445 6 159622693.100 6       -19.111          39.000
C20  22624545.492 8 117812050.487 8      1938.422          51.000
C30  22259615.109 8 115911637.563 8     -1603.512          51.000
E03  25809960.539 7 135632314.054 7      2797.258          47.000    25809966.602 8 103926091.788 8      2143.407          51.000
E05  24749910.391 5 130061657.817 5       509.633          35.000
E09  25205411.984 6 132455353.510 6     -1993.117          37.000    25205414.484 6 101491759.826 6     -1527.358          39.000
> 2020 05 10 18 02  0.0000000  0 15        .000000000000
G08  20360153.125 8 106993340.668 8      -453.926          51.000    20360154.844 8  83371427.111 8      -353.708          51.000
G14  23295295.758 7 122417630.702 7      2574.324          46.000    23295296.750 7  95390367.434 7      2005.970          42.000
G22  22483208.203 7 118150046.784 7      2808.934          47.000    22483206.266 7  92064958.227 7      2188.782          44.000
G27  21578504.773 8 113395791.052 8     -2540.590          51.000    21578505.328 8  88360344.585 8     -1979.680          51.000
G32  22424813.047 6 117843151.257 6      1604.098          36.000    22424819.898 5  91825853.914 5      1249.946          34.000
R07  19604107.133 8 104942386.096 8       265.418          51.000    19604109.109 8  81621808.806 8       206.436          48.000
R08  21222659.734 7 113646369.654 7      3788.500          47.000    21222664.906 7  88391674.972 7      2946.611          45.000
R21  22698647.516 5 121465051.826 5     -3093.809          30.000
R22  19615848.531 8 104710747.796 8      -428.516          51.000    19615851.812 8  81441677.108 8      -333.290          50.000
C05                                                                  39642335.508 6 159623257.329 6       -18.960          38.000
C20  22613415.391 8 117754090.031 8      1924.887          51.000
C30  22268881.180 8 115959886.813 8     -1613.777          51.000
E03  25794005.141 7 135548471.189 7      2791.516          46.000    25794011.930 8 103861848.544 8      2138.936          51.000
E05  24747040.109 6 130046572.362 6       495.523          41.000
E09  25216817.055 6 132515290.120 6     -2003.164          38.000    25216819.805 6 101537685.261 6     -1535.119          39.000
> 2020 05 10 18 02 30.0000000  0 14        .000000000000
G08  20362794.938 8 107007223.222 8      -469.379          51.000    20362796.375 8  83382244.682 8      -365.750          51.000
G14  23280625.953 7 122340542.665 7      2566.910          47.000    23280626.953 7  95330298.880 7      2000.193          43.000
G22  22467203.133 8 118065939.595 8      2800.430          49.000    22467202.266 7  91999420.210 7      2182.156          44.000
G27  21593045.055 8 113472202.762 8     -2551.484          50.000    21593046.336 8  88419886.144 8     -1988.170          50.000
R07  19602697.367 8 104934840.655 8       239.836          51.000    19602699.680 8  81615940.124 8       186.539          48.000
R08  21201477.766 8 113532938.153 8      3775.863          49.000    21201482.555 7  88303450.490 7      2936.783          44.000
R21  22716015.164 5 121557994.549 5     -3100.445          32.000
R22  19618298.781 8 104723827.386 8      -441.223          51.000    19618302.062 8  81451850.110 8      -343.173          50.000
C05                                                                  39642478.875 6 159623834.532 6       -17.876          39.000
C20  22602366.844 8 117696555.314 8      1912.891          51.000
C30  22278209.945 8 116008464.146 8     -1622.570          51.000
E03  25778087.891 8 135464827.411 8      2786.996          48.000    25778094.766 8 103797757.847 8      2135.413          50.000
E05  24744254.438 7 130031931.328 7       482.719          43.000    24744254.680 5  99634848.946 5       369.992          35.000
E09  25228284.109 6 132575549.365 6     -2011.781          39.000    25228286.891 6 101583857.892 6     -1541.492          39.000
> 2020 05 10 18 03  0.0000000  0 16        .000000000000
G08  20365535.906 8 107021627.408 8      -484.418          51.000    20365537.219 8  83393468.702 8      -377.469          51.000
G11  20399833.555 5 107201838.652 5      1663.863          34.000
G14  23266009.359 7 122263733.298 7      2560.309          47.000    23266010.188 7  95270447.467 7      1995.049          43.000
G22  22451257.828 8 117982144.852 8      2792.453          49.000    22451257.547 7  91934125.635 7      2175.941          45.000
G27  21607657.820 8 113548996.900 8     -2561.730          48.000    21607659.992 8  88479725.713 8     -1996.154          49.000
G32  22406683.133 6 117747901.197 6      1575.672          38.000    22406691.477 6  91751616.223 6      1227.796          39.000
R07  19601441.344 8 104928117.503 8       214.859          51.000    19601443.648 7  81610711.017 7       167.113          47.000
R08  21180378.266 8 113419945.837 8      3763.609          51.000    21180381.953 7  88215567.638 7      2927.255          44.000
R21  22733431.312 5 121651180.067 5     -3105.434          32.000    22733440.969 4  94617619.010 4     -2415.337          25.000
R22  19620831.055 8 104737344.544 8      -453.320          51.000    19620834.234 8  81462363.448 8      -352.582          50.000
C05                                                                  39642623.820 6 159624418.260 6       -15.876          39.000
C20  22591398.414 8 117639439.212 8      1901.348          51.000
C30  22287599.820 8 116057361.083 8     -1630.684          51.000
E03  25762208.109 8 135381376.080 8      2782.926          50.000    25762213.781 8 103733814.643 8      2132.354          49.000
E05  24741551.414 7 130017726.731 7       470.750          42.000    24741558.773 6  99623964.932 6       360.669          40.000
E09  25239811.008 6 132636121.390 6     -2020.035          39.000    25239813.727 6 101630270.164 6     -1547.625          39.000
> 2020 05 10 18 03 30.0000000  0 17        .000000000000
G08  20368372.172 8 107036532.441 8      -505.738          51.000    20368373.602 8  83405082.992 8      -394.082          51.000
G10  22430911.781 5 117875254.551 5     -2668.277          30.000    22430913.133 5  91850827.780 5     -2079.180          31.000
G11  20390394.578 4 107152248.425 4      1647.512          29.000
G14  23251442.242 7 122187183.987 7      2546.793          47.000    23251443.273 7  95210798.703 7      1984.517          43.000
G22  22435368.031 8 117898642.153 8      2778.035          49.000    22435368.055 7  91869058.646 7      2164.706          43.000
G27  21622339.086 8 113626150.792 8     -2578.219          48.000    21622342.141 8  88539845.585 8     -2009.002          48.000
G32  22397752.391 5 117700982.534 5      1555.754          32.000    22397759.977 5  91715058.743 5      1212.285          32.000
R07  19600335.016 8 104922194.944 8       183.605          51.000    19600337.438 7  81606104.594 7       142.807          47.000
R08  21159357.500 8 113307374.703 8      3744.812          51.000    21159359.898 7  88128012.383 7      2912.632          43.000
R21  22750887.094 5 121744585.802 5     -3117.934          31.000    22750890.992 4  94690242.825 4     -2425.053          25.000
R22  19623441.578 8 104751278.536 8      -471.887          51.000    19623444.633 8  81473200.993 8      -367.023          49.000
C05                                                                  39642766.383 6 159624992.221 6       -19.404          39.000
C20  22580506.547 8 117582721.758 8      1883.414          51.000
C30  22297047.023 8 116106556.321 8     -1645.348          51.000
E03  25746361.656 8 135298097.629 8      2772.539          51.000    25746365.047 7 103670003.945 7      2124.374          47.000
E05  24738927.180 7 130003937.526 7       452.289          43.000    24738938.109 6  99613399.242 6       346.520          40.000
E09  25251393.188 6 132696983.222 6     -2034.023          40.000    25251395.680 6 101676904.529 6     -1558.463          40.000
> 2020 05 10 18 04  0.0000000  0 16        .000000000000
G01  21986840.914 6 115541627.357 6      2359.656          37.000    21986846.578 6  90032432.211 6      1838.693          36.000
G08  20371296.758 8 107051901.755 8      -519.238          51.000    20371298.086 8  83417059.050 8      -404.601          51.000
G10  22446162.609 5 117955390.668 5     -2673.605          35.000    22446162.602 5  91913271.543 5     -2083.329          34.000
G14  23236918.375 7 122110860.616 7      2541.020          47.000    23236919.703 7  95151325.991 7      1980.015          43.000
G22  22419526.961 8 117815396.115 8      2771.324          48.000    22419525.570 7  91804191.635 7      2159.476          43.000
G27  21637081.852 8 113703626.008 8     -2587.039          49.000    21637085.180 8  88600215.846 8     -2015.875          49.000
G32  22388909.422 6 117654493.308 6      1542.836          38.000    22388904.844 6  91678841.826 6      1202.201          37.000
R07  19599370.992 8 104917034.482 8       160.062          51.000    19599373.609 7  81602090.924 7       124.493          47.000
R08  21138408.406 8 113195190.716 8      3733.840          50.000    21138409.789 7  88040758.236 7      2904.101          44.000
R22  19626123.203 8 104765592.633 8      -482.684          51.000    19626125.820 8  81484334.183 8      -375.418          49.000
C05                                                                  39642899.445 6 159625527.963 6       -16.586          39.000
C20  22569684.203 8 117526367.383 8      1873.137          51.000
C30  22306544.625 8 116156012.969 8     -1652.125          51.000
E03  25730541.391 8 135214956.809 8      2769.895          51.000    25730542.164 7 103606298.695 7      2122.453          46.000
E05  24736375.336 7 129990527.027 7       441.488          42.000    24736383.453 6  99603123.604 6       338.379          41.000
E09  25263023.078 6 132758096.329 6     -2040.328          40.000    25263025.109 6 101723731.449 6     -1563.539          39.000
> 2020 05 10 18 04 30.0000000  0 16        .000000000000
G08  20374329.141 8 107067837.396 8      -550.293          51.000    20374330.219 8  83429476.413 8      -428.803          51.000
G10  22461473.570 5 118035849.202 5     -2696.227          34.000    22461475.289 5  91975966.439 5     -2100.956          32.000
G14  23222457.641 7 122034868.295 7      2517.934          47.000    23222459.086 7  95092111.257 7      1962.029          43.000
G22  22403754.070 8 117732510.096 8      2747.227          49.000    22403750.820 7  91739605.178 7      2140.696          42.000
G27  21651905.438 8 113781523.390 8     -2613.254          51.000    21651908.383 8  88660915.076 8     -2036.302          51.000
G32  22380168.570 6 117608547.989 6      1512.805          38.000    22380164.336 6  91643040.253 6      1178.809          37.000
R07  19598568.766 8 104912740.184 8       118.883          51.000    19598571.344 7  81598750.947 7        92.464          46.000
R08  21117551.086 8 113083501.730 8      3704.910          48.000    21117552.633 7  87953889.075 7      2881.597          45.000
R21  22785914.688 4 121932028.064 4     -3143.207          29.000    22785915.875 4  94836024.016 4     -2444.717          28.000
R22  19628895.586 8 104780391.662 8      -511.207          51.000    19628898.133 8  81495844.517 8      -397.605          49.000
C05                                                                  39643042.367 6 159626103.834 6       -27.403          39.000
C20  22558950.977 8 117470478.530 8      1845.586          51.000
C30  22316111.938 8 116205832.087 8     -1676.254          51.000
E03  25714766.609 8 135132057.614 8      2749.500          51.000    25714765.445 7 103542778.603 7      2106.867          45.000
E05  24733914.727 6 129977597.615 6       413.105          39.000    24733921.906 7  99593216.665 7       316.700          42.000
E09  25274720.031 6 132819561.361 6     -2064.430          39.000    25274721.281 6 101770828.005 6     -1581.692          38.000
> 2020 05 10 18 05  0.0000000  0 15        .000000000000
G08  20377479.008 8 107084390.216 8      -555.566          51.000    20377480.273 8  83442374.679 8      -432.912          51.000
G10  22476854.680 5 118116678.694 5     -2693.418          33.000    22476859.266 5  92038950.463 5     -2098.770          33.000
G14  23208070.016 8 121959260.207 8      2520.277          48.000    23208071.047 7  95033195.924 7      1963.852          42.000
G22  22388059.445 8 117650036.099 8      2748.750          49.000    22388056.352 7  91675339.754 7      2141.883          44.000
G27  21666819.031 8 113859892.198 8     -2613.648          51.000    21666821.898 8  88721981.650 8     -2036.612          51.000
R06  21979721.297 5 117288003.626 5     -3486.121          31.000
R07  19597937.977 8 104909363.618 8       103.875          51.000    19597940.234 7  81596124.747 7        80.792          46.000
R08  21096796.219 7 112972362.861 7      3701.875          45.000    21096798.484 7  87867447.753 7      2879.239          46.000
R22  19631768.648 8 104795727.866 8      -513.598          51.000    19631771.078 8  81507772.657 8      -399.468          49.000
C05                                                                  39643205.031 6 159626758.653 6       -18.380          39.000
C20  22548316.914 8 117415106.541 8      1843.441          51.000
C30  22325758.445 8 116256063.713 8     -1674.871          51.000
E03  25699047.273 8 135049452.559 8      2755.012          50.000    25699045.344 7 103479483.890 7      2110.905          45.000
E05  24731554.594 6 129965200.414 6       410.770          36.000    24731562.492 7  99583717.490 7       314.781          42.000
E09  25286492.789 6 132881427.423 6     -2062.355          39.000    25286493.844 6 101818231.865 6     -1580.324          38.000
> 2020 05 10 18 05 30.0000000  0 16        .000000000000
G08  20380704.039 8 107101337.872 8      -574.305          51.000    20380705.375 8  83455580.626 8      -447.510          51.000
G10  22492263.719 5 118197654.221 5     -2704.641          34.000    22492270.750 5  92102048.270 5     -2107.512          34.000
G11  20353366.523 5 106957641.329 5      1595.945          33.000
G14  23193713.703 8 121883816.401 8      2509.152          48.000    23193713.820 6  94974408.569 6      1955.187          41.000
G22  22372401.297 8 117567752.384 8      2736.820          50.000    22372399.320 7  91611222.586 7      2132.590          45.000
G27  21681779.758 8 113938508.434 8     -2627.430          51.000    21681782.547 8  88783241.015 8     -2047.348          51.000
G32  22362977.000 4 117518237.993 4      1491.227          29.000    22362977.969 4  91572645.863 4      1161.989          25.000
R07  19597436.430 8 104906677.426 8        75.203          51.000    19597438.469 7  81594035.495 7        58.491          46.000
R08  21076100.789 7 112861550.856 7      3685.344          43.000    21076105.445 7  87781260.642 7      2866.378          47.000
R22  19634700.258 8 104811376.021 8      -529.648          51.000    19634702.594 8  81519943.429 8      -411.949          48.000
C05                                                                  39643344.852 6 159627321.829 6       -19.211          39.000
C20  22537739.812 8 117360031.848 8      1828.098          50.000
C30  22335441.594 8 116306487.003 8     -1686.809          51.000
E03  25683340.867 7 134966920.734 7      2747.039          47.000    25683339.164 7 103416245.279 7      2104.853          45.000
E05  24729252.945 5 129953100.995 5       395.191          30.000    24729260.781 6  99574455.596 6       302.719          38.000
E09  25298298.695 6 132943470.361 6     -2073.879          37.000    25298300.305 6 101865771.237 6     -1588.876          38.000
> 2020 05 10 18 06  0.0000000  0 16        .000000000000
G08  20384028.359 8 107118807.632 8      -590.477          51.000    20384029.703 8  83469193.416 8      -460.112          51.000
G10  22507724.609 5 118278900.502 5     -2712.062          30.000    22507732.867 4  92165357.088 4     -2113.292          27.000
G11  20344288.102 6 106909932.833 6      1584.336          38.000
G14  23179413.344 8 121808666.925 8      2500.664          48.000    23179412.828 7  94915850.576 7      1948.569          42.000
G22  22356804.242 8 117485787.248 8      2727.438          51.000    22356802.969 7  91547353.648 7      2125.279          46.000
G27  21696811.383 8 114017497.676 8     -2638.625          51.000    21696813.773 8  88844791.045 8     -2056.074          51.000
R07  19597087.516 8 104904810.469 8        49.156          51.000    19597089.422 7  81592583.438 7        38.233          46.000
R08  21055491.859 7 112751199.238 7      3671.141          45.000    21055498.305 7  87695431.612 7      2855.332          47.000
R21  22838809.445 4 122215034.698 4     -3154.875          28.000
R22  19637714.344 8 104827465.995 8      -543.188          51.000    19637716.820 8  81532457.829 8      -422.479          49.000
C05                                                                  39643486.031 6 159627890.700 6       -18.631          39.000
C20  22527244.227 8 117305381.408 8      1815.168          51.000
C30  22345185.828 8 116357227.570 8     -1696.066          51.000
E03  25667672.344 7 134884590.943 7      2741.352          47.000    25667671.852 7 103353161.460 7      2100.561          45.000
E05                                                                  24727041.430 5  99565528.536 5       292.423          35.000
E09  25310161.844 6 133005815.591 6     -2082.637          36.000    25310164.445 6 101913542.249 6     -1595.849          38.000
> 2020 05 10 18 06 30.0000000  0 16        .000000000000
G08  20387451.211 8 107136794.625 8      -608.070          51.000    20387452.547 8  83483209.253 8      -473.821          51.000
G10  22523235.773 5 118360410.208 5     -2720.953          32.000    22523242.578 4  92228871.009 4     -2120.235          29.000
G11  20335282.930 5 106862611.757 5      1571.266          30.000
G14  23165168.445 8 121733809.379 8      2490.359          48.000    23165167.977 7  94857520.048 7      1940.540          42.000
G22  22341267.055 8 117404136.983 8      2716.535          51.000    22341266.125 7  91483730.103 7      2116.781          46.000
G27  21711912.523 8 114096853.309 8     -2651.234          50.000    21711914.344 8  88906626.576 8     -2065.897          50.000
R07  19596890.758 8 104903756.898 8        21.645          51.000    19596892.547 7  81591764.006 7        16.835          47.000
R08  21034970.359 8 112641305.830 8      3655.422          49.000    21034976.547 7  87609959.033 7      2843.109          47.000
R21  22856525.203 6 122309821.075 6     -3163.070          36.000
R22  19640810.453 8 104843993.214 8      -558.188          51.000    19640813.148 8  81545312.306 8      -434.146          49.000
C05                                                                  39643627.805 6 159628461.272 6       -18.963          39.000
C20  22516829.773 8 117251151.164 8      1800.652          51.000
C30  22354989.883 8 116408280.056 8     -1706.883          51.000
E03  25652042.703 8 134802459.713 8      2734.414          48.000    25652043.086 7 103290229.790 7      2095.138          46.000
E05  24724904.703 6 129930248.896 6       366.719          40.000    24724905.422 5  99556932.522 5       281.268          32.000
E09  25322081.438 5 133068456.294 5     -2092.879          35.000    25322084.758 6 101961539.671 6     -1603.566          37.000
> 2020 05 10 18 07  0.0000000  0 16        .000000000000
G08  20390973.359 8 107155303.268 8      -626.223          51.000    20390974.703 8  83497631.572 8      -487.966          51.000
G10  22538797.562 5 118442185.885 5     -2730.520          34.000    22538799.617 5  92292592.296 5     -2127.668          32.000
G11  20326350.914 5 106815684.244 5      1556.953          32.000
G14  23150980.375 7 121659250.895 7      2479.707          46.000    23150980.133 7  94799422.576 7      1932.245          43.000
G22  22325790.508 8 117322807.180 8      2705.082          51.000    22325789.602 7  91420356.257 7      2107.859          46.000
G27  21727083.773 8 114176578.610 8     -2664.270          51.000    21727085.523 8  88968750.145 8     -2076.057          50.000
R07  19596846.969 8 104903521.525 8        -6.348          51.000    19596848.688 8  81591580.954 8        -4.937          48.000
R08  21014536.945 8 112531879.181 8      3639.172          50.000    21014541.344 7  87524849.497 7      2830.470          46.000
R21  22874283.867 5 122404842.886 5     -3171.988          33.000    22874290.070 4  95203836.924 4     -2467.102          26.000
R22  19643989.641 8 104860963.724 8      -573.688          51.000    19643992.547 8  81558511.569 8      -446.204          49.000
C05                                                                  39643770.820 6 159629037.145 6       -19.658          38.000
C20  22506497.516 8 117197346.889 8      1785.699          51.000
C30  22364854.562 8 116459648.881 8     -1718.133          50.000
E03  25636453.109 8 134720533.462 8      2726.875          49.000    25636454.320 7 103227455.189 7      2089.487          47.000
E05  24722853.383 7 129919467.231 7       351.547          42.000    24722854.539 5  99548686.372 5       269.496          34.000
E09  25334057.945 5 133131395.610 5     -2103.324          33.000    25334062.117 5 102009765.871 5     -1611.458          35.000
> 2020 05 10 18 07 30.0000000  0 14        .000000000000
G08  20394586.055 8 107174287.556 8      -629.504          51.000    20394587.562 8  83512424.522 8      -490.523          51.000
G14  23136840.766 7 121584947.652 7      2483.676          46.000    23136840.961 7  94741524.019 7      1935.335          43.000
G22  22310366.234 8 117241752.764 8      2708.500          50.000    22310364.875 7  91357197.000 7      2110.519          46.000
G27  21742316.312 8 114256625.391 8     -2662.371          51.000    21742318.117 8  89031124.246 8     -2074.575          51.000
G32  22329674.977 5 117343217.930 5      1437.949          30.000    22329676.484 5  91436292.315 5      1120.480          30.000
R07  19596946.750 8 104904055.688 8       -19.152          51.000    19596948.711 8  81591996.428 8       -14.896          48.000
R08  20994182.422 8 112422875.190 8      3637.855          50.000    20994185.125 7  87440068.665 7      2829.443          45.000
R22  19647242.812 8 104878330.474 8      -574.125          51.000    19647245.805 8  81572019.043 8      -446.542          49.000
C05                                                                  39643906.258 6 159629582.509 6        -9.101          38.000
C20  22496238.312 8 117143923.361 8      1785.559          51.000
C30  22374771.016 8 116511287.530 8     -1714.715          49.000
E03  25620894.492 8 134638767.319 8      2733.988          50.000    25620896.398 8 103164803.245 8      2094.928          49.000
E05  24720875.633 7 129909075.904 7       351.027          43.000    24720879.578 6  99540724.273 6       269.125          39.000
E09  25346082.523 5 133194562.311 5     -2099.270          34.000    25346087.219 5 102058183.943 5     -1608.606          34.000
> 2020 05 10 18 08  0.0000000  0 15        .000000000000
G08  20398289.328 8 107193748.235 8      -660.328          51.000    20398290.953 8  83527588.690 8      -514.541          51.000
G10  22570061.000 5 118606470.908 5     -2748.141          32.000
G14  23122750.633 8 121510903.293 8      2459.992          48.000    23122750.805 7  94683827.184 7      1916.877          42.000
G22  22294994.867 8 117160975.602 8      2684.148          50.000    22294992.789 7  91294253.805 7      2091.547          46.000
G27  21757609.703 8 114336993.086 8     -2688.016          51.000    21757611.680 8  89093748.412 8     -2094.558          51.000
R06  22098791.969 5 117923332.608 5     -3570.855          32.000
R07  19597190.500 8 104905360.150 8       -60.129          51.000    19597192.484 8  81593011.017 8       -46.767          48.000
R08  20973906.859 8 112314298.601 8      3608.281          49.000    20973908.984 7  87355620.230 7      2806.441          44.000
R22  19650570.555 8 104896095.447 8      -602.629          51.000    19650573.867 8  81585836.214 8      -468.714          49.000
C05                                                                  39644034.320 6 159630098.040 6       -19.431          39.000
C20  22486052.344 8 117090882.420 8      1757.938          51.000
C30  22384739.508 8 116563196.558 8     -1738.492          49.000
E03  25605366.727 8 134557163.872 8      2713.621          49.000    25605369.414 8 103102275.950 8      2079.295          51.000
E05  24718972.422 7 129899076.041 7       323.012          45.000    24718977.844 6  99533062.064 6       247.535          41.000
E09  25358154.852 5 133258002.631 5     -2122.418          32.000    25358159.891 5 102106800.245 5     -1626.262          32.000
> 2020 05 10 18 08 30.0000000  0 14        .000000000000
G08  20402109.531 8 107213823.041 8      -677.082          51.000    20402111.172 8  83543231.395 8      -527.596          51.000
G14  23108736.711 8 121437258.541 8      2450.555          49.000    23108736.414 7  94626441.717 7      1909.526          42.000
G22  22279702.789 8 117080614.548 8      2674.059          50.000    22279700.117 7  91231634.847 7      2083.685          46.000
G27  21772990.047 8 114417818.239 8     -2699.465          51.000    21772992.203 8  89156729.028 8     -2103.479          51.000
R06  22118904.797 5 118030686.562 5     -3584.500          32.000
R07  19597604.281 8 104907574.613 8       -86.602          51.000    19597606.180 8  81594733.360 8       -67.360          48.000
R08  20953737.836 8 112206293.586 8      3593.066          49.000    20953739.414 7  87271616.343 7      2794.610          43.000
R22  19653999.461 8 104914399.465 8      -616.719          51.000    19654002.750 8  81600072.670 8      -479.670          50.000
C05                                                                  39644181.133 6 159630689.429 6       -19.051          39.000
C20  22475966.297 8 117038361.865 8      1744.363          51.000
C30  22394786.055 8 116615512.515 8     -1748.391          49.000
E03  25589896.086 8 134475862.846 8      2707.406          50.000    25589899.516 8 103039980.355 8      2074.575          51.000
E05  24717170.398 7 129889605.764 7       309.309          45.000    24717174.953 7  99525805.586 7       237.092          42.000
E09                                                                  25370305.938 5 102155708.397 5     -1633.182          30.000
> 2020 05 10 18 09  0.0000000  0 14        .000000000000
G08  20406027.727 8 107234412.300 8      -696.188          51.000    20406029.414 8  83559274.960 8      -542.484          51.000
G14  23094780.180 8 121363915.897 8      2438.422          49.000    23094779.812 7  94569291.681 7      1900.072          42.000
G22  22264471.133 8 117000571.744 8      2661.504          48.000    22264468.008 7  91169263.875 7      2073.899          47.000
G27  21788438.195 8 114498999.451 8     -2713.219          51.000    21788440.398 8  89219987.100 8     -2114.199          51.000
R06  22139098.836 5 118138441.024 5     -3599.484          31.000
R07  19598168.805 8 104910596.749 8      -115.512          51.000    19598170.805 8  81597083.919 8       -89.842          48.000
R08  20933657.430 8 112098761.647 8      3575.199          49.000    20933657.984 7  87187980.446 7      2780.714          42.000
R22  19657510.453 8 104933142.279 8      -633.328          51.000    19657513.922 8  81614650.415 8      -492.592          50.000
C05                                                                  39644327.758 6 159631280.130 6       -20.464          39.000
C20  22465961.250 8 116986263.726 8      1728.340          51.000
C30  22404892.172 8 116668136.110 8     -1760.574          51.000
E03  25574464.398 8 134394766.128 8      2698.520          51.000    25574467.938 8 102977841.309 8      2067.670          51.000
E05  24715450.180 7 129880565.302 7       292.887          45.000    24715454.016 7  99518878.508 7       224.288          44.000
E36  27350090.203 5 143725700.106 5     -2279.109          34.000
> 2020 05 10 18 09 30.0000000  0 16        .000000000000
G08  20410056.680 8 107255584.125 8      -711.641          51.000    20410058.336 8  83575772.478 8      -554.528          51.000
G10  22617366.922 6 118855057.287 6     -2771.930          37.000
G11  20282813.844 5 106586898.171 5      1491.453          31.000
G14  23080894.516 8 121290946.317 8      2429.887          48.000    23080894.836 7  94512432.328 7      1893.418          43.000
G22  22249312.805 8 116920915.693 8      2652.492          48.000    22249310.023 7  91107194.273 7      2066.880          47.000
G27  21803966.891 8 114580603.052 8     -2723.438          51.000    21803968.625 8  89283574.333 8     -2122.159          51.000
G32  22297911.586 5 117176323.862 5      1357.848          35.000    22297929.062 5  91306238.087 5      1058.063          35.000
R07  19598897.188 8 104914494.880 8      -140.746          50.000    19598898.984 8  81600115.790 8      -109.469          48.000
R08  20913678.852 8 111991775.554 8      3560.945          48.000    20913678.781 6  87104769.100 6      2769.624          41.000
R22  19661116.859 8 104952393.135 8      -646.445          51.000    19661120.500 8  81629623.280 8      -502.791          50.000
C05                                                                  39644487.164 6 159631922.175 6       -19.247          39.000
C20  22456050.539 8 116934656.213 8      1715.758          51.000
C30  22415070.695 8 116721134.292 8     -1769.152          51.000
E03  25559084.789 8 134313943.200 8      2693.250          51.000    25559087.914 8 102915912.056 8      2063.707          51.000
E05  24713824.500 7 129872022.690 7       280.266          45.000    24713827.867 7  99512332.841 7       214.836          44.000
E36  27363113.406 5 143794131.673 5     -2279.402          31.000
> 2020 05 10 18 10  0.0000000  0 15        .000000000000
G08  20414173.133 8 107277216.273 8      -729.152          51.000    20414174.812 8  83592628.679 8      -568.171          51.000
G10  22633220.906 6 118938371.938 6     -2780.648          38.000    22633181.719 4  92679097.217 4     -2166.739          28.000
G11  20274339.414 5 106542355.315 5      1477.758          33.000
G14  23067056.891 7 121218229.900 7      2419.148          47.000    23067058.008 7  94455770.208 7      1885.051          45.000
G22  22234205.031 8 116841524.893 8      2641.453          48.000    22234202.930 8  91045331.366 8      2058.278          48.000
G27  21819552.141 8 114662505.258 8     -2735.461          49.000    21819553.922 8  89347394.232 8     -2131.528          49.000
G32  22290215.430 6 117135875.721 6      1340.215          37.000    22290230.000 6  91274720.220 6      1044.332          36.000
R07  19599765.406 8 104919143.713 8      -167.898          50.000    19599767.289 8  81603731.547 8      -130.588          48.000
R08  20893778.227 7 111885214.088 7      3544.578          45.000    20893779.398 7  87021887.991 7      2756.894          42.000
R22  19664795.594 8 104972029.022 8      -661.363          51.000    19664798.828 8  81644895.641 8      -514.394          50.000
C05                                                                  39644636.023 6 159632521.795 6       -19.582          39.000
C20  22446211.156 8 116883419.108 8      1701.320          51.000
C30  22425297.781 8 116774385.595 8     -1779.633          51.000
E03  25543734.266 8 134233273.515 8      2685.961          51.000    25543736.961 8 102854100.245 8      2058.041          51.000
E05  24712270.531 7 129863855.695 7       265.504          45.000    24712274.141 7  99506075.026 7       203.528          46.000
> 2020 05 10 18 10 30.0000000  0 15        .000000000000
G08  20418383.602 8 107299342.567 8      -746.043          51.000    20418385.469 8  83609869.925 8      -581.332          51.000
G10  22649118.812 6 119021909.123 6     -2788.188          36.000    22649077.211 5  92744190.863 5     -2172.620          30.000
G11  20265934.516 5 106498189.052 5      1464.887          30.000    20265945.016 4  82985655.803 4      1141.470          24.000
G14  23053274.477 8 121145803.744 8      2409.188          48.000    23053276.430 7  94399334.298 7      1877.292          45.000
G22  22219154.695 8 116762435.054 8      2631.148          49.000    22219153.156 8  90983702.954 8      2050.246          48.000
G27  21835200.141 7 114744738.911 7     -2746.793          47.000    21835202.508 7  89411472.368 7     -2140.358          47.000
G32  22282610.383 6 117095914.776 6      1323.578          38.000    22282627.047 6  91243582.484 6      1031.375          37.000
R07  19600780.148 8 104924577.458 8      -194.496          50.000    19600782.227 8  81607957.802 8      -151.272          48.000
R08  20873964.445 7 111779116.109 7      3528.664          45.000    20873966.141 6  86939367.339 6      2744.516          41.000
R22  19668552.828 8 104992085.355 8      -675.781          51.000    19668555.828 8  81660494.983 8      -525.608          50.000
C05                                                                  39644780.898 6 159633105.248 6       -19.316          39.000
C20  22436449.617 8 116832587.335 8      1687.430          51.000
C30  22435579.328 8 116827923.710 8     -1789.617          51.000
E03  25528419.344 8 134152793.111 8      2679.398          51.000    25528421.938 8 102792433.484 8      2053.087          51.000
E05  24710794.656 7 129856098.791 7       251.676          43.000    24710798.977 7  99500131.435 7       192.860          45.000
> 2020 05 10 18 11  0.0000000  0 16        .000000000000
G08  20422684.461 8 107321944.315 8      -763.301          51.000    20422686.625 8  83627481.647 8      -594.780          51.000
G11  20257597.484 5 106454382.550 5      1452.715          34.000
G14  23039544.250 8 121073651.668 8      2398.348          48.000    23039546.445 7  94343111.940 7      1868.845          44.000
G22  22204158.461 8 116683628.554 8      2620.117          49.000    22204157.055 8  90922295.281 8      2041.650          48.000
G27  21850907.445 7 114827283.266 7     -2758.797          47.000    21850910.039 7  89475792.576 7     -2149.715          47.000
G32  22275094.781 7 117056423.577 7      1306.660          42.000    22275106.930 6  91212810.339 6      1018.174          36.000
R07  19601938.070 8 104930775.520 8      -221.453          50.000    19601940.062 7  81612778.498 7      -172.244          47.000
R08  20854234.172 7 111673464.918 7      3512.117          45.000    20854235.867 7  86857194.231 7      2731.650          42.000
R21  23017859.641 4 123173208.287 4     -3231.340          28.000
R22  19672385.461 8 105012543.204 8      -690.680          51.000    19672388.281 8  81676406.616 8      -537.195          50.000
C05                                                                  39644918.148 6 159633657.825 6       -19.594          39.000
C20  22426762.406 8 116782142.842 8      1673.070          51.000
C30  22445912.203 8 116881729.250 8     -1800.062          51.000
E03  25513136.453 8 134072484.494 8      2671.887          51.000    25513139.227 8 102730898.367 8      2047.407          50.000
E05  24709392.617 6 129848732.765 6       236.887          40.000    24709396.453 7  99494487.334 7       181.454          43.000
E36  27402215.969 6 143999603.072 6     -2287.273          36.000
> 2020 05 10 18 11 30.0000000  0 14        .000000000000
G08  20427091.672 8 107345105.897 8      -781.676          51.000    20427094.055 8  83645529.600 8      -609.098          51.000
G11  20249345.562 5 106411021.153 5      1437.609          31.000
G14  23025882.477 8 121001860.201 8      2386.613          48.000    23025884.766 7  94287170.565 7      1859.702          43.000
G22  22189232.070 8 116605190.719 8      2608.035          48.000    22189230.836 7  90861174.863 7      2032.235          47.000
G27  21866690.070 8 114910221.110 8     -2771.516          50.000    21866692.352 8  89540419.405 8     -2159.623          50.000
G32  22267685.703 6 117017488.455 6      1288.250          36.000    22267692.031 6  91182471.246 6      1003.834          37.000
R07  19603254.492 8 104937823.256 8      -249.363          50.000    19603256.445 7  81618260.068 7      -193.949          47.000
R08  20834603.945 7 111568350.351 7      3494.586          47.000    20834606.773 7  86775438.522 7      2718.014          44.000
R22  19676309.516 8 105033489.542 8      -706.699          51.000    19676312.305 8  81692698.185 8      -549.655          50.000
C05                                                                  39645063.602 6 159634244.184 6       -20.343          39.000
C20  22417165.812 8 116732170.184 8      1657.477          51.000
C30  22456312.391 8 116935885.549 8     -1811.336          51.000
E03  25497902.109 8 133992433.800 8      2663.742          49.000    25497905.305 8 102669560.904 8      2041.037          49.000
E05  24708082.156 6 129841842.154 6       221.207          36.000    24708084.734 7  99489207.478 7       169.700          44.000
> 2020 05 10 18 12  0.0000000  0 13        .000000000000
G08  20431604.148 8 107368820.324 8      -796.832          51.000    20431606.797 8  83664008.351 8      -620.908          51.000
G14  23012288.656 8 120930425.556 8      2377.992          48.000    23012290.695 7  94231507.211 7      1852.981          43.000
G22  22174374.664 8 116527115.438 8      2599.332          49.000    22174372.734 7  90800336.966 7      2025.454          45.000
G27  21882546.336 8 114993544.308 8     -2780.941          51.000    21882548.188 8  89605346.511 8     -2166.970          51.000
G32  22260381.281 6 116979104.298 6      1272.902          36.000    22260386.977 6  91152561.688 6       991.869          37.000
R07  19604728.234 8 104945712.729 8      -274.020          50.000    19604730.188 7  81624396.337 7      -213.126          47.000
R08  20815073.883 8 111463769.636 8      3480.031          49.000    20815077.898 7  86694098.029 7      2706.694          45.000
R22  19680323.734 8 105054917.845 8      -719.418          51.000    19680326.414 8  81709364.632 8      -559.547          50.000
C05                                                                  39645216.352 6 159634859.180 6       -18.664          39.000
C20  22407658.664 8 116682663.698 8      1645.293          51.000
C30  22466778.242 8 116990385.668 8     -1819.586          51.000
E03  25482715.633 8 133912636.089 8      2658.703          49.000    25482719.617 8 102608417.274 8      2037.164          49.000
E05                                                                  24706863.648 7  99484286.868 7       160.379          42.000
> 2020 05 10 18 12 30.0000000  0 16        .000000000000
G08  20436207.719 8 107393013.112 8      -814.629          51.000    20436210.992 8  83682859.846 8      -634.776          51.000
G11  20233081.625 5 106325558.499 5      1412.164          31.000
G14  22998749.266 7 120859275.811 7      2366.758          47.000    22998750.969 6  94176065.886 6      1844.230          40.000
G22  22159572.617 8 116449329.446 8      2587.887          51.000    22159569.336 7  90739724.536 7      2016.535          44.000
G27  21898461.508 8 115077176.679 8     -2793.043          51.000    21898463.438 8  89670514.538 8     -2176.397          51.000
G32  22253166.977 5 116941198.672 5      1255.238          34.000    22253173.312 5  91123024.651 5       978.099          32.000
R07  19606344.711 8 104954367.044 8      -301.367          51.000    19606346.828 8  81631127.463 8      -234.397          48.000
R08  20795630.562 8 111359649.293 8      3462.770          49.000    20795634.523 7  86613115.617 7      2693.268          45.000
R21  23072406.109 5 123465098.141 5     -3252.770          32.000
R22  19684414.336 8 105076753.522 8      -734.859          51.000    19684417.102 8  81726347.924 8      -571.557          50.000
C05                                                                  39645362.086 6 159635445.689 6       -19.205          39.000
C20  22398226.922 8 116633550.309 8      1630.477          51.000
C29  21812167.156 6 113581678.518 6      1153.422          37.000
C30  22477295.383 8 117045155.349 8     -1830.262          49.000
E03  25467564.266 8 133833018.460 8      2650.730          51.000    25467568.570 8 102547411.585 8      2031.130          50.000
E05                                                                  24705714.938 6  99479668.266 6       149.086          39.000
> 2020 05 10 18 13  0.0000000  0 16        .000000000000
G08  20440908.750 8 107417717.855 8      -832.969          51.000    20440912.039 8  83702110.283 8      -649.067          50.000
G10  22729269.625 5 119443117.087 5     -2828.871          33.000
G11  20225060.789 5 106283406.469 5      1397.621          32.000
G14  22985271.164 8 120788447.640 8      2354.688          48.000    22985272.430 6  94120875.151 6      1834.824          40.000
G22  22144832.516 8 116371868.014 8      2575.574          51.000    22144828.844 7  90679365.047 7      2006.944          45.000
G27  21914441.555 8 115161150.716 8     -2805.824          51.000    21914443.688 8  89735948.805 8     -2186.357          51.000
G32  22246050.250 5 116903783.838 5      1237.273          35.000    22246056.156 5  91093888.016 5       964.115          34.000
R07  19608110.750 8 104963820.057 8      -329.406          51.000    19608112.898 7  81638479.821 7      -256.205          47.000
R08  20776280.555 8 111256027.771 8      3444.707          48.000    20776284.117 7  86532521.169 7      2679.217          46.000
R22  19688587.570 8 105099031.708 8      -750.988          50.000    19688590.820 8  81743675.376 8      -584.102          50.000
C05                                                                  39645507.078 6 159636029.780 6       -20.407          39.000
C20  22388877.625 8 116584864.709 8      1614.785          51.000
C29  21805553.875 5 113547247.646 5      1141.996          35.000
C30  22487870.945 8 117100227.964 8     -1841.691          49.000
E03  25452454.891 8 133753616.609 8      2642.078          51.000    25452459.258 8 102486571.234 8      2024.449          51.000
E05  24704649.750 6 129823814.847 6       178.508          40.000    24704649.812 6  99475377.914 6       136.836          38.000
> 2020 05 10 18 13 30.0000000  0 16        .000000000000
G08  20445710.688 8 107442953.336 8      -850.324          50.000    20445713.711 8  83721774.308 8      -662.590          50.000
G10  22745427.492 5 119528027.891 5     -2836.848          34.000
G11  20217119.812 5 106241677.579 5      1383.293          32.000
G14  22971858.414 7 120717961.962 7      2343.617          47.000    22971859.688 7  94065951.296 7      1826.198          42.000
G22  22130157.789 8 116294751.179 8      2564.508          50.000    22130154.750 7  90619274.063 7      1998.318          46.000
G27  21930489.633 8 115245483.436 8     -2817.273          50.000    21930491.898 8  89801662.568 8     -2195.281          50.000
G32  22239036.336 6 116866926.223 6      1219.449          40.000    22239042.836 6  91065167.802 6       950.217          39.000
R07  19610028.969 8 104974089.653 8      -356.184          51.000    19610031.266 7  81646467.288 7      -277.035          47.000
R08  20757027.445 7 111152927.457 7      3427.742          46.000    20757030.742 7  86452332.030 7      2666.022          46.000
R22  19692847.352 8 105121771.880 8      -765.895          51.000    19692850.664 8  81761362.164 8      -595.696          50.000
C05                                                                  39645655.062 6 159636625.593 6       -20.289          39.000
C20  22379614.469 8 116536626.150 8      1600.305          51.000
C29  21799003.570 5 113513147.428 5      1130.648          34.000
C30  22498508.578 8 117155621.619 8     -1852.023          49.000
E03  25437390.930 8 133674450.795 8      2634.645          51.000    25437395.109 8 102425911.748 8      2018.742          51.000
E05  24703667.094 6 129818662.549 6       164.023          41.000    24703672.000 5  99471430.004 5       125.788          35.000
> 2020 05 10 18 14  0.0000000  0 16        .000000000000
G03  24186447.234 5 127100642.597 5      3587.078          35.000    24186446.070 5  99039463.821 5      2795.135          35.000
G08  20450609.984 8 107468699.386 8      -866.891          51.000    20450613.062 8  83741836.174 8      -675.499          51.000
G11  20209256.719 5 106200358.741 5      1370.688          32.000
G14  22958507.352 7 120647801.701 7      2332.941          47.000    22958508.922 7  94011281.027 7      1817.879          42.000
G22  22115544.328 7 116217959.834 7      2554.094          47.000    22115542.516 7  90559436.663 7      1990.206          47.000
G27  21946601.789 8 115330153.188 8     -2828.172          51.000    21946603.953 8  89867638.969 8     -2203.770          51.000
G32  22232120.805 6 116830584.448 6      1202.426          38.000    22232124.219 6  91036849.448 6       936.952          38.000
R07  19612095.844 8 104985154.131 8      -382.273          51.000    19612097.867 7  81655073.000 7      -297.324          47.000
R08  20737868.562 8 111050331.409 8      3411.180          48.000    20737871.445 7  86372535.075 7      2653.140          46.000
R22  19697190.180 8 105144954.684 8      -780.441          51.000    19697193.586 8  81779393.232 8      -607.010          50.000
C05                                                                  39645802.172 6 159637217.843 6       -19.718          39.000
C20  22370433.180 8 116488815.699 8      1586.289          51.000
C29  21792514.219 6 113479359.155 6      1120.949          36.000
C30  22509204.250 8 117211316.171 8     -1861.711          50.000
E03  25422368.531 8 133595502.722 8      2627.637          51.000    25422372.328 8 102365419.092 8      2013.426          51.000
E05  24702765.688 7 129813937.043 7       150.117          42.000    24702769.344 5  99467809.073 5       114.513          33.000
> 2020 05 10 18 14 30.0000000  0 16        .000000000000
G08  20455608.336 8 107494964.220 8      -886.195          51.000    20455611.477 8  83762302.274 8      -690.542          51.000
G10  22777910.906 5 119698732.350 5     -2853.312          31.000
G11  20201471.117 5 106159448.177 5      1354.355          33.000
G14  22945220.102 7 120577977.578 7      2319.789          46.000    22945221.266 6  93956872.639 6      1807.628          40.000
G22  22100994.383 8 116141502.742 8      2540.930          48.000    22100993.125 7  90499859.698 7      1979.945          46.000
G27  21962779.398 8 115415166.553 8     -2841.574          51.000    21962781.328 8  89933883.107 8     -2214.217          51.000
G32  22225304.914 6 116794768.253 6      1182.992          37.000    22225308.586 6  91008940.769 6       921.815          37.000
R07  19614312.578 8 104997020.696 8      -410.949          51.000    19614314.641 7  81664302.558 7      -319.627          47.000
R08  20718806.352 8 110948251.361 8      3391.984          49.000    20718808.703 7  86293139.504 7      2638.210          45.000
R22  19701617.812 8 105168588.813 8      -797.410          51.000    19701621.117 8  81797775.312 8      -620.208          50.000
C05                                                                  39645949.828 6 159637812.736 6       -21.247          39.000
C20  22361335.445 8 116441442.171 8      1569.840          51.000
C29  21786086.781 6 113445892.257 6      1108.520          36.000
C30  22519959.531 8 117267319.228 8     -1873.844          51.000
E03  25407389.172 8 133516782.150 8      2618.117          51.000    25407392.430 8 102305100.769 8      2006.135          50.000
E05  24701948.891 7 129809646.576 7       133.680          43.000    24701953.797 6  99464521.496 6       102.484          37.000
> 2020 05 10 18 15  0.0000000  0 15        .000000000000
G08  20460706.227 8 107521752.516 8      -900.617          51.000    20460709.102 8  83783176.252 8      -701.780          51.000
G11  20193765.195 5 106118958.275 5      1343.914          34.000
G14  22931998.164 7 120508497.798 7      2311.387          45.000    22931999.070 6  93902732.583 6      1801.081          40.000
G22  22086510.297 8 116065386.399 8      2532.582          51.000    22086508.055 7  90440548.288 7      1973.441          44.000
G27  21979023.227 8 115500527.227 8     -2850.105          51.000    21979025.031 8  90000397.878 8     -2220.861          51.000
G32  22218590.539 6 116759484.824 6      1167.984          39.000    22218596.766 6  90981447.177 6       910.118          38.000
R07  19616679.984 8 105009693.732 8      -434.770          51.000    19616682.266 8  81674159.378 8      -338.151          48.000
R08  20699842.086 8 110846695.923 8      3377.461          49.000    20699844.258 7  86214151.988 7      2626.914          45.000
R22  19706131.141 8 105192680.520 8      -809.629          51.000    19706134.078 8  81816513.292 8      -629.714          50.000
