     3.02           OBSERVATION DATA    M (MIXED)           RINEX VERSION / TYPE
SAVERINEX           SC600               20200516 235930 LCL PGM / RUN BY / DATE
       G = GPS       R = GLONASS       C = COMPASS          COMMENT
       S = SBAS      J = QZSS          E = GALILEO          COMMENT
BEAN                                                        MARKER NAME
1                                                           MARKER NUMBER
GEODETIC                                                    MARKER TYPE
Unige DICCA         GTER                                    OBSERVER / AGENCY
SC60291900056       SC600               2.12(191202)        REC # / TYPE / VERS
                    HEMA45          NONE                    ANT # / TYPE
  4509407.8091   693652.4678  4442337.6214                  APPROX POSITION XYZ
        0.0000        0.0000        0.0000                  ANTENNA: DELTA H/E/N
G    8 C1C L1C D1C S1C C2Y L2Y D2Y S2Y                      SYS / # / OBS TYPES
R    8 C1C L1C D1C S1C C2P L2P D2P S2P                      SYS / # / OBS TYPES
C    8 C1I L1I D1I S1I C7I L7I D7I S7I                      SYS / # / OBS TYPES
E    8 C1C L1C D1C S1C C7Q L7Q D7Q S7Q                      SYS / # / OBS TYPES
DBHZ                                                        COMMENT
     30.000                                                 INTERVAL
  2020    05    16    21    00    0.0000000     GPS         TIME OF FIRST OBS
  2020    05    16    21    59   30.0000000     GPS         TIME OF LAST OBS
     0                                                      RCV CLOCK OFFS APPL
G L1C  0.00000                                              SYS / PHASE SHIFT
G L2Y  0.00000                                              SYS / PHASE SHIFT
R L1C  0.00000                                              SYS / PHASE SHIFT
R L2P  0.25000                                              SYS / PHASE SHIFT
C L1I  0.00000                                              SYS / PHASE SHIFT
C L7I  0.00000                                              SYS / PHASE SHIFT
E L1C  0.50000                                              SYS / PHASE SHIFT
E L7Q -0.25000                                              SYS / PHASE SHIFT
 13 R01  1 R05  1 R06 -4 R07  5 R08  6 R09 -2 R10 -5 R15  0 GLONASS SLOT / FRQ #
    R16 -1 R19  3 R20  2 R21  4 R22 -3                      GLONASS SLOT / FRQ #
 C1C   71.950 C2C   71.950 C2P   71.950                     GLONASS COD/PHS/BIS
    18                                                      LEAP SECONDS
*** Above antenna height is from mark to ANTENNA BOTTOM.    COMMENT
    17     4        0.0000        ANT MEASURE TYPE/HEIGT    COMMENT
    0.0000    0.0000    0.0458    0.0405    0.0000          COMMENT
                    BASE STATION                            COMMENT
                                                            END OF HEADER
> 2020 05 16 21 00  0.0000000  0 17        .000000000000
G01  21406196.664 8 112490313.105 8     -2329.691          50.000    21406200.891 8  87654809.037 8     -1815.344          49.000
G03  20360949.461 8 106997535.203 8      -420.977          51.000    20360951.000 8  83374706.548 8      -328.034          51.000
G04  21159952.047 8 111196313.956 8      2278.973          50.000    21159952.766 7  86646514.225 7      1775.823          47.000
G11  23747977.492 6 124796406.015 6     -3961.027          37.000
G14  24391507.414 4 128178236.193 4     -3155.781          28.000
G22  21528624.945 6 113133783.741 6     -1676.977          38.000    21528621.336 6  88156125.912 6     -1306.735          37.000
R07  19361943.586 7 103646033.232 7      -322.285          44.000    19361946.625 6  80613586.924 6      -250.663          39.000
R08  21348924.352 7 114322570.776 7      2751.828          45.000    21348929.078 6  88917560.087 6      2140.314          41.000
R21  21967419.961 8 117552083.976 8     -4149.910          50.000    21967421.781 7  91429401.816 7     -3227.708          45.000
R22  19321633.391 8 103140199.411 8      -628.824          50.000    19321636.273 8  80220143.339 8      -489.086          50.000
C12  22195688.648 5 115578749.458 5       -10.047          35.000    22195690.555 7  89372861.931 7        -7.769          42.000
C19  24655092.680 5 128385650.586 5     -2664.949          32.000
C21  23194960.945 4 120782247.555 4      1924.617          28.000
C22  21944967.883 8 114273200.996 8      -702.898          51.000
E07  23541947.070 8 123713868.567 8      -658.004          51.000    23541950.023 8  94793691.660 8      -504.212          51.000
E13  26494567.219 7 139229893.261 7     -2895.691          42.000    26494570.453 7 106682668.540 7     -2218.774          43.000
E26  22495826.266 8 118216381.774 8      -916.598          51.000    22495830.688 8  90581380.570 8      -702.352          51.000
> 2020 05 16 21 00 30.0000000  0 17        .000000000000
G01  21419535.930 7 112560413.015 7     -2338.355          47.000    21419540.617 7  87709432.355 7     -1822.095          47.000
G03  20363387.031 8 107010344.708 8      -428.035          51.000    20363388.641 8  83384687.975 8      -333.534          51.000
G04  21146988.445 8 111128188.551 8      2267.789          50.000    21146989.023 8  86593429.538 8      1767.111          48.000
G11  23770606.945 6 124915329.713 6     -3961.793          37.000
G22  21538223.148 6 113184227.057 6     -1681.164          36.000    21538219.766 6  88195432.495 6     -1310.001          36.000
R06  21420022.562 4 114301323.071 4     -3202.812          28.000
R07  19363801.453 7 103655976.345 7      -335.316          45.000    19363804.070 6  80621320.471 6      -260.805          40.000
R08  21333546.320 7 114240221.400 7      2743.309          45.000    21333550.898 6  88853510.610 6      2133.684          40.000
R21  21990721.477 8 117676771.417 8     -4157.352          49.000    21990723.883 7  91526380.998 7     -3233.493          46.000
R22  19325245.320 8 103159481.531 8      -651.422          50.000    19325248.609 8  80235140.546 8      -506.661          49.000
C12  22195802.148 6 115579337.238 6       -23.977          37.000    22195803.797 7  89373316.481 7       -18.489          42.000
C19  24670451.961 5 128465634.485 5     -2663.219          31.000
C21  23183907.461 5 120724658.576 5      1920.395          33.000
C22  21949048.039 8 114294446.993 8      -708.422          51.000
E07  23545736.016 8 123733779.504 8      -664.309          51.000    23545739.133 8  94808948.106 8      -509.013          51.000
E13  26511115.609 7 139316857.624 7     -2896.801          42.000    26511117.688 6 106749303.644 6     -2219.734          41.000
E26  22501097.938 8 118244085.941 8      -925.262          51.000    22501102.164 8  90602608.417 8      -708.919          51.000
> 2020 05 16 21 01  0.0000000  0 16        .000000000000
G01  21432927.195 8 112630786.933 8     -2354.082          48.000    21432932.156 8  87764269.179 8     -1834.350          48.000
G03  20365866.203 8 107023372.596 8      -441.453          51.000    20365867.953 8  83394839.580 8      -343.989          51.000
G04  21134091.070 8 111060410.443 8      2249.879          50.000    21134091.406 8  86540615.454 8      1753.152          48.000
G11  23793240.320 6 125034275.539 6     -3968.621          38.000    23793232.078 4  97429318.535 4     -3092.432          26.000
G17  22048413.500 5 115865197.491 5       250.133          34.000    22048418.008 5  90284572.732 5       194.909          34.000
G22  21547843.664 6 113234785.299 6     -1690.488          36.000    21547840.344 5  88234828.533 5     -1317.267          33.000
R07  19365733.281 7 103666315.913 7      -354.742          45.000    19365735.383 6  80629362.359 6      -275.911          41.000
R08  21318218.172 7 114158136.559 7      2728.125          46.000    21318221.680 6  88789666.936 6      2121.878          39.000
R21  22014064.695 8 117801682.968 8     -4170.961          49.000    22014066.953 7  91623534.493 7     -3244.081          45.000
R22  19328985.789 8 103179449.692 8      -680.609          50.000    19328989.328 8  80250671.358 8      -529.363          50.000
C12  22195997.242 5 115580351.243 5       -45.027          34.000    22195998.477 6  89374100.576 6       -34.347          41.000
C21  23172874.531 5 120667239.510 5      1909.340          31.000
C22  21953161.680 8 114315866.739 8      -720.355          51.000
E07  23549562.758 8 123753889.678 8      -677.234          51.000    23549565.891 8  94824357.209 8      -518.875          51.000
E13  26527674.242 7 139403869.401 7     -2904.754          45.000    26527672.984 6 106815975.025 6     -2225.861          38.000
E26  22506420.906 8 118272058.151 8      -940.488          51.000    22506424.383 8  90624041.661 8      -720.640          51.000
> 2020 05 16 21 01 30.0000000  0 16        .000000000000
G01  21446393.805 8 112701554.315 8     -2365.574          49.000    21446398.203 8  87819412.589 8     -1843.305          49.000
G03  20368409.773 8 107036738.999 8      -451.203          51.000    20368411.547 8  83405254.967 8      -351.587          51.000
G04  21121282.703 8 110993101.750 8      2235.859          49.000    21121282.797 8  86488167.124 8      1742.228          48.000
G11  23815900.984 6 125153361.694 6     -3972.023          40.000    23815894.352 4  97522104.916 4     -3095.086          28.000
G17  22047031.359 5 115857941.965 5       232.023          32.000    22047041.320 5  90278937.318 5       180.779          32.000
G22  21557509.531 6 113285578.660 6     -1696.781          36.000    21557506.312 5  88274407.784 5     -1322.161          35.000
R07  19367761.859 7 103677173.367 7      -370.527          44.000    19367763.523 6  80637807.066 6      -288.188          41.000
R08  21302962.367 7 114076440.067 7      2716.664          45.000    21302963.797 6  88726125.360 6      2112.964          37.000
R21  22037472.102 8 117926937.868 8     -4180.973          48.000    22037474.070 7  91720955.037 7     -3251.868          42.000
R22  19332877.766 8 103200226.375 8      -706.148          50.000    19332882.016 8  80266831.001 8      -549.230          50.000
C12  22196296.070 5 115581911.215 5       -61.270          34.000    22196297.398 7  89375306.868 7       -47.332          42.000
C21  23161885.820 6 120610027.775 6      1902.531          37.000
C22  21957331.375 8 114337578.827 8      -728.691          51.000
E07  23553450.133 8 123774318.690 8      -686.312          51.000    23553453.156 8  94840010.627 8      -525.840          51.000
E13  26544265.203 7 139491048.135 7     -2908.840          47.000    26544258.953 5 106882774.309 5     -2228.770          35.000
E26  22511817.992 8 118300419.000 8      -951.957          51.000    22511820.680 8  90645772.695 8      -729.416          51.000
> 2020 05 16 21 02  0.0000000  0 15        .000000000000
G01  21459931.242 8 112772691.733 8     -2377.215          51.000    21459934.664 8  87874844.323 8     -1852.378          51.000
G03  20371013.375 8 107050420.882 8      -461.004          51.000    20371015.039 8  83415916.182 8      -359.224          51.000
G04  21108559.375 8 110926241.351 8      2221.578          48.000    21108559.398 7  86436068.118 7      1731.100          47.000
G11  23838583.883 7 125272562.996 7     -3974.820          42.000    23838571.391 3  97614985.034 3     -3097.260          20.000
G22  21567215.586 6 113336583.586 6     -1703.762          39.000    21567212.070 5  88314151.947 5     -1327.600          34.000
R07  19369882.094 7 103688524.368 7      -386.363          44.000    19369884.039 6  80646635.630 6      -300.505          41.000
R08  21287773.969 7 113995109.545 7      2705.195          43.000    21287775.797 6  88662868.346 6      2104.041          39.000
R21  22060938.422 7 118052510.060 7     -4190.660          44.000    22060940.680 6  91818622.384 6     -3259.396          38.000
R22  19336917.141 8 103221788.667 8      -731.598          51.000    19336921.859 8  80283601.680 8      -569.020          50.000
C12  22196695.672 5 115583995.104 5       -78.312          33.000    22196697.320 7  89376918.236 7       -60.284          42.000
C21  23150942.148 6 120553046.195 6      1896.000          37.000
C22  21961552.695 8 114359560.019 8      -736.973          51.000
E07  23557393.867 8 123795043.028 8      -695.441          51.000    23557396.680 8  94855890.329 8      -532.949          51.000
E13  26560883.641 8 139578370.092 8     -2912.809          48.000    26560872.758 5 106949683.369 5     -2232.144          33.000
E26  22517284.797 8 118329145.949 8      -963.426          51.000    22517287.141 8  90667784.246 8      -738.206          51.000
> 2020 05 16 21 02 30.0000000  0 18        .000000000000
G01  21473525.242 8 112844125.167 8     -2393.344          51.000    21473527.781 8  87930506.718 8     -1864.943          51.000
G03  20373663.047 8 107064344.829 8      -475.527          51.000    20373664.570 8  83426766.004 8      -370.541          51.000
G04  21095907.648 8 110859757.778 8      2202.602          48.000    21095907.812 7  86384262.756 7      1716.313          47.000
G09  23551632.273 6 123764660.641 6      3553.953          36.000    23551631.773 5  96440001.932 5      2769.320          34.000
G11  23861274.766 7 125391804.115 7     -3982.656          42.000    23861260.109 4  97707900.152 4     -3103.375          25.000
G17  22044590.773 6 115845072.729 6       189.992          37.000
G22  21576948.062 6 113387726.681 6     -1714.492          41.000    21576943.906 6  88354003.740 6     -1335.971          36.000
R07  19372080.422 7 103700292.436 7      -406.559          42.000    19372082.094 6  80655788.581 6      -316.212          40.000
R08  21272640.227 7 113914071.668 7      2688.996          43.000    21272643.477 6  88599838.904 6      2091.441          40.000
R21  22084448.609 7 118178321.650 7     -4205.176          42.000    22084453.188 5  91916475.965 5     -3270.686          30.000
R22  19341089.953 8 103244062.399 8      -761.691          51.000    19341094.914 8  80300925.694 8      -592.430          50.000
C12  22197181.367 5 115586530.613 5       -98.746          32.000    22197184.164 7  89378878.908 7       -76.828          42.000
C19  24731927.258 5 128785636.327 5     -2673.934          32.000
C21  23140029.133 6 120496222.793 6      1884.176          37.000
C22  21965811.766 8 114381737.081 8      -749.695          51.000
E07  23561379.711 8 123815988.725 8      -709.188          51.000    23561382.492 8  94871939.640 8      -543.320          51.000
E13  26577514.953 8 139665761.268 8     -2921.445          48.000    26577500.969 5 107016586.402 5     -2237.956          31.000
E26  22522807.641 8 118358165.987 8      -979.500          51.000    22522809.727 8  90690020.377 8      -750.562          51.000
> 2020 05 16 21 03  0.0000000  0 18        .000000000000
G01  21487202.203 8 112915994.664 8     -2401.844          51.000    21487204.289 8  87986508.919 8     -1871.567          51.000
G03  20376385.516 8 107078651.389 8      -482.234          51.000    20376387.008 8  83437913.974 8      -375.767          51.000
G04  21083354.570 8 110793793.584 8      2191.145          48.000    21083355.180 7  86332862.091 7      1707.385          47.000
G09  23531340.016 6 123658025.063 6      3551.617          36.000    23531341.594 6  96356911.662 6      2767.500          36.000
G11  23883999.898 7 125511223.916 7     -3982.445          42.000    23883986.633 4  97800954.506 4     -3103.207          29.000
G17  22043537.688 6 115839527.268 6       175.309          37.000    22043530.375 5  90264568.530 5       136.604          34.000
G22  21586733.352 6 113439148.643 6     -1717.660          39.000    21586729.570 6  88394072.843 6     -1338.430          37.000
R07  19374382.125 7 103712620.155 7      -419.301          42.000    19374384.438 6  80665376.818 6      -326.123          40.000
R08  21257589.977 7 113833470.721 7      2680.484          45.000    21257591.438 6  88537149.304 6      2084.821          38.000
R21  22108029.570 6 118304512.849 6     -4211.500          41.000    22108033.234 4  92014644.151 4     -3275.608          29.000
R22  19345423.070 8 103267190.558 8      -784.156          51.000    19345427.516 8  80318914.258 8      -609.899          49.000
C12  22197781.430 5 115589657.969 5      -113.156          34.000    22197784.516 7  89381297.152 7       -87.406          43.000
C19  24747307.812 5 128865769.963 5     -2672.598          31.000
C21  23129174.227 6 120439697.314 6      1880.082          39.000
C22  21970134.945 8 114404248.920 8      -755.016          51.000
E07  23565434.383 8 123837295.905 8      -715.250          51.000    23565437.031 8  94888265.927 8      -548.010          51.000
E13  26594185.633 8 139753361.659 8     -2922.461          48.000    26594169.461 5 107083700.812 5     -2239.195          30.000
E26  22528413.094 8 118387620.194 8      -988.031          51.000    22528415.016 8  90712589.181 8      -757.048          51.000
> 2020 05 16 21 03 30.0000000  0 17        .000000000000
G01  21500960.180 8 112988291.366 8     -2415.992          51.000    21500962.016 8  88042844.012 8     -1882.591          51.000
G03  20379179.180 8 107093332.280 8      -494.582          51.000    20379180.727 8  83449353.647 8      -385.389          51.000
G04  21070899.203 8 110728342.338 8      2174.207          48.000    21070900.266 7  86281861.156 7      1694.190          47.000
G09  23511095.672 6 123551636.924 6      3543.664          36.000    23511097.461 6  96274011.855 6      2761.297          37.000
G11  23906757.227 7 125630811.896 7     -3988.074          43.000    23906745.406 4  97894139.947 4     -3107.584          29.000
G17  22042602.922 4 115834613.310 4       153.008          29.000    22042591.406 4  90260739.406 4       119.221          29.000
G22  21596570.055 7 113490840.772 7     -1726.605          42.000    21596566.867 5  88434352.422 5     -1345.404          35.000
R07  19376787.867 6 103725497.602 6      -437.188          41.000    19376790.391 6  80675392.588 6      -340.035          41.000
R08  21242619.359 7 113753299.578 7      2666.273          44.000    21242618.477 6  88474794.009 6      2073.771          37.000
R21  22131678.680 6 118431072.061 6     -4223.430          38.000    22131685.031 6  92113079.203 6     -3284.890          37.000
R22  19349914.914 8 103291164.978 8      -812.156          51.000    19349918.875 8  80337561.023 8      -631.677          50.000
C12  22198494.078 5 115593369.440 5      -132.840          33.000    22198497.797 7  89384167.115 7      -102.273          43.000
C21  23118374.336 5 120383462.274 5      1870.906          35.000
C22  21974520.594 8 114427086.844 8      -765.621          51.000
E07  23569556.258 8 123858955.727 8      -726.863          51.000    23569558.477 8  94904862.420 8      -556.974          51.000
E13  26610894.086 8 139841162.304 8     -2929.094          48.000
E26  22534099.562 8 118417500.698 8     -1002.078          51.000    22534101.453 8  90735484.638 8      -767.850          51.000
> 2020 05 16 21 04  0.0000000  0 16        .000000000000
G01  21514789.805 8 113060966.949 8     -2426.289          51.000    21514791.773 8  88099474.340 8     -1890.615          51.000
G03  20382034.945 8 107108339.755 8      -503.195          51.000    20382036.516 8  83461047.806 8      -392.100          51.000
G04  21058533.211 8 110663358.246 8      2160.926          49.000    21058534.195 8  86231224.251 8      1683.841          48.000
G09  23490889.523 6 123445447.729 6      3538.191          37.000    23490890.898 6  96191267.062 6      2757.035          36.000
G11  23929537.164 6 125750518.604 6     -3989.781          39.000    23929526.641 6  97987417.874 6     -3108.923          36.000
G22  21606448.984 6 113542755.521 6     -1731.730          41.000    21606446.289 6  88474805.490 6     -1349.403          37.000
R07  19379286.672 7 103738875.080 7      -451.527          42.000    19379290.102 6  80685797.334 6      -351.188          41.000
R08  21227718.539 6 113673511.314 6      2656.023          40.000    21227718.367 6  88412736.454 6      2065.796          38.000
R21  22155385.766 4 118557948.193 4     -4231.961          28.000    22155394.172 6  92211760.706 6     -3291.522          38.000
R22  19354556.195 8 103315937.218 8      -836.379          51.000    19354559.992 8  80356828.305 8      -650.517          50.000
C12  22199309.297 5 115597618.474 5      -148.613          32.000    22199314.188 7  89387452.728 7      -114.519          42.000
C21  23107615.648 4 120327418.950 4      1864.980          28.000
C22  21978959.945 8 114450203.161 8      -772.645          51.000
E07  23573735.953 8 123880919.956 8      -734.605          51.000    23573738.102 8  94921692.167 8      -562.900          51.000
E13  26627631.133 7 139929114.822 7     -2931.699          47.000
E26  22539858.133 8 118447760.187 8     -1012.383          51.000    22539860.148 8  90758670.504 8      -775.728          51.000
> 2020 05 16 21 04 30.0000000  0 15        .000000000000
G01  21528680.109 8 113133962.237 8     -2439.207          51.000    21528682.234 8  88156353.805 8     -1900.681          51.000
G03  20384941.773 8 107123615.248 8      -514.359          51.000    20384943.102 8  83472950.789 8      -400.800          51.000
G04  21046245.586 8 110598784.596 8      2144.953          50.000    21046246.477 8  86180907.177 8      1671.395          48.000
G09  23470710.820 6 123339401.314 6      3531.613          38.000    23470712.031 6  96108633.538 6      2751.906          37.000
G11  23952328.133 6 125870283.308 6     -3993.754          37.000
G22  21616359.305 6 113594834.149 6     -1739.438          40.000    21616356.578 6  88515386.239 6     -1355.406          38.000
R07  19381867.703 7 103752691.773 7      -468.457          42.000    19381871.000 6  80696543.612 6      -364.359          41.000
R08  21212878.422 6 113594046.738 6      2642.676          39.000    21212880.109 6  88350930.766 6      2055.421          38.000
R22  19359335.883 8 103341448.202 8      -863.316          51.000    19359339.328 8  80376670.175 8      -671.468          50.000
C12  22200217.633 5 115602347.510 5      -166.070          34.000    22200221.938 6  89391109.573 6      -128.501          39.000
C21  23096892.789 4 120271589.911 4      1856.227          28.000
C22  21983441.586 8 114473539.342 8      -782.246          51.000
E07  23577962.344 8 123903129.450 8      -745.020          51.000    23577964.672 8  94938709.847 8      -570.883          51.000
E13  26644385.438 7 140017159.991 7     -2937.051          46.000    26644397.633 5 107285947.649 5     -2250.423          35.000
E26  22545677.484 8 118478340.522 8     -1025.379          51.000    22545679.688 8  90782102.201 8      -785.647          51.000
> 2020 05 16 21 05  0.0000000  0 16        .000000000000
G01  21542637.641 8 113207310.031 8     -2451.055          51.000    21542639.422 8  88213507.938 8     -1909.913          51.000
G03  20387906.000 8 107139192.117 8      -524.602          51.000    20387907.031 8  83485088.618 8      -408.780          51.000
G04  21034042.727 8 110534656.682 8      2129.914          50.000    21034043.656 8  86130937.416 8      1659.673          49.000
G09  23450566.078 6 123233533.628 6      3525.375          40.000    23450567.289 6  96026139.289 6      2747.048          40.000
G11  23975135.984 5 125990137.830 5     -3998.477          31.000
G22  21626307.164 7 113647109.795 7     -1745.938          43.000    21626304.203 6  88556120.512 6     -1360.471          37.000
R07  19384537.062 6 103766980.430 6      -484.441          41.000    19384540.281 6  80707657.030 6      -376.785          40.000
R08  21198104.828 6 113514941.332 6      2630.449          41.000    21198107.062 6  88289404.411 6      2045.908          37.000
R21  22202969.414 6 118812613.787 6     -4252.410          36.000    22202960.961 6  92409749.279 6     -3307.430          38.000
R22  19364260.016 8 103367731.800 8      -889.273          51.000    19364263.125 8  80397112.957 8      -691.657          50.000
C12  22201225.156 6 115607590.400 6      -183.570          36.000    22201228.258 6  89395163.749 6      -142.054          38.000
C21  23086220.531 5 120216002.888 5      1849.539          30.000
C22  21987971.695 8 114497128.043 8      -790.816          51.000
E07  23582241.633 8 123925617.089 8      -754.465          51.000    23582243.945 8  94955940.651 8      -578.123          51.000
E13  26661162.906 7 140105330.531 7     -2941.328          44.000    26661173.594 6 107353507.012 6     -2253.616          38.000
E26  22551564.070 8 118509275.479 8     -1037.367          51.000    22551566.516 8  90805805.623 8      -794.851          51.000
> 2020 05 16 21 05 30.0000000  0 17        .000000000000
G01  21556649.289 8 113280941.592 8     -2458.926          51.000    21556650.805 8  88270883.175 8     -1916.046          51.000
G03  20390914.539 8 107155002.164 8      -530.879          51.000    20390915.609 8  83497408.146 8      -413.672          51.000
G04  21021911.781 8 110470908.175 8      2118.730          50.000    21021912.836 8  86081263.283 8      1650.959          48.000
G09  23430442.922 7 123127778.793 7      3523.531          42.000    23430444.133 7  95943732.980 7      2745.612          42.000
G11  23997948.922 5 126110066.738 5     -3996.621          34.000
G22  21636279.523 7 113699514.276 7     -1748.762          44.000    21636276.727 6  88596955.187 6     -1362.671          36.000
R07  19387281.039 7 103781670.531 7      -496.199          42.000    19387284.672 6  80719082.713 6      -385.930          40.000
R08  21183385.242 6 113436126.664 6      2622.191          41.000    21183388.375 6  88228104.192 6      2039.485          36.000
R21  22226809.812 6 118940241.591 6     -4257.742          40.000    22226811.562 6  92509015.370 6     -3311.577          38.000
R22  19369315.570 8 103394718.984 8      -911.254          51.000    19369318.164 8  80418103.009 8      -708.750          50.000
C12  22202319.023 6 115613280.064 6      -196.988          36.000    22202319.766 6  89399563.356 6      -152.336          37.000
C21  23075581.078 5 120160571.211 5      1844.832          33.000
C22  21992537.258 8 114520901.306 8      -795.500          51.000
E07  23586560.742 8 123948314.174 8      -760.039          51.000    23586562.797 8  94973331.946 8      -582.365          51.000
E08  24954465.297 6 131136591.674 6     -2609.309          36.000
E13  26677950.500 7 140193557.667 7     -2942.070          42.000    26677961.078 6 107421109.686 6     -2254.191          40.000
E26  22557505.281 8 118540497.266 8     -1045.457          51.000    22557508.102 8  90829728.824 8      -801.073          51.000
> 2020 05 16 21 06  0.0000000  0 17        .000000000000
G01  21570744.273 8 113355011.573 8     -2475.473          49.000    21570745.734 8  88328600.045 8     -1928.940          50.000
G03  20393996.969 8 107171200.679 8      -545.566          51.000    20393998.234 8  83510030.388 8      -425.114          51.000
G04  21009882.758 8 110407696.244 8      2098.805          49.000    21009883.680 7  86032007.231 7      1635.432          47.000
G09  23410371.031 7 123022294.653 7      3512.562          42.000    23410372.133 6  95861537.583 6      2737.065          41.000
G11  24020793.078 5 126230113.471 5     -4003.180          35.000
G22  21646305.719 7 113752202.719 7     -1760.102          45.000    21646303.141 6  88638011.159 6     -1371.505          38.000
R07  19390129.805 7 103796918.736 7      -516.660          42.000    19390132.906 6  80730942.450 6      -401.847          40.000
R08  21168751.945 6 113357762.648 6      2605.605          39.000    21168754.625 6  88167154.414 6      2026.585          38.000
R21  22250723.828 7 119068236.926 7     -4271.773          42.000    22250730.578 6  92608567.328 6     -3322.487          37.000
R22  19374532.250 8 103422567.400 8      -941.812          51.000    19374534.648 8  80439762.895 8      -732.521          49.000
C12  22203528.391 6 115619570.892 6      -218.824          36.000    22203526.672 6  89404427.859 6      -169.459          38.000
C21  23064995.305 5 120105447.040 5      1833.465          32.000
C22  21997167.398 8 114545012.538 8      -808.535          51.000
E07  23590949.219 8 123971375.461 8      -773.984          51.000    23590951.125 8  94991002.295 8      -593.089          51.000
E08  24969389.578 6 131215009.369 6     -2615.230          37.000    24969394.875 5 100541401.974 5     -2003.923          34.000
E13  26694778.555 6 140281995.994 6     -2950.578          41.000    26694788.773 6 107488874.161 6     -2260.901          41.000
E26  22563530.766 8 118572161.567 8     -1062.117          51.000    22563534.008 8  90853991.091 8      -813.815          51.000
> 2020 05 16 21 06 30.0000000  0 18        .000000000000
G01  21584909.711 8 113429454.126 8     -2486.742          48.000    21584911.602 8  88386607.249 8     -1937.721          48.000
G03  20397140.922 8 107187722.490 8      -555.328          51.000    20397142.273 8  83522904.551 8      -432.723          51.000
G04  20997943.781 8 110344957.463 8      2084.207          49.000    20997944.328 8  85983119.855 8      1624.057          48.000
G09  23390338.586 6 122917018.403 6      3506.480          41.000    23390339.742 6  95779504.167 6      2732.322          41.000
G11  24043656.258 4 126350266.947 4     -4004.973          29.000
G22  21656373.438 7 113805109.926 7     -1766.488          44.000    21656370.758 6  88679237.522 6     -1376.487          36.000
R07  19393069.914 7 103812657.716 7      -531.859          42.000    19393072.656 6  80743183.888 6      -413.665          39.000
R08  21154190.125 6 113279783.619 6      2593.852          37.000    21154193.531 6  88106504.129 6      2017.443          39.000
R21  22274696.117 7 119196530.635 7     -4280.457          43.000    22274706.266 6  92708351.371 6     -3329.241          37.000
R22  19379897.734 8 103451210.756 8      -967.113          51.000    19379899.539 8  80462041.062 8      -752.199          49.000
C12  22204840.031 5 115626398.856 5      -236.145          35.000    22204837.711 6  89409707.604 6      -182.252          38.000
C19  24855279.883 4 129427947.969 4     -2681.340          29.000
C21  23054453.453 5 120050566.600 5      1825.957          32.000
C22  22001850.031 8 114569396.688 8      -816.465          51.000
E07  23595394.375 8 123994735.213 8      -782.801          51.000    23595396.523 8  95008901.343 8      -599.823          51.000
E08  24984326.930 6 131293497.250 6     -2616.688          39.000    24984330.305 6 100601541.997 6     -2004.650          36.000
E13  26711635.227 7 140370579.678 7     -2954.465          43.000    26711643.711 6 107556750.002 6     -2263.712          41.000
E26  22569628.070 8 118604203.561 8     -1073.480          51.000    22569631.688 8  90878542.754 8      -822.549          51.000
> 2020 05 16 21 07  0.0000000  0 16        .000000000000
G01  21599143.438 8 113504255.499 8     -2501.941          49.000    21599146.055 8  88444894.074 8     -1949.562          49.000
G03  20400343.891 8 107204554.451 8      -568.816          51.000    20400345.328 8  83536020.378 8      -443.231          51.000
G04  20986092.695 8 110282680.518 8      2065.492          49.000    20986093.273 8  85934592.389 8      1609.474          48.000
G09  23370343.086 6 122811939.289 6      3496.637          38.000    23370344.688 6  95697624.365 6      2724.652          39.000
G22  21666480.570 7 113858222.742 7     -1776.414          47.000    21666477.734 5  88720624.147 5     -1384.216          35.000
R07  19396099.578 7 103828873.037 7      -550.988          42.000    19396101.398 6  80755795.798 6      -428.546          38.000
R08  21139697.727 6 113202177.266 6      2577.949          38.000    21139701.320 6  88046143.710 6      2005.075          38.000
R21  22298722.367 7 119325106.396 7     -4293.160          44.000    22298734.125 5  92808354.768 5     -3339.125          35.000
R22  19385409.992 8 103480635.979 8      -996.426          51.000    19385411.500 8  80484927.369 8      -774.998          49.000
C12  22206252.000 5 115633751.389 5      -257.258          35.000    22206250.547 6  89415393.046 6      -198.378          38.000
C21  23043959.164 6 119995917.291 6      1815.547          37.000
C22  22006582.750 8 114594040.404 8      -828.367          51.000
E07  23599893.664 8 124018379.768 8      -795.531          51.000    23599896.109 8  95027018.619 8      -609.554          51.000
E08  24999274.469 6 131372041.552 6     -2621.500          39.000    24999275.750 6 100661725.294 6     -2008.691          36.000
E13  26728517.570 7 140459294.907 7     -2962.008          44.000    26728523.750 6 107624726.660 6     -2269.611          40.000
E26  22575794.648 8 118636610.505 8     -1088.945          51.000    22575798.711 8  90903374.057 8      -834.414          51.000
> 2020 05 16 21 07 30.0000000  0 16        .000000000000
G01  21613450.773 8 113579440.595 8     -2511.668          50.000    21613453.570 8  88503479.901 8     -1957.144          50.000
G03  20403610.742 8 107221722.036 8      -576.957          51.000    20403612.375 8  83549397.721 8      -449.577          51.000
G04  20974334.656 8 110220892.701 8      2052.238          49.000    20974335.531 8  85886446.083 8      1599.147          48.000
G09  23350389.156 6 122707085.312 6      3492.562          36.000    23350392.109 6  95615919.942 6      2721.474          36.000
G22  21676631.758 7 113911566.499 7     -1781.121          47.000    21676628.258 5  88762190.753 5     -1387.887          33.000
R07  19399222.008 7 103845588.968 7      -564.402          42.000    19399224.039 6  80768797.122 6      -438.980          38.000
R08  21125280.141 6 113124971.149 6      2567.793          41.000    21125283.531 6  87986094.592 6      1997.175          38.000
R21  22322806.812 7 119453987.012 7     -4300.156          45.000    22322818.672 5  92908595.289 5     -3344.566          35.000
R22  19391073.234 8 103510868.742 8     -1020.363          51.000    19391075.047 8  80508441.749 8      -793.616          50.000
C12  22207769.867 5 115641654.431 5      -271.734          35.000    22207768.797 6  89421504.253 6      -210.382          36.000
C21  23033515.359 6 119941525.078 6      1809.527          38.000
C22  22011369.766 8 114618968.400 8      -834.781          51.000
E07  23604451.969 8 124042334.056 8      -802.773          51.000    23604454.344 8  95045373.222 8      -615.136          51.000
E08  25014236.961 6 131450667.042 6     -2621.312          39.000    25014236.664 5 100721970.805 5     -2008.589          35.000
E13  26745429.969 7 140548166.522 7     -2964.258          43.000    26745434.359 6 107692823.127 6     -2271.284          41.000
E26  22582035.617 8 118669408.215 8     -1098.926          51.000    22582039.938 8  90928504.780 8      -842.058          51.000
> 2020 05 16 21 08  0.0000000  0 16        .000000000000
G01  21627824.344 8 113654973.273 8     -2523.910          50.000    21627827.227 8  88562336.512 8     -1966.683          50.000
G03  20406934.680 8 107239189.741 8      -587.652          51.000    20406936.617 8  83563008.932 8      -457.908          51.000
G04  20962663.602 8 110159560.307 8      2036.430          50.000    20962664.297 8  85838654.635 8      1586.828          48.000
G09  23330471.602 6 122602423.426 6      3484.801          36.000    23330476.133 5  95534365.164 5      2715.426          35.000
G22  21686819.992 7 113965105.770 7     -1788.359          45.000    21686816.766 5  88803909.640 5     -1393.527          35.000
R07  19402431.242 7 103862768.517 7      -580.734          42.000    19402433.266 6  80782159.036 6      -451.679          37.000
R08  21110931.047 7 113048129.750 7      2554.938          43.000    21110934.305 6  87926329.105 6      1987.177          40.000
R21  22346942.547 7 119583133.556 7     -4309.734          44.000    22346953.062 5  93009042.662 5     -3352.013          33.000
R22  19396881.430 8 103541872.848 8     -1046.688          51.000    19396883.281 8  80532556.045 8      -814.090          50.000
C12  22209386.734 6 115650073.070 6      -289.566          39.000    22209385.617 6  89428014.139 6      -223.896          39.000
C21  23023112.203 6 119887355.448 6      1801.492          37.000
C22  22016204.312 8 114644145.049 8      -843.727          51.000
E07  23609062.344 8 124066562.005 8      -812.492          51.000    23609064.555 8  95063937.509 8      -622.553          51.000
E08  25029207.523 6 131529337.522 6     -2623.426          39.000    25029206.289 5 100782250.759 5     -2010.023          35.000
E13  26762364.984 6 140637158.323 6     -2968.699          41.000    26762368.727 6 107761011.688 6     -2274.801          41.000
E26  22588344.195 8 118702561.523 8     -1111.344          51.000    22588348.742 8  90953907.970 8      -851.540          51.000
> 2020 05 16 21 08 30.0000000  0 16        .000000000000
G01  21642265.336 8 113730860.491 8     -2535.516          51.000    21642268.273 8  88621469.380 8     -1975.726          51.000
G03  20410317.219 8 107256965.168 8      -597.672          51.000    20410319.273 8  83576859.924 8      -465.715          51.000
G04  20951081.164 8 110098692.743 8      2021.086          51.000    20951081.570 8  85791225.400 8      1574.872          49.000
G09  23310593.742 6 122497963.336 6      3478.746          38.000    23310597.227 6  95452967.615 6      2710.708          38.000
G22  21697046.812 7 114018847.830 7     -1794.949          46.000    21697043.883 5  88845786.559 5     -1398.665          34.000
R07  19405728.766 6 103880417.718 6      -596.316          41.000    19405729.125 5  80795886.211 5      -463.799          35.000
R08  21096652.195 7 112971662.190 7      2542.531          42.000    21096654.789 6  87866854.333 6      1977.521          38.000
R21  22371129.734 7 119712550.522 7     -4318.465          44.000    22371139.102 5  93109700.328 5     -3358.806          32.000
R22  19402835.734 8 103573655.983 8     -1072.539          51.000    19402837.055 8  80557276.281 8      -834.197          48.000
C12  22211104.953 6 115659015.373 6      -306.684          38.000    22211103.391 7  89434928.966 7      -237.504          42.000
C21  23012754.016 6 119833416.419 6      1794.180          38.000
C22  22021088.375 8 114669577.565 8      -852.094          51.000
E07  23613726.109 8 124091070.746 8      -821.781          51.000    23613728.539 8  95082716.954 8      -629.668          51.000
E08  25044187.461 6 131608060.042 6     -2625.102          39.000    25044185.648 6 100842570.636 6     -2011.453          37.000
E13  26779323.570 6 140726277.304 6     -2972.742          39.000    26779327.742 7 107829297.704 7     -2277.791          42.000
E26  22594721.945 8 118736078.422 8     -1123.402          51.000    22594726.680 8  90979589.745 8      -860.798          51.000
> 2020 05 16 21 09  0.0000000  0 17        .000000000000
G01  21656773.977 8 113807103.417 8     -2547.551          50.000    21656777.094 8  88680879.448 8     -1985.105          50.000
G03  20413758.727 8 107275050.203 8      -608.133          51.000    20413760.664 8  83590952.177 8      -473.870          51.000
G04  20939587.836 8 110038293.605 8      2005.332          51.000    20939588.375 8  85744161.175 8      1562.599          48.000
G09  23290755.633 6 122393709.539 6      3471.266          39.000    23290752.906 6  95371730.786 6      2704.879          39.000
G11  24158239.266 5 126952398.439 5     -4021.285          35.000
G22  21707312.508 7 114072794.623 7     -1801.758          47.000    21707309.734 5  88887823.006 5     -1403.967          33.000
R07  19409113.109 6 103898537.773 6      -611.941          40.000    19409115.008 6  80809979.667 6      -475.954          38.000
R08  21082441.383 6 112895571.857 6      2530.137          37.000    21082444.234 6  87807672.918 6      1967.881          36.000
R21  22395367.336 7 119842236.993 7     -4327.480          44.000    22395374.820 5  93210567.584 5     -3365.818          30.000
R22  19408935.961 8 103606219.699 8     -1098.633          51.000    19408937.797 8  80582603.604 8      -854.495          50.000
C12  22212922.688 5 115668483.801 5      -324.461          35.000    22212921.922 7  89442250.545 7      -250.990          42.000
C21  23002441.688 6 119779710.421 6      1786.363          38.000
C22  22026021.953 8 114695267.345 8      -860.797          51.000
E07  23618443.680 8 124115861.548 8      -831.184          51.000    23618446.367 8  95101712.539 8      -636.935          51.000
E08  25059177.625 6 131686835.800 6     -2627.109          39.000    25059175.180 5 100902931.296 5     -2013.061          35.000
E13  26796306.109 6 140815524.639 6     -2977.508          39.000    26796311.055 7 107897682.102 7     -2281.323          42.000
E26  22601169.484 8 118769961.084 8     -1135.676          51.000    22601174.195 8  91005551.797 8      -870.187          51.000
> 2020 05 16 21 09 30.0000000  0 17        .000000000000
G01  21671350.062 8 113883702.710 8     -2559.543          49.000    21671353.773 8  88740567.213 8     -1994.449          49.000
G03  20417259.531 8 107293446.445 8      -618.730          51.000    20417261.227 8  83605286.919 8      -482.128          51.000
G04  20928184.094 8 109978366.227 8      1989.312          50.000    20928184.930 7  85697464.565 7      1550.114          47.000
G09  23270957.617 6 122289665.964 6      3464.117          39.000    23270950.312 6  95290657.873 6      2699.312          40.000
G11  24181204.062 6 127073080.059 6     -4024.172          37.000
G22  21717617.508 8 114126947.735 8     -1809.020          48.000    21717614.750 5  88930020.252 5     -1409.626          34.000
R07  19412585.938 6 103917128.646 6      -627.504          40.000    19412588.875 6  80824439.230 6      -488.062          39.000
R08  21068305.812 6 112819861.028 6      2516.938          40.000    21068304.836 6  87748786.789 6      1957.624          36.000
R21  22419654.594 7 119972191.493 7     -4336.613          43.000
R22  19415182.555 8 103639565.546 8     -1124.953          51.000    19415184.914 8  80608539.272 8      -874.964          50.000
C12  22214841.797 6 115678480.120 6      -342.113          37.000    22214841.836 7  89449980.345 7      -264.680          42.000
C21  22992173.508 6 119726239.644 6      1778.082          36.000
C22  22031004.891 8 114721215.510 8      -869.641          51.000
E07  23623215.195 8 124140935.511 8      -840.887          51.000    23623217.773 8  95120925.066 8      -644.328          51.000
E08  25074178.180 6 131765665.673 6     -2629.020          39.000    25074175.594 5 100963333.418 5     -2014.441          35.000
E13  26813313.430 6 140904901.217 6     -2981.645          40.000    26813319.047 7 107966165.566 7     -2284.700          42.000
E26  22607687.023 8 118804211.424 8     -1148.160          51.000    22607691.445 8  91031795.562 8      -879.777          51.000
> 2020 05 16 21 10  0.0000000  0 17        .000000000000
G01  21685993.172 8 113960654.250 8     -2570.645          50.000    21685997.250 8  88800529.449 8     -2003.100          50.000
G03  20420818.789 8 107312149.930 8      -628.473          51.000    20420820.320 8  83619861.077 8      -489.719          51.000
G04  20916869.445 8 109918908.457 8      1974.254          49.000    20916870.453 7  85651133.885 7      1538.380          47.000
G09  23251199.383 6 122185831.175 6      3457.711          38.000    23251189.758 6  95209747.627 6      2694.320          39.000
G11  24204183.273 5 127193838.118 5     -4026.723          33.000
G22  21727960.867 8 114181302.858 8     -1814.996          48.000    21727958.539 5  88972374.897 5     -1414.283          34.000
R07  19416145.852 6 103936185.192 6      -642.902          39.000    19416149.148 6  80839260.984 6      -500.038          39.000
R08  21054239.242 7 112744526.562 7      2504.922          42.000    21054237.297 6  87690193.427 6      1948.276          39.000
R21  22443990.211 6 120102407.188 6     -4344.406          40.000
R22  19421574.906 8 103673689.100 8     -1150.301          51.000    19421577.883 8  80635079.831 8      -894.678          50.000
C12  22216861.984 6 115689000.974 6      -358.973          37.000    22216862.352 6  89458115.790 6      -277.870          38.000
C21  22981949.500 5 119673000.786 5      1770.934          35.000
C22  22036036.609 8 114747417.745 8      -877.520          51.000
E07  23628039.703 8 124166288.134 8      -849.582          51.000    23628042.047 8  95140351.114 8      -650.949          51.000
E08  25089188.625 6 131844545.200 6     -2629.992          37.000    25089186.211 6 101023773.595 6     -2015.545          36.000
E13  26830345.000 6 140994402.526 6     -2985.215          39.000    26830350.969 7 108034744.564 7     -2287.492          42.000
E26  22614273.953 8 118838825.843 8     -1159.738          51.000    22614277.734 8  91058318.298 8      -888.634          51.000
> 2020 05 16 21 10 30.0000000  0 17        .000000000000
G01  21700703.664 8 114037957.292 8     -2583.012          51.000    21700707.227 8  88860765.596 8     -2012.736          51.000
G03  20424436.492 8 107331160.839 8      -639.145          51.000    20424437.977 8  83634674.774 8      -498.035          51.000
G04  20905644.227 7 109859922.106 7      1957.941          46.000    20905645.398 7  85605170.548 7      1525.672          46.000
G09  23231481.266 6 122082207.628 6      3450.375          37.000    23231471.555 6  95129002.004 6      2688.607          36.000
G11  24227176.086 5 127314670.869 5     -4029.020          32.000
G22  21738342.641 7 114235860.303 7     -1822.367          47.000    21738339.977 5  89014887.210 5     -1420.023          34.000
R07  19419793.219 6 103955706.428 6      -658.863          41.000    19419796.484 6  80854444.133 6      -512.449          39.000
R08  21040241.867 7 112669570.164 7      2491.836          44.000    21040241.078 6  87631894.102 6      1938.098          38.000
R21  22468373.969 6 120232880.906 6     -4353.852          37.000    22468381.867 5  93514433.302 5     -3386.329          33.000
R22  19428112.859 8 103708590.327 8     -1176.727          51.000    19428116.250 8  80662225.215 8      -915.232          49.000
C12  22218982.656 5 115700046.882 5      -377.387          35.000    22218981.953 6  89466657.263 6      -291.590          39.000
C21  22971770.648 5 119619994.608 5      1762.473          31.000
C22  22041117.289 8 114773873.786 8      -886.441          51.000
E07  23632917.125 8 124191918.969 8      -859.270          51.000    23632919.664 8  95159990.351 8      -658.324          51.000
E08  25104208.703 6 131923473.834 6     -2632.039          37.000    25104206.781 6 101084251.377 6     -2016.829          37.000
E13  26847399.914 5 141084027.980 5     -2989.852          35.000    26847406.039 6 108103418.693 6     -2290.862          40.000
E26  22620930.555 8 118873804.734 8     -1172.383          51.000    22620933.477 8  91085120.320 8      -898.295          51.000
> 2020 05 16 21 11  0.0000000  0 16        .000000000000
G01  21715482.555 8 114115618.246 8     -2594.984          51.000    21715485.453 8  88921280.615 8     -2022.066          51.000
G03  20428113.961 8 107350486.240 8      -649.656          51.000    20428115.609 8  83649733.540 8      -506.226          51.000
G04  20894510.102 7 109801416.002 7      1941.848          44.000    20894511.391 7  85559581.404 7      1513.131          44.000
G11  24250183.852 5 127435583.431 5     -4031.621          34.000
G22  21748764.430 7 114290627.354 7     -1829.336          46.000    21748761.969 6  89057562.840 6     -1425.454          36.000
R07  19423528.578 6 103975698.199 6      -674.371          39.000    19423531.648 6  80869993.313 6      -524.511          39.000
R08  21026316.961 7 112595000.084 7      2478.918          43.000    21026314.930 5  87573895.210 5      1928.047          35.000
R22  19434797.859 8 103744275.947 8     -1202.922          51.000    19434801.375 8  80689980.689 8      -935.606          49.000
C12  22221204.469 5 115711625.195 5      -394.762          33.000    22221205.102 6  89475610.339 6      -305.382          41.000
C19  24994664.008 5 130153760.387 5     -2693.473          32.000
C21  22961639.375 5 119567273.761 5      1754.352          31.000
C22  22046247.891 8 114800590.228 8      -895.117          51.000
E07  23637848.664 8 124217834.569 8      -868.875          51.000    23637851.633 8  95179847.788 8      -665.690          51.000
E08  25119239.484 6 132002458.098 6     -2633.895          37.000    25119238.133 6 101144771.761 6     -2018.263          37.000
E13                                                                  26864485.203 6 108172192.866 6     -2294.352          37.000
E26  22627657.891 8 118909155.522 8     -1184.789          51.000    22627660.414 8  91112207.321 8      -907.822          51.000
> 2020 05 16 21 11 30.0000000  0 18        .000000000000
G01  21730328.164 8 114193630.081 8     -2605.824          51.000    21730330.562 8  88982069.046 8     -2030.512          51.000
G03  20431850.086 8 107370119.871 8      -659.152          51.000    20431851.859 8  83665032.483 8      -513.625          51.000
G04  20883466.547 7 109743385.477 7      1926.852          43.000    20883467.539 7  85514362.863 7      1501.446          43.000
G09  23192165.031 5 121875646.948 5      3435.891          31.000    23192158.977 5  94968013.398 5      2677.317          34.000
G11  24273205.711 5 127556567.465 5     -4033.285          34.000
G22  21759224.719 7 114345597.375 7     -1835.371          45.000    21759222.773 6  89100396.637 6     -1430.159          36.000
R07  19427349.547 6 103996152.547 6      -689.055          41.000    19427352.219 6  80885902.258 6      -535.931          38.000
R08  21012464.094 6 112520810.835 6      2467.227          41.000    21012458.484 5  87516192.552 5      1918.957          34.000
R21  22517285.352 5 120494531.397 5     -4370.344          34.000    22517287.203 6  93717979.440 6     -3399.156          36.000
R22  19441628.422 8 103780739.371 8     -1227.969          50.000    19441632.250 8  80718341.110 8      -955.087          48.000
C12  22223528.617 5 115723729.990 5      -411.754          35.000    22223529.531 6  89484970.481 6      -318.397          40.000
C19  25010187.000 5 130234575.600 5     -2693.801          33.000
C21  22951550.219 5 119514742.821 5      1746.957          31.000
C22  22051427.164 8 114827560.405 8      -902.859          51.000
E07  23642833.164 8 124244028.086 8      -877.383          51.000    23642836.141 8  95199918.174 8      -672.256          51.000
E08  25134279.695 5 132081490.955 5     -2634.699          35.000    25134278.688 6 101205329.407 6     -2018.909          38.000
E13                                                                  26881587.469 5 108241061.699 5     -2296.840          34.000
E26  22634454.453 8 118944872.194 8     -1196.305          51.000    22634457.383 8  91139574.657 8      -916.649          51.000
> 2020 05 16 21 12  0.0000000  0 19        .000000000000
G01  21745239.789 8 114271989.524 8     -2618.016          51.000    21745241.664 8  89043128.332 8     -2040.012          51.000
G03  20435644.414 8 107390059.130 8      -669.957          51.000    20435646.094 8  83680569.577 8      -522.044          51.000
G04  20872513.953 7 109685829.703 7      1910.391          45.000    20872514.031 7  85469514.230 7      1488.616          43.000
G09  23172568.406 6 121772677.112 6      3428.859          36.000    23172561.281 6  94887777.130 6      2671.845          36.000
G11  24296240.844 5 127677618.672 5     -4035.609          31.000
G17  22043245.539 5 115838021.603 5      -168.785          31.000
G22  21769723.086 7 114400767.642 7     -1842.473          45.000    21769720.828 6  89143386.505 6     -1435.690          38.000
R07  19431256.789 6 104017065.915 6      -705.016          40.000    19431258.898 6  80902168.203 6      -548.342          39.000
R08  20998682.531 6 112447000.787 6      2454.066          37.000    20998675.234 6  87458784.739 6      1908.718          37.000
R21  22541808.828 6 120625767.808 6     -4378.934          37.000    22541811.234 6  93820052.259 6     -3405.834          36.000
R22  19448604.086 8 103817977.488 8     -1254.340          51.000    19448608.164 8  80747304.088 8      -975.598          48.000
C12  22225954.461 6 115736359.160 6      -429.699          38.000    22225953.609 6  89494736.186 6      -332.476          38.000
C19  25025716.039 5 130315420.742 5     -2695.539          34.000
C21  22941503.789 5 119462433.480 5      1738.609          30.000
C22  22056654.758 8 114854781.361 8      -911.707          51.000
E07  23647869.969 8 124270496.414 8      -887.113          51.000    23647872.641 8  95220199.119 8      -679.802          51.000
E08  25149328.945 5 132160614.405 5     -2637.410          33.000    25149327.766 6 101265921.908 6     -2020.627          39.000
E13  26898711.625 5 141353681.221 5     -3002.188          35.000
E26  22641319.977 8 118980952.470 8     -1208.980          51.000    22641323.445 8  91167220.586 8      -926.416          51.000
> 2020 05 16 21 12 30.0000000  0 17        .000000000000
G01  21760227.766 8 114350752.298 8     -2630.512          48.000    21760229.414 8  89104501.935 8     -2049.746          48.000
G03  20439507.695 8 107410360.590 8      -681.156          51.000    20439509.258 8  83696388.900 8      -530.771          51.000
G04  20861663.148 7 109628806.762 7      1893.523          47.000    20861662.352 7  85425080.744 7      1475.473          44.000
G09  23153025.633 6 121669983.388 6      3419.973          36.000    23153013.875 5  94807756.178 5      2664.920          34.000
G11  24319300.422 5 127798782.788 5     -4039.758          32.000    24319303.539 5  99583481.191 5     -3147.863          32.000
G17  22044273.531 5 115843433.574 5      -188.609          33.000
G22  21780270.422 7 114456194.870 7     -1850.230          44.000    21780267.984 6  89186576.577 6     -1441.738          40.000
R07  19435259.680 6 104038494.405 6      -721.383          41.000    19435261.742 6  80918834.849 6      -561.076          37.000
R21  22566389.609 6 120757306.023 6     -4388.207          37.000    22566392.141 6  93922359.784 6     -3413.050          36.000
R22  19455735.562 8 103856047.316 8     -1281.258          50.000    19455739.914 8  80776913.942 8      -996.534          48.000
C12  22228492.164 6 115749568.896 6      -448.562          38.000    22228490.117 6  89504950.777 6      -346.658          40.000
C19  25041259.281 5 130396351.483 5     -2697.242          33.000
C22  22061941.148 8 114882308.664 8      -921.113          51.000
E07  23652969.547 8 124297295.448 8      -897.258          51.000    23652972.352 8  95240733.457 8      -687.446          51.000
E08                                                                  25164395.742 6 101326592.076 6     -2022.384          40.000
E13  26915874.469 6 141443857.291 6     -3007.262          38.000    26915871.352 5 108379058.885 5     -2304.176          33.000
E26  22648265.875 8 119017453.063 8     -1222.102          51.000    22648269.344 8  91195188.597 8      -936.404          51.000
> 2020 05 16 21 13  0.0000000  0 17        .000000000000
G01  21775265.094 7 114429779.318 7     -2641.215          47.000    21775267.336 7  89166081.476 7     -2058.089          47.000
G03  20443413.586 8 107430885.824 8      -690.324          51.000    20443414.953 8  83712382.605 8      -537.912          51.000
G04  20850887.828 8 109572179.908 8      1878.527          48.000    20850887.258 7  85380955.933 7      1463.788          46.000
G09  23133507.336 6 121567429.082 6      3413.457          37.000    23133495.328 5  94727843.894 5      2659.843          34.000
G11  24342357.719 5 127919953.442 5     -4040.285          31.000
G17  22045399.867 5 115849362.886 5      -207.199          32.000
G22  21790840.453 7 114511740.646 7     -1855.762          43.000    21790837.930 6  89229858.966 6     -1446.051          39.000
R07  19439332.266 6 104060295.745 6      -735.391          40.000    19439333.383 6  80935791.458 6      -571.967          37.000
R21  22591000.477 6 120889002.145 6     -4394.820          40.000    22591001.391 5  94024790.132 5     -3418.194          34.000
R22  19462996.336 8 103894807.747 8     -1305.965          50.000    19463000.492 8  80807060.950 8     -1015.750          48.000
C12  22231114.562 6 115763222.420 6      -465.262          38.000    22231112.625 7  89515508.504 7      -359.607          42.000
C19  25056789.406 5 130477230.438 5     -2697.672          31.000
C22  22067259.766 8 114910004.766 8      -928.477          51.000
E07  23658105.586 8 124324286.285 8      -905.320          51.000    23658108.797 8  95261414.764 8      -693.759          51.000
E08                                                                  25179456.250 6 101387233.476 6     -2022.770          40.000
E13  26933041.828 6 141534070.431 6     -3010.191          40.000    26933040.570 6 108448183.264 6     -2306.591          36.000
E26  22655265.477 8 119054235.887 8     -1233.309          51.000    22655268.984 8  91223372.862 8      -944.997          51.000
> 2020 05 16 21 13 30.0000000  0 19        .000000000000
G01  21790380.805 8 114509216.458 8     -2653.031          49.000    21790383.828 8  89227980.591 8     -2067.297          49.000
G03  20447389.914 8 107451781.451 8      -700.965          51.000    20447390.961 8  83728664.922 8      -546.206          51.000
G04  20840216.203 8 109516097.359 8      1862.090          48.000    20840216.250 8  85337255.285 8      1450.979          48.000
G09  23114044.742 5 121465163.331 5      3405.684          35.000    23114035.734 5  94648156.506 5      2653.789          33.000
G11  24365435.781 5 128041231.416 5     -4042.719          33.000    24365438.039 5  99772401.047 5     -3150.170          30.000
G22  21801461.266 7 114567551.453 7     -1863.211          45.000    21801457.891 6  89273347.924 6     -1451.850          39.000
R06  21897339.641 4 116848370.756 4     -3320.188          29.000
R07  19443501.406 6 104082617.969 6      -751.027          41.000    19443504.250 6  80953153.227 6      -584.132          37.000
R08  20957757.641 6 112227854.084 6      2414.984          36.000    20957769.672 6  87288361.687 6      1878.321          39.000
R21  22615667.469 6 121021002.419 6     -4403.227          41.000    22615667.336 5  94127457.093 5     -3424.729          32.000
R22  19470414.484 8 103934407.124 8     -1332.180          51.000    19470418.062 8  80837860.488 8     -1036.140          49.000
C12  22233850.969 6 115777465.167 6      -482.973          41.000    22233847.750 7  89526521.945 7      -373.359          42.000
C19  25072337.109 5 130558202.766 5     -2698.867          34.000
C21  22911675.828 5 119307091.768 5      1715.258          30.000
C22  22072638.625 8 114938014.518 8      -937.203          51.000
E07  23663306.000 8 124351614.943 8      -914.906          51.000    23663309.398 8  95282354.906 8      -701.041          51.000
E08  25194536.867 5 132398183.037 5     -2641.746          34.000    25194537.258 6 101447957.945 6     -2024.384          41.000
E13  26950243.531 6 141624466.519 6     -3014.480          40.000    26950244.383 6 108517447.770 6     -2309.722          38.000
E26  22662345.969 8 119091447.788 8     -1245.930          51.000    22662350.203 8  91251885.868 8      -954.706          51.000
> 2020 05 16 21 14  0.0000000  0 18        .000000000000
G01  21805558.945 8 114588977.620 8     -2664.078          51.000    21805561.750 8  89290132.156 8     -2075.905          50.000
