     3.02           OBSERVATION DATA    M (MIXED)           RINEX VERSION / TYPE
SAVERINEX           SC600               20200505 165931 LCL PGM / RUN BY / DATE
       G = GPS       R = GLONASS       C = COMPASS          COMMENT
       S = SBAS      J = QZSS          E = GALILEO          COMMENT
BEAN                                                        MARKER NAME
1                                                           MARKER NUMBER
GEODETIC                                                    MARKER TYPE
Unige DICCA         GTER                                    OBSERVER / AGENCY
SC60291900056       SC600               2.12(191226)        REC # / TYPE / VERS
                    HEMA45          NONE                    ANT # / TYPE
  4509407.8091   693652.4678  4442337.6214                  APPROX POSITION XYZ
        0.0000        0.0000        0.0000                  ANTENNA: DELTA H/E/N
G    8 C1C L1C D1C S1C C2Y L2Y D2Y S2Y                      SYS / # / OBS TYPES
R    8 C1C L1C D1C S1C C2P L2P D2P S2P                      SYS / # / OBS TYPES
C    8 C1I L1I D1I S1I C7I L7I D7I S7I                      SYS / # / OBS TYPES
E    8 C1C L1C D1C S1C C7Q L7Q D7Q S7Q                      SYS / # / OBS TYPES
DBHZ                                                        COMMENT
     30.000                                                 INTERVAL
  2020    05    05    14    00    0.0000000     GPS         TIME OF FIRST OBS
  2020    05    05    14    59   30.0000000     GPS         TIME OF LAST OBS
     0                                                      RCV CLOCK OFFS APPL
G L1C  0.00000                                              SYS / PHASE SHIFT
G L2Y  0.00000                                              SYS / PHASE SHIFT
R L1C  0.00000                                              SYS / PHASE SHIFT
R L2P  0.25000                                              SYS / PHASE SHIFT
C L1I  0.00000                                              SYS / PHASE SHIFT
C L7I  0.00000                                              SYS / PHASE SHIFT
E L1C  0.50000                                              SYS / PHASE SHIFT
E L7Q -0.25000                                              SYS / PHASE SHIFT
 13 R01  1 R06 -4 R07  5 R08  6 R10 -5 R11  0 R12 -1 R13 -2 GLONASS SLOT / FRQ #
    R14 -7 R17  4 R21  4 R22 -3 R23  3                      GLONASS SLOT / FRQ #
 C1C   71.950 C2C   71.950 C2P   71.950                     GLONASS COD/PHS/BIS
    18                                                      LEAP SECONDS
*** Above antenna height is from mark to ANTENNA BOTTOM.    COMMENT
    17     4        0.0000        ANT MEASURE TYPE/HEIGT    COMMENT
    0.0000    0.0000    0.0458    0.0405    0.0000          COMMENT
                    BASE STATION                            COMMENT
                                                            END OF HEADER
> 2020 05 05 14 00  0.0000000  0 19        .000000000000
G18  20362609.719 8 107006312.906 8      -396.828          51.000    20362609.984 8  83381554.806 8      -309.217          50.000
G20  23345728.586 7 122682689.102 7      3190.430          46.000    23345726.789 6  95596883.300 6      2486.049          40.000
G21  20728630.289 8 108929709.923 8      -574.340          51.000    20728628.969 8  84880272.912 8      -447.538          51.000
G26  20378867.336 7 107091649.411 7       777.105          46.000    20378869.836 7  83448034.383 7       605.537          46.000
G31  22932032.641 7 120508637.318 7     -2967.160          45.000    22932033.734 7  93902840.068 7     -2312.076          45.000
R12  22595887.719 6 120703173.576 6     -4355.555          36.000    22595890.820 5  93880253.828 5     -3387.657          33.000
R13  19517383.328 6 104221727.025 6     -1547.883          39.000    19517385.102 7  81061360.885 7     -1203.909          42.000
R23  19286380.109 6 103169202.672 6      -211.117          38.000    19286385.258 4  80242676.987 4      -164.202          24.000
R24  20808714.227 5 111273596.068 5      2384.254          35.000    20808719.578 6  86546090.339 6      1854.423          36.000
C05  39617306.984 5 206297713.265 5        11.820          34.000    39617310.289 6 159522491.174 6         8.902          37.000
C11  21805157.484 8 113545280.318 8      -346.582          50.000    21805157.922 8  87800416.047 8      -268.150          51.000
C23  22872242.555 5 119101762.238 5       160.395          33.000
C25  23549884.930 8 122630423.389 8     -2710.027          51.000
C28  25561166.680 6 133103757.027 6      2709.164          39.000
E01  23664701.586 8 124358863.392 8       101.477          51.000    23664703.508 8  95287946.563 8        77.725          51.000
E13  25008933.859 6 131422850.371 6     -2163.633          40.000    25008936.195 5 100700627.032 5     -1657.947          32.000
E21  25180270.500 8 132323181.480 8     -2443.418          51.000    25180273.367 8 101390517.343 8     -1872.232          51.000
E26  22298406.406 8 117179037.972 8       311.199          51.000    22298408.914 8  89786494.008 8       238.427          51.000
E33  26018955.484 7 136730632.670 7      2414.844          47.000    26018958.164 8 104767584.880 8      1850.365          49.000
> 2020 05 05 14 00 30.0000000  0 19        .000000000000
G18  20364926.977 8 107018489.354 8      -415.141          51.000    20364927.203 8  83391042.968 8      -323.486          50.000
G20  23327529.609 7 122587054.000 7      3185.113          46.000    23327529.375 7  95522362.513 7      2481.909          42.000
G21  20731951.195 8 108947160.710 8      -589.188          51.000    20731950.102 8  84893870.935 8      -459.107          51.000
G26  20374476.086 7 107068574.009 7       761.133          47.000    20374478.469 7  83430053.543 7       593.091          47.000
G31  22948996.953 7 120597782.208 7     -2975.980          46.000    22948998.656 7  93972303.561 7     -2318.949          47.000
R12  22620369.492 6 120833957.490 6     -4363.383          36.000    22620373.938 5  93981974.583 5     -3393.745          32.000
R13  19526151.648 6 104268549.570 6     -1573.867          40.000    19526153.250 7  81097778.394 7     -1224.119          42.000
R23  19287607.953 5 103175776.356 5      -227.602          32.000    19287618.156 4  80247779.362 4      -177.026          28.000
R24  20795372.633 6 111202262.788 6      2371.105          36.000    20795380.492 5  86490608.950 5      1844.196          35.000
C05  39617239.648 5 206297362.494 5        12.074          34.000    39617243.242 6 159522220.725 6         9.016          37.000
C11  21807180.227 8 113555812.746 8      -355.680          50.000    21807180.531 8  87808560.391 8      -274.983          51.000
C23  22871367.383 5 119097213.491 5       142.648          34.000
C25  23565526.578 8 122711873.717 8     -2720.121          50.000
C28  25545570.172 6 133022543.477 6      2705.309          40.000
E01  23664158.680 8 124356010.842 8        88.574          51.000    23664160.688 8  95285760.841 8        67.866          51.000
E13  25021299.406 6 131487834.391 6     -2168.703          39.000    25021302.742 5 100750419.922 5     -1661.632          34.000
E21  25194243.188 8 132396608.430 8     -2451.848          51.000    25194246.336 8 101446779.532 8     -1878.671          51.000
E26  22296659.555 8 117169858.926 8       300.637          51.000    22296661.914 8  89779460.717 8       230.364          51.000
E33  26005187.133 8 136658279.495 8      2408.531          49.000    26005190.180 8 104712145.480 8      1845.492          49.000
> 2020 05 05 14 01  0.0000000  0 20        .000000000000
G18  20367344.727 8 107031194.223 8      -431.391          51.000    20367344.633 8  83400942.876 8      -336.149          50.000
G20  23309357.594 7 122491561.569 7      3181.492          46.000    23309358.922 7  95447952.898 7      2479.088          44.000
G21  20735352.781 8 108965035.442 8      -601.934          51.000    20735351.555 8  84907799.298 8      -469.039          51.000
G26  20370172.180 7 107045957.150 7       747.191          47.000    20370174.508 7  83412430.016 7       582.227          47.000
G31  22966006.984 7 120687166.974 7     -2982.473          45.000    22966009.086 7  94041953.968 7     -2324.005          44.000
R12  22644887.969 5 120964940.766 5     -4368.402          34.000    22644896.180 5  94083850.368 5     -3397.649          33.000
R13  19535059.875 6 104316118.645 6     -1597.211          37.000    19535061.344 7  81134776.566 7     -1242.275          43.000
R22  22297649.625 5 119026357.772 5     -3476.773          32.000    22297659.234 4  92576105.135 4     -2704.157          26.000
R23  19288923.867 6 103182820.062 6      -242.047          36.000    19288931.820 4  80253257.800 4      -188.265          26.000
R24  20782103.961 6 111131315.425 6      2359.379          41.000    20782113.141 5  86435427.612 5      1835.069          34.000
C05  39617169.344 5 206296996.862 5        13.473          34.000    39617173.000 6 159521937.973 6        10.330          37.000
C11  21809251.000 8 113566595.468 8      -362.703          51.000    21809250.922 8  87816898.274 8      -280.456          51.000
C23  22870589.992 5 119093157.028 5       128.059          35.000
C25  23581221.156 8 122793603.186 8     -2728.051          49.000
C28  25529991.461 6 132941420.921 6      2703.461          39.000
E01  23663685.961 8 124353526.344 8        77.633          51.000    23663687.859 8  95283857.141 8        59.452          51.000
E13  25033689.250 6 131552943.693 6     -2171.375          39.000    25033694.305 5 100800308.842 5     -1663.628          35.000
E21  25208259.945 8 132470267.400 8     -2458.305          51.000    25208263.406 8 101503219.510 8     -1883.633          51.000
E26  22294969.258 8 117160976.079 8       292.125          51.000    22294971.703 8  89772654.393 8       223.806          51.000
E33  25991451.898 8 136586098.942 8      2404.027          50.000    25991455.047 8 104656838.335 8      1842.047          50.000
> 2020 05 05 14 01 30.0000000  0 20        .000000000000
G18  20369865.828 8 107044442.029 8      -451.238          51.000    20369865.766 8  83411265.854 8      -351.614          51.000
G20  23291216.070 7 122396230.419 7      3174.484          45.000    23291218.812 7  95373668.964 7      2473.627          44.000
G21  20738837.656 8 108983348.103 8      -618.215          51.000    20738836.203 8  84922068.909 8      -481.726          51.000
G26  20365958.773 7 107023815.630 7       729.449          47.000    20365960.945 7  83395176.878 7       568.399          47.000
G31  22983064.672 7 120776804.136 7     -2992.684          43.000    22983067.320 7  94111801.081 7     -2331.961          43.000
R12  22669446.609 5 121096135.702 5     -4377.137          34.000    22669457.445 5  94185890.707 5     -3404.443          32.000
R13  19544109.891 6 104364448.254 6     -1624.230          36.000    19544112.656 7  81172366.214 7     -1263.290          45.000
R22  22317204.156 5 119130724.535 5     -3480.133          34.000    22317213.203 4  92657289.171 4     -2706.770          27.000
R23  19290331.336 6 103190348.407 6      -259.703          37.000    19290340.203 4  80259113.133 4      -201.991          28.000
R24  20768913.047 7 111060770.110 7      2344.273          43.000    20768921.836 5  86380559.014 5      1823.324          35.000
C05  39617098.945 5 206296629.640 5        11.996          34.000    39617102.680 6 159521654.824 6         9.004          37.000
C11  21811372.609 8 113577643.100 8      -373.219          51.000    21811372.109 8  87825441.004 8      -288.470          51.000
C23  22869908.656 4 119089608.767 4       108.652          28.000
C25  23596971.164 8 122875625.070 8     -2739.496          48.000
C28  25514433.289 6 132860405.074 6      2698.340          40.000
E01  23663286.297 8 124351426.018 8        63.051          51.000    23663288.398 8  95282247.797 8        48.321          51.000
E13  25046106.164 5 131618192.487 5     -2177.816          35.000    25046112.531 6 100850304.636 6     -1668.375          36.000
E21  25222323.664 8 132544172.911 8     -2468.129          51.000    25222326.938 8 101559848.388 8     -1891.131          51.000
E26  22293338.156 8 117152404.388 8       280.070          51.000    22293340.781 8  89766086.496 8       214.539          51.000
E33  25977752.648 8 136514106.996 8      2396.074          51.000    25977756.000 8 104601675.721 8      1835.902          50.000
> 2020 05 05 14 02  0.0000000  0 19        .000000000000
G18  20372494.906 8 107058257.261 8      -469.898          51.000    20372494.922 8  83422030.987 8      -366.155          51.000
G20  23273110.734 7 122301089.188 7      3168.141          45.000    23273114.422 7  95299533.023 7      2468.684          45.000
G21  20742410.500 8 109002123.090 8      -633.492          51.000    20742409.047 8  84936698.781 8      -493.630          51.000
G26  20361840.906 8 107002176.300 8       713.148          48.000    20361842.859 8  83378315.064 8       555.700          48.000
G31  23000174.289 7 120866716.728 7     -3001.625          43.000    23000177.492 7  94181862.827 7     -2338.926          43.000
R12  22694069.438 5 121227628.751 5     -4384.621          34.000    22694062.914 5  94288138.163 5     -3410.258          30.000
R13  19553307.359 6 104413562.732 6     -1650.012          39.000    19553311.016 7  81210566.388 7     -1283.339          45.000
R22  22336772.211 5 119235175.527 5     -3483.656          31.000    22336779.297 4  92738521.957 4     -2709.504          25.000
R23  19291834.039 6 103198385.686 6      -276.324          38.000    19291843.031 4  80265364.402 4      -214.919          26.000
R24  20755802.898 6 110990653.358 6      2330.230          41.000    20755810.117 5  86326023.807 5      1812.405          34.000
C05                                                                  39617036.961 6 159521389.842 6         8.868          37.000
C11  21813549.797 8 113588980.165 8      -382.648          51.000    21813549.078 8  87834207.543 8      -295.882          51.000
C25  23612782.734 8 122957962.667 8     -2749.832          49.000
C28  25498900.500 6 132779521.676 6      2693.762          38.000
E01  23662964.625 8 124349736.088 8        49.562          51.000    23662967.109 8  95280952.907 8        37.964          51.000
E13                                                                  25058561.156 6 100900426.032 6     -1672.745          36.000
E21  25236439.242 8 132618349.576 8     -2477.000          51.000    25236441.836 8 101616684.999 8     -1897.946          50.000
E26  22291771.141 8 117144168.867 8       268.953          51.000    22291773.695 8  89759776.161 8       206.093          51.000
E33  25964094.070 8 136442329.778 8      2389.035          51.000    25964097.492 8 104546677.649 8      1830.538          50.000
> 2020 05 05 14 02 30.0000000  0 21        .000000000000
G18  20375226.953 8 107072613.887 8      -488.660          51.000    20375226.789 8  83433217.981 8      -380.774          51.000
G20  23255037.586 7 122206115.727 7      3161.863          45.000    23255041.562 7  95225527.793 7      2463.793          45.000
G21  20746066.180 8 109021333.981 8      -648.594          50.000    20746064.570 8  84951668.320 8      -505.398          50.000
G26  20357814.156 8 106981015.419 8       696.379          48.000    20357815.797 8  83361826.076 8       542.633          48.000
G29  22599187.836 5 118759485.158 5     -2586.719          33.000    22599201.492 5  92539895.206 5     -2015.625          32.000
G31  23017331.297 7 120956876.941 7     -3010.449          45.000    23017334.617 7  94252117.500 7     -2345.808          45.000
R12  22718702.984 5 121359185.064 5     -4391.840          34.000    22718704.609 5  94390502.328 5     -3415.875          30.000
R13  19562647.008 6 104463435.809 6     -1676.277          39.000    19562651.117 7  81249356.575 7     -1303.771          45.000
R22  22356349.484 4 119339711.838 4     -3485.395          29.000    22356361.922 4  92819805.588 4     -2710.853          28.000
R23  19293427.148 6 103206905.014 6      -293.148          40.000    19293433.602 4  80272002.514 4      -228.007          24.000
R24  20742767.453 6 110920940.245 6      2315.910          41.000    20742772.344 5  86271802.593 5      1801.266          32.000
C05  39616967.891 5 206295948.023 5        10.266          34.000    39616971.359 6 159521125.971 6         7.938          36.000
C11  21815777.609 8 113600581.155 8      -392.051          51.000    21815776.867 8  87843178.164 8      -303.276          51.000
C12  24243233.594 4 126240872.400 4     -2520.977          28.000    24243235.781 4  97617464.003 4     -1948.246          29.000
C25  23628650.945 8 123040589.188 8     -2760.012          51.000
C28  25483388.523 6 132698746.322 6      2689.336          39.000
E01  23662716.281 8 124348432.154 8        35.949          51.000    23662718.992 8  95279953.775 8        27.560          51.000
E13                                                                  25071034.930 6 100950652.751 6     -1676.768          36.000
E21  25250601.672 8 132692771.299 8     -2485.879          51.000    25250603.211 8 101673709.380 8     -1904.743          50.000
E26  22290263.305 8 117136243.907 8       257.969          51.000    22290265.797 8  89753703.791 8       197.613          51.000
E33  25950471.430 8 136370742.783 8      2382.059          50.000    25950474.766 8 104491825.316 8      1825.160          50.000
> 2020 05 05 14 03  0.0000000  0 20        .000000000000
G18  20378061.297 8 107087508.230 8      -507.691          51.000    20378061.070 8  83444823.960 8      -395.604          51.000
G20  23236996.875 7 122111310.463 7      3155.055          46.000    23237000.516 7  95151653.604 7      2458.487          44.000
G21  20749804.055 8 109040976.924 8      -664.230          50.000    20749802.117 8  84966974.509 8      -517.582          50.000
G26  20353878.203 8 106960331.692 8       679.121          49.000    20353879.461 8  83345708.894 8       529.185          48.000
G31  23034534.719 7 121047279.177 7     -3019.754          47.000    23034537.375 7  94322560.724 7     -2353.058          47.000
R12  22743378.938 5 121491018.396 5     -4400.094          31.000    22743382.711 5  94493039.331 5     -3422.298          30.000
R13  19572127.664 6 104514062.391 6     -1702.508          40.000    19572131.914 7  81288732.781 7     -1324.176          45.000
R22  22375938.047 6 119444271.564 6     -3488.395          37.000    22375954.367 4  92901129.880 4     -2713.196          27.000
R23  19295109.422 6 103215901.956 6      -310.203          39.000    19295115.297 4  80279000.170 4      -241.266          27.000
R24  20729806.633 6 110851628.700 6      2301.438          41.000    20729809.336 5  86217893.642 5      1790.007          33.000
C05  39616901.875 5 206295604.278 5         8.836          34.000    39616905.492 6 159520860.110 6         7.144          37.000
C11  21818055.320 8 113612442.788 8      -401.957          51.000    21818054.773 8  87852350.314 8      -310.683          51.000
C12                                                                  24257791.289 4  97675947.581 4     -1951.539          29.000
C25  23644574.102 8 123123500.064 8     -2770.617          51.000
C28  25467896.586 6 132618076.851 6      2685.203          38.000
E01  23662540.984 8 124347512.289 8        22.129          51.000    23662543.680 8  95279248.940 8        16.989          51.000
E13                                                                  25083532.750 6 101000981.862 6     -1681.090          36.000
E21  25264809.750 8 132767434.627 8     -2494.926          51.000    25264811.227 8 101730918.891 8     -1911.672          51.000
E26  22288813.891 8 117128626.374 8       246.742          51.000    22288816.453 8  89747866.990 8       189.020          51.000
E33  25936884.477 8 136299343.955 8      2374.754          50.000    25936887.727 8 104437117.160 8      1819.551          50.000
> 2020 05 05 14 03 30.0000000  0 19        .000000000000
G18  20381003.180 8 107102968.598 8      -524.137          51.000    20381003.148 8  83456871.017 8      -408.418          51.000
G20  23218994.469 7 122016705.284 7      3150.758          46.000    23218997.508 7  95077935.340 7      2455.139          44.000
G21  20753629.359 8 109061079.780 8      -677.090          49.000    20753627.414 8  84982639.087 8      -527.602          49.000
G26  20350038.836 8 106940155.773 8       664.711          49.000    20350039.836 8  83329987.401 8       517.957          49.000
G31  23051789.406 7 121137950.070 7     -3026.109          47.000    23051790.891 7  94393213.301 7     -2358.007          47.000
R12  22768106.406 5 121623161.670 5     -4404.387          30.000    22768103.273 5  94595756.886 5     -3425.634          32.000
R13  19581755.195 7 104565471.215 7     -1726.086          42.000    19581759.008 7  81328717.406 7     -1342.511          44.000
R22  22395542.352 6 119548911.351 6     -3488.793          37.000    22395555.570 4  92982532.449 4     -2713.512          26.000
R23  19296886.023 6 103225404.944 6      -324.281          41.000    19296892.156 4  80286391.412 4      -252.219          28.000
R24  20716926.094 6 110782748.993 6      2289.191          40.000    20716928.703 5  86164320.534 5      1780.479          33.000
C05                                                                  39616844.617 6 159520615.932 6         8.246          37.000
C11  21820388.672 8 113624593.367 8      -409.141          51.000    21820388.312 8  87861745.923 8      -316.389          51.000
C25  23660557.000 8 123206722.293 8     -2778.570          51.000
C28  25452430.148 6 132537542.816 6      2683.078          36.000
E01  23662444.594 8 124347006.497 8        10.672          51.000    23662447.203 8  95278861.387 8         8.165          51.000
E13  25096058.062 5 131880676.438 5     -2197.215          34.000    25096061.430 6 101051434.905 6     -1683.523          36.000
E21  25279068.648 8 132842367.905 8     -2501.574          49.000    25279071.242 8 101788335.257 8     -1916.791          51.000
E26  22287428.625 8 117121345.145 8       237.770          51.000    22287430.992 8  89742287.876 8       182.190          51.000
E33  25923338.953 8 136228163.237 8      2369.711          49.000    25923342.516 8 104382576.146 8      1815.768          50.000
> 2020 05 05 14 04  0.0000000  0 19        .000000000000
G18  20384045.234 8 107118955.017 8      -541.668          51.000    20384044.992 8  83469327.978 8      -422.076          50.000
G20  23201023.352 7 121922264.473 7      3145.148          47.000    23201026.039 7  95004345.172 7      2450.768          44.000
G21  20757534.523 8 109081602.497 8      -691.141          49.000    20757532.641 8  84998630.828 8      -538.551          49.000
G26  20346288.891 8 106920450.039 8       648.934          49.000    20346290.023 8  83314632.292 8       505.663          49.000
G29  22643567.398 6 118992756.883 6     -2599.242          36.000
G31  23069087.438 7 121228847.968 7     -3033.789          47.000    23069087.438 7  94464042.766 7     -2363.995          47.000
R13  19591521.148 6 104617621.113 6     -1750.738          41.000    19591524.570 7  81369278.397 7     -1361.688          43.000
R22  22415153.203 5 119653589.697 5     -3489.883          32.000    22415161.992 4  93063948.924 4     -2714.353          26.000
R23  19298749.516 6 103235372.833 6      -340.070          39.000    19298755.039 4  80294144.181 4      -264.499          27.000
R24  20704119.953 7 110714262.282 7      2276.426          43.000    20704121.750 5  86111053.069 5      1770.553          33.000
C05  39616777.914 5 206294958.114 5        11.363          34.000    39616781.484 6 159520361.490 6         9.022          37.000
C11  21822770.242 8 113636993.713 8      -417.523          51.000    21822769.820 8  87871334.658 8      -322.847          51.000
C25  23676591.633 8 123290215.315 8     -2787.562          51.000
C28  25436982.078 5 132457106.045 5      2679.742          35.000
E01  23662419.805 8 124346876.507 8        -1.988          51.000    23662422.516 8  95278761.782 8        -1.506          51.000
E13  25108611.055 5 131946641.474 5     -2200.961          33.000    25108613.773 6 101101981.136 6     -1686.184          36.000
E21  25293370.875 8 132917531.236 8     -2509.363          48.000    25293375.062 8 101845927.936 8     -1922.753          51.000
E26  22286099.906 8 117114360.718 8       227.848          51.000    22286102.148 8  89736936.182 8       174.567          51.000
E33  25909827.703 8 136157162.271 8      2363.645          49.000    25909831.516 8 104328172.859 8      1811.110          49.000
> 2020 05 05 14 04 30.0000000  0 19        .000000000000
G18  20387187.703 8 107135468.994 8      -559.465          51.000    20387187.273 8  83482196.022 8      -435.947          51.000
G20  23183084.578 8 121827993.545 8      3139.348          48.000    23183086.742 7  94930887.380 7      2446.245          43.000
G21  20761519.938 8 109102546.372 8      -705.348          49.000    20761517.891 8  85014950.723 8      -549.622          49.000
G26  20342629.219 8 106901218.285 8       632.910          49.000    20342630.531 8  83299646.511 8       493.180          49.000
G31  23086428.477 7 121319972.593 7     -3041.438          45.000    23086427.156 7  94535048.915 7     -2369.951          45.000
R12  22817650.477 5 121887807.255 5     -4417.469          34.000    22817649.969 6  94801609.639 6     -3435.815          36.000
R13  19601425.883 6 104670512.590 6     -1775.617          40.000    19601428.930 7  81410416.184 7     -1381.039          43.000
R22  22434771.828 5 119758307.368 5     -3491.215          32.000    22434774.406 4  93145386.972 4     -2715.389          27.000
R23  19300699.812 6 103245806.813 6      -355.734          39.000    19300705.023 4  80302259.528 4      -276.676          28.000
R24  20691388.562 6 110646171.391 6      2262.906          40.000    20691388.062 5  86058093.541 5      1760.038          32.000
C05  39616713.047 5 206294620.969 5        11.707          34.000    39616716.766 6 159520100.041 6         8.696          37.000
C11  21825200.172 8 113649645.593 8      -426.078          51.000    21825199.516 8  87881117.881 8      -329.495          51.000
C25  23692678.039 8 123373979.623 8     -2796.871          51.000
C28  25421554.469 6 132376769.552 6      2676.363          39.000
E01  23662467.016 8 124347125.518 8       -14.809          51.000    23662470.039 8  95278952.575 8       -11.377          51.000
E13  25121187.602 5 132012731.630 5     -2205.355          34.000    25121189.469 5 101152621.616 5     -1689.914          35.000
E21  25307716.875 8 132992926.210 8     -2517.203          48.000    25307722.758 8 101903698.132 8     -1928.772          51.000
E26  22284827.891 8 117107675.094 8       217.688          51.000    22284830.148 8  89731813.439 8       166.785          51.000
E33  25896351.469 8 136086344.122 8      2357.344          50.000    25896354.938 8 104273909.642 8      1806.217          48.000
> 2020 05 05 14 05  0.0000000  0 19        .000000000000
G18  20390437.062 8 107152544.739 8      -576.203          51.000    20390436.875 8  83495501.804 8      -448.989          50.000
G20  23165185.484 8 121733930.989 8      3134.238          48.000    23165186.516 7  94857591.947 7      2442.267          42.000
G21  20765591.695 8 109123944.902 8      -718.426          48.000    20765589.859 8  85031624.910 8      -559.812          48.000
G26  20339066.672 8 106882497.139 8       617.910          49.000    20339068.305 8  83285058.587 8       481.488          49.000
G29  22673293.719 5 119148963.046 5     -2606.074          34.000    22673316.812 5  92843418.142 5     -2030.713          34.000
G31  23103818.414 6 121411356.197 6     -3047.887          41.000    23103816.484 6  94606256.882 6     -2374.977          40.000
R12  22842479.188 4 122020445.381 4     -4422.926          29.000    22842479.547 6  94904772.490 6     -3440.056          36.000
R13  19611475.836 6 104724179.869 6     -1799.629          40.000    19611479.047 7  81452157.379 7     -1399.711          44.000
R23  19302743.789 6 103256741.117 6      -370.410          40.000    19302749.094 4  80310764.031 4      -288.097          27.000
C05  39616653.180 5 206294308.691 5        11.992          34.000    39616656.711 6 159519858.544 6         9.494          36.000
C11  21827684.938 8 113662583.245 8      -433.691          51.000    21827684.125 8  87891122.104 8      -335.294          51.000
C23  22867933.453 5 119079333.391 5        -8.934          31.000
C25  23708822.547 8 123458048.228 8     -2805.027          51.000
C28  25406153.031 6 132296568.748 6      2673.777          39.000
E01  23662593.289 8 124347789.503 8       -26.699          51.000    23662596.203 8  95279461.334 8       -20.467          51.000
E13  25133794.086 5 132078977.826 5     -2208.617          35.000    25133795.289 5 101203382.419 5     -1692.586          34.000
E21  25322114.320 8 133068587.223 8     -2524.070          49.000    25322120.734 8 101961672.151 8     -1934.061          51.000
E26  22283619.398 8 117101323.085 8       208.523          51.000    22283621.555 8  89726946.320 8       159.742          51.000
E33  25882917.102 8 136015744.686 8      2352.000          51.000    25882919.414 8 104219814.017 8      1802.140          48.000
> 2020 05 05 14 05 30.0000000  0 21        .000000000000
G16  21730890.055 5 114196586.172 5      2503.121          35.000
G18  20393781.758 8 107170121.029 8      -596.406          50.000    20393781.391 8  83509197.620 8      -464.732          50.000
G20  23147314.828 7 121640019.535 7      3125.598          46.000    23147314.047 6  94784414.248 6      2435.534          39.000
G21  20769738.406 8 109145736.798 8      -735.117          49.000    20769736.906 8  85048605.606 8      -572.819          49.000
G26  20335590.133 8 106864227.739 8       599.242          50.000    20335591.969 8  83270822.673 8       466.945          50.000
G29  22688190.414 6 119227237.759 6     -2613.105          36.000    22688210.156 5  92904411.199 5     -2036.192          35.000
G31  23121244.156 4 121502936.111 4     -3057.438          29.000    23121243.953 4  94677617.812 4     -2382.422          29.000
R13  19621659.758 7 104778560.567 7     -1826.848          42.000    19621663.102 7  81494453.452 7     -1420.882          44.000
R23  19304869.320 6 103268112.945 6      -388.547          37.000    19304874.070 4  80319602.801 4      -302.200          28.000
R24  20666150.367 5 110511156.592 5      2234.730          35.000    20666152.758 5  85953144.464 5      1738.127          34.000
C05  39616586.781 5 206293962.724 5         9.668          34.000    39616590.188 6 159519591.042 6         7.811          36.000
C11  21830213.039 8 113675746.549 8      -444.746          51.000    21830212.195 8  87901300.813 8      -343.849          51.000
C12  24330575.633 5 126695691.710 5     -2533.070          31.000    24330571.750 5  97969124.865 5     -1958.628          32.000
C23  22868039.844 5 119079882.513 5       -28.840          30.000
C25  23725013.227 8 123542359.484 8     -2816.680          50.000
C28  25390765.883 6 132216444.545 6      2667.234          40.000
E01  23662787.516 8 124348808.931 8       -42.070          51.000    23662790.133 8  95280242.463 8       -32.194          51.000
E13  25146419.953 6 132145322.762 6     -2215.172          36.000    25146420.047 5 101254212.603 5     -1697.444          33.000
E21  25336551.547 8 133144453.293 8     -2534.488          51.000    25336557.719 8 102019803.270 8     -1942.008          51.000
E26  22282462.797 8 117095244.046 8       195.957          51.000    22282465.102 8  89722288.352 8       150.137          51.000
E33  25869512.914 8 135945304.402 8      2343.230          51.000    25869513.500 7 104165840.378 7      1795.373          47.000
> 2020 05 05 14 06  0.0000000  0 17        .000000000000
G18  20397239.203 8 107188290.696 8      -613.512          50.000    20397238.797 8  83523355.798 8      -478.061          50.000
G20  23129490.953 7 121546356.275 7      3119.688          44.000    23129488.648 6  94711429.957 6      2430.928          39.000
G21  20773977.750 8 109168014.699 8      -748.723          49.000    20773976.211 8  85065965.016 8      -583.417          49.000
G26  20332217.680 8 106846505.291 8       583.578          51.000    20332219.547 8  83257012.979 8       454.736          51.000
R12  22892237.969 5 122286205.132 5     -4436.742          30.000    22892240.188 5  95111517.012 5     -3450.799          34.000
R13  19631995.141 7 104833747.908 7     -1850.910          42.000    19631998.266 7  81537376.937 7     -1439.597          45.000
R23  19307093.844 6 103280016.411 6      -403.754          38.000    19307099.781 5  80328860.990 5      -314.034          31.000
R24  20653652.461 6 110444337.535 6      2221.395          38.000    20653658.711 5  85901174.206 5      1727.754          34.000
C05  39616531.891 5 206293677.364 5        10.016          34.000    39616535.117 6 159519369.586 6         8.270          36.000
C11  21832802.102 8 113689227.866 8      -452.723          51.000    21832801.281 8  87911725.431 8      -350.029          51.000
C12  24345173.477 5 126771685.832 5     -2533.914          30.000
C25  23741267.562 8 123627004.514 8     -2825.141          49.000
C28  25375410.547 6 132136490.443 6      2664.363          38.000
E01  23663067.398 8 124350278.455 8       -54.457          51.000    23663069.922 8  95281368.456 8       -41.703          51.000
E13  25159081.234 6 132211854.246 6     -2219.082          36.000    25159081.617 5 101305194.196 5     -1699.839          33.000
E21  25351045.812 8 133220617.313 8     -2541.746          51.000    25351051.453 8 102078162.679 8     -1947.554          51.000
E33  25856156.789 8 135875117.777 8      2337.309          51.000    25856155.672 7 104112061.070 7      1790.964          46.000
> 2020 05 05 14 06 30.0000000  0 17        .000000000000
G18  20400789.266 8 107206946.898 8      -631.820          51.000    20400789.258 8  83537893.087 8      -492.328          51.000
G20  23111694.586 7 121452838.351 7      3112.875          43.000    23111691.445 6  94638558.943 6      2425.617          37.000
G21  20778289.188 8 109190671.577 8      -763.480          50.000    20778287.555 8  85083619.728 8      -594.920          50.000
G26  20328929.500 8 106829225.282 8       566.746          51.000    20328931.359 8  83243548.035 8       441.620          51.000
G31  23156237.844 5 121686852.532 5     -3072.758          34.000    23156250.906 5  94820957.242 5     -2394.357          33.000
R12  22917170.359 5 122419366.378 5     -4442.992          32.000    22917168.102 5  95215086.271 5     -3455.661          34.000
R13  19642461.031 7 104889632.027 7     -1876.367          42.000    19642464.242 7  81580842.333 7     -1459.400          45.000
R23  19309399.109 6 103292342.378 6      -419.730          37.000    19309404.977 5  80338447.865 5      -326.454          30.000
R24  20641219.508 5 110377879.118 5      2206.555          32.000    20641229.227 5  85849484.355 5      1716.209          31.000
C05  39616468.164 5 206293345.844 5        10.121          34.000    39616471.445 6 159519113.264 6         7.690          36.000
C11  21835431.766 8 113702921.637 8      -461.887          51.000    21835430.992 8  87922314.327 8      -357.088          51.000
C25  23757565.500 8 123711876.464 8     -2834.648          49.000
C28  25360067.414 6 132056602.075 6      2660.363          36.000
E01  23663412.969 8 124352092.938 8       -68.184          51.000    23663415.109 8  95282758.764 8       -52.200          51.000
E13  25171757.742 5 132278477.276 5     -2223.359          35.000    25171758.867 5 101356235.343 5     -1703.870          34.000
E21  25365576.531 8 133296972.596 8     -2550.242          51.000    25365581.430 8 102136668.632 8     -1954.121          51.000
E33  25842828.742 8 135805079.667 8      2330.238          49.000    25842827.375 8 104058395.561 8      1785.519          48.000
> 2020 05 05 14 07  0.0000000  0 19        .000000000000
G18  20404440.203 8 107226133.166 8      -648.270          50.000    20404440.273 8  83552843.421 8      -505.145          50.000
G20  23093935.344 7 121359513.627 7      3107.660          44.000    23093932.367 6  94565838.467 6      2421.556          40.000
G21  20782681.109 8 109213750.743 8      -776.043          50.000    20782679.586 8  85101603.508 8      -604.709          50.000
G26  20325734.258 8 106812433.676 8       551.863          51.000    20325736.109 8  83230463.664 8       430.023          51.000
G29  22733035.781 5 119462919.654 5     -2624.215          31.000
G31  23173797.898 6 121779119.824 6     -3079.062          37.000    23173812.078 6  94892853.807 6     -2399.269          36.000
R12  22942130.375 5 122552700.855 5     -4447.191          34.000    22942129.664 5  95318790.674 5     -3458.930          33.000
R13  19653065.805 7 104946257.907 7     -1899.633          42.000    19653068.617 7  81624884.681 7     -1477.492          45.000
R22  22532985.859 5 120282607.693 5     -3499.051          30.000
R23  19311790.992 6 103305134.852 6      -434.188          37.000    19311795.211 4  80348397.537 4      -337.698          29.000
R24  20628870.367 6 110311827.305 6      2195.164          38.000    20628874.781 4  85798110.731 4      1707.353          29.000
C05  39616404.211 5 206293012.551 5        11.281          34.000    39616407.562 6 159518856.335 6         8.539          36.000
C11  21838110.578 8 113716871.453 8      -469.051          51.000    21838109.789 8  87933101.211 8      -362.691          51.000
C25  23773915.586 8 123797017.650 8     -2842.336          48.000
C28  25344744.992 5 131976824.176 5      2657.820          33.000
E01  23663832.617 8 124354297.626 8       -79.762          51.000    23663834.477 8  95284448.074 8       -61.137          51.000
E13  25184457.562 5 132345217.496 5     -2227.203          34.000    25184459.055 5 101407372.273 5     -1705.900          34.000
E21  25380151.883 8 133373562.822 8     -2556.707          51.000    25380155.938 8 102195354.589 8     -1959.020          51.000
E33  25829537.375 8 135735235.293 8      2325.062          48.000    25829537.352 8 104004878.500 8      1781.508          49.000
> 2020 05 05 14 07 30.0000000  0 18        .000000000000
G18  20408192.430 8 107245851.401 8      -667.219          51.000    20408192.383 8  83568208.278 8      -519.911          51.000
G20  23076214.328 7 121266387.938 7      3099.742          46.000    23076211.711 6  94493273.059 6      2415.387          40.000
G21  20787153.680 8 109237253.748 8      -791.543          50.000    20787152.281 8  85119917.557 8      -616.787          50.000
G26  20322632.695 8 106796134.755 8       534.020          51.000    20322634.680 8  83217763.217 8       416.119          51.000
G31  23191399.695 6 121871608.076 6     -3087.777          39.000    23191413.633 6  94964922.568 6     -2406.060          39.000
R12  22967121.367 5 122686208.239 5     -4453.980          35.000    22967122.703 5  95422629.631 5     -3464.213          32.000
R13  19663808.969 6 105003625.741 6     -1925.777          40.000    19663811.758 7  81669504.087 7     -1497.827          45.000
R22  22552657.992 5 120387586.085 5     -3500.969          35.000    22552659.766 4  93634822.077 4     -2722.976          28.000
R23  19314269.172 6 103318395.339 6      -451.094          36.000    19314274.789 5  80358711.267 5      -350.848          30.000
R24  20616597.781 6 110246185.824 6      2180.238          40.000    20616600.234 5  85747056.298 5      1695.741          31.000
C05  39616340.859 5 206292682.627 5        10.078          34.000    39616344.359 6 159518601.204 6         7.582          37.000
C11  21840839.055 8 113731079.812 8      -479.027          51.000    21840838.383 8  87944088.008 8      -370.381          51.000
C25  23790317.984 8 123882429.040 8     -2852.570          48.000
C28  25329445.062 5 131897160.304 5      2652.289          32.000
E01  23664327.273 8 124356896.279 8       -94.191          51.000    23664328.891 8  95286439.242 8       -72.238          51.000
E13                                                                  25197182.648 5 101458606.550 5     -1710.264          34.000
E21  25394772.234 8 133450390.178 8     -2565.898          51.000    25394775.367 8 102254222.255 8     -1966.072          51.000
E33  25816283.602 8 135665588.279 8      2317.160          48.000    25816284.898 8 103951512.641 8      1775.507          49.000
> 2020 05 05 14 08  0.0000000  0 19        .000000000000
G18  20412046.703 8 107266105.719 8      -683.473          51.000    20412046.859 8  83583990.873 8      -532.576          51.000
G20  23058533.023 8 121173469.820 8      3094.242          48.000    23058530.562 6  94420869.366 6      2411.101          39.000
G21  20791707.680 8 109261184.659 8      -804.242          51.000    20791706.242 8  85138565.026 8      -626.682          51.000
G26  20319625.938 8 106780334.975 8       518.926          51.000    20319628.312 8  83205451.688 8       404.358          51.000
G31  23209043.344 6 121964320.075 6     -3093.719          41.000    23209057.336 7  95037165.673 7     -2410.687          42.000
R12  22992145.680 5 122819890.597 5     -4458.914          30.000    22992147.023 4  95526606.204 4     -3468.047          28.000
R13  19674691.398 6 105061739.816 6     -1948.859          39.000    19674694.562 7  81714703.902 7     -1515.783          45.000
R22  22572333.742 5 120492607.913 5     -3500.195          32.000    22572336.469 4  93716505.734 4     -2722.371          29.000
R23  19316837.539 6 103332127.625 6      -465.125          38.000    19316842.562 4  80369391.891 4      -361.761          28.000
R24  20604401.141 5 110180960.276 5      2167.891          35.000    20604404.445 5  85696325.346 5      1686.137          33.000
C05  39616279.070 5 206292360.377 5        10.867          34.000    39616282.641 6 159518352.008 6         8.603          36.000
C11  21843618.016 8 113745551.173 8      -486.160          51.000    21843617.531 8  87955278.182 8      -375.900          51.000
C23  22870072.086 5 119090458.064 5      -112.355          33.000
C25  23806773.000 7 123968113.765 7     -2860.039          47.000
C28  25314169.047 5 131817615.984 5      2649.863          34.000
E01  23664898.102 8 124359894.677 8      -106.059          51.000    23664899.484 8  95288736.720 8       -81.251          51.000
E13                                                                  25209931.617 5 101509941.278 5     -1712.428          34.000
E21  25409438.164 8 133527458.837 8     -2572.406          51.000    25409441.117 8 102313274.813 8     -1971.056          51.000
E33  25803068.852 8 135596144.396 8      2311.957          48.000    25803070.570 8 103898302.415 8      1771.556          49.000
> 2020 05 05 14 08 30.0000000  0 20        .000000000000
G18  20416000.984 8 107286884.984 8      -701.746          51.000    20416001.172 8  83600182.514 8      -546.815          51.000
G20  23040889.930 8 121080752.162 8      3086.934          48.000    23040888.008 7  94348621.889 7      2405.406          42.000
G21  20796340.875 8 109285531.900 8      -818.871          51.000    20796339.609 8  85157536.903 8      -638.081          51.000
G26  20316712.617 8 106765025.579 8       501.777          51.000    20316715.078 8  83193522.282 8       390.995          51.000
G31  23226726.383 6 122057243.002 6     -3100.906          41.000    23226740.586 6  95109573.168 6     -2416.291          41.000
R12  23017201.742 5 122953757.537 5     -4464.566          30.000
R13  19685710.328 6 105120587.235 6     -1973.910          37.000    19685714.711 7  81760474.096 7     -1535.263          44.000
R22  22592015.914 6 120597661.270 6     -3502.477          36.000    22592018.023 4  93798229.944 4     -2724.142          26.000
R23  19319491.078 6 103346319.762 6      -481.145          40.000    19319495.797 4  80380430.255 4      -374.224          29.000
R24  20592277.984 5 110116141.024 5      2153.219          33.000    20592283.438 5  85645910.361 5      1674.726          31.000
C05  39616216.734 5 206292035.998 5        10.629          34.000    39616220.477 6 159518102.188 6         8.125          36.000
C11  21846445.461 8 113760274.974 8      -495.328          51.000    21846445.156 8  87966663.571 8      -382.941          51.000
C12  24418306.578 5 127152539.808 5     -2544.184          30.000    24418307.906 5  98322415.922 5     -1967.022          33.000
C23  22870760.633 5 119094092.398 5      -130.344          34.000
C25  23823277.719 7 124054059.989 7     -2869.570          47.000
C28  25298914.422 5 131738181.868 5      2645.625          34.000
E01  23665543.047 8 124363283.485 8      -119.754          51.000    23665544.570 8  95291333.337 8       -91.748          51.000
E13                                                                  25222704.289 5 101561367.905 5     -1715.918          35.000
E21  25424147.734 8 133604757.925 8     -2580.719          51.000    25424150.734 8 102372503.941 8     -1977.434          51.000
E33  25789891.484 8 135526894.263 8      2304.891          49.000    25789893.125 8 103845240.666 8      1766.034          50.000
> 2020 05 05 14 09  0.0000000  0 20        .000000000000
G18  20420048.367 8 107308153.406 8      -722.922          51.000    20420048.203 8  83616755.316 8      -563.316          50.000
G20  23023278.750 8 120988203.647 8      3076.312          49.000    23023277.977 7  94276506.227 7      2397.127          44.000
G21  20801046.461 8 109310259.660 8      -836.379          51.000    20801045.461 8  85176805.293 8      -651.724          51.000
G26  20313886.305 8 106750173.227 8       481.594          51.000    20313888.969 8  83181949.017 8       375.268          51.000
G31  23244441.875 6 122150339.561 6     -3111.855          40.000    23244455.609 6  95182115.929 6     -2424.822          41.000
R12  23042281.430 5 123087724.360 5     -4473.184          32.000
R13  19696859.672 6 105180131.430 6     -2002.375          37.000    19696865.062 7  81806786.213 7     -1557.403          45.000
R22  22611696.461 5 120702709.345 5     -3507.145          35.000
R23  19322223.883 6 103360935.243 6      -500.066          41.000    19322227.742 4  80391797.863 4      -388.944          28.000
R24  20580225.195 5 110051693.613 5      2136.008          30.000    20580229.539 4  85595784.337 4      1661.327          28.000
C05  39616147.578 5 206291675.431 5         7.297          34.000    39616151.266 6 159517824.381 6         5.337          36.000
C11  21849314.734 8 113775216.288 8      -507.402          51.000    21849314.523 8  87978217.163 8      -392.286          51.000
C12  24432946.578 4 127228844.618 4     -2549.258          28.000    24432966.367 5  98381419.628 5     -1971.308          33.000
C23  22871544.180 5 119098201.152 5      -150.582          33.000
C25  23839825.430 7 124140231.365 7     -2881.867          47.000
C28  25283674.711 5 131658824.249 5      2638.039          35.000
E01  23666255.781 8 124367028.765 8      -136.562          51.000    23666257.633 8  95294203.087 8      -104.594          51.000
E13                                                                  25235492.992 5 101612859.101 5     -1721.823          35.000
E21  25438894.422 8 133682251.888 8     -2592.129          51.000    25438897.383 8 102431882.398 8     -1986.186          51.000
E33  25776744.508 8 135457803.827 8      2294.684          48.000    25776745.859 8 103792301.285 8      1758.264          50.000
> 2020 05 05 14 09 30.0000000  0 19        .000000000000
G18  20424213.523 8 107330040.947 8      -735.973          51.000    20424213.367 8  83633810.555 8      -573.485          51.000
G20  23005725.102 8 120895958.199 8      3073.578          49.000    23005725.484 7  94204626.697 7      2394.999          46.000
G21  20805849.062 8 109335497.545 8      -845.875          50.000    20805848.109 8  85196471.173 8      -659.123          50.000
G26  20311172.141 8 106735910.160 8       469.438          51.000    20311175.016 8  83170834.941 8       365.795          51.000
G31  23262215.055 6 122243737.976 6     -3114.391          40.000    23262225.797 6  95254893.919 6     -2426.798          40.000
R12  23067407.531 5 123221944.014 5     -4474.707          30.000
R13  19708165.023 6 105240503.077 6     -2022.457          38.000    19708170.391 7  81853741.928 7     -1573.022          44.000
R22  22631398.266 6 120807883.783 6     -3503.773          37.000
R23  19325059.953 6 103376105.910 6      -510.770          41.000    19325062.492 4  80403597.263 4      -397.265          28.000
R24  20568270.922 6 109987751.284 6      2127.375          39.000    20568272.391 5  85546051.379 5      1654.625          30.000
C05                                                                  39616099.977 6 159517618.076 6         8.856          36.000
C11  21852250.758 8 113790504.427 8      -511.504          51.000    21852250.453 8  87990038.923 8      -395.530          51.000
C23  22872446.703 4 119102831.964 4      -162.875          29.000
C25  23856441.180 8 124226755.804 8     -2886.121          48.000
C28  25268474.414 5 131579673.245 5      2638.949          35.000
E01  23667061.461 8 124371262.143 8      -145.367          51.000    23667063.602 8  95297446.844 8      -111.436          51.000
E13  25248316.828 5 132680805.667 5     -2246.617          33.000    25248322.641 6 101664514.434 6     -1721.667          36.000
E21  25453703.102 8 133760070.834 8     -2595.520          51.000    25453705.797 8 102491509.867 8     -1988.712          51.000
E33  25763652.594 7 135389004.759 7      2292.371          47.000    25763653.688 8 103739585.147 8      1756.492          51.000
> 2020 05 05 14 10  0.0000000  0 18        .000000000000
G18  20428468.375 8 107352400.073 8      -754.098          51.000    20428468.281 8  83651233.273 8      -587.609          50.000
G20  22988201.695 8 120803872.396 8      3065.848          49.000    22988203.148 8  94132871.565 8      2388.972          48.000
G21  20810720.633 8 109361098.112 8      -860.391          51.000    20810719.773 8  85216419.663 8      -670.434          51.000
G26  20308542.531 8 106722091.290 8       452.289          51.000    20308545.227 8  83160066.998 8       352.433          51.000
G31  23280017.727 6 122337289.197 6     -3121.930          41.000    23280022.703 6  95327790.953 6     -2432.672          41.000
R13  19719598.000 6 105301552.122 6     -2047.203          39.000    19719602.750 7  81901224.523 7     -1592.269          44.000
R22  22651095.828 7 120913034.111 7     -3505.641          42.000
R23  19327971.398 6 103391681.216 6      -527.078          40.000    19327973.945 4  80415711.459 4      -409.947          27.000
R24  20556382.641 6 109924165.857 6      2112.453          40.000    20556382.875 5  85496596.137 5      1643.022          33.000
C05  39616035.312 5 206291091.780 5        10.680          34.000    39616039.078 6 159517372.307 6         8.101          37.000
C11  21855225.328 8 113805993.696 8      -520.570          51.000    21855224.953 8  88002016.207 8      -402.511          51.000
C23  22873444.500 4 119108036.427 4      -182.102          29.000
C25  23873097.031 8 124313486.368 8     -2895.297          49.000
C28  25253286.633 6 131500584.553 6      2634.230          36.000
E01  23667932.203 8 124375837.947 8      -159.117          51.000    23667934.617 8  95300952.980 8      -121.927          51.000
E13  25261158.477 5 132748282.070 5     -2251.207          33.000    25261165.406 6 101716220.957 6     -1725.011          37.000
E21  25468545.523 8 133838067.513 8     -2603.715          51.000    25468547.930 8 102551273.515 8     -1995.051          51.000
E33  25750587.969 7 135320351.316 7      2285.164          46.000    25750589.742 8 103686980.600 8      1750.904          51.000
> 2020 05 05 14 10 30.0000000  0 18        .000000000000
G18  20432816.125 8 107375247.325 8      -771.613          51.000    20432815.648 8  83669036.326 8      -601.257          50.000
G20  22970712.328 7 120711967.188 7      3058.613          47.000    22970714.844 7  94061257.156 7      2383.335          46.000
G21  20815664.273 8 109387077.234 8      -874.184          50.000    20815663.641 8  85236663.129 8      -681.179          50.000
G26  20306000.961 8 106708735.573 8       435.555          51.000    20306003.633 8  83149659.940 8       339.393          51.000
G31  23297853.039 6 122431008.111 6     -3128.566          41.000    23297853.273 6  95400818.599 6     -2437.844          41.000
R13  19731161.344 6 105363294.145 6     -2071.570          40.000    19731164.859 7  81949246.082 7     -1611.221          44.000
R22  22670792.266 6 121018176.817 6     -3506.594          41.000    22670800.336 4  94125319.089 4     -2727.354          26.000
R23  19330961.055 6 103407677.602 6      -541.996          38.000    19330964.234 4  80428153.092 4      -421.556          26.000
R24  20544563.445 6 109860955.937 6      2098.793          40.000    20544561.672 5  85447432.941 5      1632.398          30.000
C05  39615967.742 5 206290739.576 5        10.867          34.000    39615971.633 6 159517100.736 6         8.068          37.000
C11  21858241.641 8 113821701.019 8      -529.039          51.000    21858241.281 8  88014162.103 8      -409.041          51.000
C12                                                                  24477009.891 5  98558774.561 5     -1973.510          31.000
C25  23889795.805 8 124400438.588 8     -2903.957          51.000
C28  25238113.586 5 131421576.133 5      2630.277          35.000
E01  23668871.531 8 124380774.496 8      -172.332          51.000    23668874.039 8  95304735.534 8      -132.086          51.000
E13                                                                  25274024.375 6 101767991.385 6     -1727.926          36.000
E21  25483424.883 8 133916258.656 8     -2611.453          51.000    25483426.938 8 102611186.165 8     -2000.963          51.000
E33  25737554.406 7 135251861.825 7      2278.480          46.000    25737557.469 8 103634501.673 8      1745.810          51.000
> 2020 05 05 14 11  0.0000000  0 19        .000000000000
G18  20437271.172 8 107398658.672 8      -788.934          51.000    20437270.727 8  83687278.950 8      -614.753          51.000
G20  22953272.352 7 120620322.975 7      3051.285          45.000    22953275.750 7  93989846.129 7      2377.625          45.000
G21  20820694.367 8 109413511.063 8      -887.805          49.000    20820693.836 8  85257260.938 8      -691.796          50.000
G26  20303562.445 8 106695921.395 8       418.879          51.000    20303565.227 8  83139674.860 8       326.399          51.000
G31  23315735.344 6 122524969.440 6     -3135.172          41.000    23315731.914 6  95474035.126 6     -2442.997          40.000
R13  19742868.664 6 105425805.565 6     -2095.500          40.000    19742870.773 7  81997866.098 7     -1629.833          43.000
R22  22690500.961 6 121123388.595 6     -3507.164          39.000    22690506.672 5  94207141.874 5     -2727.797          30.000
R23  19334044.453 5 103424172.101 5      -557.344          35.000    19334047.797 4  80440982.119 4      -433.490          27.000
R24  20532828.500 6 109798200.433 6      2085.207          38.000    20532823.320 4  85398623.193 4      1621.828          29.000
C05                                                                  39615912.633 6 159516862.682 6         8.089          37.000
C11  21861314.477 8 113837702.397 8      -537.457          51.000    21861314.203 8  88026535.384 8      -415.632          51.000
C12                                                                  24491715.719 5  98617985.945 5     -1973.994          31.000
C23  22875764.359 5 119120109.528 5      -215.324          33.000
C25  23906551.680 8 124487686.921 8     -2912.363          51.000
C28  25222970.008 5 131342725.004 5      2626.934          32.000
E01  23669894.195 8 124386149.578 8      -185.617          51.000    23669897.047 8  95308854.094 8      -142.250          51.000
E13  25286903.203 5 132883573.305 5     -2259.578          32.000    25286912.805 5 101819884.084 5     -1731.153          35.000
E21  25498355.695 8 133994720.603 8     -2619.027          51.000    25498357.297 8 102671306.327 8     -2006.817          51.000
E33  25724567.031 7 135183614.013 7      2271.559          46.000    25724570.859 8 103582207.924 8      1740.674          51.000
> 2020 05 05 14 11 30.0000000  0 19        .000000000000
G18  20441832.031 8 107422626.053 8      -800.617          51.000    20441831.766 8  83705954.849 8      -623.858          50.000
G20  22935880.961 7 120528935.919 7      3049.402          44.000    22935885.234 7  93918635.466 7      2376.158          44.000
G21  20825809.422 8 109440391.204 8      -895.816          51.000    20825808.680 8  85278206.490 8      -698.039          50.000
G26  20301225.898 8 106683643.018 8       407.867          51.000    20301228.711 8  83130107.285 8       317.819          51.000
G31  23333662.297 6 122619163.352 6     -3136.180          41.000    23333655.867 6  95547432.895 6     -2443.779          41.000
R13  19754717.438 6 105489077.323 6     -2114.148          37.000    19754719.352 7  82047077.488 7     -1644.338          42.000
R22  22710220.898 6 121228660.768 6     -3502.332          37.000    22710227.180 5  94289020.245 5     -2724.036          31.000
R23  19337218.609 6 103441156.090 6      -566.465          39.000    19337222.766 4  80454189.887 4      -440.587          29.000
R24  20521177.047 6 109735892.665 6      2077.137          38.000    20521170.648 5  85350160.656 5      1615.551          30.000
C05  39615856.672 5 206290161.509 5        16.254          34.000    39615860.602 6 159516652.956 6        12.484          36.000
C11  21864442.398 8 113853990.259 8      -540.191          51.000    21864442.242 8  88039130.196 8      -417.740          51.000
C12  24506436.430 5 127611446.251 5     -2549.520          34.000    24506440.547 5  98677266.066 5     -1972.671          30.000
C23  22877044.281 5 119126786.317 5      -225.625          30.000
C25  23923362.695 8 124575222.561 8     -2915.168          51.000
C28  25207855.000 4 131263915.806 4      2628.602          29.000
E01  23670998.859 8 124391956.880 8      -193.223          51.000    23671002.383 8  95313303.831 8      -148.030          51.000
E13  25299819.625 5 132951448.300 5     -2257.996          32.000    25299829.688 5 101871892.964 5     -1729.575          34.000
E21  25513336.188 8 134073445.437 8     -2620.918          51.000    25513337.781 8 102731627.894 8     -2008.194          51.000
E33  25711624.414 7 135115601.519 7      2270.746          45.000    25711628.617 8 103530094.530 8      1739.943          51.000
> 2020 05 05 14 12  0.0000000  0 19        .000000000000
G18  20446460.750 8 107446950.501 8      -825.016          51.000    20446460.469 8  83724908.963 8      -642.869          50.000
G20  22918501.141 7 120437611.362 7      3035.062          42.000    22918505.906 7  93847473.476 7      2364.984          42.000
G21  20830971.555 8 109467518.926 8      -916.570          50.000    20830970.695 8  85299344.985 8      -714.208          50.000
G26  20298953.977 8 106671703.864 8       384.152          51.000    20298956.664 8  83120804.045 8       299.339          51.000
G31  23351595.312 6 122713389.658 6     -3149.613          40.000    23351586.539 6  95620855.903 6     -2454.247          40.000
