     3.02           OBSERVATION DATA    M (MIXED)           RINEX VERSION / TYPE
SAVERINEX           SC600               20200503 155931 LCL PGM / RUN BY / DATE
       G = GPS       R = GLONASS       C = COMPASS          COMMENT
       S = SBAS      J = QZSS          E = GALILEO          COMMENT
BEAN                                                        MARKER NAME
1                                                           MARKER NUMBER
GEODETIC                                                    MARKER TYPE
Unige DICCA         GTER                                    OBSERVER / AGENCY
SC60291900056       SC600               2.12(191226)        REC # / TYPE / VERS
                    HEMA45          NONE                    ANT # / TYPE
  4509407.8091   693652.4678  4442337.6214                  APPROX POSITION XYZ
        0.0000        0.0000        0.0000                  ANTENNA: DELTA H/E/N
G    8 C1C L1C D1C S1C C2Y L2Y D2Y S2Y                      SYS / # / OBS TYPES
R    8 C1C L1C D1C S1C C2P L2P D2P S2P                      SYS / # / OBS TYPES
C    8 C1I L1I D1I S1I C7I L7I D7I S7I                      SYS / # / OBS TYPES
E    8 C1C L1C D1C S1C C7Q L7Q D7Q S7Q                      SYS / # / OBS TYPES
DBHZ                                                        COMMENT
     30.000                                                 INTERVAL
  2020    05    03    13    00    0.0000000     GPS         TIME OF FIRST OBS
  2020    05    03    13    59   30.0000000     GPS         TIME OF LAST OBS
     0                                                      RCV CLOCK OFFS APPL
G L1C  0.00000                                              SYS / PHASE SHIFT
G L2Y  0.00000                                              SYS / PHASE SHIFT
R L1C  0.00000                                              SYS / PHASE SHIFT
R L2P  0.25000                                              SYS / PHASE SHIFT
C L1I  0.00000                                              SYS / PHASE SHIFT
C L7I  0.00000                                              SYS / PHASE SHIFT
E L1C  0.50000                                              SYS / PHASE SHIFT
E L7Q -0.25000                                              SYS / PHASE SHIFT
 14 R04  6 R05  1 R06 -4 R07  5 R09 -2 R10 -7 R11  0 R15  0 GLONASS SLOT / FRQ #
    R16 -1 R18 -3 R19  3 R20  2 R21  4 R22 -3               GLONASS SLOT / FRQ #
 C1C   71.950 C2C   71.950 C2P   71.950                     GLONASS COD/PHS/BIS
    18                                                      LEAP SECONDS
*** Above antenna height is from mark to ANTENNA BOTTOM.    COMMENT
    17     4        0.0000        ANT MEASURE TYPE/HEIGT    COMMENT
    0.0000    0.0000    0.0458    0.0405    0.0000          COMMENT
                    BASE STATION                            COMMENT
                                                            END OF HEADER
> 2020 05 03 13 00  0.0000000  0 15        .000000000000
G18  21024905.305 8 110486658.804 8      2072.359          51.000    21024906.453 8  86093510.770 8      1614.825          48.000
G21  21138859.773 8 111085473.252 8      1648.844          51.000    21138859.172 7  86560068.079 7      1284.816          46.000
G25  22442264.641 6 117934891.917 6     -2839.449          36.000    22442268.648 6  91897309.453 6     -2212.555          36.000
G29  20846561.930 8 109549430.857 8     -1624.059          51.000    20846561.609 8  85363186.210 8     -1265.503          51.000
G31  21291728.141 8 111888779.548 8     -1013.266          48.000    21291727.016 8  87186079.113 8      -789.558          48.000
R09  22913393.008 6 122356169.632 6     -4163.613          39.000    22913394.617 5  95166027.180 5     -3238.369          32.000
R10  20027794.891 8 106759401.917 8     -2490.570          48.000
R21  19677601.430 8 105298835.006 8      1541.602          49.000    19677603.203 7  81899091.981 7      1199.026          46.000
C05  39628847.219 5 206357805.256 5        18.234          35.000    39628845.922 6 159568941.616 6        14.583          36.000
C23  26073158.531 5 135769767.157 5     -3424.113          34.000
C27  22243741.289 8 115829172.446 8      1644.215          51.000
C28  21901819.312 8 114048509.174 8     -1312.234          51.000
E02  23293922.969 8 122410377.968 8      -599.613          51.000    23293924.906 8  93794972.665 8      -459.489          51.000
E25  26491275.219 7 139212554.484 7     -2593.617          47.000    26491277.773 8 106669357.069 8     -1987.311          48.000
E36  23303422.508 8 122460348.398 8      -507.320          51.000    23303425.719 8  93833271.304 8      -388.687          51.000
> 2020 05 03 13 00 30.0000000  0 15        .000000000000
G18  21013108.977 8 110424667.466 8      2057.887          51.000    21013109.508 8  86045205.853 8      1603.548          48.000
G21  21129479.156 8 111036179.303 8      1634.871          50.000    21129479.344 7  86521657.218 7      1273.926          47.000
G25  22458485.016 5 118020131.047 5     -2845.387          34.000    22458486.547 5  91963729.587 5     -2217.188          34.000
G29  20855847.945 8 109598229.304 8     -1631.633          51.000    20855847.578 8  85401210.959 8     -1271.402          51.000
G31  21297552.102 7 111919386.027 7     -1029.562          47.000    21297550.836 7  87209928.317 7      -802.256          47.000
R09  22936793.352 6 122481118.674 6     -4168.449          39.000    22936794.617 5  95263209.657 5     -3242.130          33.000
R10  20041853.930 8 106834345.438 8     -2508.168          48.000
R21  19669001.656 8 105252816.822 8      1523.699          51.000    19669003.422 7  81863300.077 7      1185.102          47.000
C05  39628727.875 5 206357183.931 5        20.637          35.000    39628726.453 6 159568460.439 6        16.051          36.000
C23  26092879.156 5 135872458.054 5     -3424.875          34.000
C27  22234287.359 8 115779940.008 8      1635.570          51.000
C28  21909394.750 8 114087955.959 8     -1320.047          51.000
E02  23297364.078 8 122428462.254 8      -608.414          51.000    23297366.156 8  93808829.446 8      -466.223          51.000
E25  26506083.656 7 139290377.459 7     -2597.098          46.000    26506087.961 8 106728987.615 8     -1989.876          48.000
E36  23306340.008 8 122475680.166 8      -517.395          51.000    23306343.164 8  93845019.021 8      -396.451          51.000
> 2020 05 03 13 01  0.0000000  0 15        .000000000000
G18  21001408.758 8 110363181.162 8      2041.137          51.000    21001408.875 8  85997294.467 8      1590.496          48.000
G21  21120190.750 8 110987370.872 8      1618.887          49.000    21120191.250 7  86483624.664 7      1261.470          46.000
G25  22474753.547 6 118105621.871 6     -2853.637          38.000    22474754.250 6  92030345.759 6     -2223.616          39.000
G29  20865190.430 8 109647324.157 8     -1641.402          51.000    20865190.102 8  85439466.675 8     -1279.018          51.000
G31  21303483.016 7 111950555.025 7     -1048.305          47.000    21303481.812 7  87234215.848 7      -816.861          47.000
R09  22960235.938 6 122606295.633 6     -4176.023          37.000    22960237.719 5  95360569.388 5     -3248.024          34.000
R10  20056025.781 8 106909890.441 8     -2528.109          48.000
R21  19660516.234 8 105207407.068 8      1503.523          51.000    19660518.164 8  81827981.367 8      1169.407          48.000
C05  39628610.102 5 206356571.674 5        20.172          35.000    39628608.750 6 159567985.218 6        15.719          36.000
C23  26112614.492 5 135975231.041 5     -3426.645          34.000
C27  22224896.125 8 115731037.960 8      1624.582          51.000
C28  21917028.438 8 114127707.099 8     -1330.070          51.000
E02  23300868.578 8 122446878.654 8      -619.387          51.000    23300870.781 8  93822940.700 8      -474.568          51.000
E25  26520925.312 7 139368374.258 7     -2602.758          47.000    26520930.867 8 106788751.355 8     -1994.315          49.000
E36  23309328.234 8 122491383.580 8      -529.547          51.000    23309331.445 8  93857051.495 8      -405.766          51.000
> 2020 05 03 13 01 30.0000000  0 15        .000000000000
G18  20989805.047 8 110302202.195 8      2027.195          51.000    20989804.914 8  85949778.419 8      1579.633          48.000
G21  21110994.977 8 110939049.351 8      1605.672          48.000    21110995.539 7  86445971.523 7      1251.173          47.000
G25  22491071.062 7 118191364.041 7     -2859.125          42.000    22491072.070 6  92097157.821 6     -2227.890          41.000
G29  20874589.164 8 109696714.632 8     -1648.055          51.000    20874588.781 8  85477952.747 8     -1284.198          51.000
G31  21309520.930 7 111982286.182 7     -1063.938          46.000    21309519.977 7  87258941.393 7      -829.045          46.000
R09  22983719.750 5 122731698.213 5     -4180.684          35.000    22983722.844 5  95458104.621 5     -3251.646          30.000
R10  20070309.984 8 106986035.182 8     -2544.973          48.000
R21  19652144.289 8 105162606.912 8      1486.402          50.000    19652146.703 8  81793136.797 8      1156.091          48.000
C05  39628494.234 6 206355967.949 6        22.426          36.000    39628492.781 6 159567518.401 6        17.731          36.000
C23  26132364.062 5 136078085.142 5     -3427.027          33.000
C27  22215568.266 8 115682467.045 8      1616.625          51.000
C28  21924720.469 8 114167761.736 8     -1337.039          51.000
E02  23304436.570 8 122465628.099 8      -627.438          51.000    23304438.672 8  93837307.146 8      -480.752          51.000
E25  26535800.297 7 139446544.651 7     -2605.434          46.000    26535806.852 8 106848648.111 8     -1996.290          50.000
E36  23312387.203 8 122507458.195 8      -538.797          51.000    23312390.477 8  93869368.421 8      -412.904          51.000
> 2020 05 03 13 02  0.0000000  0 15        .000000000000
G18  20978283.070 8 110241652.816 8      1996.445          51.000    20978282.297 8  85902597.085 8      1555.672          49.000
G21  21101877.266 8 110891135.913 8      1575.539          50.000    21101877.445 7  86408636.367 7      1227.693          47.000
G25  22507420.977 7 118277277.189 7     -2881.281          42.000    22507422.094 7  92164103.038 7     -2245.157          42.000
G29  20884028.734 8 109746319.752 8     -1671.770          51.000    20884028.172 8  85516606.074 8     -1302.678          51.000
G31  21315650.664 7 112014498.389 7     -1096.641          47.000    21315650.094 7  87284041.778 7      -854.528          47.000
R09  23007228.984 5 122857242.630 5     -4201.793          32.000    23007235.070 4  95555750.292 4     -3268.058          25.000
R10  20084691.273 8 107062697.724 8     -2578.941          49.000
R21  19643870.984 8 105118335.415 8      1451.969          50.000    19643873.555 7  81758703.420 7      1129.309          47.000
C05  39628364.992 5 206355295.007 5         8.633          35.000    39628363.570 5 159566998.059 5         6.971          35.000
C23  26152113.500 5 136180918.692 5     -3442.582          30.000
C27  22206289.062 8 115634148.676 8      1591.805          51.000
C28  21932455.594 8 114208039.758 8     -1360.852          51.000
E02  23308052.812 8 122484631.480 8      -652.391          51.000    23308054.695 8  93851868.166 8      -499.884          51.000
E25  26550693.008 7 139524808.559 7     -2625.008          45.000    26550700.875 8 106908616.503 8     -2011.358          51.000
E36  23315501.641 8 122523823.620 8      -564.992          51.000    23315504.625 8  93881908.157 8      -432.928          51.000
> 2020 05 03 13 02 30.0000000  0 14        .000000000000
G18  20966882.695 8 110181743.267 8      1992.918          50.000    20966881.586 8  85855914.325 8      1552.923          49.000
G21  21092877.594 8 110843840.401 8      1572.961          51.000    21092876.617 7  86371782.731 7      1225.684          47.000
G25  22523842.797 7 118363568.784 7     -2875.918          44.000    22523843.391 7  92231343.252 7     -2240.975          44.000
G29  20893548.484 8 109796346.802 8     -1667.918          51.000    20893547.922 8  85555588.182 8     -1299.676          51.000
G31  21321911.758 8 112047399.587 8     -1101.547          48.000    21321912.102 8  87309679.067 8      -858.348          48.000
R09  23030804.078 5 122983138.513 5     -4195.703          32.000    23030813.008 5  95653620.357 5     -3263.325          30.000
R10  20099209.766 8 107140087.380 8     -2585.059          50.000
R21  19635736.375 8 105074805.239 8      1445.523          50.000    19635738.984 7  81724846.647 7      1124.296          47.000
C05  39628262.133 5 206354759.483 5        22.480          35.000    39628260.664 6 159566583.960 6        17.329          36.000
C27  22197098.211 8 115586289.729 8      1594.316          51.000
C28  21940272.859 8 114248746.408 8     -1357.395          51.000
E02  23311756.945 8 122504097.728 8      -649.957          51.000    23311758.789 8  93866783.837 8      -498.037          51.000
E25  26565643.094 7 139603373.823 7     -2617.191          45.000    26565652.469 8 106968815.793 8     -2005.449          51.000
E36  23318710.805 8 122540687.388 8      -563.883          51.000    23318713.383 8  93894829.737 8      -432.069          51.000
> 2020 05 03 13 03  0.0000000  0 14        .000000000000
G18  20955557.305 8 110122229.197 8      1974.855          50.000    20955556.742 8  85809539.728 8      1538.848          48.000
G21  21083948.945 8 110796917.810 8      1555.648          51.000    21083946.984 7  86335219.707 7      1212.197          47.000
G25  22540289.203 7 118449991.979 7     -2885.516          42.000    22540289.711 7  92298685.925 7     -2248.457          42.000
G29  20903101.367 8 109846548.235 8     -1678.570          51.000    20903101.031 8  85594706.175 8     -1307.977          51.000
G31  21328256.875 8 112080742.602 8     -1121.168          49.000    21328257.875 8  87335660.627 8      -873.637          49.000
R10  20113817.812 8 107217952.679 8     -2605.770          50.000
R21  19627692.742 8 105031765.793 8      1424.168          49.000    19627696.000 7  81691371.588 7      1107.686          47.000
C05  39628138.797 5 206354116.661 5        20.648          35.000    39628137.398 6 159566087.668 6        16.066          36.000
C23  26191700.938 4 136387059.846 4     -3435.293          28.000
C27  22187948.859 8 115538646.583 8      1582.203          51.000
C28  21948125.172 8 114289636.538 8     -1368.363          51.000
E02  23315502.469 8 122523781.133 8      -662.109          51.000    23315504.273 8  93881865.895 8      -507.274          51.000
E25  26580603.891 7 139681993.705 7     -2623.816          46.000    26580613.898 8 107029056.937 8     -2010.475          50.000
E36  23321967.781 8 122557802.474 8      -577.016          51.000    23321970.312 8  93907943.896 8      -442.096          51.000
> 2020 05 03 13 03 30.0000000  0 14        .000000000000
G18  20944325.820 8 110063208.090 8      1958.613          51.000    20944325.805 7  85763549.260 7      1526.192          47.000
G21  21075109.430 8 110750464.254 8      1540.195          51.000    21075107.289 8  86299022.168 8      1200.155          48.000
G25  22556777.719 6 118536641.453 6     -2892.398          41.000    22556778.656 7  92366204.900 7     -2253.814          42.000
G29  20912705.469 8 109897018.599 8     -1687.238          51.000    20912705.266 8  85634033.715 8     -1314.731          51.000
G31  21334704.094 8 112114621.862 8     -1138.625          49.000    21334704.852 8  87362060.050 8      -887.240          49.000
R10  20128532.742 8 107296389.099 8     -2624.418          50.000
R21  19619759.242 8 104989314.877 8      1404.770          49.000    19619762.867 7  81658354.227 7      1092.599          47.000
C05  39628013.430 6 206353464.446 6        21.223          36.000    39628011.930 6 159565582.532 6        16.831          36.000
C27  22178859.500 8 115491314.330 8      1572.184          51.000
C28  21956030.828 8 114330803.670 8     -1377.258          51.000
E02  23319307.773 8 122543777.810 8      -672.285          51.000    23319309.508 8  93897188.005 8      -515.131          51.000
E11  25927150.422 5 136248094.968 5     -2674.836          31.000
E25  26595593.805 7 139760763.295 7     -2628.695          47.000    26595602.891 8 107089412.807 8     -2014.114          48.000
E36  23325290.672 8 122575263.745 8      -588.223          51.000    23325293.234 8  93921323.308 8      -450.779          51.000
> 2020 05 03 13 04  0.0000000  0 14        .000000000000
G18  20933195.039 8 110004715.378 8      1935.344          51.000    20933194.867 7  85717970.526 7      1508.060          46.000
G21  21066365.812 8 110704514.880 8      1517.516          51.000    21066364.000 8  86263217.484 8      1182.483          50.000
G25  22573314.992 6 118623550.200 6     -2906.809          40.000    22573315.469 6  92433925.951 6     -2265.046          39.000
G29  20922366.906 8 109947790.245 8     -1703.000          51.000    20922366.766 8  85673596.036 8     -1327.013          51.000
G31  21341259.438 8 112149070.036 8     -1163.500          49.000    21341259.008 8  87388902.757 8      -906.626          49.000
R10  20143360.305 8 107375428.843 8     -2650.398          49.000
R21  19611942.609 8 104947486.993 8      1378.035          50.000    19611945.945 7  81625821.457 7      1071.805          47.000
C05  39627892.141 5 206352833.297 5        14.879          35.000
C27  22169836.609 8 115444326.692 8      1554.879          51.000
C28  21963995.859 8 114372279.942 8     -1393.301          51.000
E02  23323179.133 8 122564121.915 8      -689.582          51.000    23323180.961 8  93912776.324 8      -528.384          51.000
E11  25942434.469 5 136328412.782 5     -2685.434          31.000
E25  26610618.688 7 139839715.661 7     -2640.426          47.000    26610625.625 7 107149908.772 7     -2023.219          46.000
E36  23328685.523 8 122593103.967 8      -606.594          51.000    23328688.047 8  93934993.092 8      -464.846          51.000
> 2020 05 03 13 04 30.0000000  0 14        .000000000000
G18  20922184.875 8 109946856.773 8      1923.418          51.000    20922184.242 7  85672885.927 7      1498.770          46.000
G21  21057738.031 8 110659174.524 8      1506.480          51.000    21057736.461 8  86227887.344 8      1173.884          50.000
G25  22589921.367 6 118710821.369 6     -2910.066          39.000    22589921.945 6  92501929.378 6     -2267.587          40.000
G29  20932105.211 8 109998965.700 8     -1707.262          51.000    20932105.094 8  85713473.020 8     -1330.334          51.000
G31  21347942.633 8 112184189.915 8     -1176.430          49.000    21347940.297 8  87416268.865 8      -916.698          49.000
R10  20158320.328 8 107455175.479 8     -2664.730          48.000
R21  19604262.664 8 104906388.309 8      1363.250          51.000    19604265.555 8  81593855.856 8      1060.306          48.000
C05  39627794.820 5 206352325.329 5        20.445          35.000    39627793.781 6 159564704.278 6        15.562          36.000
C23  26251151.523 5 136696633.035 5     -3442.352          30.000
C27  22160899.398 8 115397786.903 8      1549.152          51.000
C28  21972039.766 8 114414167.079 8     -1397.766          51.000
E02  23327136.523 8 122584917.859 8      -695.344          51.000    23327138.547 8  93928710.860 8      -532.781          51.000
E25  26625697.844 7 139918954.214 7     -2640.621          47.000    26625703.453 7 107210623.944 7     -2023.291          46.000
E36  23332172.047 8 122611426.241 8      -613.461          51.000    23332174.609 8  93949032.233 8      -469.977          51.000
> 2020 05 03 13 05  0.0000000  0 14        .000000000000
G18  20911251.297 8 109889400.781 8      1906.172          50.000    20911250.570 7  85628115.080 7      1485.329          47.000
G21  21049181.844 8 110614211.153 8      1490.070          51.000    21049180.516 8  86192850.955 8      1161.094          49.000
G25  22606552.430 6 118798220.899 6     -2918.074          40.000    22606553.492 6  92570032.846 6     -2273.830          40.000
G29  20941875.828 8 110050310.822 8     -1716.680          51.000    20941875.719 8  85753482.204 8     -1337.672          51.000
G31  21354709.109 8 112219747.181 8     -1194.777          50.000    21354705.945 8  87443975.793 8      -930.995          50.000
R10  20173367.938 7 107535390.558 7     -2684.090          47.000
R21  19596674.789 8 104865781.478 8      1342.945          50.000    19596677.328 8  81562272.739 8      1044.510          48.000
C05  39627677.133 5 206351713.626 5        19.789          35.000    39627676.367 6 159564231.276 6        15.275          36.000
C23  26270988.008 5 136799929.993 5     -3445.277          30.000
C27  22152003.477 8 115351464.218 8      1538.094          51.000
C28  21980117.984 8 114456232.731 8     -1407.473          51.000
E02  23331135.719 8 122605932.864 8      -706.484          51.000    23331137.781 8  93944813.260 8      -541.311          51.000
E25  26640786.680 7 139998245.170 7     -2646.383          47.000    26640790.992 7 107271379.238 7     -2027.688          44.000
E36  23335705.883 8 122629996.482 8      -625.473          51.000    23335708.523 8  93963261.379 8      -479.249          51.000
> 2020 05 03 13 05 30.0000000  0 16        .000000000000
G18  20900407.641 8 109832417.181 8      1897.750          50.000    20900406.797 7  85583712.310 7      1478.766          46.000
G21  21040710.344 8 110569693.910 8      1482.770          50.000    21040709.148 8  86158162.192 8      1155.405          49.000
G25  22623221.398 6 118885815.821 6     -2916.719          40.000    22623222.945 6  92638288.663 6     -2272.765          40.000
G29  20951691.500 8 110101892.089 8     -1717.031          51.000    20951691.203 8  85793675.403 8     -1337.946          51.000
G31  21361571.578 8 112255808.874 8     -1204.246          51.000    21361569.242 8  87472075.790 8      -938.374          51.000
R09  23172968.398 5 123742366.907 5     -4229.320          32.000    23172970.227 5  96244064.783 5     -3289.477          34.000
R10  20188516.555 8 107616141.126 8     -2694.336          48.000
R21  19589191.641 8 104825735.799 8      1331.871          49.000    19589193.617 8  81531126.088 8      1035.900          48.000
C05  39627552.281 5 206351062.769 5        27.984          35.000    39627551.586 5 159563728.733 5        21.999          35.000
C23  26290826.094 5 136903237.513 5     -3437.488          31.000
C27  22143162.195 8 115305426.249 8      1536.066          51.000
C28  21988243.031 8 114498543.015 8     -1408.215          51.000
E02  23335189.633 8 122627235.402 8      -708.578          51.000    23335191.688 8  93961135.987 8      -542.925          51.000
E11  25988443.031 5 136570186.464 5     -2682.820          34.000
E25  26655898.477 8 140077655.874 8     -2642.621          48.000    26655900.984 7 107332226.334 7     -2024.961          44.000
E36  23339299.523 8 122648881.804 8      -628.453          51.000    23339302.453 8  93977731.954 8      -481.545          51.000
> 2020 05 03 13 06  0.0000000  0 16        .000000000000
G18  20889662.938 8 109775955.401 8      1871.656          48.000    20889662.266 7  85539716.129 7      1458.433          46.000
G21  21032332.438 8 110525670.630 8      1457.508          48.000    21032331.406 8  86123858.334 8      1135.720          48.000
G25  22639935.469 6 118973653.187 6     -2933.941          37.000    22639938.602 5  92706733.412 5     -2286.188          35.000
G29  20961561.070 8 110153756.295 8     -1735.129          51.000    20961560.453 8  85834089.056 8     -1352.048          51.000
G31  21368538.938 8 112292421.722 8     -1231.156          51.000    21368538.055 8  87500605.254 8      -959.343          51.000
R09  23196789.664 5 123869550.103 5     -4244.004          35.000    23196788.992 5  96342984.953 5     -3300.895          34.000
R10  20203774.273 8 107697473.904 8     -2722.336          49.000
R21  19581822.242 8 104786300.035 8      1302.719          49.000    19581823.812 8  81500453.821 8      1013.226          48.000
C05  39627429.172 5 206350422.103 5        19.688          35.000    39627428.531 6 159563233.365 6        15.076          36.000
C23  26310677.758 5 137006621.393 5     -3448.793          34.000
C27  22134384.352 8 115259720.589 8      1516.461          51.000
C28  21996424.039 8 114541143.969 8     -1426.477          51.000
E02  23339307.641 8 122648873.606 8      -728.488          51.000    23339309.336 8  93977715.909 8      -558.195          51.000
E11  26003811.641 5 136650950.683 5     -2695.578          34.000
E25  26671042.023 8 140157233.556 8     -2656.867          49.000    26671043.820 7 107393201.354 7     -2035.769          43.000
E36  23342962.070 8 122668129.023 8      -649.176          51.000    23342965.172 8  93992479.837 8      -497.390          51.000
> 2020 05 03 13 06 30.0000000  0 15        .000000000000
G18  20879025.000 7 109720056.576 7      1855.223          46.000    20879025.188 7  85496158.612 7      1445.628          45.000
G21  21024056.305 8 110482182.143 8      1442.094          49.000    21024055.523 8  86089971.215 8      1123.712          49.000
G25  22656702.492 6 119061771.672 6     -2940.473          37.000    22656707.727 6  92775397.146 6     -2291.277          37.000
G29  20971491.680 8 110205941.548 8     -1743.512          51.000    20971490.828 8  85874752.878 8     -1358.581          51.000
G31  21375618.383 8 112329623.922 8     -1248.617          51.000    21375618.508 8  87529593.973 8      -972.952          51.000
R10  20219148.172 8 107779426.933 8     -2740.656          48.000
R21  19574574.203 8 104747514.599 8      1283.340          50.000    19574575.867 8  81470287.391 8       998.153          48.000
C05  39627315.469 6 206349829.914 6        20.145          36.000    39627314.703 6 159562775.392 6        15.791          36.000
C23  26330550.656 6 137110108.128 6     -3450.184          36.000
C27  22125677.742 8 115214386.554 8      1506.301          51.000
C28  22004668.352 8 114584073.419 8     -1435.125          51.000
E02  23343497.180 8 122670887.363 8      -738.629          51.000    23343498.398 8  93994583.593 8      -565.947          51.000
E11  26019209.547 5 136731866.326 5     -2698.895          34.000
E25  26686225.086 8 140237017.016 8     -2661.547          50.000    26686225.375 7 107454334.118 7     -2039.358          45.000
E36  23346701.086 8 122687776.726 8      -660.227          51.000    23346704.000 8  94007534.575 8      -505.888          51.000
> 2020 05 03 13 07  0.0000000  0 16        .000000000000
G18  20868489.094 7 109664694.056 7      1833.484          45.000    20868490.047 7  85453018.974 7      1428.686          45.000
G21  21015877.195 8 110439201.080 8      1421.250          51.000    21015876.281 8  86056479.485 8      1107.468          49.000
G25  22673518.812 6 119150141.965 6     -2952.875          41.000    22673524.680 6  92844257.097 6     -2300.942          41.000
G29  20981477.680 8 110258418.181 8     -1757.012          51.000    20981476.914 8  85915643.754 8     -1369.100          51.000
G31  21382804.117 8 112367385.691 8     -1271.027          50.000    21382804.594 8  87559018.704 8      -990.411          50.000
R10  20234632.758 7 107861969.669 7     -2764.141          47.000
R21  19567442.227 8 104709350.647 8      1258.754          48.000    19567444.188 8  81440604.291 8       979.031          48.000
R22  23279772.875 6 124269022.110 6      3857.191          36.000    23279772.195 4  96653670.828 4      3000.032          29.000
C05  39627205.695 5 206349258.170 5        15.969          35.000    39627204.758 6 159562333.268 6        12.674          36.000
C23  26350438.406 6 137213668.020 6     -3455.973          36.000
C27  22117037.586 8 115169396.315 8      1491.016          51.000
C28  22012970.078 8 114627302.062 8     -1448.844          51.000
E02  23347752.602 8 122693248.775 8      -754.023          51.000    23347753.609 8  94011717.648 8      -577.758          51.000
E11  26034630.922 5 136812905.608 5     -2706.180          34.000    26034636.070 5 104830690.412 5     -2073.614          32.000
E25  26701441.859 8 140316977.336 8     -2671.195          51.000    26701441.641 7 107515602.344 7     -2046.676          47.000
E36  23350510.516 8 122707795.619 8      -676.395          51.000    23350513.469 8  94022873.727 8      -518.246          51.000
> 2020 05 03 13 07 30.0000000  0 16        .000000000000
G18  20858042.883 7 109609799.881 7      1821.152          46.000    20858044.133 7  85410244.276 7      1419.080          46.000
G21  21007781.867 8 110396658.709 8      1409.910          51.000    21007780.891 8  86023329.606 8      1098.631          49.000
G25  22690369.852 6 119238693.646 6     -2955.758          39.000    22690374.844 6  92913258.353 6     -2303.191          39.000
G29  20991505.672 8 110311115.707 8     -1761.109          51.000    20991505.141 8  85956706.758 8     -1372.293          51.000
G31  21390082.938 8 112405636.732 8     -1283.934          50.000    21390082.672 8  87588824.699 8     -1000.468          50.000
R09  23268484.055 4 124252391.237 4     -4261.824          29.000    23268484.672 4  96640762.404 4     -3314.752          27.000
R10  20250213.961 7 107945028.943 7     -2778.180          46.000
R21  19560412.914 8 104671737.341 8      1243.746          50.000    19560415.461 8  81411349.513 8       967.358          49.000
R22  23258087.578 6 124153278.540 6      3854.516          38.000    23258090.039 5  96563648.128 5      2997.957          34.000
C05  39627086.719 5 206348638.107 5        20.391          35.000    39627085.781 6 159561852.787 6        16.015          36.000
C27  22108450.625 8 115124681.141 8      1485.156          51.000
C28  22021315.805 8 114670759.647 8     -1453.176          51.000
E02  23352060.758 8 122715888.679 8      -760.223          51.000    23352061.609 8  94029065.090 8      -582.493          51.000
E11  26050062.484 5 136894001.624 5     -2704.910          33.000    26050067.656 5 104892827.396 5     -2072.758          33.000
E25  26716678.586 8 140397044.334 8     -2671.516          51.000    26716678.703 8 107576952.291 8     -2046.937          48.000
E36  23354377.250 8 122728115.227 8      -683.145          51.000    23354380.297 8  94038443.306 8      -523.484          51.000
> 2020 05 03 13 08  0.0000000  0 16        .000000000000
G18  20847702.406 7 109555459.340 7      1804.477          47.000    20847704.023 8  85367901.006 8      1406.086          48.000
G21  20999786.125 8 110354639.558 8      1394.398          51.000    20999785.250 8  85990587.435 8      1086.544          49.000
G25  22707271.109 6 119327509.514 6     -2962.434          38.000    22707274.859 6  92982465.443 6     -2308.396          37.000
G29  21001591.281 8 110364116.027 8     -1769.316          51.000    21001590.789 8  85998005.706 8     -1378.688          51.000
G31  21397470.367 8 112444458.838 8     -1301.125          49.000    21397468.648 8  87619075.680 8     -1013.864          49.000
R09  23292444.086 5 124380347.530 5     -4266.809          35.000
R10  20265907.766 7 108028688.148 7     -2796.238          46.000
R21  19553502.906 8 104634759.999 8      1224.422          49.000    19553505.328 8  81382589.371 8       952.328          48.000
R22  23236452.070 5 124037801.655 5      3847.008          35.000    23236456.273 5  96473832.773 5      2992.117          35.000
C05  39626974.453 5 206348053.742 5        21.836          35.000    39626973.484 6 159561401.170 6        16.592          36.000
C27  22099932.547 8 115080324.230 8      1474.934          51.000
C28  22029721.234 8 114714527.872 8     -1461.719          51.000
E02  23356438.055 8 122738891.101 8      -770.344          51.000    23356438.516 8  94046690.310 8      -590.245          51.000
E11  26065520.211 5 136975232.643 5     -2707.191          33.000    26065525.242 5 104955069.318 5     -2074.545          33.000
E25  26731951.125 8 140477301.003 8     -2675.996          50.000    26731951.961 8 107638447.576 8     -2050.409          49.000
E36  23358317.180 8 122748818.302 8      -694.035          51.000    23358320.125 8  94054306.697 8      -531.772          51.000
> 2020 05 03 13 08 30.0000000  0 16        .000000000000
G18  20837462.977 8 109501649.039 8      1785.402          48.000    20837464.758 8  85325970.929 8      1391.223          48.000
G21  20991885.312 8 110313119.790 8      1376.211          51.000    20991884.438 8  85958234.393 8      1072.372          48.000
G25  22724218.086 6 119416563.888 6     -2972.344          41.000    22724221.219 6  93051858.327 6     -2316.115          41.000
G29  21011729.555 8 110417393.083 8     -1779.980          51.000    21011728.789 8  86039520.283 8     -1386.998          51.000
G31  21404961.445 8 112483825.923 8     -1320.816          50.000    21404958.367 8  87649751.306 8     -1029.208          50.000
R09  23316440.758 5 124508511.408 5     -4274.699          35.000
R10  20281709.500 7 108112919.649 7     -2816.695          47.000
R21  19546706.734 8 104598393.288 8      1202.629          50.000    19546709.125 8  81354304.177 8       935.378          48.000
R22  23214861.039 5 123922568.267 5      3837.500          35.000    23214868.656 6  96384206.754 6      2984.716          39.000
C05  39626863.969 5 206347478.505 5        19.789          35.000    39626863.016 6 159560956.333 6        15.239          36.000
C27  22091478.281 8 115036301.042 8      1462.398          51.000
C28  22038181.273 8 114758580.661 8     -1472.633          51.000
E02  23360879.477 8 122762231.454 8      -783.141          51.000    23360879.922 8  94064574.457 8      -600.006          51.000
E11  26080999.203 5 137056575.360 5     -2713.047          33.000    26081003.695 5 105017396.015 5     -2078.562          33.000
E25  26747254.750 8 140557721.754 8     -2682.793          50.000    26747256.570 8 107700068.585 8     -2055.668          49.000
E36  23362324.852 8 122769878.878 8      -707.430          51.000    23362327.789 8  94070444.041 8      -542.033          51.000
> 2020 05 03 13 09  0.0000000  0 16        .000000000000
G18  20827321.023 8 109448350.522 8      1767.102          49.000    20827322.641 8  85284439.615 8      1376.965          49.000
G21  20984075.406 8 110272079.438 8      1359.082          50.000    20984074.602 8  85926254.924 8      1059.025          49.000
G25  22741207.148 7 119505835.586 7     -2980.238          44.000    22741209.664 7  93121420.632 7     -2322.267          44.000
G29  21021916.484 8 110470925.590 8     -1789.586          51.000    21021915.438 8  86081233.911 8     -1394.483          51.000
G31  21412552.336 8 112523716.748 8     -1339.336          51.000    21412549.062 8  87680835.064 8     -1043.638          51.000
R09  23340470.258 4 124636839.576 4     -4281.000          29.000    23340491.836 4  96939782.452 4     -3329.670          28.000
R10  20297614.828 8 108197701.075 8     -2836.098          48.000
R21  19540021.188 8 104562616.374 8      1181.926          51.000    19540023.609 8  81326477.703 8       919.276          48.000
R22  23193313.242 5 123807559.609 5      3829.020          31.000    23193323.430 6  96294755.574 6      2978.120          39.000
C05  39626751.773 6 206346895.006 6        18.801          36.000    39626750.734 6 159560503.957 6        14.626          36.000
C27  22083084.227 8 114992591.813 8      1450.902          51.000
C28  22046691.828 8 114802896.821 8     -1482.504          51.000
E02  23365381.055 8 122785890.009 8      -794.812          51.000    23365382.000 8  94082702.403 8      -608.925          51.000
E11                                                                  26096499.094 5 105079791.068 5     -2081.387          33.000
E25  26762585.586 8 140638285.808 8     -2688.754          48.000    26762588.203 8 107761799.443 8     -2060.187          51.000
E36  23366396.594 8 122791275.945 8      -719.762          51.000    23366399.398 8  94086839.197 8      -551.470          51.000
> 2020 05 03 13 09 30.0000000  0 15        .000000000000
G18  20817278.141 8 109395573.410 8      1750.949          49.000    20817279.820 8  85243314.581 8      1364.376          49.000
G21  20976358.266 8 110231527.677 8      1344.133          48.000    20976357.695 8  85894656.161 8      1047.376          48.000
G25  22758238.773 7 119595331.917 7     -2986.391          45.000    22758240.891 7  93191158.012 7     -2327.058          45.000
G29  21032153.352 8 110524720.434 8     -1797.047          51.000    21032152.281 8  86123151.953 8     -1400.296          51.000
G31  21420244.250 8 112564138.224 8     -1355.688          51.000    21420241.781 8  87712332.323 8     -1056.380          51.000
R10  20313624.547 8 108283038.567 8     -2853.320          49.000
R21  19533447.578 8 104527437.771 8      1163.156          51.000    19533449.836 7  81299116.600 7       904.677          47.000
R22  23171809.930 6 123692786.085 6      3822.430          37.000    23171821.375 6  96205487.263 6      2973.001          37.000
C05  39626639.148 5 206346307.984 5        19.496          35.000    39626638.234 6 159560050.371 6        15.550          36.000
C27  22074752.516 8 114949204.834 8      1441.328          51.000
C28  22055254.164 8 114847483.129 8     -1490.203          51.000
E02  23369944.977 8 122809875.232 8      -804.477          51.000    23369946.219 8  94101080.664 8      -616.429          51.000
E11  26112011.336 5 137219546.945 5     -2718.918          33.000    26112012.867 5 105142259.641 5     -2083.252          32.000
E25  26777944.258 7 140719000.686 7     -2692.605          46.000    26777948.758 8 107823645.823 8     -2063.147          51.000
E36  23370533.680 8 122813016.640 8      -729.910          51.000    23370536.641 8  94103497.655 8      -559.330          51.000
> 2020 05 03 13 10  0.0000000  0 17        .000000000000
G18  20807336.406 8 109343328.256 8      1732.637          50.000    20807338.141 8  85202604.087 8      1350.107          50.000
G21  20968735.781 7 110191474.528 7      1326.746          46.000    20968735.852 7  85863445.916 7      1033.828          47.000
G25  22775314.344 7 119685061.021 7     -2995.133          43.000    22775316.844 7  93261076.773 7     -2333.870          43.000
G29  21042441.719 8 110578785.850 8     -1806.590          51.000    21042440.812 8  86165280.835 8     -1407.732          51.000
G31  21428038.695 8 112605098.047 8     -1374.293          51.000    21428037.031 8  87744249.051 8     -1070.878          51.000
R09  23388638.805 5 124894041.913 5     -4292.500          32.000    23388640.484 5  97139810.494 5     -3338.620          33.000
R10  20329739.742 8 108368939.307 8     -2872.770          48.000
R11  19586959.156 5 104666777.449 5      1613.062          34.000    19586957.148 4  81407493.594 4      1254.607          29.000
R21  19526987.195 8 104492866.456 8      1142.180          51.000    19526989.164 7  81272227.846 7       888.362          46.000
R22  23150353.828 6 123578259.070 6      3813.473          41.000    23150365.312 6  96116410.777 6      2966.040          37.000
C05  39626527.867 5 206345729.398 5        19.730          35.000    39626527.188 6 159559602.600 6        14.553          37.000
C27  22066484.844 8 114906149.243 8      1429.621          51.000
C28  22063869.922 8 114892347.272 8     -1500.043          51.000
E02  23374573.148 8 122834196.514 8      -816.336          51.000    23374574.430 8  94119716.428 8      -625.453          51.000
E11                                                                  26127546.445 5 105204807.613 5     -2086.353          33.000
E25  26793333.039 7 140799874.769 7     -2698.305          44.000    26793339.203 8 107885614.199 8     -2067.517          51.000
E36  23374737.602 8 122835109.030 8      -742.238          51.000    23374740.836 8  94120425.596 8      -568.677          51.000
> 2020 05 03 13 10 30.0000000  0 16        .000000000000
G18  20797493.750 8 109291603.552 8      1715.531          50.000    20797495.430 8  85162299.149 8      1336.778          50.000
G21  20961206.258 8 110151907.459 8      1310.918          49.000    20961206.789 8  85832614.459 8      1021.495          49.000
G25  22792430.742 6 119775009.046 6     -3002.008          40.000    22792434.062 6  93331166.087 6     -2339.227          40.000
G29  21052778.750 8 110633106.851 8     -1814.816          51.000    21052777.914 8  86207608.882 8     -1414.143          51.000
G31  21435933.211 8 112646582.048 8     -1391.441          51.000    21435931.859 8  87776574.254 8     -1084.243          51.000
R09  23412764.742 5 125022877.281 5     -4296.699          35.000    23412766.719 5  97240015.645 5     -3341.880          33.000
R10  20345957.109 7 108455387.565 7     -2890.535          47.000
R21  19520637.945 8 104458889.090 8      1122.777          51.000    19520639.266 7  81245801.000 7       873.271          47.000
R22  23128943.055 6 123463967.257 6      3806.074          41.000    23128953.258 6  96027517.242 6      2960.283          38.000
C05  39626415.812 5 206345144.499 5        19.941          35.000    39626414.969 5 159559152.662 5        15.103          35.000
C27  22058278.336 8 114863412.279 8      1419.359          51.000
C28  22072536.180 8 114937475.068 8     -1508.527          51.000
E02  23379262.844 8 122858841.140 8      -826.824          51.000    23379264.250 8  94138599.954 8      -633.559          51.000
E11                                                                  26143097.008 5 105267418.928 5     -2088.487          33.000
E25  26808750.148 7 140880894.360 7     -2703.125          44.000    26808757.250 8 107947694.076 8     -2071.172          51.000
E36  23379005.773 8 122857539.140 8      -753.168          51.000    23379009.102 8  94137612.304 8      -577.148          51.000
> 2020 05 03 13 11  0.0000000  0 16        .000000000000
G18  20787752.383 8 109240410.862 8      1697.988          51.000    20787753.789 8  85122408.767 8      1323.108          50.000
G21  20953771.828 8 110112837.235 8      1294.461          50.000    20953772.359 8  85802170.138 8      1008.671          50.000
G25  22809590.602 7 119865184.947 7     -3009.105          42.000    22809594.227 7  93401433.018 7     -2344.758          42.000
G29  21063166.062 8 110687692.437 8     -1823.449          51.000    21063165.289 8  86250143.103 8     -1420.870          51.000
G31  21443929.062 8 112688598.651 8     -1408.945          51.000    21443927.578 8  87809314.435 8     -1097.883          51.000
R09  23436922.406 5 125151880.783 5     -4302.613          34.000    23436925.562 5  97340351.558 5     -3346.480          34.000
R10  20362278.836 7 108542392.130 7     -2908.875          47.000
R21  19514401.391 8 104425515.841 8      1102.812          51.000    19514402.680 8  81219844.038 8       857.746          49.000
R22  23107579.398 7 123349922.900 7      3797.848          42.000    23107588.172 6  95938816.185 6      2953.885          39.000
C05  39626304.492 5 206344564.937 5        19.004          35.000    39626303.469 6 159558703.440 6        15.178          36.000
C27  22050134.555 8 114821004.065 8      1408.535          51.000
C28  22081254.492 8 114982875.125 8     -1517.363          51.000
E02  23384016.102 8 122883819.504 8      -837.781          51.000    23384017.484 8  94157739.212 8      -641.963          51.000
E11                                                                  26158666.102 5 105330109.232 5     -2090.423          32.000
E25  26824196.062 6 140962068.780 6     -2708.141          41.000    26824204.203 8 108009892.621 8     -2074.991          50.000
E36  23383339.828 8 122880315.973 8      -764.613          51.000    23383343.352 8  94155064.694 8      -585.923          51.000
> 2020 05 03 13 11 30.0000000  0 17        .000000000000
G18  20778111.391 8 109189746.065 8      1679.703          51.000    20778112.562 8  85082929.722 8      1308.860          50.000
G21  20946430.977 8 110074258.955 8      1277.543          51.000    20946431.414 8  85772109.139 8       995.488          49.000
G25  22826792.281 6 119955582.344 6     -3017.008          40.000    22826796.562 6  93471872.541 6     -2350.918          41.000
G29  21073602.445 8 110742535.801 8     -1832.551          51.000    21073601.727 8  86292878.174 8     -1427.962          51.000
G31  21452024.727 8 112731140.893 8     -1427.059          51.000    21452022.945 8  87842464.195 8     -1111.994          51.000
R09  23461111.477 4 125281043.875 4     -4308.262          28.000    23461113.969 5  97440811.517 5     -3350.876          31.000
R10  20378703.773 8 108629944.514 8     -2927.766          49.000
R11  19560334.781 5 104524497.801 5      1547.270          30.000    19560335.641 4  81296835.136 4      1203.432          29.000
R21  19508276.477 8 104392741.004 8      1082.285          51.000    19508278.172 8  81194352.484 8       841.774          48.000
R22  23086262.188 6 123236122.113 6      3789.289          40.000    23086269.852 6  95850304.545 6      2947.228          39.000
C05  39626192.984 6 206343985.182 6        18.648          36.000    39626191.984 6 159558254.744 6        14.568          36.000
C27  22042052.477 8 114778919.272 8      1397.219          51.000
C28  22090023.953 8 115028540.675 8     -1526.781          51.000
E02  23388831.766 8 122909126.392 8      -849.250          51.000    23388833.336 8  94177130.185 8      -650.661          51.000
E11                                                                  26174252.406 5 105392868.239 5     -2093.378          32.000
E25  26839669.414 6 141043391.806 6     -2713.395          41.000    26839678.867 8 108072205.087 8     -2079.017          49.000
E36  23387738.688 8 122903432.979 8      -776.434          51.000    23387742.375 8  94172777.731 8      -594.873          51.000
> 2020 05 03 13 12  0.0000000  0 15        .000000000000
G18  20768574.516 8 109139628.938 8      1662.211          51.000    20768575.445 8  85043877.456 8      1295.229          49.000
G21  20939187.305 8 110036191.732 8      1261.117          50.000    20939187.320 8  85742446.368 8       982.692          50.000
G25  22844038.672 5 120046218.632 5     -3024.480          35.000    22844043.969 5  93542498.254 5     -2356.738          34.000
G29  21084091.195 8 110797654.249 8     -1841.129          51.000    21084090.328 8  86335827.598 8     -1434.646          51.000
G31  21460223.305 8 112774225.461 8     -1444.438          51.000    21460221.633 8  87876036.549 8     -1125.536          51.000
R10  20395234.898 8 108718061.084 8     -2945.891          51.000
R21  19502266.953 8 104360582.921 8      1062.383          51.000    19502268.406 8  81169340.632 8       826.301          48.000
R22  23064994.969 6 123122586.049 6      3780.922          37.000    23065001.516 6  95761998.764 6      2940.717          40.000
C05  39626084.898 6 206343422.047 6        19.477          36.000    39626083.844 5 159557819.719 5        14.595          35.000
C27  22034036.000 8 114737176.176 8      1386.453          51.000
C28  22098847.883 8 115074488.616 8     -1535.570          51.000
E02  23393713.617 8 122934780.395 8      -860.180          51.000    23393715.484 8  94196787.138 8      -659.108          51.000
E11                                                                  26189859.258 5 105455710.981 5     -2095.904          31.000
E25  26855174.859 6 141124881.118 6     -2718.523          41.000    26855185.352 8 108134644.947 8     -2082.965          48.000
E36  23392205.648 8 122926907.495 8      -787.676          51.000    23392209.320 8  94190764.693 8      -603.583          51.000
> 2020 05 03 13 12 30.0000000  0 15        .000000000000
G18  20759137.875 8 109090038.230 8      1647.418          51.000    20759138.266 8  85005235.368 8      1283.702          49.000
G21  20932036.672 8 109998613.738 8      1247.574          50.000    20932036.242 8  85713164.826 8       972.139          49.000
G29  21094627.727 8 110853023.920 8     -1846.598          51.000    21094626.695 8  86378972.780 8     -1438.907          51.000
G31  21468520.297 8 112817828.803 8     -1458.957          50.000    21468519.297 8  87910013.129 8     -1136.850          50.000
R09  23509588.266 5 125539862.580 5     -4315.859          31.000
R10  20411867.531 8 108806717.296 8     -2960.941          51.000
R21  19496367.852 8 104329018.080 8      1045.441          51.000    19496369.531 8  81144790.218 8       813.121          48.000
R22  23043773.062 5 123009293.379 5      3775.516          35.000    23043778.852 6  95673882.245 6      2936.509          39.000
C05  39625975.977 5 206342854.656 5        21.953          35.000    39625974.906 6 159557379.954 6        16.834          36.000
C27  22026080.906 8 114695752.442 8      1378.641          51.000
C28  22107721.375 8 115120695.154 8     -1541.359          51.000
E02  23398657.484 8 122960759.114 8      -868.262          51.000    23398659.531 8  94216692.912 8      -665.336          51.000
E11                                                                  26205481.812 5 105518615.944 5     -2095.413          30.000
E25  26870708.828 7 141206513.368 7     -2720.438          43.000    26870718.672 7 108197194.294 7     -2084.425          47.000
E36  23396736.227 8 122950715.813 8      -796.004          51.000    23396739.727 8  94209007.428 8      -609.940          51.000
> 2020 05 03 13 13  0.0000000  0 16        .000000000000
G18  20749805.844 8 109040997.662 8      1627.434          51.000    20749805.883 8  84967021.944 8      1268.130          49.000
G21  20924983.289 8 109961547.625 8      1229.059          50.000    20924982.430 8  85684282.166 8       957.708          49.000
G25  22878657.086 5 120228157.357 5     -3038.785          34.000    22878662.141 5  93684311.189 5     -2367.891          32.000
G29  21105216.039 8 110908665.698 8     -1857.234          51.000    21105214.961 8  86422330.003 8     -1447.196          51.000
G31  21476920.062 8 112861971.298 8     -1478.359          50.000    21476919.883 8  87944409.865 8     -1151.968          50.000
R09  23533864.398 5 125669521.163 5     -4321.898          31.000    23533877.211 4  97743028.308 4     -3361.480          28.000
R10  20428604.711 8 108895932.704 8     -2981.148          51.000
R21  19490584.547 8 104298069.247 8      1023.391          51.000    19490585.977 7  81120718.914 7       795.974          47.000
R22  23022600.375 6 122896268.684 6      3765.238          38.000    23022605.828 6  95585974.202 6      2928.522          38.000
C05  39625870.461 6 206342304.677 6        20.277          36.000    39625869.344 6 159556954.656 6        15.272          36.000
C27  22018191.195 8 114654670.307 8      1365.695          51.000
C28  22116648.453 8 115167181.085 8     -1552.215          51.000
E02  23403667.305 8 122987085.174 8      -881.328          51.000    23403669.633 8  94236864.824 8      -675.246          51.000
E11                                                                  26221124.648 5 105581603.276 5     -2099.391          30.000
E25  26886275.250 7 141288310.155 7     -2727.234          45.000    26886283.828 7 108259869.703 7     -2089.591          47.000
E36  23401334.453 8 122974879.233 8      -809.285          51.000    23401337.727 8  94227522.265 8      -620.084          51.000
> 2020 05 03 13 13 30.0000000  0 14        .000000000000
G18  20740587.250 8 108992554.151 8      1608.402          51.000    20740587.367 8  84929273.763 8      1253.301          49.000
G21  20918036.219 8 109925039.867 8      1211.109          51.000    20918034.844 8  85655834.551 8       943.722          48.000
G25  22896045.242 6 120319526.787 6     -3046.309          39.000    22896049.523 6  93755508.067 6     -2373.750          40.000
G29  21115864.531 8 110964623.992 8     -1866.941          51.000    21115863.516 8  86465933.867 8     -1454.760          51.000
G31  21485431.062 8 112906696.956 8     -1496.848          51.000    21485431.508 8  87979260.989 8     -1166.378          51.000
R10  20445454.305 8 108985751.697 8     -3000.148          49.000
R21  19484925.102 8 104267782.374 8      1002.223          51.000    19484926.250 8  81097162.475 8       779.510          48.000
R22  23001485.266 6 122783560.124 6      3755.801          38.000    23001491.727 6  95498312.005 6      2921.178          38.000
C05  39625776.875 6 206341817.374 6        18.566          36.000    39625775.789 6 159556578.783 6        14.810          36.000
C27  22010375.984 8 114613974.994 8      1353.680          51.000
C28  22125637.719 8 115213990.245 8     -1562.051          51.000
E02  23408751.641 8 123013804.415 8      -893.531          51.000    23408754.336 8  94257337.999 8      -684.639          51.000
E25  26901881.922 7 141370316.318 7     -2733.418          47.000    26901888.711 7 108322705.520 7     -2094.470          46.000
E36  23406008.797 8 122999442.241 8      -821.809          51.000    23406011.703 8  94246343.269 8      -629.677          51.000
> 2020 05 03 13 14  0.0000000  0 14        .000000000000
G18  20731450.719 8 108944542.081 8      1591.535          51.000    20731450.922 8  84891861.779 8      1240.157          50.000
G21  20911163.375 8 109888923.841 8      1195.758          49.000    20911162.281 8  85627692.194 8       931.759          48.000
G25  22913455.484 6 120411009.639 6     -3053.293          39.000    22913458.750 6  93826793.422 6     -2379.186          40.000
G29  21126541.133 8 111020730.571 8     -1874.293          51.000    21126540.477 8  86509653.271 8     -1460.488          51.000
G31  21494021.234 8 112951837.549 8     -1513.270          51.000    21494021.695 8  88014435.461 8     -1179.171          51.000
R10  20462384.523 7 109076002.351 7     -3017.129          47.000
R21  19479357.398 8 104237987.137 8       983.266          51.000    19479358.641 8  81073988.416 8       764.762          48.000
R22  22980397.492 6 122671000.154 6      3748.070          38.000    22980404.000 6  95410765.436 6      2915.169          37.000
C05  39625663.539 5 206341227.339 5        19.707          35.000    39625662.672 6 159556122.539 6        15.326          36.000
C27  22002603.586 8 114573501.166 8      1343.809          51.000
C28  22134657.102 8 115260955.895 8     -1569.730          51.000
E02  23413879.195 8 123040750.109 8      -903.629          51.000    23413881.977 8  94277984.698 8      -692.388          51.000
E25  26917496.625 8 141452364.128 8     -2737.285          48.000    26917500.820 7 108385573.293 7     -2097.442          44.000
E36  23410727.227 8 123024236.848 8      -832.016          51.000    23410729.789 8  94265341.728 8      -637.489          51.000
> 2020 05 03 13 14 30.0000000  0 14        .000000000000
G18  20722419.602 8 108897083.966 8      1573.043          51.000    20722419.703 8  84854881.442 8      1225.748          51.000
G21  20904387.766 8 109853321.252 8      1178.621          48.000    20904387.398 8  85599949.944 8       918.406          48.000
G25  22930909.852 6 120502725.986 6     -3060.727          39.000    22930913.109 6  93898260.754 6     -2384.976          39.000
G29  21137268.766 8 111077105.224 8     -1883.227          51.000    21137268.422 8  86553581.564 8     -1467.449          51.000
G31  21502713.148 8 112997512.678 8     -1531.035          51.000    21502713.172 8  88050026.466 8     -1193.014          51.000
R10  20479417.891 7 109166805.358 7     -3035.645          45.000
R21  19473904.258 8 104208806.779 8       962.828          51.000    19473905.508 7  81051292.590 7       748.866          47.000
R22  22959361.594 6 122558713.872 6      3738.746          40.000    22959366.992 6  95323431.712 6      2907.917          37.000
C05  39625553.562 5 206340654.797 5        19.340          35.000    39625552.805 6 159555679.809 6        14.689          36.000
C27  21994896.500 8 114533369.041 8      1332.410          51.000
C28  22143729.094 8 115308196.841 8     -1578.953          51.000
E02  23419073.086 8 123068043.686 8      -915.242          51.000    23419075.797 8  94298897.954 8      -701.280          51.000
E25  26933141.961 8 141534574.111 8     -2742.691          48.000    26933143.938 7 108448565.285 7     -2101.579          42.000
E36  23415512.523 8 123049383.176 8      -843.672          51.000    23415515.008 8  94284609.699 8      -646.486          51.000
> 2020 05 03 13 15  0.0000000  0 15        .000000000000
G18  20713489.180 8 108850154.488 8      1554.531          51.000    20713489.211 8  84818313.031 8      1211.326          51.000
G21  20897705.305 8 109818205.953 8      1161.324          50.000    20897705.000 7  85572587.379 7       904.925          46.000
G25  22948403.352 6 120594648.336 6     -3068.398          38.000    22948406.672 6  93969888.579 6     -2390.960          38.000
G29  21148042.227 8 111133720.195 8     -1892.082          51.000    21148041.953 8  86597697.126 8     -1474.350          51.000
G31  21511501.398 8 113043694.112 8     -1548.770          51.000    21511500.930 8  88086011.983 8     -1206.833          51.000
R10  20496549.617 7 109258131.307 7     -3053.738          45.000
R11  19502615.039 5 104216004.402 5      1390.309          32.000    19502588.273 4  81056846.130 4      1081.351          29.000
R21  19468560.906 8 104180213.898 8       942.312          51.000    19468562.039 8  81029053.698 8       732.913          48.000
R22  22938372.750 6 122446675.852 6      3729.484          41.000    22938377.656 6  95236291.155 6      2900.710          39.000
C05  39625441.930 6 206340073.470 6        18.590          36.000    39625441.180 6 159555230.288 6        14.532          36.000
C27  21987249.781 8 114493552.276 8      1321.078          51.000
C28  22152848.609 8 115355685.371 8     -1588.051          51.000
E02  23424327.969 8 123095658.746 8      -926.852          51.000    23424330.406 8  94320057.543 8      -710.200          51.000
E25  26948812.367 7 141616918.913 7     -2748.207          47.000    26948810.664 6 108511660.582 6     -2105.964          39.000
E36  23420359.492 8 123074853.558 8      -855.336          51.000    23420361.984 8  94304125.972 8      -655.426          51.000
> 2020 05 03 13 15 30.0000000  0 14        .000000000000
G18  20704664.047 8 108803777.481 8      1537.043          51.000    20704663.945 8  84782175.114 8      1197.696          51.000
G21  20891120.383 8 109783601.162 8      1145.410          50.000    20891119.438 7  85545622.607 7       892.527          46.000
G25  22965939.453 6 120686798.339 6     -3075.031          38.000    22965942.922 6  94041693.708 6     -2396.131          38.000
G29  21158865.547 8 111190596.765 8     -1899.891          51.000    21158865.141 8  86642016.525 8     -1480.434          51.000
G31  21520390.156 8 113090403.043 8     -1565.395          51.000    21520389.234 8  88122408.537 8     -1219.788          51.000
R10  20513784.312 8 109350001.226 8     -3070.914          48.000
R21  19463331.703 8 104152231.063 8       922.988          51.000    19463333.211 8  81007289.286 8       717.880          49.000
R22  22917435.422 7 122334911.155 7      3721.242          42.000    22917440.695 6  95149363.183 6      2894.306          39.000
C05  39625332.859 6 206339505.776 6        18.828          36.000    39625332.117 6 159554792.305 6        14.526          37.000
C27  21979668.164 8 114454073.296 8      1310.695          51.000
C28  22162019.953 8 115403442.547 8     -1596.016          51.000
E02  23429648.195 8 123123618.144 8      -937.387          51.000    23429650.422 8  94341480.959 8      -718.183          51.000
