     3.02           OBSERVATION DATA    M (MIXED)           RINEX VERSION / TYPE
SAVERINEX           SC600               20200507 075931 LCL PGM / RUN BY / DATE
       G = GPS       R = GLONASS       C = COMPASS          COMMENT
       S = SBAS      J = QZSS          E = GALILEO          COMMENT
BEAN                                                        MARKER NAME
1                                                           MARKER NUMBER
GEODETIC                                                    MARKER TYPE
Unige DICCA         GTER                                    OBSERVER / AGENCY
SC60291900056       SC600               2.12(191226)        REC # / TYPE / VERS
                    HEMA45          NONE                    ANT # / TYPE
  4509407.8091   693652.4678  4442337.6214                  APPROX POSITION XYZ
        0.0000        0.0000        0.0000                  ANTENNA: DELTA H/E/N
G    8 C1C L1C D1C S1C C2Y L2Y D2Y S2Y                      SYS / # / OBS TYPES
R    8 C1C L1C D1C S1C C2P L2P D2P S2P                      SYS / # / OBS TYPES
C    8 C1I L1I D1I S1I C7I L7I D7I S7I                      SYS / # / OBS TYPES
E    8 C1C L1C D1C S1C C7Q L7Q D7Q S7Q                      SYS / # / OBS TYPES
DBHZ                                                        COMMENT
     30.000                                                 INTERVAL
  2020    05    07    05    00    0.0000000     GPS         TIME OF FIRST OBS
  2020    05    07    05    59   30.0000000     GPS         TIME OF LAST OBS
     0                                                      RCV CLOCK OFFS APPL
G L1C  0.00000                                              SYS / PHASE SHIFT
G L2Y  0.00000                                              SYS / PHASE SHIFT
R L1C  0.00000                                              SYS / PHASE SHIFT
R L2P  0.25000                                              SYS / PHASE SHIFT
C L1I  0.00000                                              SYS / PHASE SHIFT
C L7I  0.00000                                              SYS / PHASE SHIFT
E L1C  0.50000                                              SYS / PHASE SHIFT
E L7Q -0.25000                                              SYS / PHASE SHIFT
 12 R01  1 R06 -4 R07  5 R08  6 R09 -2 R10 -7 R11  0 R12 -1 GLONASS SLOT / FRQ #
    R19  3 R20  2 R21  4 R22 -3                             GLONASS SLOT / FRQ #
 C1C   71.950 C2C   71.950 C2P   71.950                     GLONASS COD/PHS/BIS
    18                                                      LEAP SECONDS
*** Above antenna height is from mark to ANTENNA BOTTOM.    COMMENT
    17     4        0.0000        ANT MEASURE TYPE/HEIGT    COMMENT
    0.0000    0.0000    0.0458    0.0405    0.0000          COMMENT
                    BASE STATION                            COMMENT
                                                            END OF HEADER
> 2020 05 07 05 00  0.0000000  0 16        .000000000000
G05  22716322.375 8 119375070.407 8     -3268.387          48.000    22716322.547 8  93019517.505 8     -2546.798          48.000
G13  20172916.820 8 106009381.777 8       345.008          51.000    20172914.828 8  82604707.914 8       268.837          51.000
G24  24029397.000 5 126275354.564 5      3151.688          34.000
G28  20924371.578 8 109958353.200 8      -540.980          51.000    20924369.664 8  85681832.738 8      -421.543          50.000
R01  19220721.172 8 102745766.102 8       371.109          49.000    19220725.398 7  79913379.749 7       288.641          44.000
R08  20396682.859 8 109223293.706 8     -2929.777          49.000    20396683.930 7  84951447.642 7     -2278.719          47.000
R11  19519758.836 8 104307735.507 8      1169.680          51.000    19519761.602 8  81128208.725 8       909.751          48.000
R12  22724850.570 7 121392034.089 7      3627.836          42.000    22724854.008 7  94416051.712 7      2821.650          43.000
C10  39422764.477 5 205284669.957 5      -734.273          34.000    39422758.273 5 158739106.176 5      -567.621          31.000
C19  22126886.609 5 115220498.395 5       545.832          32.000
C20  23166598.773 8 120634539.059 8     -2456.766          51.000
E01  23587245.383 8 123951804.193 8       582.352          51.000    23587247.117 8  94976130.921 8       446.232          51.000
E04  23492689.250 8 123454908.243 8       355.453          51.000    23492690.258 8  94595327.928 8       272.372          51.000
E19  25742740.758 7 135278999.406 7     -2312.121          47.000    25742742.656 8 103655339.051 8     -1771.556          49.000
E21  25167272.305 6 132254923.719 6     -2043.633          41.000    25167271.828 6 101338177.442 6     -1565.981          38.000
E31  26251855.234 5 137954460.422 5      2728.551          35.000    26251859.914 7 105705387.130 7      2090.693          44.000
> 2020 05 07 05 00 30.0000000  0 16        .000000000000
G05  22735053.562 8 119473501.668 8     -3285.402          48.000    22735052.352 8  93096217.139 8     -2560.057          48.000
G13  20171034.609 8 105999490.584 8       322.820          51.000    20171032.531 8  82597000.485 8       251.548          51.000
G28  20927559.742 8 109975106.910 8      -567.590          51.000    20927557.773 8  85694887.569 8      -442.281          50.000
G30  22283507.438 5 117100643.022 5     -2494.184          31.000    22283506.867 5  91247236.610 5     -1943.520          30.000
R01  19218756.438 8 102735262.275 8       337.609          49.000    19218760.477 7  79905210.098 7       262.585          44.000
R08  20413196.492 8 109311722.777 8     -2956.988          48.000    20413197.914 8  85020225.784 8     -2299.880          48.000
R11  19513295.273 8 104273194.255 8      1141.629          51.000    19513297.227 8  81101343.334 8       887.934          48.000
R12  22704548.398 7 121283590.294 7      3610.113          42.000    22704552.305 7  94331706.491 7      2807.863          42.000
C10  39427048.406 5 205306975.866 5      -744.566          35.000    39427042.898 5 158756354.520 5      -575.770          31.000
C19  22123836.320 6 115204614.793 6       521.059          36.000
C20  23180833.711 8 120708667.020 8     -2476.746          51.000
E01  23584004.586 8 123934774.224 8       561.336          51.000    23584006.234 8  94963081.988 8       430.100          51.000
E04  23490739.664 8 123444663.526 8       335.887          51.000    23490740.812 8  94587478.064 8       257.371          51.000
E19  25756009.516 7 135348728.625 7     -2328.133          47.000    25756012.141 8 103708767.918 8     -1783.927          49.000
E21  25179009.844 5 132316606.027 5     -2059.707          34.000    25179010.492 6 101385440.513 6     -1578.424          38.000
E31  26236341.125 6 137872909.849 6      2714.000          36.000    26236348.766 7 105642932.508 7      2079.376          45.000
> 2020 05 07 05 01  0.0000000  0 17        .000000000000
G05  22753786.109 7 119571940.132 7     -3284.535          47.000    22753782.695 7  93172922.376 7     -2559.381          47.000
G13  20169184.102 8 105989766.333 8       318.066          51.000    20169182.109 8  82589423.139 8       247.844          51.000
G28  20930804.141 8 109992156.056 8      -576.445          51.000    20930802.148 8  85708172.607 8      -449.178          51.000
G30  22297713.445 5 117175310.833 5     -2490.781          34.000    22297713.945 5  91305419.270 5     -1940.865          32.000
R01  19216884.320 8 102725254.169 8       322.094          49.000    19216888.219 7  79897426.010 7       250.517          44.000
R08  20429766.242 7 109400455.000 7     -2966.031          46.000    20429768.172 8  85089239.750 8     -2306.913          49.000
R11  19506893.477 8 104238984.135 8      1131.520          51.000    19506895.375 8  81074735.485 8       880.071          50.000
R12  22684251.594 7 121175167.885 7      3610.496          46.000    22684255.125 7  94247377.933 7      2808.164          42.000
C05  39779942.945 5 207144596.902 5        17.504          34.000    39779943.523 6 160177349.994 6        13.695          40.000
C10  39431297.625 5 205329102.879 5      -737.914          34.000    39431293.242 5 158773464.510 5      -570.454          31.000
C19  22120833.742 5 115188975.413 5       513.859          32.000
C20  23195088.234 8 120782897.151 8     -2479.199          51.000
E01  23580787.648 8 123917870.019 8       558.191          51.000    23580789.320 8  94950129.419 8       427.690          51.000
E04  23488805.867 8 123434500.867 8       334.129          51.000    23488806.969 8  94579691.092 8       256.009          51.000
E19  25769274.508 8 135418436.635 8     -2326.422          48.000    25769277.312 8 103762180.535 8     -1782.694          48.000
E21  25190742.805 6 132378245.476 6     -2058.359          39.000    25190746.336 6 101432687.633 6     -1576.975          38.000
E31  26220817.477 6 137791339.746 6      2716.746          37.000    26220825.781 7 105580430.698 7      2081.666          44.000
> 2020 05 07 05 01 30.0000000  0 16        .000000000000
G05  22772566.680 8 119670630.196 8     -3293.246          49.000    22772561.969 8  93249823.678 8     -2566.169          49.000
G13  20167412.688 8 105980457.469 8       303.961          51.000    20167410.828 8  82582169.468 8       236.853          51.000
G28  20934151.648 8 110009746.959 8      -594.797          51.000    20934149.977 8  85721879.812 8      -463.478          50.000
R01  19215152.289 8 102715994.880 8       296.762          49.000    19215156.094 7  79890224.344 7       230.815          44.000
R08  20446438.953 7 109489740.087 7     -2984.730          45.000    20446441.172 7  85158683.715 7     -2321.457          47.000
R11  19500600.633 8 104205356.497 8      1111.844          51.000    19500602.516 8  81048580.651 8       864.767          49.000
R12  22664007.016 8 121067019.904 8      3600.992          49.000    22664009.594 7  94163262.857 7      2800.775          43.000
C05  39779846.484 5 207144099.173 5        17.273          35.000    39779846.594 6 160176959.957 6        13.405          40.000
C10  39435559.391 5 205351295.372 5      -740.492          33.000    39435556.297 5 158790625.142 5      -572.780          31.000
C19  22117925.234 5 115173826.185 5       497.426          33.000
C20  23209409.617 8 120857472.967 8     -2491.012          51.000
E01  23577641.805 8 123901338.625 8       545.379          51.000    23577643.156 8  94937462.500 8       417.891          51.000
E04  23486934.875 8 123424668.411 8       322.836          51.000    23486935.969 8  94572157.130 8       247.308          51.000
E19  25782582.391 8 135488370.103 8     -2334.309          48.000    25782584.938 8 103815765.888 8     -1788.632          48.000
E21  25202519.227 7 132440131.994 7     -2066.055          42.000    25202525.148 6 101480107.123 6     -1582.826          37.000
E31  26205330.406 6 137709956.254 6      2710.477          39.000    26205338.039 7 105518071.928 7      2076.688          44.000
> 2020 05 07 05 02  0.0000000  0 19        .000000000000
G05  22791396.797 8 119769579.758 8     -3303.188          48.000    22791392.172 8  93326927.199 8     -2573.915          48.000
G13  20165722.492 8 105971574.922 8       288.281          51.000    20165720.602 8  82575247.989 8       224.635          51.000
G17  24580708.172 6 129172505.410 6      2821.082          36.000    24580701.750 6 100653873.363 6      2198.252          36.000
G28  20937604.000 8 110027888.714 8      -614.535          51.000    20937602.328 8  85736016.228 8      -478.862          50.000
G30  22326231.781 5 117325141.406 5     -2504.801          32.000    22326231.914 5  91422173.365 5     -1951.793          32.000
R01  19213562.289 8 102707496.309 8       269.848          48.000    19213566.469 7  79883614.330 7       209.882          45.000
R08  20463217.117 7 109579585.931 7     -3004.617          47.000    20463218.852 7  85228563.832 7     -2336.924          47.000
R10  20599964.133 5 109809441.112 5     -2900.363          34.000
R11  19494418.547 8 104172321.330 8      1090.617          51.000    19494420.352 8  81022886.624 8       848.258          49.000
R12  22643815.914 8 120959158.673 8      3589.895          51.000    22643817.641 7  94079370.814 7      2792.143          43.000
C05  39779752.570 5 207143610.342 5        16.059          34.000    39779752.523 6 160176581.220 6        11.822          40.000
C10  39439835.469 5 205373563.317 5      -744.012          33.000    39439833.328 5 158807844.065 5      -575.432          30.000
C19  22115113.672 5 115159177.940 5       479.398          34.000
C20  23223799.203 8 120932402.982 8     -2504.223          51.000
E01  23574568.828 8 123885189.924 8       531.254          51.000    23574569.867 8  94925088.826 8       407.062          51.000
E04  23485128.766 8 123415177.193 8       310.074          51.000    23485129.859 8  94564884.625 8       237.562          51.000
E19  25795935.039 8 135558538.636 8     -2343.516          49.000    25795937.039 8 103869531.362 8     -1795.738          48.000
E21  25214340.156 7 132502252.197 7     -2075.410          42.000    25214347.570 6 101527705.679 6     -1590.058          36.000
E31  26189881.656 6 137628770.690 6      2701.840          39.000    26189887.750 7 105455864.780 7      2070.489          43.000
> 2020 05 07 05 02 30.0000000  0 19        .000000000000
G05  22810272.438 7 119868769.312 7     -3310.645          47.000    22810268.570 7  93404217.733 7     -2579.726          47.000
G13  20164110.531 8 105963103.279 8       275.164          51.000    20164108.508 8  82568646.713 8       214.414          51.000
G17  24564606.789 5 129087895.875 5      2818.633          34.000    24564599.898 5 100587943.843 5      2196.328          30.000
G28  20941157.688 8 110046563.548 8      -631.629          51.000    20941156.047 8  85750568.045 8      -492.178          49.000
G30  22340539.117 6 117400323.033 6     -2508.996          37.000    22340539.672 6  91480756.323 6     -1955.065          36.000
R01  19212111.750 8 102699743.009 8       245.715          48.000    19212116.078 7  79877583.980 7       191.109          44.000
R08  20480096.461 8 109669973.792 8     -3022.238          48.000    20480098.016 7  85298865.483 7     -2350.630          46.000
R10  20616315.617 5 109896590.675 5     -2910.148          33.000
R11  19488344.109 8 104139862.082 8      1072.059          51.000    19488346.078 8  80997640.563 8       833.826          50.000
R12  22623674.836 8 120851568.941 8      3581.500          50.000    22623676.195 7  93995689.950 7      2785.614          42.000
C05  39779658.273 5 207143119.435 5        16.199          34.000    39779658.094 6 160176200.800 6        12.532          40.000
C10  39444122.695 5 205395890.004 5      -745.352          32.000    39444121.836 5 158825108.467 5      -576.634          31.000
C19  22112395.188 5 115145015.513 5       463.465          33.000
C20  23238253.547 8 121007669.429 8     -2514.777          51.000
E01  23571565.539 8 123869407.366 8       519.641          51.000    23571566.594 8  94912995.712 8       398.136          51.000
E04  23483384.664 8 123406011.767 8       299.773          51.000    23483385.594 8  94557861.766 8       229.694          51.000
E19  25809329.195 8 135628925.354 8     -2350.129          49.000    25809331.078 8 103923463.998 8     -1800.811          48.000
E21  25226202.336 6 132564588.236 6     -2081.914          38.000    25226209.750 6 101575469.606 6     -1595.002          36.000
E31  26174467.875 6 137547767.592 6      2696.680          39.000    26174472.344 6 105393797.501 6      2066.317          41.000
> 2020 05 07 05 03  0.0000000  0 18        .000000000000
G05  22829195.750 7 119968210.258 7     -3318.742          45.000    22829192.703 7  93481704.148 7     -2586.033          45.000
G13  20162579.609 8 105955057.691 8       261.137          51.000    20162577.555 8  82562377.412 8       203.483          51.000
G17  24548525.102 5 129003392.528 5      2814.914          33.000    24548519.820 5 100522097.106 5      2193.433          31.000
G28  20944815.422 8 110065784.990 8      -649.727          51.000    20944813.805 8  85765545.765 8      -506.283          49.000
G30  22354879.555 6 117475680.486 6     -2514.500          39.000    22354877.633 6  91539476.448 6     -1959.348          38.000
R01  19210803.984 8 102692750.822 8       220.457          48.000    19210808.078 7  79872145.600 7       171.467          44.000
R08  20497079.445 8 109760915.867 8     -3040.543          49.000    20497080.844 7  85369598.177 7     -2364.867          46.000
R11  19482380.188 8 104107992.989 8      1052.590          51.000    19482382.227 8  80972853.474 8       818.681          50.000
R12  22603586.922 8 120744267.085 8      3571.965          49.000    22603588.711 6  93912232.964 6      2778.195          41.000
C05  39779566.102 5 207142639.459 5        16.035          34.000    39779565.945 6 160175829.647 6        12.351          40.000
C10  39448423.852 5 205418289.218 5      -747.289          30.000    39448424.484 5 158842428.953 5      -578.020          30.000
C19  22109769.562 5 115131353.686 5       447.328          30.000
C20  23252775.078 8 121083284.786 8     -2526.273          51.000
E01  23568634.648 8 123854004.873 8       507.246          51.000    23568635.703 8  94901193.791 8       388.660          51.000
E04  23481705.406 8 123397187.139 8       288.551          51.000    23481706.250 8  94551100.018 8       221.145          51.000
E19  25822767.367 8 135699543.737 8     -2357.680          48.000    25822769.023 8 103977574.121 8     -1806.492          48.000
E21  25238107.562 5 132627151.609 5     -2088.805          33.000    25238114.719 6 101623408.597 6     -1600.369          36.000
E31  26159092.211 6 137466962.254 6      2690.441          38.000    26159095.156 6 105331881.701 6      2061.333          41.000
> 2020 05 07 05 03 30.0000000  0 18        .000000000000
G05  22848162.398 7 120067880.761 7     -3326.406          43.000    22848160.133 7  93559369.477 7     -2592.005          43.000
G13  20161126.234 8 105947420.162 8       247.492          51.000    20161124.172 8  82556426.086 8       192.851          51.000
G28  20948573.344 8 110085533.333 8      -667.254          51.000    20948571.680 8  85780934.073 8      -519.938          48.000
G30  22369248.914 6 117551193.729 6     -2519.762          37.000    22369246.289 5  91598317.974 5     -1963.448          35.000
R01  19209634.961 7 102686501.774 7       195.621          47.000    19209639.047 7  79867285.236 7       152.150          43.000
R08  20514161.875 8 109852390.030 8     -3058.258          49.000    20514163.055 7  85440744.724 7     -2378.645          46.000
R10  20649197.805 5 110071843.736 5     -2931.199          34.000
R11  19476523.164 8 104076694.130 8      1033.512          51.000    19476525.203 8  80948509.913 8       803.842          50.000
R12  22583549.578 8 120637235.438 8      3562.863          50.000    22583551.898 7  93828986.107 7      2771.116          42.000
C05  39779472.602 5 207142152.669 5        15.961          34.000    39779472.438 6 160175453.202 6        12.424          40.000
C10  39452735.414 5 205440741.706 5      -749.441          30.000    39452737.539 5 158859790.578 5      -579.636          31.000
C19  22107239.383 5 115118174.448 5       430.430          35.000
C20  23267359.867 8 121159228.556 8     -2537.176          51.000
E01  23565772.375 8 123838963.111 8       495.180          51.000    23565773.438 8  94889668.268 8       379.492          51.000
E04  23480087.625 8 123388685.107 8       277.816          51.000    23480088.406 8  94544585.474 8       212.890          51.000
E19  25836246.023 8 135770374.158 8     -2364.688          48.000    25836247.297 8 104031846.746 8     -1811.909          49.000
E21  25250053.672 6 132689924.067 6     -2095.703          37.000    25250059.438 6 101671507.031 6     -1606.173          36.000
E31  26143751.180 6 137386336.490 6      2684.398          39.000    26143752.602 6 105270103.512 6      2056.829          41.000
> 2020 05 07 05 04  0.0000000  0 18        .000000000000
G05  22867171.977 6 120167778.426 6     -3333.047          41.000    22867170.375 6  93637211.819 6     -2597.179          41.000
G13  20159750.820 8 105940192.386 8       234.855          51.000    20159748.766 8  82550794.042 8       183.004          51.000
G28  20952431.352 8 110105807.709 8      -683.816          50.000    20952429.648 7  85796732.268 7      -532.844          47.000
G30  22383653.773 5 117626893.844 5     -2523.523          35.000
R01  19208605.109 7 102680997.838 7       171.668          47.000    19208609.383 7  79863004.383 7       133.520          43.000
R08  20531343.164 8 109944394.770 8     -3074.836          48.000    20531344.188 7  85512303.944 7     -2391.539          45.000
R10  20665734.211 5 110159903.479 5     -2939.656          31.000
R11  19470772.836 8 104045966.133 8      1015.590          51.000    19470775.320 8  80924610.372 8       789.903          50.000
R12  22563563.742 8 120530476.348 8      3554.840          51.000    22563566.477 7  93745951.253 7      2764.875          42.000
C05  39779377.961 5 207141659.657 5        17.098          34.000    39779377.734 6 160175071.961 6        13.387          40.000
C10  39457056.875 4 205463247.845 4      -751.125          29.000    39457060.547 5 158877231.672 5      -580.455          30.000
C19  22104801.000 5 115105479.272 5       415.844          35.000
C20  23282007.602 8 121235499.911 8     -2547.125          51.000
E01  23562978.602 8 123824282.508 8       484.102          51.000    23562980.031 8  94878419.496 8       370.917          51.000
E04  23478531.609 8 123380507.217 8       267.938          51.000    23478532.172 8  94538319.301 8       205.282          51.000
E19  25849765.055 7 135841416.749 7     -2370.898          47.000    25849765.867 8 104086281.965 8     -1816.671          48.000
E21  25262038.867 6 132752903.877 6     -2101.918          39.000    25262043.125 5 101719764.193 5     -1610.656          35.000
E31  26128444.430 6 137305891.945 6      2679.137          39.000    26128444.086 6 105208464.242 6      2052.764          41.000
> 2020 05 07 05 04 30.0000000  0 17        .000000000000
G05  22886226.969 6 120267915.505 6     -3342.230          41.000    22886225.648 6  93715240.677 6     -2604.338          41.000
G13  20158456.383 8 105933389.994 8       219.246          51.000    20158454.219 8  82545493.470 8       170.841          51.000
G28  20956391.820 8 110126621.550 8      -703.105          49.000    20956390.438 8  85812950.867 8      -547.874          48.000
R01  19207717.867 7 102676254.804 7       145.047          47.000    19207722.148 7  79859315.350 7       112.814          43.000
R08  20548625.859 8 110036942.471 8     -3094.312          48.000    20548625.984 7  85584285.463 7     -2406.688          43.000
R10  20682323.492 4 110248421.143 4     -2952.078          28.000
R11  19465131.875 8 104015823.454 8       994.664          51.000    19465134.414 8  80901166.070 8       773.628          49.000
R12  22543631.961 8 120424006.202 8      3543.824          50.000    22543635.062 7  93663141.176 7      2756.311          43.000
C05  39779284.922 5 207141174.909 5        16.023          35.000    39779284.711 6 160174697.140 6        11.986          40.000
C10                                                                  39461396.469 5 158894687.051 5      -583.282          30.000
C19  22102457.867 6 115093283.403 6       397.840          38.000
C20  23296720.352 8 121312111.594 8     -2559.711          51.000
E01  23560256.430 8 123809977.272 8       470.258          51.000    23560257.984 8  94867458.334 8       360.315          51.000
E04  23477040.102 8 123372668.829 8       255.266          51.000    23477040.453 8  94532313.257 8       195.647          51.000
E19  25863327.039 7 135912685.350 7     -2379.785          47.000    25863327.367 7 104140890.375 7     -1823.433          47.000
E21  25274065.867 6 132816103.912 6     -2110.719          37.000    25274067.336 5 101768190.149 5     -1617.271          33.000
E31  26113174.219 6 137225644.125 6      2671.203          40.000    26113172.156 7 105146975.700 7      2046.889          42.000
> 2020 05 07 05 05  0.0000000  0 16        .000000000000
G05  22905329.156 6 120368298.750 6     -3349.223          39.000    22905327.836 6  93793461.323 6     -2609.787          39.000
G13  20157244.906 8 105927023.388 8       206.035          51.000    20157242.594 8  82540532.464 8       160.547          50.000
G28  20960456.711 8 110147983.526 8      -720.160          51.000    20960455.516 7  85829596.559 7      -561.164          46.000
R01  19206975.125 7 102672283.826 7       120.648          46.000    19206979.289 7  79856226.813 7        93.835          43.000
R08  20566011.195 8 110130040.828 8     -3111.336          48.000    20566010.703 7  85656695.235 7     -2419.928          42.000
R11  19459602.484 8 103986275.665 8       976.047          51.000    19459604.602 8  80878184.464 8       759.148          49.000
R12  22523755.812 7 120317836.417 7      3535.039          46.000    22523759.789 7  93580564.741 7      2749.478          42.000
C05  39779195.289 5 207140708.061 5        16.492          34.000    39779195.047 6 160174336.106 6        12.641          40.000
C10                                                                  39465746.703 5 158912201.751 5      -584.198          30.000
C19  22100212.867 5 115081597.106 5       382.047          35.000
C20  23311499.289 8 121389071.574 8     -2570.113          51.000
E01  23557607.445 8 123796056.727 8       458.789          51.000    23557608.875 8  94856791.936 8       351.477          51.000
E04  23475615.031 8 123365180.342 8       244.930          51.000    23475615.453 8  94526575.326 8       187.685          51.000
E19  25876933.172 7 135984188.937 7     -2386.363          45.000    25876933.680 7 104195678.840 7     -1828.410          47.000
E21  25286135.844 5 132879532.306 5     -2117.105          34.000    25286135.133 5 101816789.132 5     -1622.317          32.000
E31  26097942.328 6 137145603.680 6      2665.785          40.000    26097940.031 7 105085646.059 7      2042.558          44.000
> 2020 05 07 05 05 30.0000000  0 17        .000000000000
G05  22924468.367 5 120468879.647 5     -3356.828          34.000    22924467.625 5  93871836.002 5     -2615.710          35.000
G13  20156107.922 8 105921047.907 8       191.754          51.000    20156105.383 8  82535876.248 8       149.419          50.000
G17  24468399.930 4 128582330.584 4      2797.461          29.000    24468414.742 4 100194063.535 4      2179.837          28.000
G24  23832992.102 5 125243218.590 5      3104.688          30.000
G28  20964617.242 8 110169846.921 8      -737.969          51.000    20964616.008 7  85846632.957 7      -575.041          47.000
R01  19206368.492 7 102669039.864 7        95.160          46.000    19206372.422 7  79853703.712 7        74.013          42.000
R08  20583490.258 7 110223640.837 7     -3129.137          46.000    20583489.453 7  85729495.193 7     -2433.773          42.000
R11  19454175.797 8 103957276.001 8       956.652          51.000    19454177.898 8  80855629.170 8       744.063          50.000
R12  22503927.133 7 120211922.662 7      3525.227          45.000    22503933.031 7  93498187.395 7      2741.843          42.000
C05  39779100.445 5 207140214.111 5        15.961          35.000    39779100.219 6 160173954.125 6        12.617          40.000
C19  22098056.305 6 115070376.139 6       365.641          37.000
C20  23326335.266 8 121466333.132 8     -2581.223          50.000
E01  23555022.828 8 123782475.098 8       446.238          51.000    23555024.367 8  94846385.233 8       341.914          51.000
E04  23474247.898 8 123357997.181 8       233.488          51.000    23474248.648 8  94521071.325 8       178.913          51.000
E19  25890574.891 7 136055881.328 7     -2393.797          43.000    25890576.352 7 104250611.985 7     -1834.145          46.000
E21  25298240.148 6 132943142.157 6     -2124.027          36.000    25298239.234 5 101865529.140 5     -1627.597          33.000
E31  26082740.930 6 137065726.078 6      2659.051          41.000    26082739.766 7 105024441.164 7      2037.413          45.000
> 2020 05 07 05 06  0.0000000  0 18        .000000000000
G05  22943644.352 5 120569660.412 5     -3359.840          30.000    22943645.672 4  93950366.470 4     -2618.054          29.000
G13  20155046.430 8 105915469.659 8       181.688          51.000    20155043.742 8  82531529.549 8       141.575          50.000
G17  24452438.445 5 128498431.305 5      2796.512          30.000    24452437.422 4 100128643.058 4      2179.100          29.000
G28  20968873.969 8 110192215.536 8      -751.641          51.000    20968872.719 7  85864063.061 7      -585.694          47.000
R01  19205899.445 8 102666529.295 8        73.965          48.000    19205902.938 7  79851751.037 7        57.528          42.000
R08  20601062.750 7 110317744.979 7     -3142.570          43.000    20601062.438 7  85802687.253 7     -2444.224          42.000
R10  20732404.609 5 110515269.272 5     -2976.723          30.000
R11  19448852.281 8 103928829.421 8       941.570          51.000    19448854.430 8  80833504.038 8       732.332          50.000
R12  22484148.711 7 120106271.591 7      3519.801          47.000    22484155.922 7  93416014.321 7      2737.620          43.000
C05  39779001.359 5 207139698.134 5        20.188          34.000    39779001.133 6 160173555.198 6        15.100          40.000
C10                                                                  39474465.430 4 158947314.619 4      -585.110          27.000
C19  22095991.742 6 115059626.311 6       353.234          38.000
C20  23341230.391 8 121543899.791 8     -2588.195          51.000
E01  23552503.648 8 123769237.220 8       437.902          51.000    23552505.484 8  94836241.928 8       335.568          51.000
E04  23472940.039 8 123351125.234 8       226.246          51.000    23472940.883 8  94515805.800 8       173.327          51.000
E19  25904253.508 7 136127767.163 7     -2396.996          43.000    25904256.188 7 104305693.330 7     -1836.683          47.000
E21  25310380.070 6 133006937.228 6     -2127.246          38.000    25310380.359 5 101914411.062 5     -1630.085          34.000
E31  26067571.984 7 136986017.408 7      2656.691          43.000    26067572.500 7 104963365.685 7      2035.530          46.000
> 2020 05 07 05 06 30.0000000  0 15        .000000000000
G05  22962868.977 5 120670692.320 5     -3369.676          34.000    22962871.570 5  94029092.730 5     -2625.721          34.000
G13  20154070.898 8 105910343.936 8       165.449          50.000    20154068.383 8  82527535.475 8       128.918          50.000
G28  20973237.156 8 110215143.136 8      -771.332          51.000    20973235.695 7  85881928.714 7      -601.038          47.000
R01  19205577.711 7 102664808.491 7        46.375          47.000    19205580.969 6  79850412.627 6        36.069          41.000
R08  20618738.508 7 110412406.281 7     -3162.320          43.000    20618738.617 6  85876312.755 6     -2459.582          40.000
R11  19443642.484 8 103900990.942 8       920.070          51.000    19443644.688 8  80811851.890 8       715.610          49.000
R12  22464431.242 8 120000940.127 8      3507.887          48.000    22464438.094 7  93334089.813 7      2728.353          44.000
C05  39778908.430 5 207139214.113 5        18.094          35.000    39778908.195 6 160173180.885 6        13.653          40.000
C19  22094028.297 6 115049402.146 6       334.504          40.000
C20  23356195.180 8 121621823.725 8     -2601.211          51.000
E01  23550060.188 8 123756397.110 8       423.562          51.000    23550062.219 8  94826403.404 8       324.539          51.000
E04  23471702.086 8 123344619.697 8       212.945          51.000    23471702.711 8  94510821.036 8       163.169          51.000
E19  25917979.625 7 136199900.230 7     -2406.309          44.000    25917983.508 7 104360964.067 7     -1843.813          47.000
E21  25322565.414 6 133070970.274 6     -2135.855          39.000    25322566.484 5 101963475.314 5     -1636.933          34.000
E31  26052446.469 7 136906532.959 7      2647.992          45.000    26052448.375 7 104902462.016 7      2028.879          47.000
> 2020 05 07 05 07  0.0000000  0 17        .000000000000
G05  22982130.742 6 120771909.710 6     -3378.543          36.000    22982131.820 6  94107963.377 6     -2632.634          36.000
G13  20153169.508 8 105905608.428 8       150.047          50.000    20153167.336 8  82523845.449 8       116.920          50.000
G17  24420574.531 5 128330974.314 5      2786.434          34.000    24420582.188 5  99998191.799 5      2171.235          34.000
G28  20977694.242 8 110238564.931 8      -790.176          51.000    20977692.719 8  85900179.474 8      -615.721          48.000
G30  22470676.273 5 118084208.007 5     -2556.344          35.000    22470695.508 5  92013713.320 5     -1991.956          34.000
R01  19205391.609 7 102663814.021 7        19.766          47.000    19205395.008 6  79849639.135 6        15.373          41.000
R08  20636506.953 7 110507557.748 7     -3181.035          45.000    20636506.703 6  85950319.414 6     -2474.141          40.000
R11  19438534.406 8 103873695.675 8       899.551          51.000    19438536.602 8  80790622.236 8       699.651          49.000
R12  22444762.000 8 119895865.495 8      3496.973          49.000    22444767.703 7  93252365.081 7      2719.868          45.000
C05  39778809.648 5 207138700.325 5        16.082          35.000    39778809.344 6 160172782.762 6        12.813          39.000
C19  22092154.477 6 115039641.638 6       316.523          40.000
C20  23371216.391 8 121700040.516 8     -2613.336          51.000
E01  23547680.375 8 123743891.037 8       410.145          51.000    23547682.438 8  94816820.832 8       314.279          51.000
E04  23470522.062 8 123338417.986 8       200.492          51.000    23470522.539 8  94506069.071 8       153.642          51.000
E19  25931741.141 7 136272216.292 7     -2414.945          45.000    25931745.328 7 104416375.013 7     -1850.212          47.000
E21  25334783.820 5 133135176.531 5     -2144.188          35.000    25334783.656 5 102012672.257 5     -1643.107          34.000
E31  26037352.258 7 136827210.308 7      2640.148          47.000    26037355.078 8 104841682.319 8      2022.971          48.000
> 2020 05 07 05 07 30.0000000  0 17        .000000000000
G05  23001433.164 5 120873340.621 5     -3384.922          35.000    23001432.812 6  94187000.267 6     -2637.611          36.000
G13  20152348.508 8 105901295.029 8       136.250          50.000    20152346.617 8  82520484.327 8       106.169          49.000
G17  24404675.609 6 128247418.714 6      2782.922          37.000    24404676.469 6  99933083.721 6      2168.514          37.000
G28  20982251.141 8 110262510.783 8      -807.355          51.000    20982249.562 8  85918838.580 8      -629.108          48.000
G30  22485282.109 5 118160956.945 5     -2562.004          35.000    22485317.008 6  92073517.364 6     -1996.379          36.000
R01  19205347.430 7 102663578.557 7        -5.230          47.000    19205351.039 6  79849455.986 6        -4.068          41.000
R08  20654372.984 7 110603228.935 7     -3198.180          47.000    20654373.227 7  86024730.246 7     -2487.476          43.000
R11  19433533.844 8 103846974.929 8       880.676          51.000    19433536.414 8  80769839.446 8       684.970          50.000
R12  22425146.328 8 119791081.082 8      3487.508          48.000    22425151.430 7  93170866.077 7      2712.506          45.000
C05                                                                  39778710.516 6 160172384.830 6        12.765          40.000
C19  22090375.273 6 115030376.510 6       300.328          40.000
C20  23386299.375 8 121778579.507 8     -2623.727          51.000
E01  23545369.945 8 123731749.967 8       398.102          51.000    23545372.086 8  94807517.945 8       305.069          51.000
E04  23469406.031 8 123332552.204 8       189.465          51.000    23469406.438 8  94501574.509 8       145.153          51.000
E19  25945543.484 7 136344745.978 7     -2421.762          46.000    25945547.570 7 104471949.666 7     -1855.615          46.000
E21                                                                  25347038.992 5 102062024.737 5     -1647.893          34.000
E31  26022295.234 7 136748081.703 7      2633.891          47.000    26022298.383 8 104781051.296 8      2018.164          49.000
> 2020 05 07 05 08  0.0000000  0 18        .000000000000
G05  23020776.180 5 120974989.701 5     -3391.477          31.000    23020778.609 5  94266207.358 5     -2642.703          30.000
G13  20151609.508 8 105897411.879 8       123.156          50.000    20151607.648 8  82517458.481 8        95.966          49.000
G17  24388799.836 5 128163994.490 5      2779.285          35.000    24388801.898 5  99868077.900 5      2165.677          35.000
G28  20986908.836 8 110286986.824 8      -823.727          51.000    20986907.234 8  85937910.835 8      -641.865          49.000
G30  22499918.305 6 118237866.281 6     -2565.117          36.000    22499952.117 5  92133446.560 5     -1998.805          32.000
R01  19205446.875 7 102664110.653 7       -29.586          47.000    19205450.609 6  79849869.818 6       -23.014          41.000
R08  20672337.539 8 110699424.293 8     -3214.223          48.000    20672338.781 7  86099548.795 7     -2499.951          46.000
R10  20799903.203 5 110875187.914 5     -3017.754          31.000
R11  19428642.312 8 103820835.493 8       862.523          51.000    19428644.984 8  80749508.761 8       670.852          50.000
R12  22405586.539 8 119686595.775 8      3478.715          48.000    22405590.750 7  93089599.710 7      2705.664          44.000
C05  39778613.367 5 207137678.367 5        17.684          34.000    39778613.047 6 160171992.501 6        13.744          40.000
C19  22088692.062 6 115021614.363 6       284.223          39.000
C20  23401445.055 8 121857446.028 8     -2633.406          51.000
E01  23543130.266 8 123719980.569 8       386.953          51.000    23543132.500 8  94798499.844 8       296.497          51.000
E04  23468355.273 8 123327030.198 8       179.152          51.000    23468355.625 8  94497343.346 8       137.237          51.000
E19  25959388.242 8 136417495.725 8     -2427.766          48.000    25959391.859 7 104527692.939 7     -1860.182          46.000
E21                                                                  25359335.398 5 102111537.079 5     -1652.545          35.000
E31  26007276.766 7 136669155.073 7      2628.387          47.000    26007279.641 8 104720575.057 8      2013.896          49.000
> 2020 05 07 05 08 30.0000000  0 16        .000000000000
G05  23040157.875 5 121076843.568 5     -3398.531          35.000    23040163.359 5  94345574.050 5     -2648.203          34.000
G13  20150950.617 8 105893949.370 8       108.773          50.000    20150948.586 8  82514760.424 8        84.759          49.000
G28  20991665.141 8 110311981.118 8      -841.320          51.000    20991663.500 8  85957386.896 8      -655.574          48.000
G30  22514582.766 5 118314924.843 5     -2570.973          34.000    22514615.758 5  92193491.821 5     -2003.367          33.000
R01  19205688.242 8 102665400.463 8       -55.234          48.000    19205691.695 6  79850872.987 6       -42.960          41.000
R08  20690397.766 8 110796130.705 8     -3231.582          48.000    20690399.484 7  86174764.879 7     -2513.453          47.000
R11  19423857.484 8 103795266.308 8       843.160          51.000    19423860.320 8  80729621.641 8       655.791          50.000
R12  22386081.578 8 119582400.269 8      3468.766          50.000    22386083.781 7  93008558.765 7      2697.929          44.000
C05  39778515.328 5 207137166.881 5        16.992          34.000    39778515.039 6 160171597.770 6        13.399          40.000
C19  22087103.398 6 115013345.469 6       267.691          40.000
C20  23416651.141 8 121936627.976 8     -2644.188          51.000
E01  23540959.211 8 123708571.984 8       374.719          51.000    23540961.695 8  94789758.213 8       287.089          51.000
E04  23467368.000 8 123321842.198 8       167.688          51.000    23467368.359 8  94493368.100 8       128.602          51.000
E19  25973272.750 8 136490454.230 8     -2435.059          49.000    25973275.094 7 104583596.190 7     -1865.791          44.000
E21  25371668.602 5 133329015.809 5     -2162.703          32.000    25371670.656 6 102161200.042 6     -1657.720          36.000
E31  25992294.883 7 136590420.829 7      2621.699          47.000    25992297.430 8 104660246.230 8      2008.852          49.000
> 2020 05 07 05 09  0.0000000  0 17        .000000000000
G05  23059577.922 6 121178895.482 6     -3404.703          38.000    23059585.375 6  94425095.044 6     -2653.015          38.000
G13  20150371.109 8 105890904.706 8        94.680          50.000    20150369.039 8  82512387.943 8        73.773          49.000
G15  20885683.312 4 109754998.866 4      1761.277          28.000
G28  20996519.047 8 110337488.582 8      -858.562          51.000    20996517.344 8  85977262.837 8      -669.010          48.000
G30  22529274.273 6 118392127.744 6     -2575.227          37.000    22529306.469 5  92253649.370 5     -2006.685          31.000
R01  19206070.883 8 102667445.182 8       -80.547          49.000    19206073.914 6  79852463.304 6       -62.648          41.000
R08  20708552.273 8 110893341.635 8     -3248.551          48.000    20708553.773 7  86250373.413 7     -2526.651          47.000
R11  19419178.711 8 103770263.012 8       824.203          51.000    19419181.414 8  80710174.625 8       641.047          50.000
R12  22366630.477 8 119478492.619 8      3458.945          50.000    22366631.102 7  92927741.730 7      2690.291          45.000
C05  39778416.078 5 207136650.642 5        17.156          34.000    39778415.680 6 160171197.807 6        13.508          40.000
C19  22085609.328 6 115005566.709 6       251.254          41.000
C20  23431916.758 8 122016119.980 8     -2654.652          51.000
E01  23538856.008 8 123697520.103 8       362.641          51.000    23538858.641 8  94781289.893 8       277.859          51.000
E04  23466443.898 8 123316985.252 8       156.625          51.000    23466444.023 8  94489646.536 8       120.008          51.000
E19  25987196.023 8 136563617.264 8     -2441.953          49.000    25987196.383 7 104639656.167 7     -1871.014          42.000
E21  25384037.789 5 133394018.594 5     -2170.000          34.000    25384042.852 6 102211009.622 6     -1662.341          37.000
E31  25977349.055 7 136511876.221 7      2615.148          46.000    25977351.242 8 104600062.695 8      2003.824          49.000
> 2020 05 07 05 09 30.0000000  0 17        .000000000000
G05  23079036.219 6 121281146.058 6     -3411.754          41.000    23079044.453 6  94504770.807 6     -2658.510          41.000
G13  20149871.875 8 105888281.991 8        80.016          50.000    20149869.797 8  82510344.259 8        62.350          49.000
G24  23692013.281 5 124502369.117 5      3069.590          31.000
G28  21001470.969 8 110363511.531 8      -876.168          51.000    21001469.336 8  85997540.473 8      -682.728          48.000
G30  22543993.234 5 118469477.286 5     -2580.750          30.000    22544025.195 4  92313921.818 4     -2010.965          29.000
R01  19206595.430 8 102670248.943 8      -106.469          49.000    19206598.484 6  79854643.988 6       -82.809          41.000
R08  20726800.914 8 110991057.767 8     -3265.848          49.000    20726801.867 7  86326374.867 7     -2540.104          46.000
R11  19414605.992 8 103745828.578 8       804.754          51.000    19414608.742 8  80691170.067 8       625.920          50.000
R12  22347233.617 8 119374877.791 8      3448.727          49.000    22347234.367 7  92847152.460 7      2682.343          46.000
C05  39778316.008 5 207136130.033 5        17.285          35.000    39778315.836 6 160170795.253 6        13.176          40.000
C19  22084209.883 6 114998282.151 6       234.000          39.000
C20  23447242.125 8 122095923.697 8     -2665.605          51.000
E01  23536821.305 8 123686827.887 8       350.227          51.000    23536823.672 8  94773097.154 8       268.331          51.000
E04  23465583.719 8 123312463.479 8       144.930          51.000    23465583.367 8  94486181.798 8       111.035          51.000
E19  26001158.391 8 136636987.400 8     -2449.383          49.000    26001156.125 6 104695874.795 6     -1876.821          40.000
E21  25396444.227 5 133459214.593 5     -2176.445          34.000    25396451.047 6 102260967.338 6     -1668.025          37.000
E31  25962440.031 7 136433525.441 7      2608.180          46.000    25962441.625 8 104540027.692 8      1998.532          48.000
> 2020 05 07 05 10  0.0000000  0 16        .000000000000
G05  23098536.117 6 121383614.500 6     -3419.156          38.000    23098544.156 6  94584616.371 6     -2664.281          37.000
G13  20149457.508 8 105886104.649 8        65.473          51.000    20149455.391 8  82508647.621 8        51.018          49.000
G17  24325541.531 5 127831587.780 5      2760.785          32.000
G28  21006524.977 8 110390070.757 8      -893.816          51.000    21006523.242 7  86018235.968 7      -696.480          46.000
R01  19207266.172 8 102673835.371 8      -132.238          49.000    19207269.281 7  79857433.422 7      -102.852          42.000
R08  20745147.086 8 111089299.672 8     -3283.105          48.000    20745147.500 7  86402785.236 7     -2553.526          44.000
R11  19410144.086 8 103721985.274 8       785.332          51.000    19410146.742 8  80672625.273 8       610.814          50.000
R12  22327895.914 8 119271579.875 8      3438.301          50.000    22327897.625 7  92766809.623 7      2674.231          47.000
C05  39778219.617 5 207135627.222 5        16.543          35.000    39778219.477 6 160170407.181 6        12.940          40.000
C19  22082909.188 6 114991514.512 6       216.965          40.000
C20  23462631.383 8 122176059.578 8     -2676.406          51.000
E01  23534859.328 8 123676517.281 8       337.699          51.000    23534861.320 8  94765196.814 8       258.769          51.000
E04  23464791.688 8 123308299.979 8       133.117          51.000    23464790.977 8  94482991.569 8       102.068          51.000
E19  26015164.133 8 136710586.247 8     -2456.660          48.000    26015157.617 6 104752268.644 6     -1882.451          39.000
E21  25408891.102 5 133524623.761 5     -2183.449          33.000    25408898.281 6 102311089.102 6     -1673.164          36.000
E31  25947571.875 7 136355391.759 7      2601.172          44.000    25947573.008 7 104480159.035 7      1993.133          47.000
> 2020 05 07 05 10 30.0000000  0 17        .000000000000
G13  20149117.836 8 105884319.974 8        53.199          51.000    20149115.898 8  82507256.947 8        41.454          49.000
G17  24309787.586 5 127748800.965 5      2758.426          31.000    24309783.922 5  99544504.475 5      2149.407          31.000
G28  21011670.648 8 110417112.015 8      -909.262          50.000    21011669.141 7  86039307.096 7      -708.513          47.000
G30  22573515.891 5 118624624.757 5     -2589.375          34.000    22573533.906 5  92434779.710 5     -2017.716          34.000
R01  19208073.391 8 102678151.075 8      -155.824          49.000    19208076.719 7  79860790.067 7      -121.197          42.000
R08  20763579.430 7 111188010.076 7     -3297.836          46.000    20763579.484 6  86479559.919 6     -2564.987          40.000
R10  20885498.633 5 111331359.770 5     -3062.148          31.000
R11  19405782.578 8 103698678.030 8       768.246          51.000    19405784.875 8  80654497.417 8       597.525          49.000
R12  22308607.961 8 119168546.392 8      3430.273          51.000    22308610.531 7  92686672.447 7      2667.987          47.000
C05  39778116.773 5 207135092.435 5        18.145          35.000    39778116.523 6 160169992.867 6        14.375          39.000
C19  22081698.656 6 114985211.510 6       202.773          41.000
C20  23478074.062 8 122256473.142 8     -2684.844          51.000
E01  23532959.867 8 123666534.621 8       327.535          51.000    23532961.617 8  94757547.754 8       250.983          51.000
E04  23464057.805 8 123304442.244 8       123.695          51.000    23464056.875 8  94480035.638 8        94.777          51.000
E19  26029202.859 7 136784359.986 7     -2461.734          46.000    26029194.109 6 104808796.500 6     -1886.156          40.000
E21                                                                  25421374.758 5 102361333.030 5     -1676.448          34.000
E31  25932734.422 7 136277422.829 7      2596.512          43.000    25932735.484 7 104420416.623 7      1989.457          47.000
> 2020 05 07 05 11  0.0000000  0 17        .000000000000
G05  23137648.180 4 121589179.936 4     -3429.355          28.000
G13  20148862.445 8 105882977.769 8        39.273          51.000    20148860.516 8  82506211.061 8        30.603          49.000
G17  24294063.969 5 127666158.399 5      2753.859          33.000    24294061.766 5  99480120.067 5      2145.871          33.000
G28  21016917.078 8 110444682.410 8      -925.812          50.000    21016915.844 7  86060790.529 7      -721.412          46.000
G30  22588317.656 5 118702410.320 5     -2593.750          30.000
R01  19209026.258 8 102683246.375 8      -180.879          49.000    19209029.742 7  79864753.070 7      -140.684          42.000
R08  20782107.984 7 111287236.352 7     -3314.180          46.000    20782107.172 6  86556735.814 6     -2577.698          40.000
R11  19401530.117 8 103675956.071 8       749.629          51.000    19401532.555 8  80636824.796 8       583.045          49.000
R12  22289379.062 8 119065828.234 8      3420.672          51.000    22289382.164 7  92606780.534 7      2660.523          46.000
C05  39778016.609 5 207134570.872 5        19.539          35.000    39778016.391 6 160169589.577 6        14.774          40.000
C19  22080587.086 7 114979422.039 7       186.426          42.000
C20  23493578.750 8 122337210.833 8     -2694.703          49.000
E01  23531132.000 8 123656928.072 8       315.953          51.000    23531133.492 8  94750186.890 8       242.103          51.000
E04  23463391.430 8 123300939.630 8       112.777          51.000    23463390.383 8  94477351.803 8        86.489          51.000
E19  26043283.586 7 136858356.241 7     -2468.312          45.000    26043276.039 7 104865494.887 7     -1891.286          42.000
E21                                                                  25433891.234 5 102411735.265 5     -1680.943          34.000
E31  25917936.852 7 136199668.187 7      2590.285          43.000    25917938.680 7 104360838.366 7      1984.761          47.000
> 2020 05 07 05 11 30.0000000  0 18        .000000000000
G05  23157248.812 5 121692160.698 5     -3435.418          35.000    23157236.711 5  94825012.252 5     -2676.955          33.000
G13  20148685.953 8 105882049.799 8        25.059          51.000    20148684.047 8  82505487.951 8        19.526          49.000
G17  24278364.961 5 127583658.476 5      2748.938          35.000    24278363.617 5  99415834.426 5      2142.026          35.000
G28  21022258.500 8 110472752.028 8      -942.879          48.000    21022257.109 7  86082662.944 7      -734.711          46.000
G30  22603149.562 5 118780352.098 5     -2598.465          34.000    22603148.359 5  92556113.735 5     -2024.778          33.000
R01  19210119.570 8 102689092.800 8      -206.176          49.000    19210123.578 7  79869300.288 7      -160.359          43.000
R08  20800727.898 8 111386945.740 8     -3330.508          48.000    20800728.305 7  86634287.560 7     -2590.395          44.000
R10  20920054.875 5 111515663.627 5     -3079.648          31.000
R11  19397381.961 8 103653789.427 8       730.820          51.000    19397384.312 8  80619584.057 8       568.416          48.000
R12  22270203.641 8 118963397.748 8      3410.598          48.000    22270206.992 7  92527112.368 7      2652.687          45.000
C05  39777913.781 5 207134035.147 5        18.977          35.000    39777913.547 6 160169175.295 6        14.885          40.000
C19  22079568.773 7 114974117.954 7       169.695          42.000
C20  23509139.000 7 122418242.251 7     -2704.902          47.000
E01  23529370.156 8 123647668.391 8       304.039          51.000    23529371.273 8  94743091.806 8       232.989          51.000
E04  23462787.148 8 123297764.003 8       101.625          51.000    23462786.336 8  94474918.518 8        77.863          51.000
E19  26057400.359 7 136932545.751 7     -2475.148          43.000    26057396.312 7 104922341.356 7     -1896.533          44.000
E21  25446443.758 5 133721963.929 5     -2200.262          33.000    25446442.422 5 102462272.522 5     -1685.798          35.000
E31  25903174.156 7 136122099.820 7      2583.625          45.000    25903177.656 8 104301402.828 8      1979.748          48.000
> 2020 05 07 05 12  0.0000000  0 16        .000000000000
G05  23176887.969 6 121795365.338 6     -3443.125          39.000    23176879.781 6  94905431.378 6     -2682.958          37.000
G13  20148591.734 8 105881553.888 8         9.488          51.000    20148589.914 8  82505101.515 8         7.390          49.000
G17  24262695.211 6 127501309.450 6      2742.254          38.000    24262692.641 6  99351666.389 6      2136.821          37.000
G28  21027697.703 8 110501336.057 8      -961.168          48.000    21027696.492 7  86104936.210 7      -748.962          46.000
R01  19211356.570 8 102695708.023 8      -233.137          48.000    19211361.312 7  79874445.452 7      -181.332          43.000
R08  20819441.609 8 111487153.261 8     -3348.297          49.000    20819443.062 7  86712226.698 7     -2604.234          46.000
R11  19393340.672 8 103632194.662 8       710.555          51.000    19393343.297 8  80602788.143 8       552.654          48.000
R12  22251085.156 8 118861273.434 8      3399.250          48.000    22251088.250 7  92447682.352 7      2643.861          45.000
C05                                                                  39777811.125 6 160168762.940 6        13.789          40.000
C19  22078646.875 6 114969316.596 6       151.836          41.000
C20  23524758.609 7 122499582.421 7     -2716.219          47.000
E01  23527677.523 8 123638772.017 8       290.719          51.000    23527678.305 8  94736275.096 8       222.794          51.000
E04  23462248.320 8 123294932.973 8        88.840          51.000    23462247.836 8  94472749.262 8        68.114          51.000
E19  26071557.078 7 137006944.539 7     -2483.215          44.000    26071556.336 7 104979348.200 7     -1902.699          46.000
E21  25459031.727 5 133788114.054 5     -2208.180          32.000    25459030.844 5 102512956.654 5     -1691.745          35.000
E31  25888451.000 7 136044735.470 7      2575.629          47.000    25888455.773 8 104242123.649 8      1973.564          49.000
> 2020 05 07 05 12 30.0000000  0 18        .000000000000
G05  23196560.977 6 121898747.871 6     -3449.727          39.000    23196557.602 6  94985989.146 6     -2688.102          40.000
G13  20148577.930 8 105881481.444 8        -5.105          51.000    20148576.375 8  82505045.058 8        -3.978          50.000
G17  24247052.164 5 127419105.079 5      2737.430          34.000    24247043.203 5  99287611.146 5      2133.068          33.000
G24  23587370.773 5 123952470.004 5      3041.641          34.000
G28  21033232.836 7 110530424.025 7      -978.430          47.000    21033231.781 7  86127602.143 7      -762.413          46.000
R01  19212735.922 8 102703083.282 8      -259.008          48.000    19212741.406 7  79880181.749 7      -201.454          44.000
R08  20838246.422 8 111587846.619 8     -3364.977          50.000    20838248.180 7  86790543.710 7     -2617.207          47.000
R10  20954850.500 5 111701062.774 5     -3097.461          35.000
R11  19389404.531 8 103611161.780 8       691.270          51.000    19389407.234 8  80586429.224 8       537.651          48.000
R12  22232022.711 8 118759447.352 8      3388.801          48.000    22232025.055 7  92368484.306 7      2635.734          44.000
C05  39777707.719 5 207132961.978 5        17.852          35.000    39777707.398 6 160168345.459 6        13.493          40.000
C19  22077818.852 7 114965009.313 7       134.930          43.000
C20  23540436.836 8 122581220.534 8     -2726.648          50.000
E01  23526051.961 8 123630229.241 8       278.422          51.000    23526052.703 8  94729729.348 8       213.288          51.000
E04  23461773.641 8 123292437.991 8        77.031          51.000    23461773.016 8  94470837.515 8        59.051          51.000
E19  26085752.148 7 137081542.598 7     -2490.387          45.000    26085754.250 7 105036507.720 7     -1908.221          47.000
E21                                                                  25471653.219 5 102563779.382 5     -1696.534          34.000
E31  25873765.938 8 135967566.752 8      2568.586          48.000    25873771.125 8 104182994.370 8      1968.122          49.000
> 2020 05 07 05 13  0.0000000  0 17        .000000000000
G05  23216278.477 6 122002364.390 6     -3457.547          39.000    23216275.680 6  95066729.256 6     -2694.192          39.000
G13  20148656.016 8 105881891.981 8       -21.703          51.000    20148654.680 8  82505364.938 8       -16.912          50.000
G17  24231446.797 4 127337107.089 4      2730.941          28.000    24231439.352 3  99223716.741 3      2128.018          20.000
G24  23570018.812 5 123861284.344 5      3034.086          32.000
G28  21038874.641 7 110560073.048 7      -997.441          46.000    21038873.555 7  86150705.250 7      -777.227          46.000
R01  19214269.141 8 102711278.865 8      -286.754          48.000    19214274.828 7  79886556.090 7      -223.031          44.000
R08  20857152.398 8 111689082.724 8     -3383.422          48.000    20857154.000 7  86869282.860 7     -2631.550          46.000
R11  19385584.633 8 103590749.776 8       670.207          51.000    19385587.289 8  80570553.209 8       521.272          48.000
R12  22213027.531 7 118657980.859 7      3376.230          46.000    22213029.695 7  92289565.970 7      2625.957          43.000
C05  39777614.055 5 207132474.593 5        15.301          35.000    39777613.578 6 160167967.786 6        12.001          40.000
C19  22077098.289 7 114961254.642 7       116.023          44.000
C20  23556183.664 8 122663212.943 8     -2738.855          51.000
E01  23524504.609 8 123622098.220 8       264.418          51.000    23524505.312 8  94723499.101 8       202.627          51.000
E04  23461374.195 8 123290338.406 8        63.559          51.000    23461373.430 8  94469228.743 8        48.725          51.000
E19  26099996.953 7 137156397.966 7     -2499.129          46.000    26100000.703 7 105093864.415 7     -1914.908          47.000
E21                                                                  25484319.289 5 102614793.565 5     -1703.335          33.000
E31  25859129.969 8 135890653.160 8      2559.773          49.000    25859134.773 8 104124060.573 8      1961.391          50.000
> 2020 05 07 05 13 30.0000000  0 18        .000000000000
G05  23236025.852 6 122106134.330 6     -3461.309          37.000    23236021.539 6  95147588.940 6     -2697.124          36.000
G13  20148811.422 8 105882708.377 8       -33.809          51.000    20148809.992 8  82506001.087 8       -26.344          50.000
G15  20798406.164 5 109296361.887 5      1636.059          32.000
