     3.02           OBSERVATION DATA    M (MIXED)           RINEX VERSION / TYPE
SAVERINEX           SC600               20200504 205931 LCL PGM / RUN BY / DATE
       G = GPS       R = GLONASS       C = COMPASS          COMMENT
       S = SBAS      J = QZSS          E = GALILEO          COMMENT
BEAN                                                        MARKER NAME
1                                                           MARKER NUMBER
GEODETIC                                                    MARKER TYPE
Unige DICCA         GTER                                    OBSERVER / AGENCY
SC60291900056       SC600               2.12(191226)        REC # / TYPE / VERS
                    HEMA45          NONE                    ANT # / TYPE
  4509407.8091   693652.4678  4442337.6214                  APPROX POSITION XYZ
        0.0000        0.0000        0.0000                  ANTENNA: DELTA H/E/N
G    8 C1C L1C D1C S1C C2Y L2Y D2Y S2Y                      SYS / # / OBS TYPES
R    8 C1C L1C D1C S1C C2P L2P D2P S2P                      SYS / # / OBS TYPES
C    8 C1I L1I D1I S1I C7I L7I D7I S7I                      SYS / # / OBS TYPES
E    8 C1C L1C D1C S1C C7Q L7Q D7Q S7Q                      SYS / # / OBS TYPES
DBHZ                                                        COMMENT
     30.000                                                 INTERVAL
  2020    05    04    18    00    0.0000000     GPS         TIME OF FIRST OBS
  2020    05    04    18    59   30.0000000     GPS         TIME OF LAST OBS
     0                                                      RCV CLOCK OFFS APPL
G L1C  0.00000                                              SYS / PHASE SHIFT
G L2Y  0.00000                                              SYS / PHASE SHIFT
R L1C  0.00000                                              SYS / PHASE SHIFT
R L2P  0.25000                                              SYS / PHASE SHIFT
C L1I  0.00000                                              SYS / PHASE SHIFT
C L7I  0.00000                                              SYS / PHASE SHIFT
E L1C  0.50000                                              SYS / PHASE SHIFT
E L7Q -0.25000                                              SYS / PHASE SHIFT
 12 R01  1 R02 -4 R07  5 R08  6 R10 -5 R11  0 R12 -1 R13 -2 GLONASS SLOT / FRQ #
    R14 -7 R21  4 R22 -3 R23  3                             GLONASS SLOT / FRQ #
 C1C   71.950 C2C   71.950 C2P   71.950                     GLONASS COD/PHS/BIS
    18                                                      LEAP SECONDS
*** Above antenna height is from mark to ANTENNA BOTTOM.    COMMENT
    17     4        0.0000        ANT MEASURE TYPE/HEIGT    COMMENT
    0.0000    0.0000    0.0458    0.0405    0.0000          COMMENT
                    BASE STATION                            COMMENT
                                                            END OF HEADER
> 2020 05 04 18 00  0.0000000  0 18        .000000000000
G08  20359063.234 8 106987588.994 8       431.668          51.000    20359065.867 8  83366956.307 8       336.362          51.000
G10  21665696.672 7 113854012.542 7     -2037.301          44.000    21665698.070 7  88717457.674 7     -1587.507          44.000
G14  24138466.789 7 126848526.245 7      2920.070          44.000    24138469.977 6  98843020.180 6      2275.383          41.000
G22  23454312.906 6 123253235.662 6      3292.605          38.000    23454309.719 6  96041489.442 6      2565.670          37.000
G27  20913720.789 8 109902340.565 8     -1817.691          51.000    20913722.445 8  85638173.847 8     -1416.383          51.000
G32  23027147.680 5 121008467.446 5      2336.477          31.000
R01  19707909.000 8 105350149.392 8       669.781          49.000    19707913.805 7  81939030.701 7       520.941          42.000
R02  22441506.586 5 119752178.188 5      4388.070          30.000
R14  23603657.961 4 125820714.761 4     -3779.824          29.000    23603660.398 4  97860568.272 4     -2939.866          29.000
R24  19559670.180 7 104594432.511 7        50.277          46.000    19559673.547 7  81351178.476 7        39.105          42.000
C05  39629045.211 6 206358836.487 6       -20.590          36.000    39629045.984 6 159569746.405 6       -15.779          38.000
C27  21650515.570 8 112739925.272 8      -688.613          51.000
C28  24926883.875 4 129800827.348 4     -2685.043          28.000
C30  22808965.195 5 118772303.087 5      2056.680          32.000
E02  25909172.055 7 136153638.349 7     -1815.402          43.000    25909188.156 5 104325531.260 5     -1390.699          31.000
E09  23702161.797 8 124555777.790 8      2573.090          50.000    23702167.672 8  95438804.668 8      1971.654          51.000
E11                                                                  23581702.688 8  94953765.178 8     -1014.880          48.000
E36                                                                  23536363.531 5  94771178.708 5       649.153          34.000
> 2020 05 04 18 00 30.0000000  0 16        .000000000000
G08  20356643.984 8 106974875.862 8       416.027          51.000    20356646.656 8  83357049.969 8       324.177          51.000
G10  21677364.820 7 113915328.527 7     -2050.234          46.000    21677366.523 7  88765236.361 7     -1597.585          46.000
G14  24121807.734 7 126760979.746 7      2916.414          44.000    24121811.047 6  98774802.197 6      2272.533          39.000
G22  23435538.875 6 123154568.828 6      3285.359          40.000    23435533.953 5  95964606.306 5      2560.029          33.000
G27  20924139.047 8 109957087.006 8     -1831.898          51.000    20924140.414 8  85680833.389 8     -1427.453          51.000
G32  23013839.977 5 120938538.286 5      2324.316          34.000    23013855.820 5  94237870.809 5      1811.162          35.000
R01  19704226.219 8 105330464.267 8       642.656          48.000    19704231.578 7  81923720.082 7       499.844          42.000
R02  22416850.016 4 119620609.697 4      4382.555          26.000    22416845.969 4  93038228.564 4      3408.660          28.000
R24  19559423.742 7 104593116.446 7        37.727          46.000    19559428.164 7  81350154.855 7        29.343          42.000
C05  39629163.102 5 206359450.509 5       -20.449          35.000    39629163.891 6 159570221.243 6       -15.773          38.000
C27  21654512.625 8 112760739.257 8      -698.879          51.000
C30  22797129.984 4 118710685.607 4      2051.957          27.000
E02  25919567.906 7 136208264.409 7     -1826.301          43.000    25919588.523 5 104367435.718 5     -1400.056          30.000
E09  23687494.688 8 124478696.339 8      2565.781          51.000    23687499.625 8  95379742.301 8      1966.036          51.000
E11                                                                  23589277.500 7  94984265.792 7     -1018.196          47.000
E36                                                                  23531543.578 5  94751766.322 5       645.489          34.000
> 2020 05 04 18 01  0.0000000  0 17        .000000000000
G08  20354309.984 8 106962610.465 8       402.168          51.000    20354312.539 8  83347492.513 8       313.378          51.000
G10  21689102.672 7 113977010.878 7     -2061.309          46.000    21689103.898 7  88813300.499 7     -1606.218          46.000
G14  24105165.555 7 126673521.791 7      2914.488          45.000    24105168.781 6  98706653.227 6      2271.033          37.000
G22  23416802.242 6 123056094.241 6      3279.875          40.000    23416795.484 6  95887872.912 6      2555.747          37.000
G27  20934633.641 8 110012234.923 8     -1844.168          51.000    20934634.828 8  85723805.781 8     -1437.014          51.000
G32  23000595.883 6 120868929.416 6      2315.395          37.000    23000611.172 6  94183630.028 6      1804.204          38.000
R01  19700692.320 8 105311572.675 8       617.402          48.000    19700697.594 6  81909026.624 6       480.202          41.000
R02  22392223.094 5 119489213.727 5      4377.102          35.000    22392224.281 4  92936038.878 4      3404.418          28.000
R23  21005325.539 5 112364312.367 5     -2248.391          33.000    21005327.250 4  87394481.157 4     -1748.748          27.000
R24  19559244.516 8 104592156.299 8        26.832          48.000    19559249.000 7  81349408.063 7        20.869          42.000
C05  39629275.711 6 206360036.705 6       -18.418          36.000    39629276.430 6 159570674.521 6       -14.314          38.000
C27  21658564.289 8 112781838.370 8      -707.254          51.000
C28  24957871.812 4 129962181.786 4     -2690.863          29.000
E02  25930020.727 6 136263194.271 6     -1835.141          41.000
E09  23672865.594 8 124401814.008 8      2560.109          51.000    23672868.906 8  95320832.508 8      1961.690          50.000
E11                                                                  23596873.344 7  95014850.694 7     -1020.207          47.000
E36  23526747.227 5 123633891.113 5       839.520          33.000    23526744.008 5  94732449.639 5       643.184          32.000
> 2020 05 04 18 01 30.0000000  0 17        .000000000000
G08  20352070.016 8 106950838.660 8       384.117          51.000    20352072.391 8  83338319.678 8       299.312          51.000
G10  21700918.367 7 114039102.397 7     -2076.527          44.000    21700919.117 7  88861683.464 7     -1618.073          44.000
G14  24088549.227 7 126586200.404 7      2908.379          43.000    24088551.891 5  98638610.716 5      2266.275          34.000
G22  23398111.906 6 122957858.555 6      3270.070          38.000    23398102.484 6  95811325.699 6      2548.110          38.000
G27  20945213.023 8 110067828.577 8     -1860.531          51.000    20945214.117 8  85767125.493 8     -1449.765          51.000
G32  22987420.797 5 120799688.492 5      2301.883          35.000    22987432.961 5  94129675.966 5      1793.672          34.000
R01  19697315.117 8 105293520.667 8       587.824          48.000    19697320.344 6  81894986.212 6       457.197          40.000
R02  22367641.477 6 119358052.282 6      4368.277          38.000    22367643.867 4  92834029.003 4      3397.549          26.000
R23  21017971.633 6 112431969.534 6     -2260.730          36.000    21017969.641 4  87447075.482 4     -1758.340          27.000
R24  19559140.664 8 104591598.692 8        11.789          48.000    19559144.664 7  81348974.360 7         9.169          42.000
C05  39629391.438 5 206360639.644 5       -19.922          35.000    39629392.281 6 159571140.783 6       -15.704          38.000
C27  21662679.398 8 112803267.516 8      -719.797          51.000
C28  24973402.125 4 130043048.143 4     -2699.402          29.000
E02  25940538.555 6 136318471.240 6     -1848.391          37.000    25940539.352 5 104451783.226 5     -1416.476          35.000
E09  23658283.438 8 124325177.601 8      2550.441          51.000    23658284.828 8  95262111.166 8      1954.168          50.000
E11                                                                  23604498.781 7  95045554.351 7     -1025.323          47.000
E36  23521976.906 5 123608831.378 5       832.855          34.000    23521974.555 5  94713246.345 5       637.979          31.000
> 2020 05 04 18 02  0.0000000  0 16        .000000000000
G08  20349922.461 8 106939552.704 8       368.723          51.000    20349924.430 8  83329525.426 8       287.316          51.000
G10  21712809.547 7 114101591.904 7     -2089.328          42.000    21712810.617 6  88910376.599 6     -1628.048          41.000
G11  20965311.070 5 110173452.494 5      2223.328          30.000
G14  24071957.242 7 126499009.425 7      2904.840          44.000    24071958.844 5  98570669.855 5      2263.515          34.000
G22  23379465.305 6 122859854.091 6      3263.270          39.000    23379453.641 6  95734958.746 6      2542.814          38.000
G27  20955875.375 8 110123858.204 8     -1874.371          51.000    20955876.500 8  85810784.915 8     -1460.549          51.000
R01  19694093.727 8 105276299.707 8       560.715          48.000    19694098.281 6  81881592.158 6       436.112          40.000
R02  22343101.461 6 119227110.913 6      4361.586          39.000    22343105.859 4  92732176.250 4      3392.348          27.000
R24  19559110.477 8 104591435.313 8         -.629          49.000    19559113.555 6  81348847.287 6         -.489          41.000
C05  39629508.664 5 206361250.422 5       -20.070          35.000    39629509.547 6 159571613.040 6       -15.221          38.000
C27  21666856.148 8 112825018.147 8      -729.820          51.000
C28  24988960.156 5 130124072.015 5     -2702.906          31.000
E02  25951117.188 5 136374043.550 5     -1858.629          33.000    25951124.039 6 104494395.984 6     -1424.282          36.000
E09  23643746.289 8 124248779.916 8      2543.113          51.000    23643746.156 8  95203572.743 8      1948.664          49.000
E11                                                                  23612151.922 7  95076369.939 7     -1028.708          47.000
E36  23517238.344 5 123583920.862 5       828.629          32.000    23517235.305 5  94694158.803 5       635.417          31.000
> 2020 05 04 18 02 30.0000000  0 14        .000000000000
G08  20347863.961 8 106928735.113 8       352.117          51.000    20347865.727 8  83321096.139 8       274.377          51.000
G10  21724772.266 7 114164458.833 7     -2102.672          43.000    21724774.391 7  88959363.846 7     -1638.446          43.000
G14  24055387.664 7 126411933.436 7      2899.969          44.000    24055388.422 6  98502818.581 6      2259.725          38.000
G22  23360856.289 6 122762131.426 6      3255.328          40.000    23360845.195 6  95658766.105 6      2536.622          39.000
G27  20966616.984 8 110180304.675 8     -1889.223          51.000    20966618.320 8  85854769.108 8     -1472.125          51.000
R01  19691024.266 7 105259891.719 7       532.711          47.000    19691028.414 6  81868830.416 6       414.331          41.000
R02  22318600.008 6 119096374.833 6      4353.734          37.000
R24  19559150.695 8 104591648.850 8       -14.145          49.000    19559152.680 6  81349013.366 6       -11.001          41.000
C05  39629623.961 5 206361850.732 5       -20.262          35.000    39629624.875 6 159572077.285 6       -15.946          38.000
C27  21671091.141 8 112847072.370 8      -740.984          51.000
C28  25004543.336 4 130205229.808 4     -2708.176          28.000
E09  23629250.578 8 124172604.387 8      2534.727          51.000    23629249.914 8  95145204.544 8      1942.220          49.000
E11                                                                  23619829.094 7  95107283.419 7     -1032.695          46.000
E36                                                                  23512521.836 5  94675181.293 5       630.329          31.000
> 2020 05 04 18 03  0.0000000  0 17        .000000000000
G08  20345902.359 8 106918427.066 8       335.805          51.000    20345904.344 8  83313063.891 8       261.666          51.000
G10  21736814.555 7 114227741.109 7     -2115.438          45.000    21736817.055 7  89008674.697 7     -1648.393          45.000
G14  24038848.055 7 126325015.642 7      2895.352          45.000    24038848.898 6  98435090.590 6      2256.121          36.000
G22  23342296.016 6 122664598.299 6      3247.445          40.000    23342284.758 6  95582766.338 6      2530.480          38.000
G27  20977445.328 8 110237207.202 8     -1903.742          51.000    20977446.406 8  85899108.681 8     -1483.435          51.000
G32  22948304.906 5 120594169.174 5      2265.477          32.000    22948311.438 5  93969488.793 5      1765.300          32.000
R01  19688114.297 8 105244337.583 8       505.000          48.000    19688118.484 7  81856732.769 7       392.778          42.000
R02  22294145.336 4 118965888.702 4      4345.930          29.000
R24  19559269.039 8 104592280.862 8       -27.340          49.000    19559270.250 6  81349504.923 6       -21.267          41.000
C05  39629744.883 5 206362480.310 5       -20.902          35.000    39629745.719 6 159572564.096 6       -16.084          38.000
C27  21675392.461 8 112869470.138 8      -751.605          51.000
C28  25020157.977 5 130286560.578 5     -2712.785          32.000
C30  22738502.375 5 118405349.539 5      2019.566          33.000
E02  25972477.945 6 136486298.370 6     -1881.539          37.000    25972481.188 6 104580416.951 6     -1441.331          39.000
E09  23614804.523 8 124096692.818 8      2526.699          51.000    23614804.180 8  95087038.609 8      1936.003          49.000
E11  23627542.406 5 124163572.620 5     -1353.000          32.000    23627538.180 7  95138325.525 7     -1036.415          45.000
E36                                                                  23507840.625 5  94656329.519 5       626.450          32.000
> 2020 05 04 18 03 30.0000000  0 18        .000000000000
G08  20344033.617 8 106908607.371 8       320.055          51.000    20344035.844 8  83305412.170 8       249.393          51.000
G10  21748931.398 7 114291414.614 7     -2128.035          45.000    21748933.383 7  89058290.389 7     -1658.209          45.000
G14  24022334.734 7 126238236.558 7      2891.227          44.000    24022335.852 6  98367470.582 6      2252.904          40.000
G22  23323780.719 6 122567301.312 6      3240.000          41.000    23323769.008 6  95506950.630 6      2524.681          39.000
G27  20988355.750 8 110294543.047 8     -1917.566          51.000    20988356.797 8  85943785.919 8     -1494.208          51.000
R01  19685360.250 8 105229615.692 8       477.816          48.000    19685364.445 7  81845282.420 7       371.635          42.000
R02  22269733.328 5 118835633.662 5      4338.273          31.000
R08  21523316.945 4 115256310.103 4     -2826.430          28.000
R23  21069149.109 5 112705740.166 5     -2301.262          34.000
R24  19559461.578 8 104593310.199 8       -40.062          49.000    19559462.109 6  81350305.520 6       -31.160          41.000
C05  39629867.305 5 206363117.391 5       -20.824          35.000    39629867.945 6 159573056.734 6       -16.015          38.000
C27  21679755.781 8 112892190.098 8      -761.855          51.000
C28  25035802.703 5 130368042.206 5     -2717.590          30.000
C30  22726887.094 5 118344877.176 5      2013.055          30.000
E02  25983262.203 5 136542956.535 5     -1892.031          35.000    25983254.617 6 104623801.372 6     -1449.493          38.000
E09  23600404.641 8 124021025.057 8      2519.105          51.000    23600405.273 8  95029059.486 8      1930.215          50.000
E11  23635274.773 5 124204210.128 5     -1356.914          31.000    23635275.211 7  95169479.464 7     -1039.695          44.000
E36                                                                  23503188.570 5  94637598.088 5       623.229          33.000
> 2020 05 04 18 04  0.0000000  0 15        .000000000000
G08  20342255.062 8 106899260.982 8       303.512          51.000    20342257.328 8  83298129.265 8       236.503          51.000
G10  21761119.125 7 114355461.031 7     -2141.043          45.000    21761120.961 7  89108196.670 7     -1668.345          45.000
G14  24005844.703 7 126151583.181 7      2886.207          44.000    24005847.234 6  98299948.560 6      2248.996          41.000
G22  23305308.242 6 122470225.914 6      3232.105          39.000    23305294.906 6  95431307.617 6      2518.533          38.000
G27  20999345.195 8 110352295.351 8     -1932.156          50.000    20999346.859 8  85988787.676 8     -1505.576          50.000
R01  19682758.703 8 105215709.656 8       449.902          48.000    19682763.094 7  81834466.610 7       349.927          43.000
R02  22245362.070 5 118705598.007 5      4330.457          35.000
R23  21082105.023 5 112774972.897 5     -2312.195          31.000
R24  19559725.266 8 104594721.252 8       -53.652          49.000    19559725.805 6  81351402.994 6       -41.730          41.000
C05  39629987.984 5 206363746.465 5       -20.426          35.000    39629988.758 6 159573542.824 6       -16.091          39.000
C27  21684178.109 8 112915216.582 8      -772.738          51.000
C30  22715308.070 5 118284587.937 5      2006.738          33.000
E02  25994090.656 6 136599884.863 6     -1903.117          36.000    25994087.633 6 104667421.742 6     -1458.137          38.000
E09  23586048.578 8 123945586.852 8      2510.637          51.000    23586050.195 8  94971256.245 8      1923.699          50.000
E11  23643038.062 5 124244999.616 5     -1362.051          33.000    23643037.320 7  95200732.976 7     -1043.476          44.000
> 2020 05 04 18 04 30.0000000  0 15        .000000000000
G08  20340568.672 8 106890398.770 8       286.758          51.000    20340570.969 8  83291223.648 8       223.451          51.000
G10  21773379.055 7 114419887.940 7     -2154.570          44.000    21773381.609 7  89158399.424 7     -1678.889          44.000
G11  20902562.930 5 109843709.005 5      2172.418          32.000
G14  23989380.609 7 126065068.103 7      2880.938          42.000    23989384.617 7  98232534.237 7      2244.886          42.000
G22  23286880.312 6 122373383.462 6      3223.602          36.000    23286864.234 4  95355846.204 4      2511.916          27.000
G27  21010415.469 8 110410472.845 8     -1946.855          49.000    21010417.734 8  86034120.802 8     -1517.027          49.000
R01  19680311.742 8 105202630.104 8       421.605          49.000    19680316.547 7  81824293.637 7       327.915          43.000
R02  22221035.867 5 118575794.364 5      4322.113          35.000    22221053.727 4  92225592.513 4      3361.644          28.000
R24  19560062.602 8 104596524.983 8       -67.293          49.000    19560063.430 7  81352805.901 7       -52.339          43.000
C05  39630109.000 5 206364375.687 5       -21.414          34.000    39630109.703 6 159574029.720 6       -16.474          38.000
C27  21688661.102 8 112938559.496 8      -783.906          51.000
C30  22703765.406 4 118224492.612 4      1998.895          28.000
E02  26004978.195 6 136657134.248 6     -1914.398          38.000    26004981.742 6 104711288.113 6     -1466.946          37.000
E09  23571738.508 8 123870389.614 8      2501.957          51.000    23571741.383 8  94913637.646 8      1917.108          51.000
E11  23650827.859 6 124285933.738 6     -1366.969          37.000    23650825.594 7  95232093.505 7     -1047.489          42.000
> 2020 05 04 18 05  0.0000000  0 14        .000000000000
G08  20338979.688 8 106882048.686 8       271.602          51.000    20338981.891 8  83284717.086 8       211.638          51.000
G10  21785716.062 7 114484720.034 7     -2166.199          43.000    21785719.047 7  89208917.937 7     -1687.947          43.000
G14  23972948.727 7 125978721.147 7      2876.988          43.000    23972953.594 7  98165250.940 7      2241.809          42.000
G22  23268497.969 6 122276782.673 6      3216.742          38.000
G27  21021571.562 8 110469101.793 8     -1960.008          49.000    21021574.305 8  86079805.725 8     -1527.276          49.000
G32  22897140.852 5 120325265.160 5      2217.027          35.000
R01  19678024.625 8 105190404.329 8       395.074          48.000    19678029.555 7  81814784.707 7       307.280          42.000
R02  22196760.008 5 118446254.756 5      4315.668          34.000    22196775.242 5  92124839.665 5      3356.637          30.000
R24  19560478.531 8 104598749.676 8       -79.344          49.000    19560480.422 7  81354536.214 7       -61.712          44.000
C05  39630235.336 5 206365034.223 5       -20.848          35.000    39630236.023 6 159574538.167 6       -15.852          38.000
C27  21693210.133 8 112962245.896 8      -793.516          51.000
E02  26015934.695 6 136714729.858 6     -1923.801          39.000    26015940.133 5 104755419.754 5     -1474.180          34.000
E09  23557479.797 8 123795462.148 8      2494.934          49.000    23557484.125 8  94856225.731 8      1911.696          51.000
E11  23658648.633 6 124327028.654 6     -1370.789          37.000    23658645.672 7  95263581.867 7     -1050.354          42.000
> 2020 05 04 18 05 30.0000000  0 15        .000000000000
G08  20337479.875 8 106874166.828 8       253.562          51.000    20337482.094 8  83278575.373 8       197.581          51.000
G10  21798121.195 7 114549910.183 7     -2180.191          46.000    21798123.930 7  89259715.444 7     -1698.850          45.000
G14  23956541.742 7 125892500.146 7      2870.457          46.000    23956546.422 7  98098065.818 7      2236.723          44.000
G22  23250157.125 6 122180420.215 6      3206.742          38.000    23250142.742 4  95205447.147 4      2498.760          29.000
G27  21032805.328 8 110528136.453 8     -1976.016          51.000    21032807.961 8  86125806.735 8     -1539.755          51.000
G32  22884525.953 6 120258969.975 6      2202.598          38.000    22884528.219 5  93708296.854 5      1716.337          34.000
R01  19675888.773 8 105178986.934 8       365.684          49.000    19675893.672 7  81805904.523 7       284.421          42.000
R02  22172527.070 5 118316937.072 5      4305.570          34.000    22172539.484 4  92024259.412 4      3348.783          28.000
R24  19560964.945 8 104601350.755 8       -94.340          49.000    19560967.359 7  81356559.260 7       -73.375          44.000
C05  39630358.289 5 206365673.956 5       -22.270          35.000    39630359.086 6 159575033.679 6       -17.456          38.000
C27  21697816.648 8 112986231.515 8      -805.852          51.000
C28  25098658.742 5 130695306.607 5     -2738.461          30.000
E02  26026949.312 6 136772625.038 6     -1936.191          40.000    26026952.539 5 104799756.845 5     -1483.707          32.000
E09  23543263.539 7 123720761.280 7      2484.863          46.000    23543269.938 8  94798987.442 8      1903.977          51.000
E11  23666491.273 5 124368245.542 5     -1377.090          35.000    23666489.000 7  95295163.636 7     -1055.188          42.000
> 2020 05 04 18 06  0.0000000  0 15        .000000000000
G08  20336072.625 8 106866771.623 8       238.805          51.000    20336074.898 8  83272812.873 8       186.082          51.000
G10  21810597.508 7 114615473.981 7     -2191.027          46.000    21810600.164 7  89310804.076 7     -1707.294          46.000
G14  23940162.883 7 125806425.808 7      2866.977          47.000    23940167.023 7  98030994.975 7      2234.008          45.000
G22  23231861.133 6 122084295.314 6      3200.883          36.000    23231854.695 5  95130562.855 5      2494.197          35.000
G27  21044119.898 8 110587593.597 8     -1988.473          51.000    21044122.023 8  86172136.951 8     -1549.462          51.000
G32  22871982.812 6 120193051.144 6      2191.242          39.000    22871987.352 6  93656931.547 6      1707.461          38.000
R01  19673907.766 8 105168396.299 8       339.660          49.000    19673912.477 6  81797667.399 6       264.183          41.000
R02  22148340.594 5 118187863.838 5      4298.633          32.000    22148350.922 5  91923869.239 5      3343.387          30.000
R23  21134422.109 6 113054892.554 6     -2352.988          36.000
R24  19561525.000 8 104604347.199 8      -106.039          49.000    19561527.742 7  81358889.823 7       -82.475          45.000
C05  39630481.500 5 206366316.109 5       -20.762          35.000    39630482.242 6 159575529.836 6       -16.121          38.000
C27  21702483.984 8 113010534.241 8      -814.941          51.000
E02  26038025.195 6 136830835.694 6     -1945.238          40.000    26038026.883 5 104844343.660 5     -1490.423          33.000
E09  23529093.508 7 123646306.483 7      2478.129          44.000    23529102.203 8  94741937.665 8      1898.898          51.000
E11  23674360.852 6 124409602.094 6     -1380.480          37.000    23674359.133 7  95326852.429 7     -1057.645          42.000
> 2020 05 04 18 06 30.0000000  0 14        .000000000000
G08  20334758.500 8 106859865.559 8       222.168          51.000    20334760.664 8  83267431.527 8       173.118          51.000
G10  21823144.945 7 114681410.733 7     -2203.895          45.000    21823147.672 7  89362183.347 7     -1717.320          44.000
G14  23923812.742 7 125720502.547 7      2861.785          46.000    23923816.391 7  97964041.849 7      2229.962          44.000
G27  21055514.977 8 110647473.931 8     -2002.969          51.000    21055516.781 8  86218796.911 8     -1560.755          51.000
G32  22859509.711 6 120127512.923 6      2178.457          36.000    22859516.469 6  93605862.935 6      1697.499          37.000
R01  19672081.625 8 105158633.811 8       311.715          49.000    19672085.867 6  81790074.377 6       242.445          40.000
R23  21147648.695 5 113125648.594 5     -2363.699          33.000
R24  19562159.516 8 104607741.446 8      -119.750          49.000    19562162.164 7  81361529.784 7       -93.139          44.000
C05  39630605.258 5 206366960.597 5       -21.812          35.000    39630605.898 6 159576027.800 6       -16.562          38.000
C27  21707212.586 8 113035155.856 8      -825.996          51.000
C28  25130259.055 5 130859847.261 5     -2747.008          33.000
E02  26049162.023 6 136889361.581 6     -1955.695          38.000    26049168.469 6 104889188.066 6     -1498.825          36.000
E09  23514971.641 7 123572101.058 7      2469.371          45.000    23514981.305 8  94685078.973 8      1892.166          51.000
E11  23682257.586 6 124451099.946 6     -1385.680          36.000    23682256.477 7  95358649.534 7     -1061.865          42.000
> 2020 05 04 18 07  0.0000000  0 16        .000000000000
G08  20333531.422 8 106853417.346 8       206.930          51.000    20333533.461 8  83262406.944 8       161.244          51.000
G10  21835756.852 7 114747686.106 7     -2215.078          46.000    21835759.219 7  89413826.499 7     -1726.035          46.000
G14  23907485.094 7 125634701.028 7      2857.535          42.000    23907488.570 7  97897183.596 7      2226.651          42.000
G27  21066984.234 8 110707744.459 8     -2015.914          51.000    21066985.773 8  86265760.929 8     -1570.842          51.000
G32  22847102.023 6 120062325.955 6      2166.680          38.000    22847105.562 6  93555067.913 6      1688.322          38.000
R01  19670404.000 8 105149667.050 8       285.230          49.000    19670408.234 6  81783100.301 6       221.849          40.000
R02  22100107.305 5 117930380.086 5      4281.957          31.000    22100109.242 5  91723648.837 5      3330.408          35.000
R08  21636792.586 4 115864040.600 4     -2958.051          29.000    21636794.727 4  90116485.605 4     -2300.706          26.000
R23  21160927.750 6 113196678.926 6     -2372.898          36.000
R24  19562862.867 8 104611502.037 8      -131.844          50.000    19562865.047 7  81364454.689 7      -102.545          44.000
C05                                                                  39630723.914 6 159576502.968 6       -15.647          39.000
C27  21711996.258 8 113060064.865 8      -835.426          51.000
C28  25146095.195 6 130942294.501 6     -2750.559          36.000
E02  26060353.312 6 136948168.864 6     -1965.164          38.000    26060364.891 6 104934248.188 6     -1505.820          39.000
E09  23500892.898 7 123498114.629 7      2462.191          47.000    23500902.023 8  94628388.105 8      1886.638          51.000
E11  23690173.773 6 124492707.059 6     -1389.328          36.000    23690174.680 7  95390530.279 7     -1064.386          42.000
> 2020 05 04 18 07 30.0000000  0 17        .000000000000
G08  20332388.719 8 106847413.075 8       192.254          51.000    20332390.820 8  83257728.285 8       149.808          51.000
G10  21848430.016 7 114814282.883 7     -2225.668          46.000    21848432.062 7  89465720.059 7     -1734.287          46.000
G11  20829159.367 5 109457969.136 5      2114.414          33.000
G14  23891177.445 6 125549009.212 6      2854.031          39.000    23891181.734 6  97830410.858 6      2223.920          38.000
G22  23177248.766 5 121797264.142 5      3178.922          31.000    23177241.188 5  94906932.794 5      2477.082          31.000
G27  21078524.258 8 110768389.190 8     -2028.230          49.000    21078526.297 8  86313016.547 8     -1580.439          49.000
G32  22834760.805 6 119997477.955 6      2155.305          41.000    22834764.281 6  93504537.014 6      1679.458          41.000
R01  19668872.711 8 105141480.739 8       259.312          49.000    19668876.812 6  81776733.198 6       201.691          41.000
R02  22076043.242 5 117801986.056 5      4275.445          33.000    22076046.492 6  91623786.904 6      3325.343          38.000
R08  21653422.531 5 115953055.626 5     -2975.203          33.000    21653421.688 4  90185734.077 4     -2314.047          24.000
R24  19563632.133 8 104615614.500 8      -143.531          51.000    19563634.086 7  81367653.281 7      -111.638          45.000
C05  39630832.828 5 206368145.577 5       -19.184          35.000    39630833.281 6 159576943.704 6       -14.351          38.000
C27  21716832.031 8 113085246.588 8      -844.500          51.000
C28  25161948.797 6 131024836.350 6     -2753.297          39.000
E02  26071594.805 6 137007240.638 6     -1973.848          37.000    26071610.609 6 104979510.974 6     -1512.372          39.000
E09  23486853.719 8 123424333.872 8      2455.379          49.000    23486861.672 8  94571854.843 8      1881.502          51.000
E11  23698109.219 6 124534408.447 6     -1391.703          36.000    23698110.492 6  95422483.302 6     -1066.711          41.000
> 2020 05 04 18 08  0.0000000  0 17        .000000000000
G08  20331356.680 8 106841990.169 8       177.020          50.000    20331358.695 8  83253502.632 8       137.937          50.000
G10  21861189.859 7 114881335.722 7     -2236.617          45.000    21861191.500 7  89517969.004 7     -1742.819          45.000
G11  20817137.461 5 109394794.839 5      2104.891          33.000
G14  23874917.211 7 125463566.551 7      2849.996          42.000    23874921.852 6  97763832.324 6      2220.779          41.000
G22  23159143.531 6 121702121.525 6      3172.113          37.000    23159133.562 5  94832781.685 5      2471.780          33.000
G27  21090161.391 8 110829544.157 8     -2040.973          50.000    21090164.109 8  86360669.763 8     -1590.368          50.000
G32  22822510.688 6 119933108.305 6      2143.871          41.000    22822514.922 6  93454378.839 6      1670.549          40.000
R01  19667513.086 7 105134213.863 7       233.090          47.000    19667517.477 7  81771081.206 7       181.292          42.000
R02  22052048.539 6 117673943.895 6      4268.391          38.000    22052051.578 6  91524198.602 6      3319.862          40.000
R15  22587048.508 5 120698349.752 5     -1897.668          35.000    22587053.773 4  93876510.010 4     -1475.964          26.000
R24  19564493.336 8 104620219.145 8      -155.594          51.000    19564495.109 7  81371234.665 7      -121.017          45.000
C05  39630959.789 5 206368806.287 5       -18.430          35.000    39630960.273 6 159577454.986 6       -13.571          38.000
C27  21721746.250 8 113110836.978 8      -853.801          51.000
C28  25177845.930 6 131107607.925 6     -2756.730          37.000
E02  26082911.789 6 137066712.039 6     -1982.895          36.000    26082930.648 6 105025080.016 6     -1519.301          40.000
E09  23472880.156 8 123350897.476 8      2448.258          51.000    23472886.891 8  94515585.452 8      1875.887          51.000
E11  23706088.539 6 124576336.030 6     -1395.352          36.000    23706089.297 6  95454613.538 6     -1069.180          41.000
> 2020 05 04 18 08 30.0000000  0 18        .000000000000
G08  20330414.836 8 106837040.405 8       155.078          51.000    20330416.805 8  83249645.677 8       120.840          51.000
G10  21874015.180 7 114948732.725 7     -2254.309          45.000    21874016.281 7  89570486.129 7     -1756.607          45.000
G11  20805175.281 4 109331932.847 4      2089.559          29.000
G14  23858685.367 7 125378266.849 7      2838.746          44.000    23858689.430 6  97697365.111 6      2212.013          41.000
G22  23141080.352 6 121607205.701 6      3158.062          37.000    23141072.133 5  94758822.214 5      2460.822          31.000
G27  21101875.117 8 110891098.787 8     -2060.539          51.000    21101877.828 8  86408634.393 8     -1605.618          51.000
G32  22810331.164 6 119869109.878 6      2125.125          38.000    22810335.320 6  93404509.957 6      1655.942          38.000
R01  19666304.406 7 105127755.116 7       199.660          47.000    19666309.250 7  81766057.748 7       155.291          43.000
R02  22028098.211 6 117546146.382 6      4253.574          40.000    22028102.422 6  91424800.590 6      3308.339          41.000
R23  21201107.961 5 113411625.406 5     -2405.523          35.000
R24  19565425.875 8 104625205.396 8      -174.672          51.000    19565427.500 7  81375112.871 7      -135.853          45.000
C05  39631083.367 5 206369450.004 5       -23.664          35.000    39631083.844 6 159577952.771 6       -17.812          38.000
C27  21726718.000 8 113136727.616 8      -870.156          51.000
C28  25193764.000 5 131190500.057 5     -2767.141          34.000
C30  22612806.055 5 117750853.224 5      1944.512          30.000
E02  26094283.281 5 137126383.464 5     -1998.562          33.000    26094304.320 6 105070869.796 6     -1531.743          39.000
E09  23458951.523 8 123277697.526 8      2433.922          51.000    23458957.359 8  94459497.218 8      1864.929          51.000
E11  23714090.672 5 124618387.291 5     -1406.180          31.000    23714092.289 6  95486837.006 6     -1077.280          41.000
> 2020 05 04 18 09  0.0000000  0 17        .000000000000
G08  20329571.758 8 106832609.558 8       141.984          51.000    20329573.914 8  83246193.061 8       110.637          51.000
G10  21886914.078 7 115016516.970 7     -2263.047          45.000    21886915.406 7  89623304.994 7     -1763.413          45.000
G14  23842490.086 7 125293158.075 7      2836.711          46.000    23842493.703 6  97631046.710 6      2210.427          41.000
G22  23123066.812 7 121512564.967 7      3153.164          42.000    23123061.938 5  94685076.424 5      2457.017          35.000
G27  21113673.641 8 110953097.400 8     -2071.125          51.000    21113676.195 8  86456944.977 8     -1613.864          51.000
G32  22798231.039 6 119805530.577 6      2115.254          38.000    22798237.289 6  93354967.755 6      1648.253          39.000
R01  19665255.508 7 105122150.609 7       175.508          46.000    19665260.922 7  81761698.679 7       136.509          44.000
R02  22004202.938 6 117418643.133 6      4248.148          39.000    22004208.633 7  91325631.474 7      3304.122          43.000
R23  21214623.594 6 113483930.180 6     -2412.656          36.000
R24  19566438.586 8 104630620.145 8      -184.738          51.000    19566440.398 7  81379324.332 7      -143.685          46.000
C05  39631212.148 5 206370121.609 5       -20.160          35.000    39631212.734 6 159578471.746 6       -15.529          38.000
C27  21731755.883 8 113162963.647 8      -877.395          51.000
C28  25209712.156 5 131273556.894 5     -2768.941          33.000
E02  26105723.398 5 137186492.518 5     -2005.535          34.000    26105740.047 6 105116913.639 6     -1536.733          37.000
E09  23445076.742 8 123204780.989 8      2428.672          51.000    23445081.883 8  94403626.141 8      1860.930          51.000
E11                                                                  23722127.203 6  95519188.413 6     -1078.324          41.000
E36  23453831.953 5 123250722.339 5       760.453          35.000    23453839.312 5  94438884.275 5       582.643          35.000
> 2020 05 04 18 09 30.0000000  0 16        .000000000000
G08  20328816.914 8 106828643.074 8       123.297          51.000    20328819.164 8  83243102.294 8        96.075          51.000
G10  21899875.508 7 115084630.449 7     -2277.168          43.000    21899877.438 7  89676380.438 7     -1774.414          43.000
G14  23826321.203 7 125208187.194 7      2828.766          45.000    23826324.188 6  97564835.712 6      2204.236          41.000
G22  23105095.922 7 121418144.132 7      3142.586          44.000    23105089.266 5  94611501.943 5      2448.774          31.000
G27  21125545.945 8 111015483.262 8     -2087.215          51.000    21125548.125 8  86505557.315 8     -1626.401          51.000
G32  22786201.125 6 119742317.376 6      2099.395          39.000    22786208.414 6  93305710.723 6      1635.895          38.000
R01  19664355.930 7 105117343.122 7       145.762          47.000    19664361.633 7  81757959.518 7       113.370          44.000
R02  21980353.164 6 117291381.800 6      4236.703          37.000    21980360.109 7  91226650.502 7      3295.217          43.000
R24  19567520.930 8 104636407.642 8      -200.398          51.000    19567523.016 7  81383825.722 7      -155.865          47.000
C05  39631335.539 5 206370763.287 5       -22.145          35.000    39631336.234 6 159578969.093 6       -16.903          38.000
C27  21736849.734 8 113189490.058 8      -890.324          51.000
C28  25225682.320 5 131356722.695 5     -2775.430          33.000
E02  26117217.992 6 137246873.643 6     -2017.715          38.000    26117226.359 5 105163167.380 5     -1546.454          35.000
E09  23431245.375 8 123132093.867 8      2417.828          51.000    23431249.688 8  94347930.845 8      1852.619          51.000
E11                                                                  23730182.422 6  95551625.136 6     -1083.449          40.000
E36  23449514.375 5 123228032.022 5       752.543          35.000    23449520.180 5  94421501.275 5       576.633          33.000
> 2020 05 04 18 10  0.0000000  0 18        .000000000000
G08  20328153.594 8 106825158.108 8       107.238          51.000    20328155.773 8  83240386.722 8        83.562          51.000
G10  21912902.016 6 115153087.426 6     -2288.391          40.000    21912904.328 6  89729723.521 6     -1783.162          40.000
G14  23810182.266 7 125123373.696 7      2823.477          46.000    23810184.695 6  97498747.354 6      2200.112          41.000
G22  23087170.703 7 121323961.175 7      3134.336          43.000    23087164.469 5  94538112.766 5      2442.346          34.000
G27  21137494.750 8 111078271.906 8     -2100.574          51.000    21137496.789 8  86554483.509 8     -1636.811          51.000
G32  22774245.086 6 119679489.147 6      2086.812          37.000    22774252.008 6  93256753.693 6      1626.091          37.000
R01  19663609.000 7 105113349.600 7       118.656          47.000    19663614.633 7  81754853.440 7        92.291          44.000
R02  21956552.531 6 117164383.212 6      4227.930          38.000    21956560.914 7  91127873.851 7      3288.393          43.000
R23  21241829.633 4 113629396.452 4     -2434.434          29.000
R24  19568675.938 8 104642585.797 8      -213.379          51.000    19568678.320 7  81388630.944 7      -165.958          47.000
C05  39631456.805 5 206371394.884 5       -21.672          35.000    39631457.453 6 159579457.513 6       -16.897          38.000
C27  21742002.586 8 113216323.401 8      -900.531          51.000
C28  25241678.141 5 131440013.277 5     -2780.074          32.000
C30  22579367.664 4 117576689.643 4      1924.613          29.000
E02  26128760.609 6 137307527.501 6     -2027.605          40.000    26128763.484 5 105209642.292 5     -1553.485          31.000
E09  23417460.984 8 123059654.343 8      2409.602          51.000    23417464.328 8  94292425.261 8      1846.309          51.000
E11                                                                  23738261.453 6  95584159.887 6     -1086.945          40.000
E36  23445222.586 5 123205475.921 5       748.512          35.000    23445224.273 5  94404214.502 5       573.053          30.000
> 2020 05 04 18 10 30.0000000  0 17        .000000000000
G08  20327597.055 8 106822233.747 8        91.125          51.000    20327599.141 8  83238107.988 8        71.006          51.000
G10  21926008.672 6 115221964.419 6     -2299.859          40.000    21926010.719 6  89783393.925 6     -1792.095          40.000
G14  23794088.523 7 125038798.968 7      2818.113          47.000    23794090.242 6  97432845.040 6      2195.935          40.000
G22  23069306.789 6 121230096.288 6      3126.504          41.000    23069301.828 6  94464971.406 6      2436.243          37.000
G27  21149534.703 8 111141541.137 8     -2113.977          51.000    21149536.883 8  86603784.167 8     -1647.254          51.000
G32  22762378.359 6 119617127.441 6      2073.574          36.000    22762384.195 6  93208160.176 6      1615.775          36.000
R01  19663029.266 8 105110249.726 8        91.477          48.000    19663034.938 7  81752442.435 7        71.148          44.000
R02  21932818.461 6 117037730.549 6      4219.145          40.000    21932827.266 7  91029366.248 7      3281.557          42.000
R23  21255520.500 5 113702699.035 5     -2444.781          33.000
R24  19569919.227 8 104649235.491 8      -226.453          51.000    19569921.852 7  81393802.925 7      -176.130          47.000
C05  39631591.039 5 206372094.373 5       -21.184          35.000    39631591.492 6 159579997.262 6       -16.619          38.000
C27  21747229.250 8 113243541.983 8      -910.801          51.000
C28  25257713.469 4 131523541.824 4     -2782.691          28.000
E02  26140372.312 6 137368546.868 6     -2037.238          41.000    26140370.398 5 105256397.319 5     -1560.770          35.000
E09  23403738.734 8 122987542.883 8      2401.258          51.000    23403741.828 8  94237171.059 8      1839.985          51.000
E11                                                                  23746379.930 6  95616852.976 6     -1090.168          40.000
E36  23440973.109 6 123183143.435 6       743.473          36.000
> 2020 05 04 18 11  0.0000000  0 16        .000000000000
G08  20327125.867 8 106819756.781 8        74.852          51.000    20327127.852 8  83236177.876 8        58.326          51.000
G10  21939173.219 7 115291144.908 7     -2311.242          42.000    21939175.203 7  89837300.788 7     -1800.968          42.000
G14  23778018.969 7 124954351.869 7      2812.480          45.000    23778020.969 6  97367042.126 6      2191.543          41.000
G22  23051483.227 6 121136436.794 6      3118.199          41.000    23051479.359 6  94391990.004 6      2429.769          38.000
G27  21161644.023 8 111205175.624 8     -2127.469          51.000    21161646.141 8  86653369.451 8     -1657.768          51.000
G32  22750578.453 5 119555096.278 5      2060.340          33.000    22750582.406 5  93159843.098 5      1605.463          34.000
R01  19662594.992 8 105107926.678 8        64.281          48.000    19662600.430 7  81750635.624 7        49.997          44.000
R02  21909129.523 6 116911311.657 6      4209.773          39.000    21909137.672 6  90931040.508 6      3274.271          40.000
R23  21269252.508 5 113776195.276 5     -2454.594          30.000
R24  19571229.422 8 104656241.209 8      -239.715          51.000    19571231.836 7  81399251.822 7      -186.445          47.000
C05                                                                  39631716.766 6 159580500.786 6       -16.356          37.000
C27  21752508.336 8 113271032.738 8      -921.121          51.000
E02  26152030.109 6 137429815.617 6     -2046.750          41.000    26152027.047 6 105303343.391 6     -1568.274          37.000
E09  23390057.242 8 122915646.877 8      2392.668          51.000    23390060.180 8  94182081.949 8      1833.328          51.000
E11                                                                  23754517.070 6  95649616.912 6     -1093.658          41.000
E36  23436743.102 6 123160913.352 6       739.367          36.000    23436737.180 5  94370028.082 5       566.328          30.000
> 2020 05 04 18 11 30.0000000  0 17        .000000000000
G08  20326750.188 8 106817781.767 8        57.605          51.000    20326752.039 8  83234638.902 8        44.887          51.000
G10  21952405.297 6 115360680.184 6     -2323.219          40.000    21952407.172 6  89891484.120 6     -1810.297          40.000
G14  23761983.836 7 124870088.463 7      2805.973          45.000    23761986.383 6  97301382.414 6      2186.475          40.000
G22  23033709.938 7 121043037.653 7      3109.199          45.000    23033707.906 6  94319211.554 6      2422.756          36.000
G27  21173832.758 8 111269227.943 8     -2141.715          51.000    21173834.820 8  86703280.307 8     -1668.869          51.000
G32  22738858.133 5 119493505.849 5      2046.633          35.000    22738849.234 5  93111808.965 5      1594.776          34.000
R01  19662316.055 7 105106434.937 7        36.148          47.000    19662321.148 7  81749475.409 7        28.115          43.000
R02  21885495.672 6 116785184.861 6      4199.500          40.000    21885502.992 6  90832941.930 6      3266.278          38.000
R23  21283045.672 5 113849943.979 5     -2464.754          35.000    21283052.281 4  88549978.795 4     -1917.034          28.000
R24  19572616.375 8 104663658.596 8      -253.777          51.000    19572618.969 8  81405020.899 8      -197.382          48.000
C05                                                                  39631843.008 6 159581009.063 6       -16.809          38.000
C27  21757850.188 8 113298848.971 8      -932.359          51.000
C30  22546292.898 5 117404471.216 5      1904.645          31.000
E02  26163745.219 6 137491385.401 6     -2057.016          38.000    26163741.891 6 105350520.180 6     -1576.035          38.000
E09  23376427.234 8 122844021.575 8      2383.277          51.000    23376429.734 8  94127200.273 8      1826.148          50.000
E11                                                                  23762682.539 6  95682492.788 6     -1097.531          40.000
E36  23432542.672 5 123138839.696 5       733.562          33.000    23432537.672 5  94353116.502 5       562.200          31.000
> 2020 05 04 18 12  0.0000000  0 18        .000000000000
G08  20326466.773 8 106816291.893 8        42.074          51.000    20326468.461 8  83233477.951 8        32.785          51.000
G10  21965701.375 6 115430550.556 6     -2334.137          40.000    21965702.484 6  89945928.579 6     -1818.808          39.000
G14  23745980.648 7 124785994.479 7      2800.691          44.000    23745983.531 6  97235854.781 6      2182.363          38.000
G22  23015983.398 7 120949883.063 7      3101.535          46.000    23015983.266 6  94246623.672 6      2416.784          37.000
G27  21186097.477 8 111333679.626 8     -2154.547          51.000    21186099.562 8  86753502.348 8     -1678.871          51.000
G32  22727211.008 6 119432305.241 6      2034.363          36.000    22727206.211 5  93064120.244 5      1585.218          32.000
R01  19662189.305 7 105105756.375 7         9.641          47.000    19662194.227 7  81748947.653 7         7.498          43.000
R02  21861913.086 6 116659336.483 6      4191.082          39.000    21861919.641 6  90735059.918 6      3259.730          38.000
R23  21296891.664 4 113924010.218 4     -2474.375          28.000    21296899.719 4  88607609.265 4     -1924.514          26.000
R24  19574077.180 8 104671470.912 8      -266.578          51.000    19574079.953 8  81411097.143 8      -207.339          48.000
C05  39631965.781 5 206374045.540 5       -21.066          35.000    39631967.016 6 159581508.757 6       -16.275          38.000
C27  21763251.594 8 113326973.629 8      -942.086          51.000
C28  25305945.820 5 131774693.105 5     -2795.934          33.000
E02  26175513.664 6 137553236.994 6     -2066.320          36.000    26175511.977 6 105397912.868 6     -1583.198          39.000
E04  25358455.883 6 133259597.786 6      -230.375          40.000    25358455.562 6 102107991.674 6      -176.407          40.000
E09  23362845.797 8 122772651.255 8      2375.242          51.000    23362847.289 8  94072514.003 8      1819.925          49.000
E11                                                                  23770870.812 6  95715467.363 6     -1100.485          40.000
E36                                                                  23428366.258 5  94336309.690 5       558.731          33.000
> 2020 05 04 18 12 30.0000000  0 18        .000000000000
G08  20326277.484 8 106815296.911 8        24.664          51.000    20326279.148 8  83232702.638 8        19.219          51.000
G10  21979062.727 6 115500762.987 6     -2346.504          41.000    21979063.938 6  90000639.563 6     -1828.445          41.000
G14  23730012.281 7 124702082.147 7      2793.656          44.000    23730013.016 6  97170468.700 6      2176.881          37.000
G22  22998305.422 7 120856983.718 7      3092.070          45.000    22998305.969 6  94174234.596 6      2409.405          39.000
G27  21198439.586 8 111398538.808 8     -2168.965          51.000    21198441.461 8  86804041.926 8     -1690.102          51.000
G32  22715643.406 6 119371512.217 6      2019.363          36.000    22715642.008 5  93016749.240 5      1573.533          34.000
R01  19662215.945 7 105105899.824 7       -18.719          47.000    19662220.961 7  81749059.251 7       -14.559          43.000
R02  21838382.750 7 116533779.453 7      4180.094          42.000    21838388.930 6  90637404.550 6      3251.187          39.000
R23  21310801.992 6 113998406.307 6     -2485.023          38.000    21310808.031 4  88665453.879 4     -1932.790          26.000
R24  19575613.789 8 104679688.328 8      -280.910          51.000    19575616.812 8  81417488.464 8      -218.489          48.000
C05  39632089.953 5 206374691.630 5       -21.832          35.000    39632090.750 6 159582006.815 6       -16.906          39.000
C27  21768713.992 8 113355416.032 8      -953.676          51.000
C28  25322071.867 5 131858669.072 5     -2801.312          34.000
E02  26187337.172 5 137615385.609 5     -2076.133          34.000    26187337.281 6 105445527.029 6     -1591.168          38.000
E04                                                                  25359816.805 6 102113464.250 6      -188.128          40.000
E09  23349315.539 8 122701546.779 8      2365.426          51.000    23349315.102 8  94018031.421 8      1812.445          49.000
E11                                                                  23779085.883 6  95748547.639 6     -1104.508          41.000
E36                                                                  23424223.320 5  94319616.965 5       554.388          34.000
> 2020 05 04 18 13  0.0000000  0 18        .000000000000
G08  20326185.391 8 106814812.819 8         7.469          51.000    20326187.352 8  83232325.412 8         5.820          51.000
G10  21992491.445 7 115571329.741 7     -2358.250          43.000    21992493.898 7  90055626.618 7     -1837.600          42.000
G14  23714081.273 7 124618368.775 7      2786.879          43.000    23714080.609 6  97105237.584 6      2171.594          36.000
G22  22980679.219 7 120764355.630 7      3082.844          46.000    22980679.711 6  94102056.883 6      2402.216          40.000
G27  21210861.531 8 111463818.925 8     -2183.145          50.000    21210863.172 8  86854909.517 8     -1701.152          50.000
G32  22704156.453 5 119311143.591 5      2005.086          34.000    22704157.180 5  92969708.873 5      1562.405          32.000
R01  19662399.148 7 105106879.549 7       -46.758          46.000    19662404.484 7  81749821.279 7       -36.364          43.000
R02  21814909.297 7 116408532.178 7      4169.645          42.000    21814916.062 6  90539990.123 6      3243.060          39.000
R23  21324767.289 5 114073116.526 5     -2495.809          35.000
R24  19577229.203 8 104688326.521 8      -295.105          51.000    19577232.297 8  81424207.043 8      -229.530          48.000
C05                                                                  39632216.766 6 159582514.377 6       -17.235          39.000
C27  21774240.117 8 113384190.683 8      -964.727          51.000
C28  25338224.570 5 131942790.360 5     -2806.809          31.000
E02  26199216.547 5 137677812.831 5     -2086.598          33.000    26199218.664 6 105493372.348 6     -1598.630          36.000
E04  25361259.945 6 133274311.380 6      -260.328          41.000    25361259.820 6 102119276.619 6      -199.583          39.000
E09  23335839.195 8 122630724.273 8      2355.836          51.000    23335837.484 8  93963764.885 8      1805.073          50.000
E11  23787335.555 5 125003298.224 5     -1446.598          35.000    23787331.039 6  95781744.746 6     -1108.489          41.000
E36  23420106.508 5 123073494.333 5       717.570          33.000    23420110.648 5  94303049.767 5       550.105          34.000
> 2020 05 04 18 13 30.0000000  0 17        .000000000000
G08  20326189.305 8 106814833.364 8        -8.832          51.000    20326191.398 8  83232341.419 8        -6.882          51.000
G10  22005985.828 7 115642242.727 7     -2369.352          42.000    22005988.625 6  90110883.472 6     -1846.251          41.000
G14  23698187.352 7 124534851.184 7      2780.594          42.000    23698187.836 6  97040159.009 6      2166.696          38.000
G22  22963103.727 7 120671994.273 7      3074.473          47.000    22963103.867 6  94030087.047 6      2395.696          39.000
G27  21223362.094 8 111529513.075 8     -2196.402          49.000    21223363.828 8  86906099.747 8     -1711.482          49.000
G32  22692749.703 6 119251196.304 6      1991.426          38.000    22692753.828 6  92922996.795 6      1551.757          38.000
R01  19662737.703 7 105108689.346 7       -73.820          47.000    19662742.906 7  81751228.908 7       -57.416          43.000
R02  21791493.727 7 116283593.058 7      4159.945          44.000    21791499.641 6  90442815.342 6      3235.516          38.000
R24  19578922.555 8 104697380.406 8      -308.438          51.000    19578925.477 8  81431248.943 8      -239.896          48.000
C05                                                                  39632344.008 6 159583026.943 6       -16.985          38.000
C27  21779829.078 8 113413292.056 8      -975.262          51.000
C28  25354405.797 5 132027050.322 5     -2811.156          31.000
E02  26211152.883 5 137740539.067 5     -2096.023          33.000    26211154.695 5 105541442.842 5     -1605.828          35.000
E04  25362786.383 5 133282334.467 5      -274.504          35.000    25362784.461 6 102125424.081 6      -210.280          37.000
E09  23322415.539 8 122560179.605 8      2347.125          51.000    23322413.859 8  93909711.213 8      1798.416          51.000
E11                                                                  23795603.258 6  95815054.371 6     -1111.838          40.000
E36  23416023.633 5 123052033.053 5       713.273          34.000    23416026.508 5  94286634.866 5       546.717          32.000
> 2020 05 04 18 14  0.0000000  0 17        .000000000000
G08  20326289.117 8 106815358.167 8       -25.930          51.000    20326291.359 8  83232750.355 8       -20.205          51.000
G10  22019545.188 6 115713498.198 6     -2380.742          40.000    22019546.766 6  90166407.193 6     -1855.124          39.000
G14  23682331.344 7 124451530.541 7      2774.227          43.000    23682333.797 6  96975233.907 6      2161.738          40.000
G22  22945579.086 8 120579899.795 8      3065.227          49.000    22945577.922 6  93958325.181 6      2388.488          39.000
G27  21235941.008 8 111595618.724 8     -2210.418          50.000    21235942.695 8  86957610.654 8     -1722.404          50.000
G32  22681422.242 6 119191679.297 6      1977.043          36.000    22681427.477 6  92876613.616 6      1540.550          36.000
R01  19663231.000 7 105111326.807 7      -101.816          47.000    19663236.156 7  81753280.282 7       -79.188          44.000
