     3.02           OBSERVATION DATA    M (MIXED)           RINEX VERSION / TYPE
SAVERINEX           SC600               20200505 055930 LCL PGM / RUN BY / DATE
       G = GPS       R = GLONASS       C = COMPASS          COMMENT
       S = SBAS      J = QZSS          E = GALILEO          COMMENT
BEAN                                                        MARKER NAME
1                                                           MARKER NUMBER
GEODETIC                                                    MARKER TYPE
Unige DICCA         GTER                                    OBSERVER / AGENCY
SC60291900056       SC600               2.12(191226)        REC # / TYPE / VERS
                    HEMA45          NONE                    ANT # / TYPE
  4509407.8091   693652.4678  4442337.6214                  APPROX POSITION XYZ
        0.0000        0.0000        0.0000                  ANTENNA: DELTA H/E/N
G    8 C1C L1C D1C S1C C2Y L2Y D2Y S2Y                      SYS / # / OBS TYPES
R    8 C1C L1C D1C S1C C2P L2P D2P S2P                      SYS / # / OBS TYPES
C    8 C1I L1I D1I S1I C7I L7I D7I S7I                      SYS / # / OBS TYPES
E    8 C1C L1C D1C S1C C7Q L7Q D7Q S7Q                      SYS / # / OBS TYPES
DBHZ                                                        COMMENT
     30.000                                                 INTERVAL
  2020    05    05    03    00    0.0000000     GPS         TIME OF FIRST OBS
  2020    05    05    03    59   30.0000000     GPS         TIME OF LAST OBS
     0                                                      RCV CLOCK OFFS APPL
G L1C  0.00000                                              SYS / PHASE SHIFT
G L2Y  0.00000                                              SYS / PHASE SHIFT
R L1C  0.00000                                              SYS / PHASE SHIFT
R L2P  0.25000                                              SYS / PHASE SHIFT
C L1I  0.00000                                              SYS / PHASE SHIFT
C L7I  0.00000                                              SYS / PHASE SHIFT
E L1C  0.50000                                              SYS / PHASE SHIFT
E L7Q -0.25000                                              SYS / PHASE SHIFT
 15 R02 -4 R03  5 R04  6 R05  1 R06 -4 R09 -2 R10 -5 R13 -2 GLONASS SLOT / FRQ #
    R14 -7 R15  0 R16 -1 R17  4 R18 -3 R19  3 R20  2        GLONASS SLOT / FRQ #
 C1C   71.950 C2C   71.950 C2P   71.950                     GLONASS COD/PHS/BIS
    18                                                      LEAP SECONDS
*** Above antenna height is from mark to ANTENNA BOTTOM.    COMMENT
    17     4        0.0000        ANT MEASURE TYPE/HEIGT    COMMENT
    0.0000    0.0000    0.0458    0.0405    0.0000          COMMENT
                    BASE STATION                            COMMENT
                                                            END OF HEADER
> 2020 05 05 03 00  0.0000000  0 16        .000000000000
G02  23958477.000 6 125902658.445 6     -2567.926          39.000    23958476.586 6  98105950.322 6     -2000.981          38.000
G05  20697846.523 6 108767913.236 6       951.496          38.000    20697841.414 6  84754212.056 6       741.426          37.000
G07  21345190.430 8 112169718.186 8     -1617.914          48.000    21345189.242 8  87404966.450 8     -1260.712          48.000
G28  23302021.125 6 122452896.480 6      3211.980          36.000    23302024.039 4  95417898.793 4      2502.842          28.000
G30  20379769.609 8 107096469.577 8       374.262          51.000    20379771.023 8  83451784.960 8       291.633          51.000
R05  20054344.578 8 107201937.892 8     -1710.812          51.000    20054347.320 8  83379293.893 8     -1330.632          50.000
R15  19899657.281 8 106337725.076 8     -1760.410          51.000    19899659.602 7  82707153.488 7     -1369.208          47.000
R16  19958675.312 8 106615686.394 8      2701.547          48.000    19958677.758 7  82923293.213 7      2101.203          43.000
C05  39785419.008 5 207173116.801 5        -3.559          35.000    39785417.055 6 160199377.462 6        -2.631          41.000
C19  23561158.758 8 122689120.966 8     -2528.668          48.000
C22  21806038.352 8 113549744.892 8        97.770          51.000
E02  24183853.766 8 127087021.173 8      1642.926          51.000    24183856.258 8  97378395.369 8      1258.865          51.000
E03  25036348.703 7 131566889.392 7     -1731.855          42.000    25036357.227 7 100810989.415 7     -1326.880          43.000
E08  21523148.609 8 113104909.153 8       494.035          50.000    21523146.578 8  86664795.988 8       378.543          50.000
E13  27388195.453 5 143925937.310 5     -2633.012          33.000    27388201.867 6 110280932.331 6     -2017.311          40.000
E25                                                                  25323278.781 5 101966326.090 5      -945.688          33.000
> 2020 05 05 03 00 30.0000000  0 17        .000000000000
G02  23973156.438 6 125979800.977 6     -2574.699          41.000    23973156.398 6  98166061.398 6     -2006.259          40.000
G05  20692465.281 6 108739634.813 6       933.414          37.000    20692461.031 6  84732176.925 6       727.339          37.000
G07  21354459.641 7 112218427.923 7     -1629.508          46.000    21354458.289 7  87442922.116 7     -1269.743          46.000
G13  22620753.203 6 118872816.787 6      2632.980          36.000
G28  23283700.633 6 122356610.269 6      3206.312          38.000
G30  20377678.531 8 107085481.152 8       358.324          51.000    20377680.031 8  83443222.545 8       279.214          51.000
R05  20063991.094 8 107253503.496 8     -1726.742          51.000    20063993.773 8  83419400.471 8     -1343.022          49.000
R15  19909606.062 8 106390888.806 8     -1783.805          51.000    19909608.445 7  82748503.062 7     -1387.404          47.000
R16  19943564.328 8 106534964.491 8      2679.871          48.000    19943566.039 7  82860509.478 7      2084.341          43.000
C05  39785439.531 6 207173223.507 6        -3.336          36.000    39785437.523 6 160199460.003 6        -2.939          41.000
C19  23575751.398 8 122765109.227 8     -2537.086          48.000
C22  21805512.414 8 113547006.571 8        84.809          51.000
E02  24174512.008 8 127037928.726 8      1629.953          51.000    24174514.516 8  97340779.071 8      1248.919          51.000
E03  25046251.680 6 131618929.924 6     -1737.520          39.000    25046261.195 7 100850864.590 7     -1331.256          44.000
E08  21520347.602 8 113090190.453 8       487.359          50.000    21520346.242 8  86653518.015 8       373.419          51.000
E13  27403237.922 5 144004985.914 5     -2637.012          34.000    27403242.164 6 110341501.313 6     -2020.582          38.000
E25                                                                  25330359.992 4 101994864.020 4      -955.694          29.000
> 2020 05 05 03 01  0.0000000  0 17        .000000000000
G02  23987874.000 7 126057139.599 7     -2580.652          43.000    23987874.016 7  98226325.269 7     -2010.898          43.000
G05  20687186.664 5 108711898.097 5       915.797          34.000    20687183.281 5  84710563.893 5       713.605          34.000
G07  21363793.055 8 112267475.512 8     -1639.836          48.000    21363791.367 8  87481141.040 8     -1277.794          48.000
G13  22605733.234 6 118793896.667 6      2628.258          36.000
G28  23265408.977 6 122260488.755 6      3201.785          41.000
G30  20375678.430 8 107074970.401 8       343.094          51.000    20375679.875 8  83435032.347 8       267.346          51.000
R05  20073726.898 8 107305545.268 8     -1741.988          51.000    20073729.273 8  83459877.417 8     -1354.880          48.000
R15  19919685.273 8 106444749.048 8     -1806.254          51.000    19919687.922 7  82790394.376 7     -1404.864          47.000
R16  19928574.148 7 106454888.961 7      2659.129          46.000    19928575.758 7  82798228.472 7      2068.211          45.000
C05  39785460.148 5 207173330.535 5        -2.551          35.000    39785458.109 6 160199542.742 6        -2.163          41.000
C19  23590391.781 7 122841345.122 7     -2544.711          47.000
C22  21805060.914 8 113544655.126 8        72.539          51.000
E02  24165243.844 8 126989221.778 8      1617.797          51.000    24165246.695 8  97303458.181 8      1239.572          51.000
E03  25056185.594 5 131671136.761 5     -1742.461          35.000    25056193.586 7 100890867.270 7     -1334.959          43.000
E08  21517584.430 8 113075671.303 8       481.293          50.000    21517583.891 8  86642392.954 8       368.759          51.000
E13  27418304.602 5 144084159.030 5     -2640.270          35.000    27418306.031 6 110402166.507 6     -2023.243          37.000
E25  25337520.062 5 133149568.795 5     -1259.730          32.000
> 2020 05 05 03 01 30.0000000  0 17        .000000000000
G02  24002625.070 7 126134652.791 7     -2586.891          43.000    24002624.906 7  98286725.163 7     -2015.762          42.000
G05  20682008.328 5 108684685.796 5       898.504          35.000    20682006.117 5  84689359.419 5       700.133          34.000
G07  21373186.875 7 112316840.340 7     -1650.922          47.000    21373185.273 7  87519607.144 7     -1286.433          46.000
G13  22590741.391 5 118715110.101 5      2623.770          35.000
G28  23247145.758 6 122164516.371 6      3196.176          40.000
G30  20373765.508 8 107064917.839 8       327.246          51.000    20373767.039 8  83427199.188 8       254.997          51.000
R05  20083547.828 8 107358043.645 8     -1757.820          51.000    20083550.016 7  83500709.495 7     -1367.194          47.000
R15  19929890.656 8 106499283.246 8     -1829.316          51.000    19929892.969 8  82832809.861 8     -1422.802          48.000
R16  19913701.383 7 106375442.665 7      2637.379          46.000    19913703.891 7  82736436.866 7      2051.295          45.000
C05                                                                  39785475.133 6 160199611.196 6        -2.223          41.000
C19  23605075.844 7 122917809.003 7     -2552.852          46.000
C22  21804680.109 8 113542672.501 8        59.688          51.000
E02  24156045.523 8 126940882.403 8      1604.918          51.000    24156048.609 8  97266418.937 8      1229.742          51.000
E03  25066146.656 5 131723490.742 5     -1747.938          35.000    25066155.414 7 100930982.780 7     -1339.248          45.000
E08  21514855.703 8 113061333.254 8       474.738          50.000    21514855.875 8  86631406.657 8       363.766          51.000
E13  27433391.398 6 144163441.458 6     -2644.281          36.000    27433390.703 6 110462911.546 6     -2026.176          37.000
E25  25344749.805 5 133187558.180 5     -1273.426          33.000
> 2020 05 05 03 02  0.0000000  0 15        .000000000000
G02  24017414.195 7 126212366.944 7     -2593.543          44.000    24017413.867 6  98347281.681 6     -2020.940          41.000
G05  20676936.320 6 108658028.864 6       879.641          38.000    20676934.445 6  84668587.774 6       685.434          38.000
G07  21382646.352 7 112366549.984 7     -1662.555          44.000    21382644.773 7  87558341.951 7     -1295.497          45.000
G28  23228916.922 6 122068725.224 6      3190.168          39.000
G30  20371945.273 8 107055352.419 8       311.105          51.000    20371946.867 8  83419745.625 8       242.420          51.000
R05  20093459.773 8 107411028.410 8     -1773.836          51.000    20093461.742 7  83541919.821 7     -1379.650          46.000
R15  19940227.211 8 106554518.478 8     -1852.516          51.000    19940230.094 8  82875770.616 8     -1440.845          49.000
R16  19898952.578 7 106296658.507 7      2615.457          47.000    19898956.039 7  82675160.282 7      2034.244          45.000
C05                                                                  39785494.141 6 160199687.774 6        -2.444          40.000
C19  23619809.164 8 122994529.297 8     -2561.180          48.000
C22  21804375.711 8 113541088.614 8        46.484          51.000
E02  24146922.945 8 126892941.027 8      1591.754          51.000    24146926.023 8  97229684.632 8      1219.620          51.000
E03  25076142.945 6 131776018.468 6     -1753.703          37.000    25076152.062 7 100971233.632 7     -1343.762          45.000
E08  21512167.352 8 113047206.382 8       467.711          51.000    21512167.883 8  86620582.161 8       358.391          51.000
E13  27448503.352 6 144242850.443 6     -2648.805          36.000    27448501.422 6 110523757.407 6     -2029.645          37.000
> 2020 05 05 03 02 30.0000000  0 16        .000000000000
G02  24032237.070 7 126290260.326 7     -2599.117          45.000    24032236.812 6  98407977.844 6     -2025.283          40.000
G05  20671966.273 6 108631909.770 6       861.707          39.000    20671964.531 6  84648235.231 6       671.460          39.000
G07  21392167.555 7 112416584.136 7     -1672.422          45.000    21392165.797 7  87597329.638 7     -1303.183          45.000
G13  22560843.312 5 118558012.433 5      2613.574          32.000
G28  23210718.906 6 121973099.313 6      3184.613          38.000
G30  20370214.016 8 107046254.919 8       295.598          51.000    20370215.586 8  83412656.655 8       230.336          51.000
R05  20103458.852 8 107464480.369 8     -1789.297          51.000    20103460.680 7  83583493.536 7     -1391.678          46.000
R15  19950690.859 8 106610432.648 8     -1874.883          51.000    19950693.672 8  82919259.406 8     -1458.242          48.000
R16  19884324.781 8 106218519.512 8      2594.039          48.000    19884328.281 7  82614385.500 7      2017.586          44.000
C05  39785513.633 5 207173609.134 5        -2.852          35.000    39785511.609 6 160199758.157 6        -2.084          41.000
C19  23634588.516 8 123071486.495 8     -2568.988          50.000
C22  21804144.641 8 113539885.614 8        33.914          51.000
E02  24137872.672 8 126845379.898 8      1579.211          51.000    24137875.414 8  97193241.685 8      1209.991          51.000
E03  25086169.891 6 131828707.229 6     -1758.797          41.000    25086177.242 7 101011605.560 7     -1347.638          42.000
E08  21509515.906 8 113033272.499 8       461.445          51.000    21509516.500 8  86609905.551 8       353.560          51.000
E13  27463635.953 6 144322369.978 6     -2652.242          36.000    27463633.586 6 110584687.962 6     -2032.468          36.000
> 2020 05 05 03 03  0.0000000  0 16        .000000000000
G02  24047085.430 7 126368288.522 7     -2604.898          44.000    24047085.180 6  98468779.048 6     -2029.791          40.000
G05  20667090.734 6 108606287.949 6       843.910          39.000    20667089.555 6  84628270.184 6       657.592          38.000
G07  21401742.336 7 112466899.528 7     -1683.531          46.000    21401740.469 7  87636536.435 7     -1311.843          46.000
G13  22545930.750 4 118479639.793 4      2608.684          28.000
G28  23192544.930 6 121877600.005 6      3179.695          36.000
G30  20368563.797 8 107037583.207 8       280.262          51.000    20368565.383 8  83405899.481 8       218.386          51.000
R05  20113537.492 8 107518357.059 8     -1804.605          51.000    20113539.133 7  83625397.616 7     -1403.582          47.000
R15  19961273.039 8 106666980.201 8     -1897.176          51.000    19961275.711 8  82963240.844 8     -1475.581          49.000
R16  19869810.406 8 106140986.128 8      2572.535          49.000    19869812.992 7  82554081.777 7      2000.864          42.000
C05  39785521.688 6 207173650.843 6        -2.633          36.000    39785519.680 6 160199790.397 6        -1.794          41.000
C19  23649405.344 8 123148638.525 8     -2576.688          51.000
C22  21803978.859 8 113539023.027 8        21.402          51.000
E02  24128886.781 8 126798158.342 8      1566.668          51.000    24128889.430 8  97157058.956 8      1200.449          51.000
E03  25096219.844 7 131881512.261 7     -1763.902          44.000    25096224.969 7 101052066.639 7     -1351.469          43.000
E08  21506893.305 8 113019490.607 8       455.160          51.000    21506893.984 8  86599345.400 8       348.750          51.000
E13  27478780.641 5 144401956.302 5     -2655.848          35.000    27478778.594 5 110645669.669 5     -2034.842          34.000
> 2020 05 05 03 03 30.0000000  0 15        .000000000000
G02  24061986.633 7 126446593.659 7     -2611.355          44.000    24061985.945 6  98529796.038 6     -2034.822          40.000
G05  20662337.859 6 108581309.714 6       825.172          41.000    20662336.008 6  84608806.608 6       642.991          41.000
G07  21411397.898 7 112517639.551 7     -1695.039          46.000    21411396.023 7  87676074.119 7     -1320.810          46.000
G28  23174422.141 6 121782375.406 6      3172.664          36.000
G30  20367022.148 8 107029481.851 8       264.059          51.000    20367023.742 8  83399586.743 8       205.760          51.000
R05  20123722.945 8 107572805.743 8     -1821.023          51.000    20123725.062 8  83667746.611 8     -1416.352          49.000
R15  19972000.547 8 106724305.737 8     -1920.293          51.000    19972003.398 8  83007827.384 8     -1493.561          49.000
R16  19855437.547 8 106064208.141 8      2550.090          48.000    19855438.555 6  82494365.596 6      1983.403          40.000
C05  39785547.781 6 207173786.982 6        -2.441          36.000    39785545.836 6 160199895.656 6        -1.954          41.000
C19  23664286.555 8 123226128.339 8     -2585.273          50.000
C22  21803906.094 8 113538645.322 8         7.906          51.000
E02  24119993.211 8 126751422.450 8      1553.180          51.000    24119995.344 8  97121248.363 8      1190.135          51.000
E03  25106319.164 7 131934578.702 7     -1769.887          43.000    25106323.711 7 101092727.889 7     -1356.090          43.000
E08  21504327.250 8 113006006.406 8       447.961          51.000    21504328.055 8  86589013.350 8       343.207          51.000
E13  27493964.367 5 144481760.231 5     -2659.367          33.000    27493963.906 5 110706812.047 5     -2038.152          32.000
> 2020 05 05 03 04  0.0000000  0 15        .000000000000
G02  24076909.289 7 126525011.733 7     -2617.160          44.000    24076907.984 6  98590901.011 6     -2039.346          38.000
G05  20657676.609 6 108556815.300 6       807.008          38.000    20657674.461 6  84589720.046 6       628.834          38.000
G07  21421103.219 7 112568641.269 7     -1705.828          47.000    21421101.070 7  87715815.712 7     -1329.217          47.000
G28  23156319.664 5 121687267.236 5      3167.133          35.000
G30  20365558.242 8 107021789.162 8       248.203          51.000    20365559.766 8  83393592.435 8       193.405          51.000
R05  20133984.781 8 107627662.442 8     -1836.742          51.000    20133987.398 8  83710412.957 8     -1428.577          49.000
R15  19982842.570 8 106782242.165 8     -1942.742          51.000    19982845.094 8  83052889.036 8     -1511.022          49.000
R16  19841175.719 7 105988023.982 7      2528.074          47.000    19841175.609 6  82435111.286 6      1966.280          40.000
C05  39785561.391 5 207173857.786 5        -2.668          35.000    39785559.430 6 160199950.395 6        -2.114          41.000
C19  23679201.398 8 123303795.311 8     -2593.203          48.000
C22  21803895.891 8 113538593.461 8        -5.051          51.000
E02  24111161.500 8 126705011.917 8      1540.203          51.000    24111162.922 8  97085687.075 8      1180.165          51.000
E03  25116436.977 7 131987745.279 7     -1775.324          44.000    25116439.797 6 101133465.840 6     -1360.224          38.000
E08  21501787.188 8 112992659.260 8       441.242          51.000    21501788.125 8  86578786.304 8       338.104          51.000
E13  27509157.070 5 144561595.453 5     -2663.773          33.000
> 2020 05 05 03 04 30.0000000  0 15        .000000000000
G02  24091867.219 7 126603615.905 7     -2622.484          44.000    24091865.188 6  98652150.968 6     -2043.497          38.000
G05  20653121.711 6 108532881.893 6       789.168          38.000    20653118.641 6  84571070.654 6       614.936          38.000
G07  21430872.625 7 112619979.011 7     -1716.035          47.000    21430870.289 7  87755819.147 7     -1337.170          47.000
G28  23138253.789 5 121592354.509 5      3160.707          34.000
G30  20364186.414 8 107014580.572 8       232.844          51.000    20364187.859 8  83387975.356 8       181.437          51.000
R05  20144337.477 8 107683004.182 8     -1852.109          51.000    20144340.562 8  83753456.530 8     -1440.530          50.000
R15  19993812.602 8 106840863.464 8     -1964.742          51.000    19993815.344 8  83098483.394 8     -1528.133          50.000
R16  19827039.719 7 105912513.486 7      2506.453          45.000    19827039.773 6  82376380.917 6      1949.464          40.000
C05  39785576.859 6 207173938.488 6        -2.039          36.000    39785574.938 6 160200012.815 6        -1.963          41.000
C19  23694164.078 7 123381713.921 7     -2600.746          46.000
C22  21803962.828 8 113538943.542 8       -17.738          51.000
E02  24102406.477 8 126659003.784 8      1527.633          51.000    24102407.172 8  97050434.109 8      1170.503          51.000
E03  25126588.539 6 132041087.907 6     -1780.289          41.000    25126584.328 5 101174342.788 5     -1364.357          32.000
E08  21499287.781 8 112979525.798 8       434.969          51.000    21499288.891 8  86568722.996 8       333.297          51.000
E13  27524373.102 5 144641556.771 5     -2666.266          33.000
> 2020 05 05 03 05  0.0000000  0 15        .000000000000
G02  24106858.039 7 126682393.754 7     -2628.746          44.000    24106855.281 6  98713536.239 6     -2048.374          38.000
G05  20648671.984 6 108509500.742 6       770.227          41.000    20648668.750 6  84552851.563 6       600.177          41.000
G07  21440703.844 8 112671641.737 8     -1727.402          48.000    21440701.859 8  87796075.819 8     -1346.028          48.000
G28  23120226.414 6 121497630.660 6      3154.531          37.000
G30  20362904.828 8 107007845.970 8       216.699          51.000    20362906.109 8  83382727.616 8       168.857          51.000
R05  20154779.375 8 107738820.960 8     -1868.320          51.000    20154782.680 8  83796869.586 8     -1453.138          50.000
R15  20004908.758 8 106900156.946 8     -1987.562          51.000    20004911.328 8  83144600.536 8     -1545.882          50.000
R16  19813028.594 7 105837669.340 7      2483.742          44.000    19813028.789 6  82318168.763 6      1931.799          41.000
C05  39785592.500 6 207174020.604 6        -2.582          36.000    39785590.516 6 160200075.518 6        -1.957          41.000
C19  23709173.297 7 123459873.742 7     -2609.281          46.000
C22  21804105.328 8 113539686.703 8       -31.164          51.000
E02  24093726.398 8 126613389.347 8      1514.039          51.000    24093726.805 8  97015482.805 8      1160.081          51.000
E03  25136770.266 6 132094597.039 6     -1786.352          36.000    25136762.062 5 101215343.242 5     -1368.757          33.000
E08  21496827.398 8 112966597.045 8       427.605          51.000    21496828.586 8  86558816.547 8       327.700          51.000
E13  27539611.617 5 144721635.449 5     -2670.512          33.000
> 2020 05 05 03 05 30.0000000  0 16        .000000000000
G02  24121870.008 7 126761283.242 7     -2632.723          44.000    24121866.453 6  98775008.498 6     -2051.475          38.000
G05  20644317.000 6 108486614.767 6       753.504          41.000    20644313.562 6  84535018.378 6       587.146          40.000
G07  21450585.266 8 112723568.587 8     -1736.371          48.000    21450583.391 8  87836538.302 8     -1353.016          48.000
G09  23450854.344 5 123235054.466 5     -2820.230          31.000    23450860.414 5  96027350.184 5     -2197.573          31.000
G28  23102225.805 6 121403039.303 6      3149.699          38.000    23102233.945 5  94599793.065 5      2454.302          30.000
G30  20361702.000 8 107001525.853 8       202.758          51.000    20361703.391 8  83377802.856 8       157.993          51.000
R05  20165298.781 8 107795052.735 8     -1882.395          51.000    20165302.094 8  83840605.410 8     -1464.085          49.000
R15  20016118.547 8 106960059.299 8     -2007.941          51.000    20016121.375 8  83191191.272 8     -1561.732          50.000
R16  19799131.516 7 105763433.881 7      2463.234          45.000    19799132.617 7  82260430.040 7      1915.849          42.000
C05  39785596.914 5 207174042.735 5         -.910          35.000    39785594.891 6 160200093.400 6         -.562          41.000
C19  23724218.336 7 123538215.640 7     -2615.449          47.000
C22  21804312.547 8 113540765.306 8       -42.586          51.000
E02  24085110.133 8 126568110.627 8      1502.672          51.000    24085110.453 8  96980788.749 8      1151.383          51.000
E03                                                                  25146965.086 5 101256426.102 5     -1371.657          35.000
E08  21494395.062 8 112953814.710 8       422.582          51.000    21494396.000 8  86549022.287 8       323.758          51.000
E13  27554858.680 5 144801759.270 5     -2672.348          33.000
> 2020 05 05 03 06  0.0000000  0 16        .000000000000
G02  24136933.141 7 126840441.663 7     -2637.367          42.000    24136929.117 6  98836690.344 6     -2055.094          40.000
G05  20640086.953 6 108464385.115 6       735.750          40.000    20640084.398 6  84517696.555 6       573.309          40.000
G07  21460547.016 7 112775918.006 7     -1746.254          47.000    21460544.984 7  87877330.047 7     -1360.711          47.000
G13  22457123.195 5 118012962.307 5      2579.680          33.000
G28  23084282.062 6 121308743.480 6      3143.785          38.000    23084289.086 6  94526315.774 6      2449.703          36.000
G30  20360608.453 8 106995779.623 8       187.707          51.000    20360609.891 8  83373325.264 8       146.265          51.000
R05  20175926.211 8 107851861.834 8     -1897.410          51.000    20175929.227 8  83884790.266 8     -1475.763          49.000
R15  20027472.406 8 107020730.234 8     -2029.320          51.000    20027475.172 8  83238379.779 8     -1578.360          50.000
R16  19785379.484 7 105689972.012 7      2441.652          47.000    19785381.352 7  82203293.029 7      1899.063          43.000
C05  39785620.625 6 207174166.369 6         -.430          36.000    39785618.641 6 160200188.980 6         -.127          41.000
C19  23739328.969 8 123616897.256 8     -2622.754          49.000
C22  21804614.898 8 113542338.502 8       -54.945          51.000
E02  24076588.469 8 126523328.539 8      1490.098          51.000    24076589.281 8  96946475.211 8      1141.781          51.000
E03  25157222.586 6 132202094.922 6     -1794.898          36.000    25157221.852 6 101297713.962 6     -1375.339          38.000
E08  21492021.172 8 112941339.354 8       416.473          51.000    21492021.820 8  86539463.243 8       319.023          51.000
E13  27570144.117 5 144882084.106 5     -2675.453          33.000
> 2020 05 05 03 06 30.0000000  0 16        .000000000000
G02  24152012.375 7 126919684.999 7     -2648.656          42.000    24152008.344 6  98898438.416 6     -2063.888          38.000
G05  20635947.578 7 108442631.442 7       711.410          43.000    20635946.180 7  84500745.635 7       554.346          43.000
G07  21470554.305 8 112828507.166 8     -1762.758          48.000    21470552.648 8  87918308.620 8     -1373.578          48.000
G09  23483122.289 5 123404650.721 5     -2833.480          35.000    23483115.672 5  96159441.974 5     -2207.910          33.000
G28  23066361.219 6 121214565.159 6      3130.984          40.000    23066366.688 5  94452930.010 5      2439.719          34.000
G30  20359589.625 8 106990425.781 8       166.141          51.000    20359591.008 8  83369153.429 8       129.460          51.000
R05  20186627.258 8 107909064.172 8     -1919.133          51.000    20186630.180 8  83929280.963 8     -1492.659          48.000
R15  20038934.930 8 107081982.374 8     -2057.328          51.000    20038937.391 8  83286020.338 8     -1600.144          50.000
R16  19771738.336 8 105617102.173 8      2413.219          48.000    19771740.469 7  82146616.491 7      1876.948          44.000
C05  39785629.305 6 207174212.164 6        -6.109          36.000    39785627.281 6 160200223.615 6        -4.531          41.000
C19  23754470.211 8 123695738.430 8     -2636.414          50.000
C22  21804977.766 8 113544227.757 8       -73.953          51.000
E02  24068127.094 8 126478863.046 8      1471.199          51.000    24068128.406 8  96912404.254 8      1127.271          51.000
E03  25167494.578 6 132256065.586 6     -1805.797          36.000    25167494.680 6 101339068.190 6     -1383.839          40.000
E08  21489671.398 8 112928990.677 8       403.797          51.000    21489671.820 8  86530001.253 8       309.397          51.000
E13                                                                  27585434.930 5 111075102.810 5     -2056.536          33.000
> 2020 05 05 03 07  0.0000000  0 15        .000000000000
G02  24167129.805 7 126999127.548 7     -2650.676          43.000    24167125.641 6  98960341.749 6     -2065.459          37.000
G05  20631921.000 6 108421472.172 6       695.867          41.000    20631920.172 6  84484257.884 6       542.231          41.000
G07  21480629.070 8 112881451.171 8     -1770.141          49.000    21480628.008 8  87959563.695 8     -1379.330          49.000
G28  23048485.172 6 121120624.185 6      3127.820          39.000    23048489.219 6  94379729.287 6      2437.263          36.000
G30  20358667.625 8 106985580.508 8       153.625          51.000    20358669.016 8  83365377.901 8       119.708          51.000
R05  20197423.922 8 107966778.245 8     -1931.797          51.000    20197426.484 8  83974169.674 8     -1502.509          48.000
R15  20050527.914 8 107143931.413 8     -2076.027          51.000    20050530.195 8  83334202.922 8     -1614.688          50.000
R16  19758230.445 8 105544945.125 8      2393.859          49.000    19758232.883 7  82090494.355 7      1861.891          44.000
C05  39785644.977 6 207174292.912 6        -3.051          36.000    39785642.992 6 160200286.823 6        -2.105          41.000
C19  23769664.375 8 123774854.023 8     -2641.207          51.000
C22  21805423.766 8 113546549.466 8       -84.062          51.000
E02  24059748.234 8 126434831.876 8      1461.098          51.000    24059750.055 8  96878666.091 8      1119.453          51.000
E03  25177805.383 6 132310239.759 6     -1808.660          39.000    25177806.102 6 101380578.263 6     -1385.880          41.000
E08  21487368.070 8 112916886.111 8       399.930          51.000    21487368.391 8  86520726.329 8       306.437          51.000
E13  27600748.180 5 145042907.811 5     -2684.590          34.000    27600759.828 5 111136770.141 5     -2057.212          34.000
> 2020 05 05 03 07 30.0000000  0 15        .000000000000
G02  24182273.586 7 127078707.586 7     -2654.773          44.000    24182269.203 5  99022352.136 5     -2068.655          35.000
G05  20627996.484 6 108400850.238 6       678.441          41.000    20627995.758 6  84468188.794 6       528.656          41.000
G07  21490759.969 8 112934689.897 8     -1779.371          49.000    21490758.883 8  88001048.423 8     -1386.520          49.000
G28  23030643.195 6 121026864.799 6      3122.184          38.000    23030646.531 5  94306670.015 5      2432.873          33.000
G30  20357831.219 8 106981184.753 8       139.180          51.000    20357832.469 8  83361952.638 8       108.452          51.000
R05  20208305.164 8 108024944.141 8     -1946.281          51.000    20208307.469 8  84019409.815 8     -1513.774          49.000
R15  20062239.477 8 107206514.544 8     -2096.566          51.000    20062241.766 8  83382878.702 8     -1630.663          50.000
R16  19744845.586 8 105473444.091 8      2372.445          49.000    19744848.055 7  82034882.442 7      1845.235          44.000
C05  39785656.516 6 207174353.612 6        -1.613          36.000    39785654.648 6 160200333.772 6        -1.386          41.000
C19  23784899.656 8 123854185.156 8     -2647.859          50.000
C22  21805941.844 8 113549246.322 8       -96.086          51.000
E02  24051440.875 8 126391177.414 8      1448.875          50.000    24051442.945 8  96845216.550 8      1110.141          51.000
E03  25188143.375 6 132364558.675 6     -1812.863          40.000    25188145.250 7 101422199.264 7     -1389.284          42.000
E08  21485100.219 8 112904967.752 8       394.203          51.000    21485100.555 8  86511594.076 8       301.998          51.000
E13  27616078.984 5 145123468.769 5     -2686.422          35.000    27616097.062 5 111198495.556 5     -2058.478          35.000
> 2020 05 05 03 08  0.0000000  0 15        .000000000000
G02  24197446.562 7 127158439.565 7     -2660.402          43.000    24197441.820 5  99084480.974 5     -2073.041          32.000
G05  20624177.805 7 108380783.300 7       659.738          42.000    20624175.516 7  84452552.231 7       514.085          42.000
G07  21500950.086 8 112988239.149 8     -1790.270          49.000    21500948.562 8  88042775.093 8     -1395.015          49.000
G28  23012839.000 5 120933307.070 5      3114.949          35.000    23012843.250 5  94233767.841 5      2427.233          35.000
G30  20357083.398 8 106977254.835 8       123.082          51.000    20357084.383 8  83358890.356 8        95.908          51.000
R05  20219273.805 8 108083578.800 8     -1962.387          51.000    20219276.336 8  84065014.538 8     -1526.301          48.000
R15  20074072.359 8 107269745.665 8     -2118.520          51.000    20074074.617 8  83432058.462 8     -1647.737          51.000
R16  19731586.938 8 105402618.327 8      2349.531          49.000    19731589.578 7  81979795.724 7      1827.413          44.000
C05  39785667.320 6 207174410.005 6        -1.770          36.000    39785665.461 6 160200377.364 6        -1.317          41.000
C19  23800178.906 8 123933747.773 8     -2656.027          50.000
C22  21806535.352 8 113552335.815 8      -109.621          51.000
E02  24043208.523 8 126347917.487 8      1435.363          51.000    24043210.641 8  96812069.310 8      1099.821          51.000
E03  25198510.711 6 132419039.380 6     -1818.891          38.000    25198512.562 6 101463944.228 6     -1393.728          38.000
E08  21482871.125 8 112893253.218 8       387.062          51.000    21482871.555 8  86502618.001 8       296.538          51.000
E13  27631425.680 5 145204116.344 5     -2689.859          34.000    27631448.031 5 111260290.454 5     -2061.193          34.000
> 2020 05 05 03 08 30.0000000  0 16        .000000000000
G02  24212650.492 6 127238333.296 6     -2665.617          40.000    24212644.508 6  99146735.789 6     -2077.104          36.000
G05  20620467.477 7 108361285.171 7       640.539          44.000    20620463.844 7  84437358.880 7       499.118          43.000
G07  21511201.422 8 113042109.878 8     -1800.961          50.000    21511199.844 8  88084752.288 8     -1403.349          50.000
G28  22995076.375 6 120839966.671 6      3107.418          37.000    22995081.211 6  94161034.998 6      2421.359          36.000
G30  20356426.711 8 106973803.001 8       107.199          51.000    20356427.461 8  83356200.611 8        83.535          51.000
R05  20230332.648 8 108142695.282 8     -1978.434          51.000    20230335.227 8  84110994.016 8     -1538.782          49.000
R15  20086028.172 8 107333634.646 8     -2140.535          51.000    20086030.773 8  83481749.901 8     -1664.861          51.000
R16  19718457.367 7 105332483.103 7      2326.457          47.000    19718460.273 7  81925246.100 7      1809.467          44.000
C05  39785679.773 6 207174474.862 6        -2.207          36.000    39785677.977 6 160200427.520 6        -1.695          41.000
C19  23815503.969 8 124013553.722 8     -2664.207          48.000
C22  21807206.641 8 113555831.343 8      -123.238          51.000
E02  24035054.086 8 126305065.857 8      1421.586          51.000    24035055.852 8  96779234.919 8      1089.294          51.000
E03  25208910.742 6 132473694.730 6     -1824.770          38.000    25208911.594 6 101505823.030 6     -1398.056          37.000
E08  21480683.398 8 112881756.022 8       379.688          51.000    21480683.734 8  86493808.455 8       290.902          51.000
E13  27646790.688 5 145284868.211 5     -2693.152          33.000    27646818.086 5 111322278.969 5     -2063.848          31.000
E25  25453712.219 5 133760155.164 5     -1451.551          32.000    25453689.984 6 102491466.033 6     -1112.386          36.000
> 2020 05 05 03 09  0.0000000  0 16        .000000000000
G02  24227885.352 6 127318390.380 6     -2672.172          36.000    24227878.367 5  99209117.912 5     -2082.215          34.000
G05  20616866.453 7 108342361.701 7       620.223          43.000    20616862.594 7  84422613.329 7       483.290          43.000
G07  21521514.430 8 113096304.486 8     -1813.090          50.000    21521512.867 8  88126981.879 8     -1412.794          50.000
G28  22977357.453 7 120746851.253 7      3099.180          42.000    22977362.062 6  94088477.519 6      2414.945          37.000
G30  20355861.727 8 106970833.177 8        89.812          51.000    20355862.547 8  83353886.469 8        69.984          51.000
R05  20241482.672 8 108202297.459 8     -1995.930          51.000    20241485.367 8  84157351.242 8     -1552.393          49.000
R15  20098107.617 8 107398182.923 8     -2163.574          50.000    20098110.039 8  83531954.113 8     -1682.780          51.000
R16  19705458.000 7 105263045.086 7      2301.879          47.000    19705461.133 7  81871238.782 7      1790.353          43.000
C05  39785694.773 6 207174552.711 6        -3.699          36.000    39785692.930 6 160200487.710 6        -2.924          41.000
C19  23830875.938 7 124093606.623 7     -2673.578          45.000
C22  21807956.867 8 113559738.106 8      -138.113          51.000
E02  24026978.453 8 126262627.905 8      1406.629          51.000    24026979.680 8  96746717.531 8      1077.807          51.000
E03  25219345.773 6 132528529.229 6     -1832.070          38.000    25219347.117 6 101547839.091 6     -1403.465          39.000
E08  21478538.008 8 112870481.338 8       371.098          51.000    21478538.102 8  86485169.412 8       284.285          51.000
E13                                                                  27662179.125 5 111384124.171 5     -2067.248          32.000
E25                                                                  25462015.461 5 102524987.181 5     -1123.254          35.000
> 2020 05 05 03 09 30.0000000  0 16        .000000000000
G02  24243146.195 4 127398592.577 4     -2674.223          29.000    24243139.430 4  99271609.264 4     -2083.810          24.000
G05  20613371.141 7 108323993.746 7       603.664          44.000    20613367.727 7  84408300.619 7       470.385          44.000
G07  21531884.953 8 113150801.688 8     -1821.070          50.000    21531883.102 8  88169447.211 8     -1419.016          50.000
G28  22959678.344 7 120653943.450 7      3093.898          44.000    22959682.055 6  94016081.817 6      2410.827          37.000
G30  20355384.414 8 106968324.536 8        76.508          51.000    20355385.242 8  83351931.686 8        59.616          51.000
R05  20252719.594 8 108262364.782 8     -2009.406          51.000    20252721.945 8  84204070.265 8     -1562.872          48.000
R15  20110305.547 8 107463366.448 8     -2182.699          51.000    20110308.117 8  83582652.443 8     -1697.655          50.000
R16  19692586.312 8 105194285.817 8      2281.246          49.000    19692588.461 6  81817759.350 6      1774.303          41.000
C05  39785708.344 6 207174623.553 6        -1.305          36.000    39785706.516 6 160200542.488 6        -1.453          41.000
C19  23846290.844 7 124173885.589 7     -2679.266          43.000
C22  21808782.367 8 113564036.732 8      -149.312          51.000
E02  24018977.898 8 126220584.316 8      1395.410          51.000    24018978.383 8  96714502.315 8      1069.273          51.000
E03  25229810.383 6 132583522.693 6     -1835.277          37.000    25229812.219 6 101589976.934 6     -1406.536          37.000
E08  21476431.188 8 112859409.627 8       366.207          51.000    21476431.000 8  86476685.889 8       280.627          51.000
E13                                                                  27677579.602 5 111446143.481 5     -2067.634          31.000
E25                                                                  25470408.945 5 102558789.190 5     -1130.805          34.000
> 2020 05 05 03 10  0.0000000  0 15        .000000000000
G02  24258428.586 4 127478901.941 4     -2679.426          29.000
G05  20609981.375 7 108306179.342 7       584.855          45.000    20609978.148 7  84394419.261 7       455.728          45.000
G07  21542312.062 8 113205596.520 8     -1830.957          50.000    21542309.938 8  88212144.477 8     -1426.720          50.000
G28  22942038.711 7 120561242.894 7      3087.066          45.000    22942040.844 6  93943847.614 6      2405.506          39.000
G30  20354994.039 8 106966273.371 8        61.270          51.000    20354994.812 8  83350333.363 8        47.742          51.000
R05  20264042.742 8 108322893.779 8     -2024.746          51.000    20264044.586 8  84251148.384 8     -1574.799          49.000
R15  20122621.648 8 107529178.897 8     -2203.676          50.000    20122624.102 8  83633839.890 8     -1713.970          50.000
R16  19679841.609 8 105126204.651 8      2258.480          49.000    19679842.750 6  81764807.357 6      1756.599          40.000
C05  39785720.102 6 207174684.317 6        -1.262          36.000    39785718.227 6 160200589.458 6        -1.109          41.000
C19  23861749.602 7 124254386.698 7     -2686.582          44.000
C22  21809682.469 8 113568724.794 8      -162.254          51.000
E02  24011052.094 8 126178932.859 8      1382.316          51.000    24011051.914 8  96682587.576 8      1059.142          51.000
E03  25240304.383 6 132638695.003 6     -1840.445          38.000    25240305.562 6 101632234.121 6     -1410.143          36.000
E08  21474362.414 8 112848538.450 8       359.441          51.000    21474362.039 8  86468356.022 8       275.440          51.000
E25  25478868.867 5 133892364.294 5     -1488.289          34.000    25478870.320 5 102592868.714 5     -1140.518          34.000
> 2020 05 05 03 10 30.0000000  0 17        .000000000000
G02  24273736.367 5 127559349.290 5     -2682.145          34.000    24273744.586 5  99396916.347 5     -2089.983          31.000
G05  20606694.383 7 108288904.627 7       568.137          46.000    20606691.047 7  84380958.462 7       442.707          46.000
G07  21552792.633 8 113260672.466 8     -1839.164          50.000    21552790.453 8  88255060.808 8     -1433.115          50.000
G13  22325935.594 5 117323571.672 5      2531.039          33.000
G28  22924436.211 7 120468737.882 7      3081.465          46.000    22924436.289 6  93871765.800 6      2401.141          40.000
G30  20354687.844 8 106964664.196 8        47.574          51.000    20354688.562 8  83349079.449 8        37.071          51.000
R05  20275449.445 8 108383868.951 8     -2038.566          51.000    20275451.680 8  84298573.512 8     -1585.552          50.000
R15  20135051.602 8 107595601.867 8     -2222.793          48.000    20135054.289 8  83685502.225 8     -1728.836          50.000
R16  19667221.367 8 105058788.367 8      2237.457          49.000    19667222.430 7  81712372.493 7      1740.244          42.000
C05  39785727.055 6 207174720.338 6          .777          36.000    39785725.172 6 160200617.318 6          .480          41.000
C19  23877248.984 7 124335094.412 7     -2692.375          47.000
C22  21810654.852 8 113573788.277 8      -173.672          51.000
E02  24003198.219 8 126137659.564 8      1370.844          51.000    24003198.047 8  96650962.621 8      1050.390          51.000
E03  25250825.117 6 132693985.348 6     -1843.551          38.000    25250824.164 5 101674599.393 5     -1413.052          34.000
E08  21472329.016 8 112837853.634 8       354.449          51.000    21472328.578 8  86460168.963 8       271.585          51.000
E13  27708422.398 5 145608739.177 5     -2701.855          34.000
E25  25487399.141 5 133937186.983 5     -1498.098          34.000    25487397.797 5 102627213.299 5     -1148.279          33.000
> 2020 05 05 03 11  0.0000000  0 16        .000000000000
G02  24289083.062 6 127640003.054 6     -2692.324          38.000    24289085.852 6  99459749.279 6     -2097.912          36.000
G05  20603525.141 7 108272249.349 7       543.633          45.000    20603521.680 7  84367980.317 7       423.610          45.000
G07  21563341.289 8 113316106.378 8     -1855.027          50.000    21563339.297 8  88298256.062 8     -1445.476          50.000
G13  22311519.789 5 117247815.109 5      2520.836          32.000
G28  22906886.305 7 120376509.846 7      3068.234          47.000    22906884.992 6  93799899.822 6      2390.832          40.000
G30  20354480.648 8 106963574.762 8        26.367          51.000    20354481.266 8  83348230.545 8        20.546          51.000
R05  20286954.336 8 108445369.670 8     -2060.027          51.000    20286956.586 8  84346407.411 8     -1602.240          48.000
R15  20147610.305 7 107662711.610 7     -2249.801          46.000    20147612.789 8  83737698.691 8     -1749.842          49.000
R16  19654740.602 7 104992119.015 7      2208.547          47.000    19654742.359 7  81660518.583 7      1717.759          43.000
C05  39785744.234 6 207174810.343 6        -4.910          36.000    39785742.250 6 160200686.145 6        -4.081          41.000
C19  23892803.289 8 124416085.512 8     -2705.777          49.000
C22  21811714.500 8 113579305.529 8      -192.777          51.000
E02  23995431.500 8 126096843.742 8      1351.566          51.000    23995431.156 8  96619688.194 8      1035.586          51.000
E03  25261388.203 6 132749495.129 6     -1855.527          39.000    25261384.234 5 101717132.731 5     -1421.447          32.000
E08  21470346.109 8 112827434.299 8       341.578          51.000    21470345.695 8  86452185.319 8       261.702          51.000
E25                                                                  25496006.836 5 102661882.115 5     -1162.185          34.000
> 2020 05 05 03 11 30.0000000  0 16        .000000000000
G02  24304445.836 6 127720731.209 6     -2689.246          39.000    24304447.914 6  99522654.363 6     -2095.513          38.000
G05  20600454.250 7 108256112.272 7       532.695          45.000    20600450.703 7  84355405.951 7       415.087          45.000
G07  21573938.391 8 113371794.674 8     -1857.246          50.000    21573936.664 8  88341649.530 8     -1447.205          50.000
G13  22297122.727 5 117172159.141 5      2523.035          31.000
G28  22889369.898 7 120284459.517 7      3068.766          47.000    22889367.992 6  93728172.311 6      2391.249          41.000
G30  20354352.914 8 106962902.410 8        18.934          51.000    20354353.141 8  83347706.638 8        14.753          51.000
R05  20298538.070 8 108507291.855 8     -2067.605          51.000    20298540.562 8  84394569.101 8     -1608.138          49.000
R15  20160277.047 7 107730401.117 7     -2262.555          46.000    20160279.914 8  83790346.131 8     -1759.765          49.000
R16  19642380.516 7 104926094.478 7      2193.531          46.000    19642382.852 7  81609166.194 7      1706.083          44.000
C05  39785752.180 6 207174851.272 6         2.977          36.000    39785750.164 6 160200717.766 6         2.305          41.000
C19  23908392.422 8 124497257.989 8     -2705.344          49.000
C22  21812841.898 8 113585176.072 8      -198.223          51.000
E02  23987732.547 8 126056384.149 8      1346.059          51.000    23987731.898 8  96588686.717 8      1031.387          51.000
E03  25271973.633 6 132805122.263 6     -1852.645          36.000
E08  21468394.531 8 112817179.064 8       342.438          51.000    21468394.281 8  86444327.410 8       262.339          51.000
E25                                                                  25504678.531 5 102696795.851 5     -1165.043          35.000
> 2020 05 05 03 12  0.0000000  0 15        .000000000000
G02  24319830.203 6 127801569.648 6     -2702.691          41.000    24319831.445 6  99585645.343 6     -2105.990          36.000
G05  20597487.039 7 108240520.250 7       504.594          46.000    20597483.930 7  84343256.331 7       393.190          46.000
G07  21584588.492 8 113427761.510 8     -1876.125          50.000    21584586.953 8  88385260.057 8     -1461.916          50.000
G28  22871892.602 7 120192615.812 7      3052.156          47.000    22871890.875 7  93656605.768 7      2378.304          43.000
G30  20354309.211 8 106962672.217 8        -5.734          51.000    20354309.195 8  83347527.277 8        -4.468          51.000
R05  20310205.539 8 108569661.376 8     -2092.543          51.000    20310208.438 8  84443078.695 8     -1627.533          48.000
R15  20173057.070 7 107798693.171 7     -2292.410          44.000    20173060.000 8  83843462.199 8     -1782.983          48.000
R16  19630146.500 7 104860743.207 7      2161.062          46.000    19630148.875 7  81558337.403 7      1680.826          44.000
C05  39785755.609 5 207174869.703 5        -6.219          35.000    39785753.719 6 160200732.014 6        -4.706          41.000
C19  23924020.430 7 124578636.532 7     -2722.000          47.000
C22  21814042.117 8 113591426.103 8      -220.570          51.000
E02  23980106.328 8 126016307.393 8      1323.523          51.000    23980105.461 8  96557978.573 8      1014.170          51.000
E03  25282585.852 6 132860892.715 6     -1867.227          37.000
E08  21466479.359 8 112807114.388 8       326.305          51.000    21466479.328 8  86436615.509 8       250.032          51.000
E25  25513415.172 5 134073890.796 5     -1542.613          33.000    25513416.633 6 102731973.380 6     -1181.359          36.000
> 2020 05 05 03 12 30.0000000  0 16        .000000000000
G02  24335248.883 7 127882590.068 7     -2701.297          42.000    24335248.266 5  99648778.106 5     -2104.907          35.000
G05  20594638.055 7 108225548.349 7       490.961          46.000    20594635.391 7  84331589.914 7       382.567          46.000
G07  21595305.469 8 113484079.602 8     -1880.797          51.000    21595303.797 8  88429144.297 8     -1465.556          51.000
G28  22854469.172 7 120101055.659 7      3049.613          46.000    22854468.312 7  93585260.173 7      2376.322          45.000
G30  20354363.594 8 106962957.736 8       -15.848          51.000    20354363.797 8  83347749.772 8       -12.349          51.000
R05  20321970.641 8 108632553.200 8     -2102.754          51.000    20321973.336 8  84491994.560 8     -1635.475          48.000
R15  20185963.164 7 107867659.994 7     -2307.727          47.000    20185966.227 7  83897103.100 7     -1794.898          47.000
R16  19618052.656 7 104796142.717 7      2143.289          45.000    19618055.641 7  81508092.572 7      1667.006          46.000
C05  39785768.945 6 207174939.157 6        -1.172          36.000    39785767.047 6 160200785.719 6         -.776          41.000
C19  23939701.234 7 124660293.719 7     -2724.254          45.000
C22  21815329.430 8 113598129.770 8      -228.750          51.000
E02  23972567.016 8 125976688.516 8      1315.367          51.000    23972566.125 8  96527621.275 8      1007.840          51.000
E03  25293240.445 6 132916880.433 6     -1867.375          38.000    25293255.758 5 101845423.736 5     -1431.163          32.000
E08  21464614.688 8 112797315.128 8       324.543          51.000    21464614.836 8  86429106.983 8       248.670          51.000
E25  25522230.453 5 134120223.446 5     -1548.715          32.000    25522233.070 5 102767470.438 5     -1187.031          35.000
E30  25390255.547 6 133426694.589 6      3151.305          41.000
> 2020 05 05 03 13  0.0000000  0 16        .000000000000
G02  24350685.406 6 127963706.128 6     -2706.312          41.000    24350684.281 6  99711985.415 6     -2108.815          38.000
G05  20591891.359 7 108211114.809 7       471.137          46.000    20591888.375 7  84320343.014 7       367.120          46.000
G07  21606073.055 8 113540663.701 8     -1891.539          51.000    21606071.320 8  88473235.807 8     -1473.927          51.000
G28  22837084.453 7 120009699.076 7      3040.805          47.000    22837084.320 7  93514073.184 7      2369.455          44.000
G30  20354500.078 8 106963675.149 8       -32.234          51.000    20354500.359 8  83348308.809 8       -25.118          51.000
R05  20333817.641 8 108695882.554 8     -2119.305          51.000    20333820.430 8  84541250.714 8     -1648.348          49.000
R15  20198979.672 7 107937213.625 7     -2329.395          44.000    20198981.891 7  83951200.356 7     -1811.748          46.000
R16  19606084.188 7 104732210.484 7      2118.805          46.000    19606087.797 7  81458367.492 7      1647.959          46.000
C05  39785776.289 6 207174977.355 6        -1.492          36.000    39785774.406 6 160200815.242 6        -1.371          41.000
C19  23955419.555 7 124742146.440 7     -2732.605          47.000
C22  21816688.352 8 113605205.331 8      -243.168          51.000
E02  23965099.008 8 125937445.243 8      1300.809          51.000    23965098.570 8  96497551.764 8       996.691          51.000
E03  25303919.672 5 132973002.559 5     -1874.832          32.000    25303927.320 5 101888426.481 5     -1436.042          33.000
E08  21462784.828 8 112787698.916 8       316.414          51.000    21462785.164 8  86421738.716 8       242.480          51.000
E25                                                                  25531111.586 5 102803222.301 5     -1196.675          33.000
E30  25372279.172 6 133332227.534 6      3146.480          41.000
> 2020 05 05 03 13 30.0000000  0 16        .000000000000
G02  24366146.070 6 128044949.623 6     -2710.004          39.000    24366144.047 6  99775291.987 6     -2111.691          38.000
G05  20589253.586 7 108197254.789 7       452.578          46.000    20589251.062 7  84309542.996 7       352.658          45.000
G07  21616897.547 8 113597546.892 8     -1900.895          51.000    21616895.867 8  88517560.377 8     -1481.217          51.000
G28  22819745.547 7 119918583.805 7      3033.238          47.000    22819745.922 7  93443074.243 7      2363.562          44.000
G30  20354725.117 8 106964858.217 8       -47.129          51.000    20354725.297 8  83349230.686 8       -36.724          51.000
R05  20345753.062 8 108759683.908 8     -2134.406          51.000    20345755.805 8  84590873.979 8     -1660.094          49.000
R15  20212111.406 7 108007385.572 7     -2349.168          46.000    20212113.727 7  84005778.580 7     -1827.131          45.000
R16  19594248.312 7 104668983.202 7      2095.980          47.000    19594251.641 7  81409190.682 7      1630.204          46.000
C05  39785784.219 5 207175018.453 5        -1.449          35.000    39785782.297 6 160200847.018 6        -1.063          41.000
C19  23971183.250 8 124824227.834 8     -2739.691          51.000
C22  21818125.531 8 113612687.559 8      -255.965          51.000
E02  23957709.078 8 125898612.804 8      1287.719          51.000    23957709.438 8  96467797.042 8       986.697          51.000
E03  25314630.555 6 133029280.533 6     -1879.023          36.000    25314633.531 5 101931547.544 5     -1439.499          32.000
E08  21460996.508 8 112778300.870 8       309.727          51.000    21460996.961 8  86414537.614 8       237.365          51.000
E25  25540056.242 5 134213908.584 5     -1573.441          35.000    25540059.539 5 102839254.377 5     -1205.298          33.000
E30  25354325.984 6 133237876.805 6      3143.094          41.000    25354321.648 5 102091349.025 5      2408.506          34.000
> 2020 05 05 03 14  0.0000000  0 16        .000000000000
G02  24381629.016 5 128126313.884 5     -2713.551          34.000    24381626.711 5  99838692.699 5     -2114.455          35.000
G05  20586724.391 7 108183965.489 7       433.941          46.000    20586722.352 7  84299187.692 7       338.136          46.000
G07  21627777.969 8 113654723.902 8     -1910.199          51.000    21627776.203 8  88562113.902 8     -1488.464          51.000
G28  22802452.508 8 119827708.410 8      3025.676          48.000    22802452.555 7  93372262.221 7      2357.666          42.000
G30  20355037.898 8 106966502.574 8       -61.984          51.000    20355038.352 8  83350512.009 8       -48.300          51.000
R05  20357776.055 8 108823953.230 8     -2149.594          51.000    20357778.367 8  84640861.227 8     -1671.906          49.000
R15  20225357.859 7 108078168.718 7     -2369.152          44.000    20225359.875 7  84060832.162 7     -1842.671          44.000
R16  19582544.273 8 104606459.264 8      2072.902          48.000    19582546.812 7  81360560.924 7      1612.257          45.000
C05  39785791.914 6 207175058.886 6        -1.324          36.000    39785790.008 6 160200878.263 6         -.671          41.000
C19  23986990.609 8 124906533.346 8     -2746.727          51.000
C22  21819640.211 8 113620573.412 8      -269.098          51.000
E02  23950396.820 8 125860188.310 8      1274.520          51.000    23950397.750 8  96438354.880 8       976.622          51.000
E03  25325374.711 6 133085736.508 6     -1884.188          37.000    25325376.023 6 101974806.089 6     -1443.731          37.000
E08  21459249.055 8 112769117.975 8       303.062          51.000    21459249.570 8  86407501.368 8       232.205          51.000
E25  25549071.062 6 134261294.249 6     -1585.090          36.000    25549076.961 5 102875562.855 5     -1214.337          33.000
E30  25336394.328 6 133143640.417 6      3139.723          41.000    25336389.977 6 102019141.944 6      2405.782          36.000
> 2020 05 05 03 14 30.0000000  0 15        .000000000000
G05  20584304.359 7 108171248.614 7       416.359          47.000    20584302.562 7  84289278.448 7       324.436          47.000
G07  21638714.148 8 113712193.889 8     -1918.508          51.000    21638712.258 8  88606895.704 8     -1494.941          51.000
G28  22785206.281 8 119737076.658 8      3018.941          49.000    22785205.016 7  93301640.089 7      2352.422          43.000
G30  20355438.453 8 106968608.090 8       -75.734          51.000    20355439.141 8  83352152.685 8       -59.014          51.000
R05  20369886.750 8 108888690.558 8     -2163.754          51.000    20369889.070 8  84691212.481 8     -1682.920          49.000
R15  20238717.945 7 108149560.350 7     -2387.730          45.000    20238719.516 7  84116358.983 7     -1857.124          43.000
R16  19570972.211 7 104544641.028 7      2050.809          47.000    19570973.953 7  81312480.058 7      1595.073          45.000
C05  39785799.602 5 207175098.230 5         1.586          35.000    39785797.820 6 160200909.483 6          .595          41.000
C19  24002840.875 8 124989062.704 8     -2752.801          50.000
C22  21821232.594 8 113628864.075 8      -281.137          51.000
E02  23943162.578 8 125822173.153 8      1262.375          51.000    23943163.539 8  96409226.363 8       967.328          51.000
E03                                                                  25336151.914 6 102018191.534 6     -1446.646          37.000
E08  21457542.766 8 112760151.563 8       297.336          51.000    21457543.266 8  86400630.987 8       227.865          51.000
