     3.02           OBSERVATION DATA    M (MIXED)           RINEX VERSION / TYPE
SAVERINEX           SC600               20200516 115931 LCL PGM / RUN BY / DATE
       G = GPS       R = GLONASS       C = COMPASS          COMMENT
       S = SBAS      J = QZSS          E = GALILEO          COMMENT
BEAN                                                        MARKER NAME
1                                                           MARKER NUMBER
GEODETIC                                                    MARKER TYPE
Unige DICCA         GTER                                    OBSERVER / AGENCY
SC60291900056       SC600               2.12(191202)        REC # / TYPE / VERS
                    HEMA45          NONE                    ANT # / TYPE
  4509407.8091   693652.4678  4442337.6214                  APPROX POSITION XYZ
        0.0000        0.0000        0.0000                  ANTENNA: DELTA H/E/N
G    8 C1C L1C D1C S1C C2Y L2Y D2Y S2Y                      SYS / # / OBS TYPES
R    8 C1C L1C D1C S1C C2P L2P D2P S2P                      SYS / # / OBS TYPES
C    4 C1I L1I D1I S1I                                      SYS / # / OBS TYPES
E    8 C1C L1C D1C S1C C7Q L7Q D7Q S7Q                      SYS / # / OBS TYPES
DBHZ                                                        COMMENT
     30.000                                                 INTERVAL
  2020    05    16    09    00    0.0000000     GPS         TIME OF FIRST OBS
  2020    05    16    09    59   30.0000000     GPS         TIME OF LAST OBS
     0                                                      RCV CLOCK OFFS APPL
G L1C  0.00000                                              SYS / PHASE SHIFT
G L2Y  0.00000                                              SYS / PHASE SHIFT
R L1C  0.00000                                              SYS / PHASE SHIFT
R L2P  0.25000                                              SYS / PHASE SHIFT
C L1I  0.00000                                              SYS / PHASE SHIFT
E L1C  0.50000                                              SYS / PHASE SHIFT
E L7Q -0.25000                                              SYS / PHASE SHIFT
 15 R01  1 R02 -4 R03  5 R04  6 R05  1 R10 -5 R11  0 R12 -1 GLONASS SLOT / FRQ #
    R13 -2 R14 -7 R15  0 R17  4 R21  4 R22 -3 R23  3        GLONASS SLOT / FRQ #
 C1C   71.950 C2C   71.950 C2P   71.950                     GLONASS COD/PHS/BIS
    18                                                      LEAP SECONDS
*** Above antenna height is from mark to ANTENNA BOTTOM.    COMMENT
    17     4        0.0000        ANT MEASURE TYPE/HEIGT    COMMENT
    0.0000    0.0000    0.0458    0.0405    0.0000          COMMENT
                    BASE STATION                            COMMENT
                                                            END OF HEADER
> 2020 05 16 09 00  0.0000000  0 13        .000000000000
G12  20204693.891 8 106176391.333 8      -786.695          51.000    20204692.734 8  82734825.776 8      -613.009          51.000
G24  21549707.086 7 113244450.810 7     -2535.613          45.000    21549708.297 7  88242426.752 7     -1975.803          45.000
G25  20474653.984 6 107595016.180 6      1143.082          39.000    20474654.789 6  83840283.981 6       890.716          39.000
G29  22785821.547 7 119740276.887 7      3444.895          45.000    22785814.789 7  93304114.887 7      2684.336          45.000
R04  23113072.859 7 123769428.284 7     -3671.996          43.000    23113079.406 6  96265096.705 6     -2856.003          40.000
R14  19547159.758 6 104197338.508 6       552.223          39.000    19547162.297 5  81042398.002 5       429.510          33.000
R23  20288567.797 6 108530138.032 6     -1278.188          36.000    20288574.062 5  84412392.725 5      -994.149          30.000
R24  20097589.117 8 107470909.667 8      2079.305          51.000    20097591.562 7  83588488.729 7      1617.240          47.000
C27  23761473.477 8 123732183.658 8      3091.305          51.000
E02  23383856.523 7 122882973.476 7       260.355          46.000    23383856.641 8  94157120.288 8       199.481          48.000
E08  24102105.586 8 126657380.419 8     -2147.246          50.000    24102106.492 8  97049190.402 8     -1645.343          49.000
E25                                                                  25362436.234 6 102124009.992 6     -1330.281          37.000
E36  25024791.438 7 131506209.177 7      2204.348          47.000    25024796.555 8 100764541.118 8      1689.028          48.000
> 2020 05 16 09 00 30.0000000  0 14        .000000000000
G12  20209218.039 8 106200165.331 8      -796.000          51.000    20209216.680 8  82753350.958 8      -620.260          51.000
G24  21564214.539 7 113320692.125 7     -2545.086          46.000    21564216.883 7  88301835.596 7     -1983.184          46.000
G25  20468162.648 5 107560903.212 5      1133.824          34.000    20468166.547 5  83813702.475 5       883.499          33.000
G29  22766179.898 7 119637056.362 7      3438.578          46.000    22766174.688 7  93223683.359 7      2679.412          46.000
R04  23133667.891 7 123879711.874 7     -3678.082          43.000    23133674.008 6  96350872.763 6     -2860.734          40.000
R14  19544088.555 6 104180963.280 6       541.672          39.000    19544088.977 5  81029661.721 5       421.303          32.000
R23  20295811.703 7 108568895.485 7     -1303.277          42.000    20295818.641 5  84442537.498 5     -1013.666          30.000
R24  20085993.602 8 107408901.331 8      2056.848          51.000    20085995.414 7  83540260.039 7      1599.770          45.000
C23  24884713.422 5 129581227.521 5     -2565.477          30.000
C27  23743687.875 8 123639566.033 8      3085.344          51.000
E02  23382385.602 7 122875246.727 7       256.965          45.000    23382386.555 7  94151199.797 7       196.976          47.000
E08  24114390.602 8 126721939.081 8     -2154.254          50.000    24114390.719 8  97098657.411 8     -1650.698          48.000
E25                                                                  25372357.891 6 102163961.446 6     -1331.337          37.000
E36  25012237.625 8 131440239.237 8      2195.871          49.000    25012241.906 8 100713992.782 8      1682.545          48.000
> 2020 05 16 09 01  0.0000000  0 13        .000000000000
G12  20213812.062 8 106224306.248 8      -809.168          51.000    20213810.156 8  82772162.050 8      -630.520          51.000
G24  21578793.375 8 113397303.286 8     -2558.203          48.000    21578795.914 8  88361532.612 8     -1993.405          48.000
G25  20461739.742 4 107527165.756 4      1119.855          29.000
G29  22746592.719 7 119534125.980 7      3427.723          45.000    22746588.750 7  93143477.918 7      2670.953          45.000
R04  23154314.055 7 123990266.481 7     -3687.965          44.000    23154318.539 6  96436859.621 6     -2868.420          40.000
R14  19541090.320 6 104164980.259 6       527.969          39.000    19541089.688 5  81017230.450 5       410.642          33.000
R23  20303214.297 6 108608488.268 6     -1331.980          38.000    20303219.844 5  84473331.793 5     -1035.985          31.000
R24  20074540.922 8 107347658.972 8      2030.316          51.000    20074542.539 7  83492627.130 7      1579.138          44.000
C27  23725952.102 8 123547210.911 8      3075.715          51.000
E02  23380950.414 7 122867707.673 7       249.922          45.000    23380952.109 7  94145423.119 7       191.451          47.000
E08  24126731.914 8 126786793.432 8     -2164.926          49.000    24126731.602 8  97148350.975 8     -1658.923          48.000
E25                                                                  25382304.602 5 102204013.903 5     -1335.405          34.000
E36  24999749.617 8 131374611.429 8      2183.520          51.000    24999753.008 8 100663706.598 8      1673.146          48.000
> 2020 05 16 09 01 30.0000000  0 13        .000000000000
G12  20218468.023 8 106248772.931 8      -820.918          51.000    20218465.727 8  82791227.000 8      -639.676          51.000
G24  21593434.859 8 113474242.337 8     -2570.043          48.000    21593437.125 8  88421485.072 8     -2002.631          48.000
G25  20455381.734 5 107493743.787 5      1108.531          35.000    20455379.914 5  83761355.856 5       863.797          33.000
G29  22727052.891 7 119431447.754 7      3418.523          43.000    22727050.273 7  93063468.930 7      2663.784          42.000
R04  23175001.664 7 124101046.578 7     -3696.160          43.000    23175005.336 6  96523021.858 6     -2874.791          41.000
R14  19538158.000 6 104149349.995 6       515.402          39.000    19538157.367 5  81005073.574 5       400.868          31.000
R23  20310763.242 6 108648872.974 6     -1359.094          40.000    20310768.922 5  84504742.205 5     -1057.073          31.000
R24  20063224.383 8 107287144.409 8      2005.059          51.000    20063225.547 7  83445560.296 7      1559.493          44.000
C27  23708259.219 8 123455080.554 8      3067.355          50.000
E02  23379543.609 7 122860316.327 7       243.820          46.000    23379545.664 7  94139759.628 7       186.898          47.000
E08  24139121.539 8 126851901.412 8     -2174.352          49.000    24139121.422 8  97198238.870 8     -1666.151          49.000
E25  25392267.922 5 133437268.054 5     -1746.812          35.000    25392268.828 5 102244141.517 5     -1338.093          32.000
E36  24987319.688 8 131309287.307 8      2172.395          51.000    24987322.570 8 100613653.082 8      1664.562          49.000
> 2020 05 16 09 02  0.0000000  0 15        .000000000000
G02  23174979.117 6 121785353.451 6      1198.105          37.000
G12  20223187.086 8 106273571.490 8      -831.098          51.000    20223184.844 8  82810550.564 8      -647.609          51.000
G24  21608139.695 8 113551515.083 8     -2580.379          50.000    21608141.781 8  88481697.535 8     -2010.688          50.000
G25  20449085.992 5 107460654.317 5      1098.312          35.000    20449087.000 6  83735571.891 6       855.834          36.000
G29  22707561.312 6 119329030.862 6      3411.074          40.000    22707561.211 6  92983663.557 6      2657.977          39.000
R04  23195731.195 7 124212054.784 7     -3702.980          44.000    23195735.531 7  96609361.533 7     -2880.099          42.000
R14  19535293.086 6 104134080.645 6       504.148          38.000    19535292.430 5  80993197.472 5       392.115          33.000
R23  20318462.422 7 108690054.959 7     -1384.922          42.000    20318466.969 5  84536772.533 5     -1077.164          32.000
R24  20052045.820 8 107227367.353 8      1981.320          51.000    20052046.719 7  83399067.090 7      1541.027          45.000
C23  24929244.312 4 129813117.031 4     -2582.344          29.000
C27  23690610.961 8 123363183.811 8      3060.387          49.000
E02  23378166.672 7 122853079.683 7       239.738          47.000    23378168.609 7  94134214.690 7       183.734          47.000
E08  24151560.445 8 126917268.057 8     -2182.152          50.000    24151560.656 8  97248324.981 8     -1672.018          49.000
E25  25402250.781 5 133489729.999 5     -1749.008          34.000
E36  24974949.031 8 131244275.449 8      2162.867          51.000    24974952.031 8 100563838.815 8      1657.256          51.000
> 2020 05 16 09 02 30.0000000  0 16        .000000000000
G02  23168183.203 5 121749621.111 5      1182.469          31.000
G12  20227954.320 8 106298623.276 8      -841.102          51.000    20227952.383 8  82830071.438 8      -655.404          51.000
G24  21622893.008 8 113629042.613 8     -2590.336          50.000    21622894.461 8  88542108.570 8     -2018.444          50.000
G25  20442838.070 5 107427819.744 5      1089.418          30.000    20442841.539 4  83709986.484 4       848.900          29.000
G29  22688105.078 6 119226799.620 6      3402.746          41.000    22688107.359 6  92904002.797 6      2651.490          41.000
G32  22147230.734 4 116384481.749 4       252.094          28.000    22147236.211 4  90689228.677 4       196.437          27.000
R04  23216487.641 7 124323206.902 7     -3709.219          43.000    23216492.781 7  96695813.143 7     -2884.951          42.000
R14  19532481.336 5 104119094.585 5       492.906          35.000    19532482.852 5  80981541.658 5       383.375          34.000
R23  20326294.164 7 108731952.197 7     -1410.395          43.000    20326300.094 5  84569359.377 5     -1096.977          31.000
R24  20040990.422 8 107168251.117 8      1957.633          51.000    20040991.789 7  83353087.817 7      1522.603          47.000
C23  24944127.008 4 129890630.133 4     -2586.992          29.000
C27  23672992.992 8 123271445.626 8      3053.438          48.000
E02  23376804.461 7 122845920.142 7       235.535          47.000    23376806.203 7  94128728.813 7       180.400          47.000
E08  24164033.234 8 126982813.645 8     -2189.695          50.000    24164034.336 8  97298548.214 8     -1677.753          50.000
E25  25412235.172 5 133542203.635 5     -1751.660          35.000
E36  24962622.914 8 131179499.709 8      2153.375          51.000    24962626.617 8 100514205.475 8      1649.911          51.000
> 2020 05 16 09 03  0.0000000  0 12        .000000000000
G12  20232799.797 8 106324086.419 8      -841.785          51.000    20232798.195 8  82849912.848 8      -655.936          51.000
G24  21637724.430 8 113706982.100 8     -2591.023          49.000    21637725.742 8  88602840.621 8     -2018.976          49.000
G29  22668716.781 7 119124914.836 7      3403.977          44.000    22668719.375 7  92824612.016 7      2652.449          44.000
G32  22145860.820 5 116377295.265 5       242.707          31.000
R04  23237300.188 7 124434660.278 7     -3705.973          44.000    23237305.766 6  96782499.088 6     -2882.423          41.000
R14  19529753.312 6 104104553.986 6       491.617          37.000    19529755.539 5  80970232.305 5       382.372          33.000
R23  20334290.508 7 108774724.690 7     -1426.223          44.000    20334293.805 5  84602626.790 5     -1109.287          30.000
R24  20030089.094 8 107109959.895 8      1943.367          51.000    20030091.133 8  83307750.184 8      1511.508          48.000
C27  23655436.133 8 123180025.442 8      3055.652          48.000
E02  23375487.117 7 122838996.722 7       240.770          47.000    23375488.617 7  94123423.861 7       184.450          47.000
E08  24176569.734 8 127048695.242 8     -2187.812          49.000    24176571.828 8  97349028.898 8     -1676.346          49.000
E36  24950372.008 8 131115120.649 8      2153.152          51.000    24950376.438 8 100464876.079 8      1649.896          51.000
> 2020 05 16 09 03 30.0000000  0 13        .000000000000
G02  23154879.086 6 121679721.706 6      1159.188          36.000
G06  23473688.844 5 123355057.201 5       -83.188          32.000    23473677.578 4  96120802.495 4       -64.824          25.000
G12  20237730.180 8 106349995.781 8      -858.703          51.000    20237728.758 8  82870101.936 8      -669.119          51.000
G24  21652640.500 8 113785367.933 8     -2607.941          48.000    21652642.648 8  88663920.478 8     -2032.162          48.000
G29  22649402.438 7 119023414.431 7      3389.246          45.000    22649404.812 7  92745520.804 7      2640.971          45.000
R04  23258174.641 7 124546446.974 7     -3719.336          43.000    23258180.086 6  96869444.241 6     -2892.817          40.000
R14  19527115.500 6 104090496.342 6       473.031          37.000    19527116.891 5  80959298.625 5       367.910          32.000
R23  20342456.805 7 108818406.210 7     -1458.598          45.000    20342460.930 5  84636601.301 5     -1134.462          33.000
R24  20019349.992 8 107052532.717 8      1912.344          51.000    20019352.172 8  83263084.589 8      1487.378          50.000
C27  23637947.906 8 123088960.809 8      3041.727          48.000
E02  23374221.359 7 122832345.423 7       229.469          47.000    23374222.664 7  94118327.393 7       175.851          47.000
E08  24189177.008 8 127114946.790 8     -2202.168          50.000    24189179.328 8  97399793.078 8     -1687.399          49.000
E36  24938203.656 8 131051175.815 8      2136.621          51.000    24938208.195 8 100415879.388 8      1637.184          51.000
> 2020 05 16 09 04  0.0000000  0 14        .000000000000
G02  23148336.875 5 121645361.518 5      1134.234          34.000
G12  20242698.219 8 106376103.347 8      -878.875          51.000    20242696.766 8  82890445.477 8      -684.841          51.000
G24  21667594.570 8 113863952.011 8     -2628.148          49.000    21667597.242 8  88725154.834 8     -2047.908          50.000
G25  20424537.180 5 107331686.150 5      1049.848          33.000
G29  22630114.805 8 118922053.308 8      3370.883          48.000    22630116.867 8  92666538.119 8      2626.662          48.000
G32  22143469.586 5 116364774.514 5       187.289          34.000
R04  23279063.586 7 124658310.328 7     -3735.438          42.000    23279067.523 6  96956449.003 6     -2905.343          38.000
R14  19524521.570 6 104076672.090 6       451.539          40.000    19524523.070 5  80948546.493 5       351.197          33.000
R23  20350745.633 7 108862742.887 7     -1494.426          43.000    20350750.688 5  84671085.412 5     -1162.331          31.000
R24  20008726.195 8 106995720.477 8      1877.996          51.000    20008728.531 8  83218897.301 8      1460.664          50.000
C27  23620481.344 7 122998008.709 7      3024.441          47.000
E02  23372960.289 7 122825719.136 7       215.211          47.000    23372961.469 8  94113250.099 8       164.836          48.000
E08  24201807.406 8 127181319.143 8     -2219.793          50.000    24201809.641 8  97450649.792 8     -1700.889          50.000
E36  24926071.180 8 130987419.582 8      2116.715          50.000    24926075.750 8 100367027.198 8      1621.827          51.000
> 2020 05 16 09 04 30.0000000  0 16        .000000000000
G02  23141897.992 6 121611536.145 6      1122.371          38.000    23141896.531 5  94762206.857 5       874.575          32.000
G12  20247745.477 8 106402627.361 8      -887.641          51.000    20247743.930 8  82911113.530 8      -691.668          51.000
G24  21682628.250 8 113942952.265 8     -2636.746          50.000    21682631.141 8  88786713.477 8     -2054.607          50.000
G25  20418576.836 5 107300340.053 5      1041.000          34.000    20418572.586 5  83610614.578 5       811.166          30.000
G29  22610895.812 8 118821052.961 8      3364.227          49.000    22610897.414 8  92587836.553 8      2621.475          49.000
G32  22142452.797 5 116359436.214 5       169.930          35.000
R04  23300007.922 7 124770469.180 7     -3739.816          42.000    23300010.602 6  97043683.570 6     -2908.749          37.000
R14  19522012.984 6 104063304.663 6       441.520          38.000    19522015.406 5  80938149.561 5       343.404          34.000
R23  20359197.258 7 108907955.165 7     -1518.223          46.000    20359200.453 5  84706250.436 5     -1180.846          31.000
R24  19998259.383 8 106939748.617 8      1855.219          51.000    19998261.719 8  83175363.655 8      1442.951          49.000
C27  23603078.172 7 122907388.343 7      3018.680          46.000
C28  22302734.328 8 116136188.703 8       245.863          51.000
E02  23371745.688 7 122819337.214 7       212.105          47.000    23371746.852 8  94108360.042 8       162.486          48.000
E08  24214502.414 8 127248029.586 8     -2225.902          51.000    24214504.109 8  97501765.547 8     -1705.496          50.000
E25  25452467.484 5 133753619.167 5     -1767.203          33.000    25452475.461 5 102486566.417 5     -1354.318          35.000
E36  24914016.086 8 130924072.690 8      2108.137          49.000    24914021.336 8 100318488.712 8      1615.290          51.000
> 2020 05 16 09 05  0.0000000  0 15        .000000000000
G02  23135540.594 6 121578129.071 6      1105.344          36.000    23135542.609 4  94736184.257 4       861.298          26.000
G12  20252849.383 8 106429448.841 8      -900.016          51.000    20252847.898 8  82932013.379 8      -701.311          51.000
G24  21697718.484 8 114022248.846 8     -2649.258          51.000    21697721.523 8  88848503.009 8     -2064.357          51.000
G25  20412668.789 5 107269298.012 5      1028.762          34.000    20412669.359 6  83586425.883 6       801.626          36.000
G29  22591723.258 8 118720297.471 8      3353.277          51.000    22591724.430 8  92509325.816 8      2612.943          51.000
R04  23320984.578 6 124882798.470 6     -3748.238          41.000    23320987.359 6  97131050.708 6     -2915.299          38.000
R14  19519568.211 6 104050275.375 6       427.270          37.000    19519570.516 5  80928015.701 5       332.324          35.000
R23  20367790.023 7 108953920.513 7     -1545.836          46.000    20367794.531 5  84742001.301 5     -1202.314          33.000
R24  19987927.922 8 106884499.574 8      1828.402          51.000    19987929.898 8  83132392.181 8      1422.091          49.000
C27  23585716.531 7 122816984.730 7      3008.738          46.000
C28  22301372.289 8 116129096.414 8       227.305          51.000
E02  23370555.211 7 122813081.738 7       205.332          47.000    23370556.375 8  94103566.862 8       157.320          48.000
E08  24227238.984 8 127314958.154 8     -2235.684          51.000    24227240.031 8  97553048.438 8     -1713.056          50.000
E25  25462574.898 5 133806732.806 5     -1772.469          33.000    25462575.953 5 102527254.725 5     -1357.850          34.000
E36  24902016.953 8 130861018.723 8      2095.848          49.000    24902022.094 8 100270174.684 8      1605.861          51.000
> 2020 05 16 09 05 30.0000000  0 12        .000000000000
G12  20258021.453 8 106456628.092 8      -910.688          51.000    20258020.109 8  82953192.026 8      -709.624          51.000
G24  21712876.375 8 114101901.307 8     -2659.766          51.000    21712879.586 8  88910569.834 8     -2072.545          51.000
G29  22572609.266 8 118619849.946 8      3344.305          51.000    22572609.312 8  92431055.067 8      2605.955          51.000
R04  23342003.906 6 124995356.031 6     -3754.258          40.000    23342008.078 6  97218595.437 6     -2919.978          38.000
R14  19517198.547 6 104037647.629 6       415.668          37.000    19517202.609 6  80918194.041 6       323.297          36.000
R23  20376534.781 7 109000698.629 7     -1571.457          46.000    20376538.805 5  84778384.242 5     -1222.244          32.000
R24  19977743.305 8 106830037.554 8      1803.551          51.000    19977745.461 8  83090032.848 8      1402.762          48.000
C27  23568409.438 8 122726860.422 8      3000.762          48.000
E02  23369400.688 8 122807013.994 8       200.375          48.000    23369401.711 8  94098917.554 8       153.630          48.000
E08  24240027.984 8 127382164.056 8     -2243.551          51.000    24240028.930 8  97604543.830 8     -1719.072          51.000
E25  25472706.875 5 133859977.670 5     -1774.949          32.000    25472704.562 5 102568042.811 5     -1360.050          35.000
E36  24890085.789 8 130798320.548 8      2085.312          50.000    24890090.547 8 100222133.235 8      1597.834          51.000
> 2020 05 16 09 06  0.0000000  0 13        .000000000000
G12  20263247.422 8 106484090.346 8      -920.902          51.000    20263246.086 8  82974591.199 8      -717.583          51.000
G24  21728087.789 8 114181835.282 8     -2669.902          51.000    21728090.836 8  88972856.026 8     -2080.443          51.000
G25  20401049.031 5 107208221.691 5      1007.465          35.000    20401047.055 5  83538882.900 5       785.041          34.000
G29  22553540.078 8 118519638.455 8      3335.488          51.000    22553538.289 8  92352968.233 8      2599.085          51.000
R04  23363050.953 6 125108061.779 6     -3759.988          38.000    23363056.852 6  97306255.439 6     -2924.435          38.000
R14  19514891.234 6 104025347.066 6       403.785          40.000    19514896.188 6  80908626.923 6       314.052          36.000
R23  20385416.836 7 109048211.521 7     -1596.785          46.000    20385419.992 5  84815338.692 5     -1241.944          32.000
R24  19967691.719 8 106776289.800 8      1778.863          51.000    19967694.344 7  83048229.049 7      1383.560          47.000
C27  23551142.781 8 122636944.069 8      2992.867          49.000
E02  23368267.828 7 122801060.118 7       195.652          47.000    23368268.781 8  94094355.507 8       149.906          48.000
E08  24252854.859 8 127449571.314 8     -2251.125          49.000    24252856.320 8  97656193.540 8     -1724.891          51.000
E25  25482852.562 5 133913279.692 5     -1778.016          34.000    25482845.695 5 102608873.893 5     -1362.489          35.000
E36  24878208.086 8 130735905.681 8      2074.926          48.000    24878212.984 8 100174308.859 8      1589.878          51.000
> 2020 05 16 09 06 30.0000000  0 14        .000000000000
G02  23116990.758 5 121480610.000 5      1062.023          33.000
G12  20268540.922 8 106511907.853 8      -931.027          51.000    20268539.664 8  82996267.186 8      -725.476          51.000
G24  21743366.258 8 114262121.673 8     -2679.855          51.000    21743368.656 8  89035416.826 8     -2088.199          51.000
G29  22534529.719 8 118419738.583 8      3326.695          50.000    22534526.852 8  92275124.231 8      2592.233          50.000
R04  23384138.883 6 125220985.678 6     -3765.551          38.000    23384146.281 6  97394085.146 6     -2928.759          39.000
R14  19512659.773 7 104013449.336 7       392.094          42.000    19512664.867 6  80899373.169 6       304.965          36.000
R17  22510397.227 6 120457690.699 6      4480.258          37.000    22510403.133 6  93689328.700 6      3484.645          39.000
R23  20394449.789 7 109096531.481 7     -1621.816          47.000    20394453.461 5  84852920.883 5     -1261.413          34.000
R24  19957788.195 8 106723333.123 8      1754.195          51.000    19957790.648 7  83007040.519 7      1364.374          47.000
C27  23533930.328 8 122547310.134 8      2985.188          49.000
E02  23367170.469 7 122795293.456 7       191.348          47.000    23367171.547 8  94089936.909 8       146.584          49.000
E08  24265732.961 8 127517251.245 8     -2258.309          48.000    24265735.625 8  97708052.168 8     -1730.401          51.000
E25                                                                  25493009.633 5 102649804.035 5     -1364.243          35.000
E36  24866398.508 8 130673848.878 8      2064.777          48.000    24866403.953 8 100126758.848 8      1582.162          51.000
> 2020 05 16 09 07  0.0000000  0 15        .000000000000
G02  23110976.195 6 121448991.847 6      1045.523          37.000
G12  20273889.047 8 106540012.922 8      -942.891          51.000    20273888.008 8  83018167.250 8      -734.720          51.000
G24  21758698.750 8 114342693.188 8     -2691.559          51.000    21758700.047 8  89098199.799 8     -2097.318          51.000
G29  22515565.578 8 118320085.406 8      3316.449          48.000    22515562.914 8  92197472.422 8      2584.246          48.000
R04  23405253.469 6 125334055.330 6     -3772.551          40.000    23405262.680 6  97482028.217 6     -2934.206          37.000
R14  19510491.555 6 104001888.246 6       378.551          41.000    19510496.633 6  80890381.227 6       294.428          36.000
R17  22485301.375 6 120323395.599 6      4472.492          38.000    22485306.594 6  93584877.018 6      3478.605          38.000
R23  20403620.156 7 109145587.597 7     -1648.688          47.000    20403624.984 5  84891075.649 5     -1282.312          34.000
R24  19948020.219 8 106671101.841 8      1727.719          51.000    19948022.586 7  82966416.229 7      1343.784          47.000
C23  25079597.805 4 130596044.558 4     -2634.516          28.000
C27  23516759.398 8 122457894.715 8      2975.680          48.000
E02  23366096.062 8 122789647.659 8       185.066          48.000    23366097.336 8  94085610.915 8       141.762          49.000
E08  24278650.375 8 127585135.349 8     -2267.344          49.000    24278653.680 8  97760067.247 8     -1737.300          51.000
E25                                                                  25503186.508 6 102690782.235 6     -1367.533          38.000
E36  24854645.445 8 130612085.247 8      2052.680          51.000    24854651.109 8 100079433.481 8      1572.859          51.000
> 2020 05 16 09 07 30.0000000  0 14        .000000000000
G12  20279302.719 8 106568462.596 8      -962.672          51.000    20279301.648 8  83040335.825 8      -750.137          51.000
G24  21774095.773 8 114423606.298 8     -2711.375          49.000    21774096.047 8  89161248.954 8     -2112.760          50.000
G25  20384094.625 5 107119146.810 5       964.211          34.000    20384090.422 5  83469442.529 5       751.315          33.000
G29  22496659.281 8 118220738.845 8      3297.797          48.000    22496657.984 8  92120059.506 8      2569.712          48.000
R04  23426405.953 6 125447324.935 6     -3787.746          40.000    23426416.422 5  97570126.782 5     -2946.025          35.000
R14  19508397.711 6 103990723.008 6       356.996          41.000    19508402.578 6  80881697.185 6       277.667          37.000
R17  22460245.773 6 120189317.371 6      4457.062          36.000    22460249.141 6  93480593.968 6      3466.604          37.000
R23  20412939.305 7 109195436.501 7     -1683.488          46.000    20412942.914 5  84929846.957 5     -1309.380          33.000
R24  19938399.781 8 106619656.928 8      1692.922          51.000    19938402.047 7  82926403.547 7      1316.717          47.000
C27  23499641.258 8 122368756.830 8      2958.043          48.000
E02  23365055.766 8 122784180.475 8       170.586          48.000    23365057.195 8  94081421.762 8       130.709          49.000
E08  24291617.797 8 127653279.290 8     -2284.422          50.000    24291620.984 8  97812281.430 8     -1750.431          51.000
E25                                                                  25513388.148 6 102731852.544 6     -1377.248          39.000
E36  24842959.820 8 130550673.936 8      2032.457          51.000    24842965.055 8 100032378.076 8      1557.265          50.000
> 2020 05 16 09 08  0.0000000  0 14        .000000000000
G02  23099218.023 5 121387229.749 5      1011.785          32.000
G12  20284785.188 8 106597273.097 8      -967.488          51.000    20284783.695 8  83062785.558 8      -753.887          51.000
G24  21789559.922 7 114504876.120 7     -2716.047          46.000    21789560.453 7  89224576.059 7     -2116.400          46.000
G29  22477815.852 8 118121718.309 8      3294.055          50.000    22477816.016 8  92042900.667 8      2566.799          50.000
R04  23447599.320 6 125560807.543 6     -3787.301          38.000    23447609.297 5  97658390.968 5     -2945.681          32.000
R14  19506381.117 6 103979972.588 6       350.406          40.000    19506386.391 6  80873335.678 6       272.538          37.000
R17  22435233.461 6 120055477.300 6      4456.234          37.000    22435236.883 6  93376496.227 6      3465.963          36.000
R23  20422408.188 7 109246092.476 7     -1703.094          47.000    20422412.508 5  84969246.076 5     -1324.632          34.000
R24  19928930.164 8 106569018.154 8      1673.441          51.000    19928932.469 8  82887017.881 8      1301.566          48.000
C27  23482580.148 8 122279915.602 8      2955.254          49.000
E02  23364052.727 8 122778909.358 8       171.340          49.000    23364054.445 8  94077382.843 8       131.232          50.000
E08  24304637.961 8 127721698.464 8     -2286.328          51.000    24304640.609 8  97864706.485 8     -1751.886          51.000
E25  25523609.703 5 134127473.912 5     -1795.102          32.000    25523614.688 6 102773028.261 6     -1374.902          38.000
E36  24831344.711 8 130489633.791 8      2027.406          50.000    24831348.453 8  99985607.084 8      1553.377          48.000
> 2020 05 16 09 08 30.0000000  0 14        .000000000000
G12  20290331.602 8 106626419.718 8      -975.980          51.000    20290329.820 8  83085497.197 8      -760.504          51.000
G24  21805086.336 7 114586477.724 7     -2724.602          43.000    21805088.180 7  89288161.731 7     -2123.069          43.000
G29  22459030.719 8 118023001.806 8      3286.605          51.000    22459032.133 8  91965978.724 8      2560.991          51.000
G32  22138358.867 5 116337866.721 5        10.023          33.000
R04  23468828.109 6 125674474.204 6     -3790.777          37.000    23468834.758 4  97746798.257 4     -2948.385          28.000
R14  19504438.328 7 103969613.860 7       339.941          44.000    19504442.062 6  80865278.896 6       264.399          37.000
R17  22410263.023 5 119921855.644 5      4451.688          33.000    22410265.656 6  93272568.254 6      3462.424          36.000
R23  20432024.062 7 109297529.340 7     -1726.473          45.000    20432028.320 5  85009252.479 5     -1342.812          34.000
R24  19919607.445 8 106519163.359 8      1649.902          51.000    19919609.258 8  82848241.925 8      1283.257          48.000
C27  23465571.875 8 122191349.417 8      2948.723          49.000
E02  23363082.539 8 122773810.740 8       168.223          50.000    23363084.508 8  94073476.097 8       128.853          51.000
E08  24317705.656 8 127790367.128 8     -2291.977          51.000    24317707.641 8  97917322.711 8     -1756.172          51.000
E25                                                                  25533862.523 6 102814291.212 6     -1376.273          37.000
E36  24819795.977 8 130428942.648 8      2018.410          51.000    24819798.094 8  99939103.518 8      1546.589          48.000
> 2020 05 16 09 09  0.0000000  0 14        .000000000000
G12  20295920.820 8 106655791.460 8      -988.930          51.000    20295919.070 8  83108384.253 8      -770.598          51.000
G24  21820655.305 7 114668299.366 7     -2737.277          42.000    21820658.039 7  89351918.886 7     -2132.943          42.000
G29  22440282.859 8 117924481.050 8      3274.605          50.000    22440285.164 8  91889209.314 8      2551.641          50.000
G32  22138351.758 4 116337823.067 4       -12.039          29.000
R04  23490070.906 5 125788207.829 5     -3798.445          35.000
R14  19502548.367 7 103959535.994 7       324.973          43.000    19502550.516 6  80857440.559 6       252.757          38.000
R23  20441763.719 7 109349631.164 7     -1754.070          44.000    20441768.438 5  85049776.156 5     -1364.277          35.000
R24  19910410.594 8 106469982.402 8      1621.891          51.000    19910412.508 8  82809990.057 8      1261.470          49.000
C23  25140571.859 4 130913567.458 4     -2657.047          29.000
C27  23448595.883 8 122102950.722 8      2937.746          49.000
E02  23362124.266 8 122768774.299 8       160.641          50.000    23362126.164 8  94069617.000 8       123.100          51.000
E08  24330799.305 8 127859172.881 8     -2301.988          51.000    24330800.664 8  97970043.974 8     -1763.861          51.000
E25  25544110.641 5 134235211.594 5     -1801.594          35.000    25544112.320 6 102855556.637 6     -1380.131          36.000
E36  24808293.031 8 130368491.627 8      2004.781          51.000    24808294.086 8  99892783.967 8      1536.176          48.000
> 2020 05 16 09 09 30.0000000  0 15        .000000000000
G12  20301594.062 8 106685604.847 8      -999.918          51.000    20301592.398 8  83131615.454 8      -779.157          51.000
G24  21836308.617 7 114750557.555 7     -2748.094          44.000    21836311.297 7  89416016.171 7     -2141.372          44.000
G25  20362397.906 5 107005131.888 5       926.066          32.000    20362404.539 5  83380630.960 5       721.610          31.000
G29  22421614.297 8 117826375.878 8      3264.508          51.000    22421616.547 8  91812763.726 8      2543.772          51.000
R04  23511367.625 4 125902225.378 4     -3803.621          29.000    23511370.547 4  97924009.756 4     -2958.369          25.000
R14  19500752.344 7 103949960.994 7       312.066          43.000    19500753.586 6  80849993.325 6       242.718          39.000
R17  22360433.570 5 119655183.117 5      4435.340          31.000    22360426.680 6  93065133.615 6      3449.709          37.000
R23  20451668.695 7 109402617.233 7     -1779.617          45.000    20451673.391 5  85090987.508 5     -1384.150          34.000
R24  19901381.094 8 106421698.720 8      1595.754          51.000    19901383.492 8  82772436.097 8      1241.142          49.000
C23  25155888.430 4 130993320.437 4     -2662.668          29.000
C27  23431693.773 8 122014937.150 8      2928.699          48.000
E02  23361219.273 8 122764017.812 8       155.117          51.000    23361220.742 8  94065972.419 8       118.826          50.000
E08  24343959.906 8 127928331.331 8     -2309.906          51.000    24343960.781 8  98023035.495 8     -1769.931          51.000
E25  25554399.266 5 134289277.318 5     -1804.871          35.000    25554403.797 5 102896991.260 5     -1382.929          35.000
E36  24796877.000 8 130308499.842 8      1993.262          48.000    24796878.234 8  99846816.285 8      1527.304          49.000
> 2020 05 16 09 10  0.0000000  0 14        .000000000000
G12  20307332.508 8 106715760.668 8     -1010.059          51.000    20307331.023 8  83155113.490 8      -787.059          51.000
G24  21852026.625 8 114833152.446 8     -2757.980          48.000    21852028.766 8  89480375.780 8     -2149.076          48.000
G25  20357148.523 5 106977543.324 5       915.297          34.000    20357155.320 5  83359133.339 5       713.215          33.000
G29  22403006.789 8 117728590.022 8      3254.988          51.000    22403007.797 8  91736567.002 8      2536.358          51.000
R14  19499031.500 7 103940790.174 7       299.891          43.000    19499032.289 6  80842860.445 6       233.245          39.000
R17  22335588.203 5 119522245.443 5      4428.129          35.000    22335584.461 6  92961737.725 6      3444.103          38.000
R23  20461719.867 7 109456384.640 7     -1804.586          44.000    20461724.836 5  85132806.629 5     -1403.567          35.000
R24  19892501.367 8 106374214.408 8      1570.312          51.000    19892503.500 7  82735503.820 7      1221.354          47.000
C23  25171236.320 4 131073252.541 4     -2667.047          29.000
C27  23414847.078 8 121927213.373 8      2920.035          48.000
E02  23360348.805 8 122759443.355 8       150.273          51.000    23360349.812 8  94062467.320 8       115.136          50.000
E08  24357168.516 8 127997742.416 8     -2317.051          50.000    24357169.094 8  98076220.570 8     -1775.412          51.000
E25  25564711.695 5 134343466.790 5     -1807.773          35.000    25564710.039 5 102938493.898 5     -1384.962          31.000
E36  24785529.070 7 130248870.677 7      1982.363          46.000    24785531.797 8  99801126.439 8      1518.930          50.000
> 2020 05 16 09 10 30.0000000  0 14        .000000000000
G12  20313125.547 8 106746202.929 8     -1020.770          51.000    20313124.273 8  83178834.738 8      -795.405          51.000
G24  21867798.047 8 114916027.378 8     -2768.383          51.000    21867800.016 8  89544953.605 8     -2157.181          51.000
G25  20351953.914 5 106950258.235 5       903.797          32.000    20351958.648 5  83337872.217 5       704.257          33.000
G29  22384449.969 8 117631070.288 8      3244.996          51.000    22384449.281 8  91660577.688 8      2528.571          51.000
R14  19497376.227 7 103931968.585 7       286.938          45.000    19497376.797 6  80835999.197 6       223.174          40.000
R17  22310780.508 6 119389494.522 6      4420.512          39.000    22310776.086 6  92858487.023 6      3438.176          37.000
R23  20471906.227 7 109510874.167 7     -1829.613          43.000    20471910.781 5  85175187.328 5     -1423.036          34.000
R24  19883760.750 8 106327475.092 8      1544.293          51.000    19883762.961 7  82699151.026 7      1201.117          47.000
C23  25186611.305 4 131153284.406 4     -2673.465          27.000
C27  23398046.148 8 121839726.472 8      2911.055          49.000
E02  23359502.453 8 122754995.735 8       144.926          51.000    23359503.180 8  94059059.403 8       111.005          50.000
E08  24370414.250 8 128067348.796 8     -2324.734          51.000    24370414.555 8  98129555.296 8     -1781.230          50.000
E25  25575038.320 5 134397732.590 5     -1811.062          34.000    25575039.234 5 102980082.198 5     -1387.778          31.000
E36  24774239.234 7 130189550.374 7      1970.984          45.000    24774243.617 8  99755673.196 8      1510.214          50.000
> 2020 05 16 09 11  0.0000000  0 14        .000000000000
G12  20318971.477 8 106776922.884 8     -1034.844          51.000    20318970.195 8  83202772.355 8      -806.372          51.000
G24  21883621.031 8 114999172.772 8     -2782.215          51.000    21883622.477 8  89609742.196 8     -2167.960          51.000
G25  20346817.594 5 106923268.860 5       888.953          32.000    20346822.609 5  83316841.542 5       692.694          30.000
G29  22365942.453 8 117533810.479 8      3231.434          51.000    22365941.047 8  91584790.902 8      2518.003          51.000
R14  19495785.195 7 103923489.383 7       270.625          44.000    19495786.750 6  80829404.276 6       210.486          41.000
R17  22286005.930 6 119256926.342 6      4409.527          39.000    22286002.188 6  92755378.483 6      3429.635          38.000
R23  20482225.586 6 109566074.732 6     -1858.180          40.000    20482230.055 5  85218121.129 5     -1445.248          35.000
R24  19875158.453 8 106281474.583 8      1514.637          51.000    19875160.859 7  82663372.918 7      1178.054          46.000
C23  25202009.266 4 131233462.138 4     -2680.531          29.000
C27  23381289.570 8 121752470.433 8      2898.531          50.000
E02  23358678.773 8 122750667.156 8       136.098          51.000    23358679.406 8  94055742.696 8       104.328          50.000
E08  24383695.148 8 128137140.501 8     -2335.629          51.000    24383695.094 8  98183032.041 8     -1789.698          49.000
E25  25585376.461 5 134452059.722 5     -1818.203          35.000    25585396.242 5 103021747.871 5     -1392.902          33.000
E36  24763007.586 7 130130532.392 7      1955.988          46.000    24763013.016 8  99710451.596 8      1498.813          51.000
> 2020 05 16 09 11 30.0000000  0 15        .000000000000
G12  20324888.383 8 106808015.854 8     -1040.488          51.000    20324886.938 8  83227000.628 8      -810.770          51.000
G24  21899513.289 8 115082683.471 8     -2787.570          51.000    21899514.000 8  89674815.448 8     -2172.136          51.000
G25  20341756.336 5 106896671.586 5       882.348          33.000    20341758.086 5  83296116.467 5       687.544          32.000
G29  22347502.789 8 117436909.191 8      3226.250          51.000    22347501.641 8  91509283.452 8      2513.961          51.000
R04  23596796.969 5 126359787.579 5     -3821.559          30.000    23596816.820 4  98279871.369 4     -2972.323          27.000
R14  19494276.562 7 103915451.113 7       262.773          42.000    19494279.211 6  80823152.286 6       204.379          41.000
R17  22261283.656 6 119124642.739 6      4407.012          39.000    22261281.469 6  92652491.277 6      3427.676          37.000
R23  20492695.508 6 109622081.412 6     -1877.906          37.000    20492699.258 5  85261681.870 5     -1460.591          33.000
R24  19866713.109 8 106236312.850 8      1493.727          51.000    19866714.969 7  82628247.166 7      1161.787          46.000
C23  25217442.664 5 131313839.140 5     -2680.090          31.000
C27  23364596.219 8 121665542.593 8      2894.258          51.000
E02  23357896.047 8 122746554.072 8       135.734          51.000    23357896.781 8  94052591.106 8       103.968          50.000
E08  24397029.164 8 128207211.886 8     -2338.098          50.000    24397028.938 8  98236723.065 8     -1791.595          49.000
E25                                                                  25595758.820 5 103063492.516 5     -1391.711          33.000
E36  24751853.203 8 130071914.486 8      1949.434          48.000    24751859.102 8  99665536.611 8      1493.749          51.000
> 2020 05 16 09 12  0.0000000  0 14        .000000000000
G06  23498529.531 6 123485592.552 6      -420.773          37.000    23498529.352 6  96222533.636 6      -327.875          37.000
G12  20330862.805 8 106839411.311 8     -1051.047          51.000    20330861.297 8  83251464.608 8      -818.998          51.000
G24  21915461.172 8 115166488.657 8     -2797.949          49.000    21915461.453 8  89740118.162 8     -2180.220          49.000
G29  22329118.008 8 117340298.699 8      3215.836          50.000    22329117.391 8  91434002.581 8      2505.846          49.000
R14  19492837.211 7 103907784.717 7       249.781          44.000    19492841.602 6  80817189.506 6       194.277          41.000
R17  22236603.047 6 118992576.952 6      4399.086          39.000    22236601.953 6  92549773.494 6      3421.514          37.000
R23  20503301.672 6 109678820.753 6     -1902.895          39.000    20503306.445 5  85305812.455 5     -1480.032          34.000
R24  19858411.562 8 106191920.918 8      1467.348          51.000    19858413.539 8  82593720.165 8      1141.270          48.000
C23  25232905.039 4 131394344.370 4     -2685.125          29.000
C27  23347953.195 8 121578875.959 8      2884.871          51.000
E02  23357141.055 8 122742587.164 8       130.191          51.000    23357142.055 8  94049551.524 8        99.793          51.000
E08  24410402.672 8 128277491.409 8     -2345.574          50.000    24410402.406 8  98290573.573 8     -1797.294          49.000
E25                                                                  25606143.414 5 103105327.044 5     -1394.662          30.000
E36  24740762.648 8 130013628.691 8      1937.680          51.000    24740768.188 8  99620876.078 8      1484.761          51.000
> 2020 05 16 09 12 30.0000000  0 14        .000000000000
G06  23500961.297 5 123498376.731 5      -440.207          35.000    23500966.484 5  96232495.391 5      -343.018          35.000
G12  20336867.148 8 106870964.351 8     -1062.289          51.000    20336865.805 8  83276051.374 8      -827.758          51.000
G24  21931436.852 7 115250442.262 7     -2808.613          47.000    21931437.555 8  89805536.536 8     -2188.530          48.000
G25  20331791.758 5 106844287.746 5       859.805          34.000    20331795.797 5  83255296.972 5       669.975          33.000
G29  22310761.500 8 117243836.909 8      3205.047          49.000    22310761.008 8  91358837.564 8      2497.442          49.000
R14  19491441.102 7 103900344.884 7       236.145          44.000    19491445.531 6  80811402.947 6       183.665          41.000
R17  22211935.992 6 118860586.242 6      4390.414          39.000    22211936.414 6  92447114.130 6      3414.770          37.000
R23  20514017.906 6 109736142.696 6     -1928.309          38.000    20514023.109 5  85350396.233 5     -1499.799          33.000
R24  19850227.000 8 106148153.972 8      1440.512          51.000    19850228.938 8  82559679.227 8      1120.398          49.000
C27  23331333.391 8 121492329.607 8      2875.055          51.000
E02  23356386.484 8 122738622.484 8       124.363          51.000    23356387.648 8  94046513.644 8        95.315          51.000
E08  24423787.641 8 128347832.953 8     -2353.492          48.000    24423787.727 8  98344471.620 8     -1803.340          49.000
E25  25616508.008 6 134615714.538 6     -1823.566          36.000
E36  24729708.141 8 129955532.301 8      1925.617          51.000    24729712.977 8  99576360.692 8      1475.443          51.000
> 2020 05 16 09 13  0.0000000  0 14        .000000000000
G06  23503543.828 6 123511950.688 6      -461.012          36.000    23503548.086 6  96243072.588 6      -359.224          37.000
G12  20342971.156 8 106903041.631 8     -1073.598          51.000    20342970.109 8  83301046.650 8      -836.570          51.000
G24  21947510.141 7 115334911.951 7     -2819.773          46.000    21947511.148 7  89871357.071 7     -2197.223          47.000
G25  20326930.711 6 106818738.151 6       847.227          37.000    20326933.055 6  83235388.135 6       660.173          37.000
G29  22292504.023 8 117147893.710 8      3193.914          50.000    22292503.117 8  91284076.649 8      2488.764          50.000
R14  19490158.352 7 103893506.014 7       222.340          45.000    19490162.742 7  80806083.821 7       172.928          42.000
R17  22187354.445 6 118729049.328 6      4381.395          40.000    22187356.375 6  92344807.674 6      3407.754          37.000
R23  20524912.438 5 109794419.287 5     -1953.547          33.000    20524916.297 5  85395722.442 5     -1519.425          33.000
R24  19842229.281 8 106105388.239 8      1413.391          51.000    19842231.383 8  82526416.998 8      1099.304          49.000
C27  23314806.688 8 121406270.053 8      2864.930          50.000
E02  23355702.484 8 122735028.134 8       118.137          51.000    23355703.672 8  94043759.532 8        90.490          51.000
E08  24437254.031 8 128418602.467 8     -2361.582          48.000    24437255.031 8  98398697.595 8     -1809.575          50.000
E25  25626938.805 5 134670477.773 5     -1828.215          33.000
E36  24718759.781 8 129897994.769 8      1913.051          51.000    24718764.008 8  99532273.515 8      1465.877          51.000
> 2020 05 16 09 13 30.0000000  0 16        .000000000000
G02  23040918.773 5 121080844.803 5       840.465          30.000
G06  23506232.602 5 123526080.124 5      -480.180          34.000    23506234.992 5  96254082.538 5      -374.163          35.000
G12  20349130.297 8 106935408.695 8     -1083.703          51.000    20349129.445 8  83326267.727 8      -844.444          51.000
G24  21963636.781 7 115419660.747 7     -2829.387          47.000    21963637.531 7  89937395.072 7     -2204.717          47.000
G25  20322128.023 6 106793500.971 6       835.891          36.000    20322129.047 6  83215722.778 6       651.343          37.000
G29  22274301.227 8 117052237.066 8      3183.906          50.000    22274299.766 8  91209539.043 8      2480.969          50.000
R14  19488944.266 8 103887031.587 8       209.902          48.000    19488948.164 7  80801048.165 7       163.257          42.000
R17  22162814.383 6 118597731.657 6      4373.637          40.000    22162817.250 5  92242671.813 5      3401.720          35.000
R23  20535939.281 6 109853408.843 6     -1978.258          38.000    20535943.875 5  85441603.289 5     -1538.645          33.000
R24  19834374.422 8 106063387.105 8      1387.398          51.000    19834376.711 8  82493749.431 8      1079.085          49.000
C23  25279438.781 5 131636649.931 5     -2700.707          32.000
C27  23298328.742 8 121320467.216 8      2855.891          49.000
E02  23355044.523 8 122731570.200 8       113.176          51.000    23355045.750 8  94041109.936 8        86.743          51.000
E08  24450757.492 8 128489563.820 8     -2368.391          49.000    24450759.258 8  98453070.574 8     -1814.711          51.000
E25  25637379.414 5 134725363.701 5     -1831.262          32.000
E36  24707873.516 8 129840783.462 8      1901.840          51.000    24707877.492 8  99488436.312 8      1457.287          51.000
> 2020 05 16 09 14  0.0000000  0 16        .000000000000
G02  23036188.430 5 121055996.724 5       825.652          32.000
G06  23509058.234 5 123540928.216 5      -500.109          35.000    23509061.617 5  96265652.412 5      -389.690          34.000
G12  20355375.422 8 106968227.701 8     -1093.840          51.000    20355374.625 8  83351840.976 8      -852.343          50.000
G24  21979848.242 8 115504851.577 8     -2839.402          50.000    21979848.344 8  90003777.484 8     -2212.524          50.000
G25  20317415.172 5 106768739.577 5       825.098          34.000    20317416.242 5  83196428.244 5       642.939          34.000
G29  22256184.492 8 116957032.312 8      3173.539          51.000    22256182.391 8  91135353.573 8      2472.888          50.000
R14  19487830.055 7 103881088.718 7       197.074          47.000    19487833.328 7  80796425.957 7       153.280          43.000
R17  22138347.406 6 118466803.549 6      4365.621          40.000    22138347.836 5  92140838.932 5      3395.486          31.000
R23  20547130.609 5 109913274.231 5     -2002.156          35.000    20547135.617 5  85488165.241 5     -1557.230          33.000
R24  19826693.812 8 106022318.474 8      1361.145          51.000    19826696.906 8  82461807.191 8      1058.668          49.000
C23  25295042.984 5 131717889.098 5     -2705.328          33.000
C27  23281931.523 7 121235084.762 7      2846.555          47.000
E02  23354443.617 8 122728412.178 8       107.891          51.000    23354444.984 8  94038690.149 8        82.705          51.000
E08  24464328.477 8 128560878.385 8     -2375.441          49.000    24464330.773 8  98507714.182 8     -1820.093          51.000
E25  25647872.062 5 134780476.486 5     -1834.352          32.000
E36  24697080.141 8 129784063.129 8      1890.102          51.000    24697084.102 8  99444975.317 8      1448.266          51.000
> 2020 05 16 09 14 30.0000000  0 17        .000000000000
G02  23031493.148 5 121031309.050 5       810.125          35.000
G06  23511933.859 5 123556039.930 5      -518.727          33.000    23511937.219 4  96277450.731 4      -404.212          26.000
G12  20361619.984 8 107001043.424 8     -1104.602          51.000    20361619.141 8  83377411.663 8      -860.728          51.000
G24  21996057.344 8 115590027.961 8     -2849.602          51.000    21996057.781 8  90070148.630 8     -2220.469          51.000
G25  20312706.766 5 106743999.643 5       813.898          34.000    20312707.625 5  83177150.431 5       634.204          33.000
G29  22238067.469 8 116861826.747 8      3162.707          50.000    22238065.625 8  91061167.456 8      2464.447          50.000
G32  22145812.930 5 116377035.354 5      -227.203          35.000
R14  19486729.039 7 103875217.257 7       183.641          47.000    19486731.977 7  80791859.283 7       142.832          44.000
R17  22113867.273 6 118335806.148 6      4356.867          40.000    22113864.773 5  92038952.149 5      3388.674          32.000
R23  20558397.961 5 109973550.240 5     -2027.027          32.000    20558403.523 5  85535046.636 5     -1576.574          30.000
R24  19819101.617 8 105981721.560 8      1334.457          50.000    19819104.836 8  82430231.806 8      1037.908          48.000
C23  25310613.555 5 131798956.431 5     -2709.785          30.000
C27  23265529.164 7 121149674.236 7      2836.734          46.000
E02  23353813.305 8 122725099.828 8       102.348          51.000    23353814.742 8  94036152.122 8        78.461          51.000
E08  24477879.961 8 128632089.666 8     -2382.562          49.000    24477882.492 8  98562278.662 8     -1825.651          51.000
E25  25658321.453 6 134835393.683 6     -1837.867          37.000
E36  24686293.469 8 129727380.733 8      1878.152          49.000    24686296.969 8  99401543.381 8      1439.104          50.000
> 2020 05 16 09 15  0.0000000  0 14        .000000000000
G02  23026954.008 5 121007455.461 5       795.727          33.000
G12  20367991.969 8 107034528.063 8     -1113.109          51.000    20367991.055 8  83403503.596 8      -867.358          51.000
G24  22012391.375 8 115675861.501 8     -2857.914          51.000    22012392.422 8  90137031.864 8     -2226.946          51.000
G29  22220078.766 8 116767295.367 8      3153.910          50.000    22220077.984 8  90987506.686 8      2457.592          51.000
G32  22147199.594 5 116384339.904 5      -245.234          34.000    22147196.102 5  90689082.135 5      -191.092          33.000
R14  19485769.641 8 103870101.218 8       172.172          48.000    19485772.195 7  80787880.146 7       133.914          44.000
R17  22089503.734 6 118205429.055 6      4349.953          38.000    22089500.641 5  91937547.744 5      3383.294          35.000
R23  20569869.844 6 110034918.765 6     -2049.500          37.000    20569875.531 5  85582777.672 5     -1594.056          31.000
R24  19811726.086 8 105942282.993 8      1309.652          49.000    19811729.625 8  82399557.378 8      1018.618          48.000
C27  23249249.438 7 121064904.558 7      2829.004          45.000
E02  23353281.703 8 122722306.427 8        98.570          51.000    23353283.195 8  94034011.728 8        75.486          51.000
E08  24491539.281 8 128703868.755 8     -2387.914          48.000    24491542.180 8  98617278.212 8     -1829.781          51.000
E25  25668857.133 5 134890768.334 5     -1839.840          35.000    25668878.047 5 103357913.132 5     -1409.583          34.000
E36  24675642.391 8 129671410.882 8      1867.855          49.000    24675645.273 8  99358657.393 8      1431.151          50.000
> 2020 05 16 09 15 30.0000000  0 15        .000000000000
G02  23022467.086 5 120983879.941 5       774.820          31.000
G06  23518117.281 6 123588507.082 6      -559.793          36.000    23518121.523 5  96302768.487 5      -436.196          33.000
G12  20374385.156 8 107068124.067 8     -1127.609          51.000    20374384.188 8  83429682.300 8      -878.657          51.000
G24  22028743.789 8 115761793.601 8     -2871.934          50.000    22028745.578 8  90203991.912 8     -2237.870          50.000
G25  20303582.898 5 106696025.446 5       788.383          34.000    20303584.984 5  83139778.335 5       614.324          35.000
G29  22202112.977 8 116672883.315 8      3139.176          51.000    22202113.102 8  90913938.869 8      2446.111          51.000
R14  19484845.742 7 103865176.366 7       154.984          47.000    19484847.984 7  80784049.708 7       120.543          45.000
R17  22065150.633 6 118075108.568 6      4336.984          37.000    22065148.867 6  91836187.367 6      3373.210          37.000
R23  20581441.180 5 110096809.421 5     -2077.715          35.000    20581445.547 4  85630914.802 4     -1616.007          29.000
R24  19804461.398 8 105903437.178 8      1279.004          49.000    19804465.406 8  82369343.997 8       994.781          48.000
C27  23232986.930 7 120980225.414 7      2815.109          46.000
E02  23352742.820 8 122719474.979 8        89.098          51.000    23352744.492 8  94031842.175 8        68.300          51.000
E08  24505199.844 7 128775656.450 7     -2398.996          46.000    24505203.383 8  98672284.328 8     -1838.108          51.000
E25  25679374.797 5 134946027.298 5     -1846.965          35.000    25679384.703 5 103400243.531 5     -1415.060          30.000
E36  24665020.953 7 129615597.764 7      1851.965          47.000    24665024.016 8  99315891.489 8      1419.017          50.000
> 2020 05 16 09 16  0.0000000  0 15        .000000000000
G02  23018075.164 5 120960797.300 5       760.859          33.000
G12  20380839.430 8 107102041.313 8     -1136.227          51.000    20380838.383 8  83456111.321 8      -885.371          51.000
G24  22045154.625 7 115848035.027 7     -2880.129          47.000    22045157.156 7  90271193.006 7     -2244.256          47.000
G25  20299100.305 6 106672467.143 6       779.070          37.000    20299101.734 6  83121421.197 6       607.068          36.000
G29  22184210.602 8 116578804.267 8      3130.074          50.000    22184211.211 8  90840630.537 8      2439.019          50.000
G32  22150230.125 5 116400247.374 5      -286.609          32.000    22150234.859 5  90701504.870 5      -223.341          32.000
R14  19483998.047 7 103860658.873 7       143.590          47.000    19484000.688 7  80780536.108 7       111.681          45.000
