     3.02           OBSERVATION DATA    M (MIXED)           RINEX VERSION / TYPE
SAVERINEX           SC600               20200516 145930 LCL PGM / RUN BY / DATE
       G = GPS       R = GLONASS       C = COMPASS          COMMENT
       S = SBAS      J = QZSS          E = GALILEO          COMMENT
BEAN                                                        MARKER NAME
1                                                           MARKER NUMBER
GEODETIC                                                    MARKER TYPE
Unige DICCA         GTER                                    OBSERVER / AGENCY
SC60291900056       SC600               2.12(191202)        REC # / TYPE / VERS
                    HEMA45          NONE                    ANT # / TYPE
  4509407.8091   693652.4678  4442337.6214                  APPROX POSITION XYZ
        0.0000        0.0000        0.0000                  ANTENNA: DELTA H/E/N
G    8 C1C L1C D1C S1C C2Y L2Y D2Y S2Y                      SYS / # / OBS TYPES
R    8 C1C L1C D1C S1C C2P L2P D2P S2P                      SYS / # / OBS TYPES
C    8 C1I L1I D1I S1I C7I L7I D7I S7I                      SYS / # / OBS TYPES
E    8 C1C L1C D1C S1C C7Q L7Q D7Q S7Q                      SYS / # / OBS TYPES
DBHZ                                                        COMMENT
     30.000                                                 INTERVAL
  2020    05    16    12    00    0.0000000     GPS         TIME OF FIRST OBS
  2020    05    16    12    59   30.0000000     GPS         TIME OF LAST OBS
     0                                                      RCV CLOCK OFFS APPL
G L1C  0.00000                                              SYS / PHASE SHIFT
G L2Y  0.00000                                              SYS / PHASE SHIFT
R L1C  0.00000                                              SYS / PHASE SHIFT
R L2P  0.25000                                              SYS / PHASE SHIFT
C L1I  0.00000                                              SYS / PHASE SHIFT
C L7I  0.00000                                              SYS / PHASE SHIFT
E L1C  0.50000                                              SYS / PHASE SHIFT
E L7Q -0.25000                                              SYS / PHASE SHIFT
 14 R02 -4 R03  5 R04  6 R05  1 R10 -5 R12 -1 R13 -2 R14 -7 GLONASS SLOT / FRQ #
    R15  0 R16 -1 R17  4 R18 -3 R19  3 R23  3               GLONASS SLOT / FRQ #
 C1C   71.950 C2C   71.950 C2P   71.950                     GLONASS COD/PHS/BIS
    18                                                      LEAP SECONDS
*** Above antenna height is from mark to ANTENNA BOTTOM.    COMMENT
    17     4        0.0000        ANT MEASURE TYPE/HEIGT    COMMENT
    0.0000    0.0000    0.0458    0.0405    0.0000          COMMENT
                    BASE STATION                            COMMENT
                                                            END OF HEADER
> 2020 05 16 12 00  0.0000000  0 14        .000000000000
G18  21338083.242 8 112132413.077 8      2505.270          51.000    21338083.797 7  87375928.447 7      1952.158          46.000
G21  21516551.148 8 113070301.324 8      2193.102          51.000    21516550.500 7  88106747.655 7      1708.910          46.000
G25  22283510.430 6 117100618.985 6     -2749.898          39.000    22283509.242 6  91247226.891 6     -2142.784          38.000
G29  20746543.305 8 109023826.633 8     -1511.824          51.000    20746542.023 8  84953637.053 8     -1178.045          51.000
G31  21221105.547 7 111517661.633 7      -798.117          47.000    21221104.289 7  86896874.458 7      -621.909          47.000
R15  19718176.641 8 105367940.006 8     -2082.852          51.000    19718177.906 7  81952844.492 7     -1619.996          47.000
R17  19877394.867 6 106368033.134 6     -2347.605          39.000    19877399.023 6  82730676.738 6     -1825.915          38.000
R18  19520020.883 8 104199317.872 8      1424.445          51.000    19520024.562 7  81043887.224 7      1107.902          46.000
C05  39642447.172 6 206428624.025 6        22.211          36.000    39642445.469 6 159623696.657 6        17.552          38.000
C27  22074729.875 8 114948882.210 8     -1552.129          51.000
C30  22046316.367 8 114801069.215 8      1427.578          50.000
E02  25259286.648 8 132738405.095 8     -2244.887          51.000    25259287.211 8 101708679.954 8     -1720.090          50.000
E15  25300474.742 8 132954879.866 8      2653.117          51.000    25300480.164 8 101874593.385 8      2032.860          51.000
E30  22060081.812 8 115926515.836 8        76.672          51.000    22060084.039 8  88826814.758 8        58.761          51.000
> 2020 05 16 12 00 30.0000000  0 14        .000000000000
G18  21323823.727 8 112057477.934 8      2490.684          51.000    21323823.250 7  87317537.475 7      1940.792          45.000
G21  21504073.414 8 113004727.896 8      2178.863          51.000    21504071.766 7  88055651.535 7      1697.819          46.000
G25  22299233.094 6 117183237.125 6     -2758.031          39.000    22299231.609 6  91311604.569 6     -2149.115          38.000
G29  20755203.898 8 109069338.463 8     -1521.891          51.000    20755202.656 8  84989100.815 8     -1185.889          51.000
G31  21225715.523 7 111541886.805 7      -816.574          45.000    21225714.203 7  86915751.200 7      -636.292          46.000
R15  19729929.594 8 105430745.382 8     -2103.762          51.000    19729930.688 7  82001693.156 7     -1636.259          46.000
R17  19890599.516 6 106438691.434 6     -2362.613          39.000    19890603.359 6  82785633.127 6     -1837.591          37.000
R18  19512075.508 8 104156900.250 8      1403.785          51.000    19512078.219 7  81010895.756 7      1091.833          47.000
C05  39642317.578 6 206427949.362 6        23.414          36.000    39642315.953 6 159623175.008 6        17.528          38.000
C27  22083699.703 8 114995590.596 8     -1561.543          51.000
C30  22038124.148 8 114758412.829 8      1416.609          51.000
E02  25272123.156 8 132805862.058 8     -2251.859          51.000    25272122.930 8 101760367.720 8     -1725.463          50.000
E15  25285349.984 8 132875396.583 8      2646.094          51.000    25285354.461 8 101813690.651 8      2027.511          51.000
E30  22059674.422 8 115924375.487 8        66.461          51.000    22059676.805 8  88825174.750 8        50.862          51.000
> 2020 05 16 12 01  0.0000000  0 14        .000000000000
G18  21309650.297 8 111982996.725 8      2474.613          51.000    21309649.156 7  87259500.199 7      1928.270          45.000
G21  21491679.008 8 112939593.717 8      2163.234          51.000    21491677.180 7  88004897.666 7      1685.640          47.000
G25  22315003.344 5 117266115.901 5     -2767.504          35.000    22315003.734 5  91376185.551 5     -2156.487          35.000
G29  20763924.430 8 109115165.218 8     -1533.297          51.000    20763923.320 8  85024809.962 8     -1194.777          51.000
G31  21230434.422 7 111566686.711 7      -836.543          45.000    21230433.336 7  86935075.757 7      -651.852          46.000
R15  19741801.922 8 105494189.876 8     -2125.949          51.000    19741803.109 7  82051038.841 7     -1653.519          46.000
R17  19903890.211 5 106509815.044 5     -2379.109          35.000    19903894.461 5  82840951.584 5     -1850.412          35.000
R18  19504249.203 8 104115118.176 8      1381.578          51.000    19504250.344 7  80978398.614 7      1074.561          45.000
C05  39642190.047 6 206427285.247 6        21.809          36.000    39642188.406 6 159622661.457 6        16.722          38.000
C27  22092726.438 8 115042594.634 8     -1572.262          51.000
C30  22029998.461 8 114716099.260 8      1404.152          51.000
E02  25285002.227 8 132873544.098 8     -2260.355          50.000    25285002.359 8 101812227.964 8     -1731.970          50.000
E15  25270267.883 8 132796138.049 8      2637.656          51.000    25270271.602 8 101752960.131 8      2021.025          51.000
E30  22059328.438 8 115922557.676 8        54.586          51.000    22059330.992 8  88823781.868 8        41.873          51.000
> 2020 05 16 12 01 30.0000000  0 14        .000000000000
G18  21295561.625 8 111908961.322 8      2461.062          51.000    21295560.547 7  87201810.291 7      1917.711          45.000
G21  21479366.312 8 112874890.113 8      2150.262          51.000    21479364.797 8  87954479.312 8      1675.529          48.000
G25  22330821.289 6 117349244.694 6     -2774.570          37.000    22330823.453 6  91440961.258 6     -2162.003          37.000
G29  20772702.680 8 109161295.223 8     -1542.098          51.000    20772701.680 8  85060755.421 8     -1201.635          51.000
G31  21235260.641 7 111592050.235 7      -854.207          46.000    21235259.797 7  86954839.550 7      -665.616          46.000
R15  19753792.117 8 105558261.758 8     -2145.523          51.000    19753793.508 7  82100872.469 7     -1668.743          46.000
R17  19917266.133 6 106581390.676 6     -2392.688          39.000    19917269.570 5  82896621.471 5     -1860.982          34.000
R18  19496539.703 8 104073961.245 8      1362.176          51.000    19496539.445 7  80946387.682 7      1059.470          46.000
C05  39642062.602 6 206426621.591 6        22.828          36.000    39642060.961 6 159622148.262 6        17.625          38.000
C27  22101807.586 8 115089882.750 8     -1580.371          51.000
C30  22021937.109 8 114674118.422 8      1394.430          51.000
E02  25297921.898 8 132941440.534 8     -2266.234          50.000    25297923.391 8 101864252.484 8     -1736.450          50.000
E15  25255226.602 8 132717095.113 8      2631.660          51.000    25255229.945 8 101692394.812 8      2016.485          51.000
E30  22059042.023 8 115921052.862 8        45.453          51.000    22059044.688 8  88822628.827 8        34.867          51.000
> 2020 05 16 12 02  0.0000000  0 14        .000000000000
G18  21281557.148 8 111835368.417 8      2446.109          50.000    21281556.773 7  87144465.174 7      1906.059          47.000
G21  21467134.594 8 112810613.031 8      2135.836          50.000    21467133.500 8  87904393.299 8      1664.288          48.000
G25  22346686.734 6 117432616.938 6     -2782.598          41.000    22346689.242 7  91505926.621 7     -2168.261          42.000
G29  20781537.383 8 109207721.763 8     -1552.012          51.000    20781536.469 8  85096931.937 8     -1209.360          51.000
G31  21240193.172 7 111617971.179 7      -872.832          47.000    21240192.320 7  86975037.683 7      -680.129          47.000
R15  19765898.586 8 105622953.997 8     -2166.238          51.000    19765900.125 7  82151188.608 7     -1684.855          47.000
R17  19930725.109 5 106653409.149 5     -2407.512          35.000    19930729.922 5  82952635.893 5     -1872.503          32.000
R18  19488945.508 8 104033424.090 8      1341.383          51.000    19488945.727 7  80914858.814 7      1043.301          47.000
C05  39641934.141 6 206425952.885 6        22.977          36.000    39641932.523 6 159621631.186 6        17.571          38.000
C27  22110941.828 8 115137447.963 8     -1589.629          51.000
C30  22013938.562 8 114632464.915 8      1383.441          51.000
E02  25310881.414 8 133009545.360 8     -2273.188          51.000    25310883.961 8 101916436.684 8     -1741.763          51.000
E15  25240225.359 8 132638263.279 8      2624.648          51.000    25240228.414 8 101631991.230 8      2011.061          51.000
E30  22058814.227 8 115919856.331 8        35.176          51.000    22058816.977 8  88821712.006 8        26.944          51.000
> 2020 05 16 12 02 30.0000000  0 14        .000000000000
G18  21267637.609 8 111762222.947 8      2429.762          49.000    21267638.266 7  87087468.698 7      1893.321          47.000
G21  21454984.688 8 112746767.070 8      2120.184          50.000    21454984.148 8  87854643.203 8      1652.091          48.000
G25  22362599.211 6 117516234.626 6     -2792.094          41.000    22362602.055 6  91571083.179 6     -2175.664          41.000
G29  20790428.789 8 109254446.125 8     -1563.301          51.000    20790427.945 8  85133340.531 8     -1218.153          51.000
G31  21245232.312 7 111644451.449 7      -892.785          47.000    21245231.375 7  86995671.659 7      -695.680          47.000
R15  19778121.656 8 105688268.214 8     -2188.391          51.000    19778123.531 8  82201988.554 8     -1702.082          49.000
R17  19944265.320 6 106725870.227 6     -2423.750          38.000    19944272.031 4  83008994.486 4     -1885.142          27.000
R18  19481467.633 8 103993509.748 8      1319.258          51.000    19481469.086 8  80883814.332 8      1026.086          48.000
C05  39641805.320 6 206425282.534 6        20.996          36.000    39641803.711 6 159621112.395 6        16.797          38.000
C27  22120129.773 8 115185291.652 8     -1600.262          51.000
C30  22006003.312 8 114591141.695 8      1371.047          51.000
E02  25323881.297 8 133077860.983 8     -2281.555          51.000    25323884.578 8 101968782.407 8     -1748.210          51.000
E15  25225265.148 8 132559646.476 8      2616.137          51.000    25225267.711 8 101571752.418 8      2004.536          50.000
E30  22058645.750 8 115918971.676 8        23.414          51.000    22058648.641 8  88821034.156 8        17.953          51.000
> 2020 05 16 12 03  0.0000000  0 14        .000000000000
G18  21253804.742 7 111689535.068 7      2416.203          46.000    21253806.750 7  87030828.786 7      1882.756          47.000
G21  21442918.703 8 112683361.341 8      2107.020          50.000    21442918.430 7  87805236.126 7      1641.830          47.000
G25  22378559.500 7 117600105.061 7     -2799.016          42.000    22378562.406 6  91636436.651 6     -2181.051          41.000
G29  20799378.117 8 109301474.977 8     -1571.684          51.000    20799377.305 8  85169986.388 8     -1224.689          51.000
G31  21250379.320 8 111671498.322 8      -909.977          49.000    21250378.102 8  87016747.114 8      -709.073          49.000
R15  19790462.367 8 105754211.285 8     -2207.684          51.000    19790464.461 8  82253277.623 8     -1717.087          50.000
R17  19957890.625 6 106798779.040 6     -2436.367          36.000    19957894.773 4  83065701.263 4     -1894.949          29.000
R18  19474107.953 8 103954226.367 8      1299.918          51.000    19474110.547 8  80853260.573 8      1011.047          49.000
C05  39641677.508 6 206424616.996 6        23.324          36.000    39641675.984 6 159620598.202 6        17.710          38.000
C27  22129372.453 8 115233420.408 8     -1608.082          51.000
C30  21998133.156 8 114550156.909 8      1361.453          51.000
E02  25336922.484 8 133146395.072 8     -2287.234          51.000    25336926.016 8 102021295.521 8     -1752.499          49.000
E15  25210347.805 8 132481253.835 8      2610.223          51.000    25210349.781 8 101511685.369 8      2000.059          50.000
E30  22058538.305 8 115918407.804 8        14.387          51.000    22058541.531 8  88820602.088 8        11.018          51.000
> 2020 05 16 12 03 30.0000000  0 14        .000000000000
G18  21240057.195 7 111617294.542 7      2399.996          47.000    21240060.141 7  86974537.477 7      1870.127          47.000
G21  21430934.859 8 112620385.189 8      2091.453          51.000    21430934.484 7  87756163.801 7      1629.704          47.000
G25  22394565.133 6 117684214.942 6     -2808.273          39.000    22394567.922 6  91701976.788 6     -2188.268          40.000
G29  20808382.828 8 109348794.788 8     -1582.758          51.000    20808381.953 8  85206858.962 8     -1233.318          51.000
G31  21255631.656 8 111699098.535 8      -929.707          49.000    21255629.703 8  87038253.772 8      -724.447          49.000
R15  19802917.883 8 105820769.317 8     -2229.375          51.000    19802920.406 8  82305044.977 8     -1733.958          50.000
R17  19971595.781 6 106872119.625 6     -2452.191          40.000    19971599.625 5  83122743.946 5     -1907.263          30.000
R18  19466863.938 8 103915561.602 8      1277.965          50.000    19466867.836 8  80823188.010 8       993.973          49.000
C05  39641548.562 6 206423945.244 6        21.902          36.000    39641547.102 6 159620079.114 6        16.988          38.000
C27  22138666.992 8 115281820.480 8     -1618.457          51.000
C30  21990325.164 8 114509498.357 8      1349.277          51.000
E02  25350002.750 8 133215134.731 8     -2295.289          50.000    25350005.797 8 102073966.151 8     -1758.779          49.000
E15  25195470.945 8 132403074.046 8      2601.820          50.000    25195472.547 8 101451781.422 8      1993.624          50.000
E30  22058489.758 8 115918153.040 8         2.781          51.000    22058493.203 8  88820406.877 8         2.095          51.000
> 2020 05 16 12 04  0.0000000  0 14        .000000000000
G18  21226399.406 8 111545523.197 8      2384.656          48.000    21226402.500 7  86918611.778 7      1858.174          47.000
G21  21419036.781 8 112557859.671 8      2076.812          51.000    21419036.414 7  87707442.638 7      1618.295          46.000
G25  22410619.055 6 117768583.210 6     -2816.246          37.000    22410622.750 6  91767718.319 6     -2194.477          36.000
G29  20817446.375 8 109396423.761 8     -1592.543          51.000    20817445.453 8  85243972.444 8     -1240.943          51.000
G31  21260992.750 8 111727270.955 8      -948.406          49.000    21260990.164 8  87060206.303 8      -739.018          49.000
R15  19815491.969 8 105887960.785 8     -2250.141          51.000    19815494.672 8  82357305.001 8     -1750.109          50.000
R17  19985385.938 6 106945908.792 6     -2466.766          36.000    19985388.336 5  83180135.476 5     -1918.592          30.000
R18  19459740.070 8 103877535.638 8      1257.129          50.000    19459744.742 8  80793612.283 8       977.767          49.000
C05  39641422.234 5 206423287.758 5        21.777          35.000    39641420.773 6 159619570.307 6        16.879          38.000
C27  22148017.281 8 115330509.991 8     -1627.660          51.000
C30  21982583.094 8 114469185.659 8      1338.180          51.000
E02  25363126.055 8 133284099.261 8     -2302.355          51.000    25363128.164 8 102126809.067 8     -1764.148          48.000
E15  25180637.938 8 132325127.904 8      2594.523          48.000    25180640.156 8 101392056.498 8      1987.961          51.000
E30  22058504.016 8 115918227.891 8        -7.816          51.000    22058507.289 8  88820464.225 8        -5.986          51.000
> 2020 05 16 12 04 30.0000000  0 15        .000000000000
G18  21212826.258 8 111474195.344 8      2367.395          48.000    21212828.609 7  86863031.648 7      1844.723          46.000
G21  21407219.383 8 112495758.597 8      2060.199          51.000    21407218.758 7  87659052.215 7      1605.353          46.000
G25  22426716.867 6 117853181.147 6     -2826.555          37.000    22426722.305 6  91833638.821 6     -2202.510          37.000
G26  21737834.461 5 114233090.545 5      2451.844          33.000
G29  20826563.086 8 109444332.578 8     -1604.430          51.000    20826562.352 8  85281303.989 8     -1250.205          51.000
G31  21266457.164 8 111755986.667 8      -968.980          49.000    21266454.211 8  87082582.177 8      -755.050          49.000
R15  19828179.055 8 105955756.102 8     -2272.652          51.000    19828181.859 8  82410034.671 8     -1767.622          49.000
R17  19999252.188 6 107020115.177 6     -2483.160          39.000    19999255.555 5  83237851.545 5     -1931.350          30.000
R18  19452730.656 8 103840119.976 8      1234.266          49.000    19452735.961 8  80764511.222 8       959.984          49.000
C05  39641293.125 6 206422615.492 6        20.398          36.000    39641291.742 6 159619050.495 6        15.453          38.000
C27  22157417.719 8 115379459.946 8     -1638.703          51.000
C30  21974902.539 8 114429191.328 8      1325.102          51.000
E02  25376287.344 8 133353260.354 8     -2311.461          51.000    25376288.672 8 102179802.595 8     -1771.113          48.000
E15  25165843.180 7 132247388.668 7      2585.039          46.000    25165847.438 8 101332490.070 8      1980.714          51.000
E30  22058575.930 8 115918605.306 8       -20.445          51.000    22058578.844 8  88820753.421 8       -15.663          51.000
> 2020 05 16 12 05  0.0000000  0 14        .000000000000
G18  21199345.203 8 111403351.656 8      2353.445          48.000    21199346.648 7  86807828.789 7      1833.857          45.000
G21  21395490.180 8 112434122.260 8      2046.742          51.000    21395488.641 7  87611023.927 7      1594.867          43.000
G25  22442866.203 6 117938046.578 6     -2833.371          38.000    22442872.016 6  91899767.768 6     -2207.822          39.000
G29  20835740.250 8 109492559.088 8     -1612.730          51.000    20835739.719 8  85318883.068 8     -1256.673          51.000
G31  21272032.211 8 111785283.837 8      -986.160          49.000    21272029.438 8  87105411.130 8      -768.436          49.000
R15  19840985.867 8 106024192.955 8     -2291.793          51.000    19840989.094 8  82463263.264 8     -1782.509          49.000
R17  20013205.172 6 107094775.046 6     -2495.918          38.000    20013208.227 5  83295920.273 5     -1941.270          32.000
R18  19445843.094 8 103803354.380 8      1214.836          49.000    19445848.586 8  80735915.751 8       944.872          49.000
C05  39641168.672 6 206421966.387 6        20.852          36.000    39641167.219 6 159618549.299 6        16.544          38.000
C27  22166875.070 8 115428707.147 8     -1646.473          51.000
C30  21967290.484 8 114389553.723 8      1315.430          51.000
E02  25389493.602 8 133422656.187 8     -2316.996          51.000    25389494.523 8 102232975.968 8     -1775.385          49.000
E15  25151095.422 7 132169895.960 7      2579.047          47.000    25151101.664 8 101273112.548 8      1976.207          51.000
E30  22058712.969 8 115919324.666 8       -29.613          51.000    22058715.648 8  88821304.625 8       -22.646          51.000
> 2020 05 16 12 05 30.0000000  0 14        .000000000000
G18  21185948.516 7 111332951.583 7      2339.129          47.000    21185949.219 7  86752971.617 7      1822.701          45.000
G21  21383841.492 8 112372909.293 8      2033.301          51.000    21383838.852 7  87563325.563 7      1584.393          44.000
G25  22459058.758 6 118023136.094 6     -2840.023          38.000    22459063.422 6  91966071.300 6     -2213.005          38.000
G29  20844969.484 8 109541059.008 8     -1621.223          51.000    20844968.992 8  85356675.193 8     -1263.290          51.000
G31  21277709.578 8 111815118.605 8     -1003.562          49.000    21277707.203 8  87128658.984 8      -781.997          49.000
R15  19853904.586 8 106093226.760 8     -2311.195          51.000    19853907.508 8  82516956.172 8     -1797.596          48.000
R17  20027233.266 6 107169841.451 6     -2509.367          38.000    20027234.734 4  83354305.241 4     -1951.733          29.000
R18  19439069.789 8 103767195.283 8      1195.195          51.000    19439074.453 8  80707792.006 8       929.596          48.000
C05  39641040.781 6 206421301.261 6        22.402          36.000    39641039.273 6 159618034.226 6        17.501          38.000
C27  22176381.117 8 115478207.968 8     -1654.340          51.000
C30  21959738.281 8 114350230.727 8      1305.500          50.000
E02  25402736.594 8 133492243.728 8     -2322.734          51.000    25402737.609 8 102286296.231 8     -1779.811          50.000
E15  25136387.672 8 132092608.206 8      2572.820          48.000    25136394.742 8 101213892.101 8      1971.400          51.000
E30  22058907.078 8 115920344.171 8       -39.051          51.000    22058909.773 8  88822085.804 8       -29.886          51.000
> 2020 05 16 12 06  0.0000000  0 14        .000000000000
G18  21172640.914 7 111263018.998 7      2323.273          46.000    21172641.148 7  86698478.722 7      1810.343          46.000
G21  21372277.977 8 112312142.757 8      2018.250          51.000    21372274.711 7  87515975.087 7      1572.665          43.000
G25  22475297.898 6 118108470.703 6     -2848.578          37.000    22475300.258 6  92032565.774 6     -2219.674          37.000
G29  20854254.625 8 109589852.739 8     -1631.320          51.000    20854254.102 8  85394696.266 8     -1271.159          51.000
G31  21283493.195 8 111845511.744 8     -1022.414          49.000    21283491.258 8  87152341.941 8      -796.686          49.000
R15  19866938.570 8 106162877.858 8     -2331.949          50.000    19866941.281 8  82571129.222 8     -1813.738          48.000
R17  20041342.031 6 107245333.701 6     -2523.543          38.000    20041341.656 5  83413021.355 5     -1962.759          33.000
R18  19432414.305 8 103731664.722 8      1173.859          51.000    19432417.789 8  80680157.150 8       913.002          48.000
C05  39640913.695 6 206420638.785 6        21.840          36.000    39640912.094 6 159617521.935 6        17.151          38.000
C27  22185939.953 8 115527982.598 8     -1663.691          51.000
C30  21952250.695 8 114311244.007 8      1293.871          51.000
E02  25416020.094 8 133562044.273 8     -2330.125          51.000    25416021.086 8 102339779.720 8     -1785.453          51.000
E15  25121723.883 8 132015548.296 8      2564.926          49.000    25121731.141 8 101154846.230 8      1965.342          51.000
E30  22059162.508 8 115921686.343 8       -50.062          51.000    22059165.352 8  88823114.219 8       -38.300          51.000
> 2020 05 16 12 06 30.0000000  0 14        .000000000000
G18  21159424.023 8 111193562.288 8      2307.137          49.000    21159424.141 7  86644356.660 7      1797.769          46.000
G21  21360801.188 8 112251830.597 8      2002.602          51.000    21360798.008 7  87468978.649 7      1560.469          45.000
G25  22491584.180 6 118194055.958 6     -2857.059          39.000    22491584.938 6  92099255.488 6     -2226.279          39.000
G29  20863596.750 8 109638945.480 8     -1641.605          51.000    20863596.133 8  85432950.326 8     -1279.176          51.000
G31  21289384.109 8 111876468.681 8     -1041.504          49.000    21289382.398 8  87176464.219 8      -811.561          49.000
R15  19880088.320 7 106233151.440 7     -2352.883          47.000    19880091.969 8  82625786.483 8     -1830.017          49.000
R17  20055530.281 5 107321254.665 5     -2537.820          35.000    20055531.523 5  83472071.106 5     -1973.854          32.000
R18  19425877.602 8 103696769.154 8      1152.504          51.000    19425880.844 8  80653016.157 8       896.392          48.000
C05  39640788.398 6 206419986.349 6        21.176          36.000    39640786.750 6 159617017.448 6        16.184          38.000
C27  22195552.344 8 115578035.954 8     -1673.207          51.000
C30  21944829.484 8 114272599.931 8      1282.332          51.000
E02  25429344.914 8 133632063.746 8     -2337.855          51.000    25429346.133 8 102393430.957 8     -1791.278          51.000
E15  25107105.227 8 131938723.673 8      2556.703          50.000    25107112.234 8 101095980.640 8      1959.044          51.000
E30  22059480.836 8 115923358.355 8       -61.469          51.000    22059483.602 8  88824395.370 8       -47.067          51.000
> 2020 05 16 12 07  0.0000000  0 14        .000000000000
G18  21146297.422 8 111124579.697 8      2291.797          50.000    21146297.438 7  86590604.012 7      1785.816          47.000
G21  21349410.477 8 112191970.529 8      1988.090          51.000    21349407.805 7  87422334.470 7      1549.161          46.000
G25  22507917.883 6 118279886.945 6     -2864.621          41.000    22507918.273 6  92166136.770 6     -2232.172          41.000
G29  20872994.781 8 109688331.793 8     -1650.711          51.000    20872993.930 8  85471433.146 8     -1286.268          51.000
G31  21295381.211 8 111907984.735 8     -1059.484          49.000    21295379.477 8  87201022.180 8      -825.572          49.000
R15  19893353.875 8 106304042.052 8     -2372.867          50.000    19893358.141 8  82680923.688 8     -1845.563          48.000
R17  20069795.719 6 107397597.618 6     -2551.211          40.000    20069796.711 5  83531448.928 5     -1984.278          30.000
R18  19419458.844 8 103662504.607 8      1132.020          51.000    19419462.227 8  80626365.950 8       880.460          48.000
C05  39640664.273 6 206419340.170 6        21.672          36.000    39640662.594 6 159616517.768 6        16.900          38.000
C27  22205217.109 8 115628362.721 8     -1681.762          51.000
C30  21937473.695 8 114234294.722 8      1271.520          51.000
E02  25442710.188 8 133702297.718 8     -2344.285          51.000    25442712.047 8 102447246.579 8     -1796.327          51.000
E15  25092531.188 8 131862131.459 8      2549.539          50.000    25092537.336 8 101037293.122 8      1953.549          51.000
E30  22059861.359 8 115925356.995 8       -71.688          51.000    22059863.930 8  88825926.789 8       -54.941          51.000
> 2020 05 16 12 07 30.0000000  0 14        .000000000000
G18  21133259.867 8 111056065.019 8      2276.148          51.000    21133259.578 7  86537215.959 7      1773.622          47.000
G21  21338104.062 8 112132555.219 8      1973.219          51.000    21338101.984 7  87376036.838 7      1537.576          46.000
G25  22524296.336 6 118365954.930 6     -2872.922          39.000    22524297.320 6  92233202.646 6     -2238.643          39.000
G29  20882446.820 8 109738002.360 8     -1660.195          51.000    20882445.750 8  85510137.471 8     -1293.659          51.000
G31  21301482.906 8 111940050.461 8     -1077.770          50.000    21301481.320 8  87226008.436 8      -839.823          50.000
R15  19906733.719 8 106375539.924 8     -2393.141          51.000    19906737.898 7  82736533.106 7     -1861.335          46.000
R17  20084141.273 5 107474350.976 5     -2565.293          33.000    20084139.281 5  83591145.885 5     -1995.228          33.000
R18  19413156.594 8 103628862.714 8      1111.227          50.000    19413159.266 7  80600200.067 7       864.287          47.000
C05  39640539.875 6 206418692.204 6        21.727          36.000    39640538.203 6 159616016.712 6        16.936          38.000
C27  22214932.617 8 115678953.389 8     -1690.574          51.000
C30  21930181.305 8 114196320.376 8      1260.492          51.000
E02  25456113.797 8 133772737.587 8     -2351.156          48.000    25456117.062 8 102501219.978 8     -1801.562          51.000
E15  25078000.227 8 131785764.496 8      2542.090          51.000    25078005.109 8 100978778.201 8      1947.757          51.000
E30  22060302.477 8 115927674.905 8       -82.363          51.000    22060304.977 8  88827702.850 8       -63.101          51.000
> 2020 05 16 12 08  0.0000000  0 15        .000000000000
G18  21120312.266 8 110988022.753 8      2259.430          51.000    21120311.445 7  86484196.006 7      1760.595          47.000
G21  21326882.586 8 112073588.774 8      1957.332          49.000    21326881.172 7  87330088.949 7      1525.191          46.000
G25  22540720.047 6 118452261.313 6     -2881.938          39.000    22540721.617 6  92300454.355 6     -2245.669          40.000
G29  20891953.070 8 109787958.131 8     -1670.641          51.000    20891951.922 8  85549064.032 8     -1301.798          51.000
G31  21307689.633 8 111972667.599 8     -1097.207          49.000    21307688.492 8  87251424.365 8      -854.967          49.000
R15  19920227.734 8 106447645.749 8     -2414.367          51.000    19920230.656 7  82792615.364 7     -1877.841          43.000
R17  20098560.094 6 107551513.752 6     -2579.582          36.000    20098559.758 5  83651161.558 5     -2006.342          34.000
R18  19406971.305 8 103595846.066 8      1089.367          50.000    19406973.438 7  80574520.488 7       847.286          47.000
C05  39640415.547 5 206418045.100 5        20.777          35.000    39640413.953 6 159615516.332 6        15.946          38.000
C27  22224699.000 8 115729809.044 8     -1700.344          51.000
C30  21922952.875 8 114158679.377 8      1248.430          51.000
E02  25469555.695 7 133843385.365 7     -2359.078          45.000    25469561.398 8 102555352.686 8     -1807.596          51.000
E15  25063512.750 8 131709626.342 8      2533.398          51.000    25063516.328 8 100920438.601 8      1941.166          51.000
E30  22060804.852 8 115930315.316 8       -94.105          51.000    22060807.289 8  88829726.013 8       -72.125          51.000
E36  25610974.875 6 134586583.788 6     -2392.934          37.000    25610978.461 5 103124793.814 5     -1833.427          33.000
> 2020 05 16 12 08 30.0000000  0 15        .000000000000
G18  21107457.102 8 110920466.296 8      2244.121          51.000    21107455.898 7  86431554.614 7      1748.669          47.000
G21  21315748.867 8 112015084.115 8      1942.840          49.000    21315747.961 7  87284500.867 7      1513.901          46.000
G25  22557191.086 6 118538816.709 6     -2889.141          38.000    22557193.219 6  92367900.073 6     -2251.278          37.000
G29  20901515.484 8 109838209.279 8     -1679.602          51.000    20901514.508 8  85588220.759 8     -1308.780          51.000
G31  21314003.289 8 112005846.576 8     -1114.949          50.000    21314002.852 8  87277278.088 8      -868.792          50.000
R15  19933837.789 8 106520369.690 8     -2434.074          51.000    19933839.141 7  82849178.317 7     -1893.175          42.000
R17  20113057.984 6 107629094.776 6     -2593.016          39.000    20113057.094 5  83711502.342 5     -2016.793          34.000
R18  19400904.812 8 103563465.854 8      1069.070          49.000    19400907.766 8  80549335.899 8       831.499          48.000
C05  39640293.531 6 206417410.145 6        20.969          36.000    39640292.086 6 159615025.328 6        16.532          38.000
C27  22234518.141 8 115780939.533 8     -1708.621          51.000
C30  21915790.812 8 114121383.070 8      1237.828          51.000
E02  25483039.133 7 133914251.984 7     -2365.500          44.000    25483047.266 8 102609653.063 8     -1812.532          51.000
E15  25049070.734 8 131633729.386 8      2526.262          50.000    25049073.266 8 100862283.838 8      1935.671          51.000
E30  22061370.977 8 115933290.359 8      -104.367          51.000    22061373.219 8  88832005.571 8       -79.952          51.000
E36  25624647.922 6 134658450.165 6     -2398.129          37.000    25624657.234 5 103179872.270 5     -1837.713          32.000
> 2020 05 16 12 09  0.0000000  0 15        .000000000000
G18  21094691.078 8 110853379.253 8      2227.965          51.000    21094689.414 7  86379279.026 7      1736.077          46.000
G21  21304700.234 8 111957024.251 8      1927.426          50.000    21304699.336 7  87239259.409 7      1501.890          46.000
G25  22573705.555 6 118625601.934 6     -2897.168          38.000    22573707.391 6  92435524.913 6     -2257.533          38.000
G29  20911130.414 8 109888736.376 8     -1689.363          51.000    20911129.648 8  85627592.515 8     -1316.384          51.000
G31  21320420.328 8 112039567.782 8     -1133.500          50.000    21320420.906 8  87303554.352 8      -883.247          50.000
R15  19947559.281 8 106593691.324 8     -2454.578          51.000    19947560.328 7  82906206.185 7     -1909.116          45.000
R17  20127628.703 6 107707071.958 6     -2606.305          37.000    20127627.898 5  83772151.270 5     -2027.123          34.000
R18  19394954.430 8 103531703.412 8      1047.961          49.000    19394957.914 8  80524631.782 8       815.081          49.000
C05  39640170.438 6 206416769.288 6        20.793          36.000    39640169.086 6 159614529.787 6        16.030          38.000
C27  22244386.258 8 115832325.309 8     -1717.605          51.000
C30  21908691.375 8 114084413.378 8      1226.379          51.000
E02  25496561.719 7 133985318.636 7     -2372.578          45.000    25496571.297 8 102664106.701 8     -1818.003          51.000
E15  25034670.727 8 131558056.373 8      2518.309          48.000    25034672.594 8 100804300.659 8      1929.604          50.000
E30  22061997.492 8 115936582.426 8      -115.516          51.000    22061999.562 8  88834528.052 8       -88.428          51.000
E36  25638353.797 6 134730486.111 6     -2404.727          37.000    25638369.289 5 103235073.605 5     -1842.502          32.000
> 2020 05 16 12 09 30.0000000  0 15        .000000000000
G18  21082017.164 8 110786776.533 8      2212.621          51.000    21082014.695 7  86327380.835 7      1724.123          47.000
G21  21293739.367 8 111899423.238 8      1913.020          50.000    21293738.352 7  87194375.534 7      1490.668          46.000
G25  22590266.164 6 118712629.088 6     -2904.594          38.000    22590267.211 6  92503338.272 6     -2263.323          38.000
G29  20920799.977 8 109939550.775 8     -1697.992          51.000    20920799.383 8  85667188.149 8     -1323.111          51.000
G31  21326942.648 8 112073842.704 8     -1151.035          49.000    21326943.992 8  87330262.082 8      -896.911          49.000
R15  19961394.320 8 106667622.011 8     -2473.941          50.000    19961396.391 8  82963707.827 8     -1924.180          49.000
R17  20142275.758 6 107785455.503 6     -2618.891          40.000    20142277.500 6  83833116.208 6     -2036.915          37.000
R18  19389122.383 8 103500571.526 8      1027.844          49.000    19389126.258 8  80500418.081 8       799.434          49.000
C05  39640048.766 6 206416135.347 6        21.641          36.000    39640047.320 6 159614039.580 6        16.770          38.000
C27  22254305.492 8 115883977.724 8     -1725.602          51.000
C30  21901656.789 8 114047783.081 8      1215.879          51.000
E02  25510125.648 7 134056597.721 7     -2378.941          47.000    25510135.141 8 102718723.138 8     -1822.789          51.000
E15  25020314.828 7 131482621.226 7      2511.195          46.000    25020316.688 8 100746499.726 8      1924.121          49.000
E30  22062686.867 8 115940205.126 8      -125.645          51.000    22062688.836 8  88837303.882 8       -96.273          51.000
E36  25652095.039 6 134802702.887 6     -2409.465          39.000
> 2020 05 16 12 10  0.0000000  0 16        .000000000000
G18  21069433.906 8 110720650.710 8      2196.605          51.000    21069430.922 7  86275854.252 7      1711.644          47.000
G21  21282864.297 8 111842273.028 8      1897.727          51.000    21282862.938 7  87149842.951 7      1478.751          45.000
G25  22606871.305 7 118799887.810 7     -2912.059          42.000    22606871.945 7  92571332.020 7     -2269.137          42.000
G29  20930522.156 8 109990641.706 8     -1707.281          51.000    20930521.688 8  85706999.253 8     -1330.349          51.000
G31  21333568.359 8 112108661.392 8     -1169.273          49.000    21333569.344 8  87357393.512 8      -911.122          49.000
R15  19975341.164 8 106742150.884 8     -2493.871          51.000    19975344.398 8  83021674.746 8     -1939.678          50.000
R17  20156998.375 5 107864232.447 5     -2631.844          35.000    20156999.844 6  83894387.187 6     -2046.984          36.000
R18  19383406.164 8 103470060.503 8      1006.957          48.000    19383410.719 8  80476687.281 8       783.186          48.000
C05  39639926.570 6 206415499.229 6        21.934          36.000    39639925.164 6 159613547.699 6        16.525          38.000
C27  22264273.953 8 115935886.083 8     -1734.203          51.000
C29  25812597.078 6 134412964.705 6      2942.801          37.000
C30  21894685.445 8 114011482.886 8      1204.902          51.000
E02  25523728.859 8 134128079.300 8     -2385.836          49.000    25523737.453 8 102773494.733 8     -1828.039          51.000
E15  25006001.633 7 131407415.565 7      2503.234          45.000    25006004.008 8 100688874.622 8      1918.212          48.000
E30  22063437.477 8 115944149.821 8      -136.566          51.000    22063439.500 8  88840326.416 8      -104.612          51.000
E36  25665869.422 6 134875089.687 6     -2415.496          39.000
> 2020 05 16 12 10 30.0000000  0 16        .000000000000
G18  21056943.469 8 110655013.257 8      2179.438          51.000    21056940.812 7  86224708.244 7      1698.266          47.000
G21  21272076.945 8 111785584.610 8      1881.648          51.000    21272075.125 7  87105670.204 7      1466.223          43.000
G25  22623522.086 6 118887386.933 6     -2920.852          41.000    22623522.508 6  92639513.108 6     -2275.988          41.000
G29  20940298.562 8 110042017.665 8     -1717.535          51.000    20940298.211 8  85747032.472 8     -1338.339          51.000
G31  21340299.102 8 112144032.314 8     -1188.480          48.000    21340298.930 8  87384955.260 8      -926.092          48.000
R15  19989401.844 8 106817285.727 8     -2514.852          51.000    19989405.414 8  83080112.986 8     -1955.996          50.000
R17  20171793.719 6 107943409.521 6     -2646.316          37.000    20171795.031 5  83955969.336 5     -2058.252          35.000
R18  19377808.688 8 103440179.808 8       985.285          51.000    19377812.805 8  80453446.744 8       766.333          49.000
C05  39639805.789 6 206414870.918 6        20.707          36.000    39639804.445 6 159613061.432 6        15.825          38.000
C27  22274293.117 8 115988058.454 8     -1743.742          51.000
C29  25795660.375 6 134324762.901 6      2937.641          37.000
C30  21887779.703 8 113975522.338 8      1192.766          51.000
E02  25537372.484 8 134199772.500 8     -2393.633          51.000    25537379.852 8 102828428.477 8     -1834.031          51.000
E15  24991734.570 7 131332449.938 7      2494.535          47.000    24991737.055 8 100631433.458 8      1911.367          48.000
E30  22064251.258 8 115948426.794 8      -148.414          51.000    22064253.289 8  88843603.569 8      -113.729          51.000
E36  25679678.359 6 134947654.547 6     -2421.945          38.000
> 2020 05 16 12 11  0.0000000  0 16        .000000000000
G18  21044537.102 8 110589818.276 8      2163.676          51.000    21044535.008 8  86173906.992 8      1685.981          48.000
G21  21261368.422 8 111729311.232 8      1866.867          51.000    21261366.508 7  87061820.855 7      1454.702          44.000
G25  22640209.109 6 118975077.661 6     -2928.633          41.000    22640209.594 6  92707843.517 6     -2282.052          41.000
G29  20950119.953 8 110093629.298 8     -1726.391          51.000    20950119.516 8  85787249.333 8     -1345.239          51.000
G31  21347125.586 8 112179906.168 8     -1206.262          49.000    21347124.188 8  87412908.873 8      -939.944          49.000
R15  20003566.531 8 106892976.147 8     -2534.414          51.000    20003569.875 8  83138983.305 8     -1971.211          49.000
R17  20186655.062 5 108022934.772 5     -2659.219          35.000    20186656.617 6  84017822.284 6     -2068.284          36.000
R18  19372320.648 8 103410880.701 8       964.832          51.000    19372324.422 8  80430658.559 8       750.425          50.000
C05  39639677.305 6 206414201.497 6        20.676          36.000    39639676.070 6 159612544.138 6        16.196          38.000
C27  22284353.508 8 116040445.942 8     -1751.910          51.000
C29  25778737.805 6 134236636.357 6      2934.105          39.000
C30  21880930.148 8 113939853.961 8      1182.004          51.000
E02  25551047.211 8 134271628.905 8     -2399.973          50.000    25551053.609 8 102883487.258 8     -1838.973          51.000
E15  24977505.078 8 131257677.432 8      2487.059          48.000    24977507.609 8 100574140.256 8      1905.683          48.000
E30  22065119.391 8 115952988.842 8      -158.922          51.000    22065121.250 8  88847099.151 8      -121.777          51.000
E36  25693511.906 6 135020348.097 6     -2427.176          38.000
> 2020 05 16 12 11 30.0000000  0 16        .000000000000
G18  21032230.828 8 110525149.430 8      2148.004          51.000    21032229.453 8  86123515.698 8      1673.769          49.000
G21  21250754.664 8 111673536.167 8      1851.945          51.000    21250753.336 7  87018359.797 7      1443.074          45.000
G25  22656947.633 6 119063040.883 6     -2935.488          40.000    22656948.266 6  92776386.300 6     -2287.390          41.000
G29  20960001.594 8 110145557.182 8     -1734.969          51.000    20960000.945 8  85827712.602 8     -1351.924          51.000
G31  21354063.344 8 112216363.695 8     -1223.688          50.000    21354061.727 8  87441317.305 8      -953.526          50.000
R15  20017850.305 8 106969303.629 8     -2553.578          51.000    20017852.797 7  83198349.079 7     -1986.116          46.000
R17  20201595.359 5 108102888.228 5     -2670.699          34.000    20201599.836 5  84080008.391 5     -2077.207          35.000
R18  19366956.609 8 103382245.861 8       944.684          51.000    19366960.383 8  80408387.020 8       734.751          50.000
C05  39639556.641 5 206413572.766 5        21.125          35.000    39639555.516 6 159612058.747 6        16.680          38.000
C27  22294470.594 8 116093128.339 8     -1759.766          51.000
C29  25761843.984 6 134148667.011 6      2930.926          38.000
C30  21874151.562 8 113904558.915 8      1171.430          51.000
E02  25564768.414 8 134343729.893 8     -2406.254          51.000    25564773.500 8 102938733.403 8     -1843.786          49.000
E15  24963328.859 8 131183180.964 8      2479.820          48.000    24963331.734 8 100517058.561 8      1900.050          49.000
E30  22066057.625 8 115957918.565 8      -169.316          51.000    22066059.422 8  88850876.462 8      -129.718          51.000
E36  25707384.344 5 135093217.765 5     -2432.316          34.000
> 2020 05 16 12 12  0.0000000  0 16        .000000000000
G18  21020013.953 8 110460950.707 8      2129.668          51.000    21020013.344 8  86073490.731 8      1659.482          49.000
G21  21240225.008 8 111618202.593 8      1834.785          51.000    21240224.336 7  86975242.738 7      1429.703          46.000
G25  22673726.547 6 119151217.931 6     -2945.430          40.000    22673727.938 6  92845095.658 6     -2295.140          40.000
G29  20969932.266 8 110197742.474 8     -1746.195          51.000    20969931.367 8  85868376.451 8     -1360.675          51.000
G31  21361101.000 8 112253345.620 8     -1243.805          50.000    21361100.266 8  87470134.367 8      -969.198          50.000
R15  20032242.008 8 107046207.556 8     -2575.484          51.000    20032243.492 7  83258163.180 7     -2003.158          46.000
R17  20216604.969 6 108183207.875 6     -2685.668          37.000    20216609.656 5  84142479.226 5     -2088.853          31.000
R18  19361705.820 8 103354216.300 8       921.777          51.000    19361709.297 8  80386586.234 8       716.938          50.000
C05  39639432.680 5 206412927.904 5        19.617          35.000    39639431.750 6 159611560.892 6        14.991          38.000
C27  22304633.078 8 116146046.836 8     -1770.293          51.000
C29  25744967.180 5 134060798.297 5      2924.586          34.000
C30  21867433.516 8 113869579.768 8      1158.293          51.000
E02  25578525.203 8 134416016.958 8     -2415.059          51.000    25578527.648 7 102994122.141 7     -1850.559          47.000
E15  24949194.859 8 131108903.531 8      2469.867          49.000    24949198.234 8 100460144.702 8      1892.481          50.000
E30  22067054.906 8 115963158.701 8      -182.277          51.000    22067056.906 8  88854891.626 8      -139.679          51.000
E36  25721285.281 5 135166260.046 5     -2439.766          34.000
> 2020 05 16 12 12 30.0000000  0 16        .000000000000
G18  21007900.195 8 110397293.514 8      2114.609          51.000    21007900.039 8  86023887.733 8      1647.748          49.000
G21  21229792.891 8 111563381.371 8      1820.590          51.000    21229792.375 7  86932524.922 7      1418.641          47.000
G25  22690559.445 6 119239677.351 6     -2951.688          40.000    22690560.992 6  92914025.038 6     -2300.016          40.000
G29  20979924.758 8 110250253.128 8     -1753.957          51.000    20979923.820 8  85909293.836 8     -1366.720          51.000
G31  21368251.484 8 112290920.383 8     -1260.562          51.000    21368251.852 8  87499413.386 8      -982.256          51.000
R15  20046754.539 8 107123756.787 8     -2593.887          51.000    20046756.008 7  83318479.204 7     -2017.467          47.000
R17  20231696.703 5 108263961.506 5     -2697.125          35.000    20231697.406 5  84205287.406 5     -2097.770          31.000
R18  19356581.336 8 103326862.372 8       902.379          51.000    19356584.930 8  80365310.987 8       701.853          50.000
C05  39639319.133 6 206412335.909 6        20.562          36.000    39639318.117 6 159611103.896 6        15.749          38.000
C27  22314853.672 8 116199268.910 8     -1777.348          51.000
C29  25728121.836 5 133973099.918 5      2922.328          34.000
C30  21860790.133 8 113834985.462 8      1148.371          51.000
E02  25592330.484 8 134488559.125 8     -2420.586          50.000    25592330.016 8 103049706.376 8     -1854.810          48.000
E15  24935116.289 8 131034915.693 8      2463.066          51.000    24935120.102 8 100403452.741 8      1887.312          51.000
E30  22068124.438 8 115968779.543 8      -192.027          51.000    22068126.680 8  88859198.494 8      -147.102          51.000
E36  25735229.875 6 135239530.020 6     -2444.402          36.000
> 2020 05 16 12 13  0.0000000  0 15        .000000000000
G18  20995874.453 8 110334098.256 8      2098.938          51.000    20995874.508 8  85974644.689 8      1635.536          49.000
G21  21219442.914 8 111508992.190 8      1805.961          51.000    21219442.273 7  86890143.743 7      1407.239          47.000
G25  22707430.070 6 119328336.846 6     -2958.770          37.000    22707431.500 6  92983110.289 6     -2305.535          37.000
G29  20989963.352 8 110303006.336 8     -1762.336          51.000    20989962.555 8  85950400.236 8     -1373.249          51.000
G31  21375499.023 8 112329005.270 8     -1277.938          50.000    21375500.016 8  87529089.927 8      -995.795          51.000
R15  20061371.766 8 107201866.657 8     -2612.781          51.000    20061373.977 8  83379231.303 8     -2032.163          49.000
R18  19351568.008 8 103300100.862 8       882.277          51.000    19351571.523 8  80344496.490 8       686.216          50.000
C05  39639200.266 6 206411717.142 6        21.039          36.000    39639199.273 6 159610625.389 6        16.580          38.000
C27  22325116.773 8 116252712.433 8     -1784.938          51.000
C29  25711296.328 6 133885491.943 6      2919.094          37.000
C30  21854205.062 8 113800695.245 8      1138.043          51.000
E02  25606168.289 8 134561274.418 8     -2426.617          49.000    25606166.398 8 103105423.250 8     -1859.371          49.000
E15  24921077.484 8 130961136.958 8      2455.863          51.000    24921081.727 8 100346920.997 8      1881.828          51.000
E30  22069250.961 8 115974700.259 8      -202.227          51.000    22069253.469 8  88863735.145 8      -154.956          51.000
E36  25749200.008 5 135312955.628 5     -2448.570          33.000
> 2020 05 16 12 13 30.0000000  0 15        .000000000000
G18  20983939.117 8 110271378.217 8      2082.254          51.000    20983939.359 8  85925771.935 8      1622.536          49.000
G21  21209177.555 8 111455047.562 8      1790.293          51.000    21209176.867 8  86848108.984 8      1395.033          48.000
G25  22724340.945 6 119417207.027 6     -2966.176          38.000    22724343.789 6  93052359.664 6     -2311.312          38.000
G29  21000050.047 8 110356012.349 8     -1771.465          51.000    21000049.312 8  85991703.615 8     -1380.362          51.000
G31  21382845.375 8 112367610.518 8     -1295.922          50.000    21382846.508 8  87559171.933 8     -1009.812          50.000
R15  20076095.055 8 107280546.889 8     -2632.645          51.000    20076098.492 8  83440427.032 8     -2047.612          51.000
R17  20262075.062 5 108426441.866 5     -2722.141          34.000    20262070.766 5  84331665.705 5     -2117.227          33.000
R18  19346667.469 8 103273942.784 8       861.324          51.000    19346671.359 8  80324151.332 8       669.919          50.000
C05  39639078.234 6 206411080.974 6        21.223          36.000    39639077.320 6 159610134.271 6        15.967          37.000
C27  22335424.383 8 116306387.345 8     -1793.469          51.000
C29  25694492.000 6 133797986.410 6      2914.555          40.000
C30  21847679.953 8 113766720.390 8      1126.820          51.000
E02  25620040.727 8 134634173.705 8     -2433.570          48.000    25620039.039 8 103161281.134 8     -1864.666          50.000
E15  24907080.578 8 130887579.686 8      2447.746          51.000    24907085.133 8 100290558.959 8      1875.468          51.000
E30  22070437.078 8 115980932.968 8      -213.426          51.000    22070439.555 8  88868510.854 8      -163.552          51.000
> 2020 05 16 12 14  0.0000000  0 15        .000000000000
G18  20972098.211 8 110209154.663 8      2065.355          51.000    20972098.516 8  85877286.054 8      1609.371          49.000
G21  21199000.844 8 111401568.062 8      1774.492          51.000    21199000.000 7  86806436.666 7      1382.721          47.000
G25  22741296.805 7 119506306.338 7     -2974.148          43.000    22741300.242 7  93121787.709 7     -2317.515          43.000
G29  21010188.359 8 110409289.382 8     -1780.770          51.000    21010187.391 8  86033218.170 8     -1387.613          51.000
G31  21390294.234 8 112406754.551 8     -1314.156          51.000    21390294.484 8  87589673.763 8     -1024.018          51.000
R15  20090928.453 8 107359815.512 8     -2652.547          50.000    20090933.078 8  83502080.434 8     -2063.092          51.000
R17  20277365.320 4 108508288.837 4     -2733.855          29.000    20277367.148 5  84395311.288 5     -2126.323          35.000
R18  19341883.711 8 103248407.753 8       840.422          51.000    19341887.586 8  80304290.754 8       653.661          49.000
C05  39638956.742 5 206410448.869 5        20.648          35.000    39638956.023 6 159609645.446 6        16.157          38.000
C27  22345779.914 8 116360311.535 8     -1801.973          51.000
C29  25677711.625 7 133710603.439 7      2910.203          42.000
C30  21841219.609 8 113733080.183 8      1115.344          51.000
E02  25633951.125 7 134707275.987 7     -2440.469          47.000    25633951.125 8 103217294.523 8     -1870.005          50.000
E15  24893129.242 8 130814264.387 8      2439.391          50.000    24893133.984 8 100234382.300 8      1869.170          51.000
E30  22071686.406 8 115987497.795 8      -224.723          51.000    22071688.891 8  88873541.048 8      -172.172          51.000
> 2020 05 16 12 14 30.0000000  0 15        .000000000000
G18  20960353.508 8 110147436.863 8      2049.059          50.000    20960354.148 8  85829194.263 8      1596.669          49.000
G21  21188914.531 8 111348562.623 8      1759.145          51.000    21188913.289 8  86765133.749 8      1370.762          48.000
G25  22758297.820 7 119595641.471 7     -2981.441          43.000    22758301.656 7  93191399.483 7     -2323.201          43.000
G29  21020379.398 8 110462843.641 8     -1789.492          51.000    21020378.234 8  86074948.749 8     -1394.409          51.000
G31  21397846.820 8 112446443.320 8     -1331.762          50.000    21397845.477 8  87620600.071 8     -1037.736          50.000
R15  20105873.617 8 107439678.078 8     -2671.719          51.000    20105878.203 8  83564195.798 8     -2078.003          50.000
R17  20292724.461 6 108590496.505 6     -2746.492          37.000    20292732.859 6  84459250.612 6     -2136.164          36.000
R18  19337218.328 8 103223502.809 8       819.961          51.000    19337221.547 8  80284920.273 8       637.750          49.000
C05  39638837.281 6 206409826.260 6        21.141          36.000    39638836.570 6 159609164.784 6        16.124          37.000
C27  22356184.633 8 116414491.021 8     -1809.992          51.000
C29  25660956.188 7 133623351.262 7      2906.398          42.000
C30  21834825.781 8 113699781.988 8      1104.500          51.000
E02  25647901.320 8 134780588.156 8     -2446.867          48.000    25647903.211 8 103273468.711 8     -1874.929          50.000
E15  24879225.172 8 130741199.465 8      2431.613          50.000    24879229.945 8 100178397.483 8      1863.187          51.000
E30  22073000.398 8 115994402.901 8      -235.531          51.000    22073003.047 8  88878831.972 8      -180.457          51.000
> 2020 05 16 12 15  0.0000000  0 15        .000000000000
G18  20948703.891 8 110086219.033 8      2031.785          49.000    20948705.070 8  85781492.072 8      1583.212          49.000
G21  21178917.281 8 111296024.844 8      1742.992          51.000    21178915.656 8  86724195.240 8      1358.176          48.000
G25  22775341.594 7 119685203.921 7     -2989.516          42.000    22775345.312 6  93261188.377 6     -2329.493          41.000
G29  21030621.453 8 110516666.058 8     -1798.945          51.000    21030620.344 8  86116888.283 8     -1401.776          51.000
G31  21405501.234 8 112486668.232 8     -1350.125          50.000    21405498.930 8  87651944.139 8     -1052.045          50.000
R15  20120928.625 8 107520125.080 8     -2691.672          51.000    20120932.648 8  83626765.694 8     -2093.523          49.000
R17  20308156.242 5 108673070.653 5     -2758.945          31.000    20308161.875 5  84523474.881 5     -2145.846          35.000
R18  19332669.281 8 103199219.829 8       798.645          51.000    19332672.102 8  80266033.547 8       621.168          49.000
C05  39638718.562 5 206409208.716 5        20.020          35.000    39638717.727 6 159608686.476 6        15.502          37.000
C27  22366636.758 8 116468916.933 8     -1818.680          51.000
C29  25644224.250 7 133536223.149 7      2901.965          43.000
C30  21828495.945 8 113666818.262 8      1092.766          51.000
E02  25661890.086 8 134854102.115 8     -2454.262          49.000    25661893.344 8 103329797.490 8     -1880.541          49.000
E15  24865367.602 8 130668378.265 8      2422.793          50.000    24865372.016 8 100122599.432 8      1856.471          51.000
E30  22074377.680 8 116001641.353 8      -247.270          51.000    22074380.742 8  88884378.311 8      -189.463          51.000
> 2020 05 16 12 15 30.0000000  0 15        .000000000000
G18  20937148.859 8 110025497.945 8      2015.797          49.000    20937150.602 8  85734176.967 8      1570.754          49.000
G21  21169007.984 8 111243950.437 8      1728.148          51.000    21169006.305 8  86683617.801 8      1346.609          48.000
G25  22792427.055 6 119774987.734 6     -2995.965          41.000    22792430.984 6  93331149.784 6     -2334.518          40.000
G29  21040913.406 8 110570750.277 8     -1806.980          51.000    21040912.492 8  86159031.818 8     -1408.037          51.000
G31  21413256.336 8 112527422.279 8     -1367.090          51.000    21413254.109 8  87683700.526 8     -1065.265          50.000
R15  20136091.297 8 107601149.519 8     -2710.297          51.000    20136095.133 8  83689784.680 8     -2108.009          48.000
R17  20323656.266 6 108755987.755 6     -2769.836          36.000    20323656.141 5  84587981.699 5     -2154.317          35.000
R18  19328235.891 8 103175553.315 8       778.754          51.000    19328238.484 8  80247626.260 8       605.697          50.000
C05  39638599.430 5 206408588.422 5        20.500          35.000    39638598.625 6 159608206.817 6        16.097          37.000
C27  22377134.953 8 116523582.929 8     -1826.027          51.000
