     3.02           OBSERVATION DATA    M (MIXED)           RINEX VERSION / TYPE
SAVERINEX           SC600               20200508 095930 LCL PGM / RUN BY / DATE
       G = GPS       R = GLONASS       C = COMPASS          COMMENT
       S = SBAS      J = QZSS          E = GALILEO          COMMENT
BEAN                                                        MARKER NAME
1                                                           MARKER NUMBER
GEODETIC                                                    MARKER TYPE
Unige DICCA         GTER                                    OBSERVER / AGENCY
SC60291900056       SC600               2.12(191226)        REC # / TYPE / VERS
                    HEMA45          NONE                    ANT # / TYPE
  4509407.8091   693652.4678  4442337.6214                  APPROX POSITION XYZ
        0.0000        0.0000        0.0000                  ANTENNA: DELTA H/E/N
G    8 C1C L1C D1C S1C C2Y L2Y D2Y S2Y                      SYS / # / OBS TYPES
R    8 C1C L1C D1C S1C C2P L2P D2P S2P                      SYS / # / OBS TYPES
C    4 C1I L1I D1I S1I                                      SYS / # / OBS TYPES
E    8 C1C L1C D1C S1C C7Q L7Q D7Q S7Q                      SYS / # / OBS TYPES
DBHZ                                                        COMMENT
     30.000                                                 INTERVAL
  2020    05    08    07    00    0.0000000     GPS         TIME OF FIRST OBS
  2020    05    08    07    59   30.0000000     GPS         TIME OF LAST OBS
     0                                                      RCV CLOCK OFFS APPL
G L1C  0.00000                                              SYS / PHASE SHIFT
G L2Y  0.00000                                              SYS / PHASE SHIFT
R L1C  0.00000                                              SYS / PHASE SHIFT
R L2P  0.25000                                              SYS / PHASE SHIFT
C L1I  0.00000                                              SYS / PHASE SHIFT
E L1C  0.50000                                              SYS / PHASE SHIFT
E L7Q -0.25000                                              SYS / PHASE SHIFT
 12 R01  1 R02 -4 R03  5 R08  6 R10 -5 R11  0 R12 -1 R13 -2 GLONASS SLOT / FRQ #
    R14 -7 R21  4 R22 -3 R23  3                             GLONASS SLOT / FRQ #
 C1C   71.950 C2C   71.950 C2P   71.950                     GLONASS COD/PHS/BIS
    18                                                      LEAP SECONDS
*** Above antenna height is from mark to ANTENNA BOTTOM.    COMMENT
    17     4        0.0000        ANT MEASURE TYPE/HEIGT    COMMENT
    0.0000    0.0000    0.0458    0.0405    0.0000          COMMENT
                    BASE STATION                            COMMENT
                                                            END OF HEADER
> 2020 05 08 07 00  0.0000000  0 18        .000000000000
G12  22287846.281 8 117123417.320 8      3135.105          50.000    22287845.133 8  91264991.551 8      2442.939          50.000
G13  22238334.297 7 116863222.275 7     -3123.246          47.000    22238334.305 7  91062222.759 7     -2433.698          44.000
G15  21078881.898 8 110770259.659 8     -2144.211          51.000    21078881.781 8  86314489.756 8     -1670.814          51.000
G17  22414089.922 6 117786830.551 6      -397.633          36.000    22414087.820 6  91781943.318 6      -309.844          37.000
G19  21912589.320 6 115151419.245 6      1595.266          39.000    21912585.141 4  89728373.192 4      1243.064          27.000
G28  23999102.984 5 126116109.569 5     -3096.789          34.000
R02  21681572.375 7 115696966.116 7     -4132.223          42.000    21681578.953 6  89986566.159 6     -3213.948          38.000
R03  19969058.617 5 106895922.145 5      -769.453          34.000    19969057.992 4  83141278.568 4      -598.464          28.000
R12  20844419.586 4 111347159.092 4     -2414.293          29.000    20844429.273 5  86603361.478 5     -1877.783          34.000
R14  22848015.742 6 121792786.445 6      2980.629          39.000    22848023.953 5  94727714.912 5      2318.273          31.000
R21  23080076.258 5 123506126.964 5     -1505.312          34.000    23080080.539 4  96060354.088 4     -1170.802          28.000
C20  24144471.320 8 125726726.025 8     -2651.066          50.000
C23  25685100.867 5 133749042.191 5     -2600.555          34.000
C27  25861974.086 6 134670088.039 6      3210.832          37.000
E07  27174473.047 6 142802811.105 6     -3124.941          38.000    27174482.547 5 109420369.263 5     -2394.469          35.000
E21  24794365.891 6 130295274.780 6      1631.273          40.000    24794371.578 7  99836656.997 7      1249.898          44.000
E27  23373445.953 8 122828328.772 8      -750.461          51.000    23373448.461 8  94115226.181 8      -575.040          51.000
E30  25539860.977 5 134212874.920 5     -2453.559          33.000    25539866.312 5 102838430.721 5     -1879.856          35.000
> 2020 05 08 07 00 30.0000000  0 18        .000000000000
G12  22269962.766 7 117029438.436 7      3127.750          47.000    22269961.914 8  91191761.250 8      2437.208          48.000
G13  22256177.508 7 116956996.143 7     -3130.777          44.000    22256178.750 7  91135293.316 7     -2439.567          44.000
G15  21091152.219 8 110834739.319 8     -2156.938          51.000    21091152.383 8  86364733.620 8     -1680.734          51.000
G17  22416398.602 5 117798962.667 5      -413.270          35.000    22416398.242 5  91791396.980 5      -322.022          34.000
G19  21903519.789 7 115103761.452 7      1578.914          42.000    21903516.352 4  89691237.367 4      1230.326          29.000
G28  24016773.008 5 126208967.026 5     -3095.496          33.000
R02  21704820.203 6 115821017.714 6     -4140.359          41.000    21704826.875 6  90083050.754 6     -3220.276          36.000
R03  19973432.812 5 106919336.957 5      -794.125          34.000    19973430.969 5  83159486.028 5      -617.653          30.000
R12  20857980.227 6 111419597.298 6     -2417.719          37.000    20857989.516 5  86659702.684 5     -1880.445          31.000
R14  22831241.586 6 121703364.197 6      2978.066          39.000    22831253.312 5  94658164.203 5      2316.271          32.000
R21  23088573.141 5 123551591.641 5     -1527.516          34.000    23088573.898 4  96095696.353 4     -1188.068          28.000
C20  24159756.336 8 125806320.506 8     -2657.648          49.000
C27  25843456.648 6 134573674.436 6      3213.988          38.000
C28  24210190.734 4 126068834.231 4      1801.969          28.000
E07  27192305.492 6 142896521.764 6     -3124.770          39.000    27192315.289 6 109492173.541 6     -2394.406          36.000
E21  24785058.203 6 130246361.749 6      1626.992          41.000    24785063.352 7  99799178.191 7      1246.740          44.000
E27  23377735.383 8 122850869.813 8      -754.809          51.000    23377737.742 8  94132497.886 8      -578.357          51.000
E30  25553857.148 5 134286423.426 5     -2451.324          34.000    25553860.492 5 102894778.364 5     -1878.198          32.000
> 2020 05 08 07 01  0.0000000  0 18        .000000000000
G12  22252147.516 8 116935819.230 8      3114.473          49.000    22252146.805 8  91118811.202 8      2426.862          49.000
G13  22274090.562 7 117051133.396 7     -3144.180          45.000    22274092.219 7  91208646.999 7     -2450.013          44.000
G15  21103521.562 8 110899740.007 8     -2175.484          51.000    21103522.023 8  86415383.463 8     -1695.186          51.000
G17  22418825.594 5 117811714.457 5      -435.312          34.000    22418824.906 5  91801333.340 5      -339.208          34.000
G19  21894571.172 6 115056737.719 6      1556.645          39.000    21894566.867 5  89654595.579 5      1212.979          33.000
G24  20612341.367 5 108318584.025 5      1370.297          30.000
G28  24034464.375 4 126301962.790 4     -3100.270          28.000
R02  21728138.398 6 115945447.593 6     -4154.051          40.000    21728146.023 5  90179829.492 5     -3230.931          34.000
R03  19977970.617 5 106943634.791 5      -825.047          35.000    19977969.242 4  83178383.815 4      -641.697          29.000
R12  20871586.523 5 111492278.347 5     -2426.633          32.000    20871585.625 4  86716232.355 4     -1887.381          27.000
R14  22814510.055 5 121614169.656 5      2969.016          35.000    22814524.711 5  94588790.647 5      2309.234          30.000
C20  24175105.883 8 125886249.686 8     -2669.996          50.000
C27  25824950.273 6 134477308.850 6      3210.840          37.000
C28  24199863.984 4 126015076.381 4      1783.949          29.000
E07  27210163.484 6 142990365.364 6     -3130.590          38.000    27210172.375 6 109564079.655 6     -2398.554          36.000
E21  24775800.992 7 130197710.944 7      1617.348          43.000    24775804.852 7  99761900.299 7      1239.102          42.000
E27  23382075.984 8 122873679.725 8      -764.930          51.000    23382078.234 8  94149975.609 8      -586.115          51.000
E30  25567867.664 5 134360043.106 5     -2455.285          33.000    25567868.539 4 102951211.760 4     -1881.556          29.000
> 2020 05 08 07 01 30.0000000  0 15        .000000000000
G12  22234397.734 8 116842542.322 8      3106.672          49.000    22234396.930 8  91046127.907 8      2420.783          49.000
G13  22292069.719 8 117145613.242 8     -3151.777          48.000    22292070.664 7  91282267.623 7     -2455.930          43.000
G15  21115986.102 8 110965241.104 8     -2188.441          51.000    21115986.312 8  86466423.249 8     -1705.279          51.000
G19  21885739.609 6 115010331.399 6      1540.008          38.000    21885735.898 5  89618434.832 5      1200.015          34.000
R02  21751523.891 6 116070232.847 6     -4162.012          36.000    21751529.242 4  90276884.586 4     -3237.123          29.000
R03  19982668.672 5 106968795.398 5      -849.297          33.000    19982670.172 5  83197949.283 5      -660.561          30.000
R12  20885234.055 5 111565181.440 5     -2430.281          35.000    20885231.031 4  86772898.652 4     -1890.216          28.000
R14  22797818.328 5 121525184.212 5      2965.617          32.000
C20  24190516.148 8 125966492.549 8     -2676.785          51.000
C27  25806449.594 6 134380974.941 6      3213.855          36.000
C28  24189629.570 5 125961738.387 5      1774.488          32.000
E07  27228043.352 6 143084321.513 6     -3130.363          40.000    27228050.586 6 109636072.031 6     -2398.731          37.000
E21  24766590.352 7 130149303.469 7      1612.711          44.000    24766592.531 6  99724808.794 6      1235.884          40.000
E27  23386464.023 8 122896738.775 8      -769.445          51.000    23386466.211 8  94167644.225 8      -589.638          51.000
E30                                                                  25581886.672 4 103007656.766 4     -1879.823          29.000
> 2020 05 08 07 02  0.0000000  0 16        .000000000000
G12  22216699.320 8 116749535.343 8      3101.488          50.000    22216698.609 8  90973654.956 8      2416.744          50.000
G13  22310100.188 8 117240360.228 8     -3157.012          51.000    22310100.547 7  91356096.417 7     -2460.009          44.000
G15  21128531.469 8 111031167.226 8     -2198.863          51.000    21128530.836 8  86517794.219 8     -1713.403          51.000
G17  22424008.391 5 117838954.283 5      -465.645          31.000    22424004.492 5  91822548.125 5      -362.843          33.000
G19  21877012.555 6 114964471.181 6      1525.301          41.000    21877009.711 5  89582699.560 5      1188.546          32.000
R02  21774966.375 5 116195294.035 5     -4167.543          34.000    21774963.250 4  90374154.020 4     -3241.431          29.000
R03  19987515.109 6 106994742.914 6      -872.496          36.000    19987520.828 5  83218130.621 5      -678.614          33.000
R12  20898909.047 5 111638230.066 5     -2431.414          32.000    20898908.023 5  86829716.236 5     -1891.103          30.000
R14  22781151.258 5 121436333.390 5      2965.141          32.000
C20  24205972.125 8 126046973.676 8     -2681.078          50.000
C23  25745071.500 5 134061349.400 5     -2598.973          30.000
C27  25787941.359 5 134284602.070 5      3218.984          35.000
C28  24179460.016 4 125908753.796 4      1766.277          28.000
E07  27245930.625 6 143178314.956 6     -3128.125          40.000    27245936.414 6 109708092.976 6     -2396.719          37.000
E21  24757411.430 7 130101065.494 7      1610.785          42.000    24757413.312 6  99687847.196 6      1234.337          39.000
E27  23390885.062 8 122919972.359 8      -771.652          51.000    23390887.320 8  94185446.572 8      -591.284          51.000
> 2020 05 08 07 02 30.0000000  0 14        .000000000000
G12  22199036.547 8 116656715.882 8      3084.922          49.000    22199035.344 8  90901328.108 8      2403.838          49.000
G13  22328165.266 8 117335288.354 8     -3173.277          51.000    22328165.219 7  91430066.385 7     -2472.684          45.000
G15  21141141.164 8 111097432.217 8     -2220.410          51.000    21141139.867 8  86569429.243 8     -1730.190          51.000
G19  21868374.000 6 114919074.328 6      1499.664          37.000    21868372.586 6  89547325.393 6      1168.575          36.000
R02  21798441.992 6 116320541.297 6     -4184.336          38.000    21798433.695 4  90471568.391 4     -3254.487          29.000
R03  19992494.195 6 107021390.185 6      -905.898          37.000    19992497.750 4  83238856.178 4      -704.588          28.000
R12  20912594.734 5 111711337.116 5     -2443.789          34.000    20912596.812 5  86886577.209 5     -1900.725          31.000
R14  22764483.906 4 121347505.244 4      2952.887          29.000
C20  24221456.602 8 126127607.120 8     -2696.188          50.000
C23  25760056.812 5 134139401.430 5     -2606.062          32.000
C27  25769410.359 6 134188109.009 6      3212.410          36.000
E07  27263808.234 6 143272259.861 6     -3136.516          40.000    27263813.656 6 109780076.714 6     -2403.427          38.000
E21  24748247.750 6 130052912.616 6      1597.609          40.000    24748248.055 6  99650950.894 6      1224.304          37.000
E27  23395322.992 8 122943295.271 8      -784.891          51.000    23395325.250 8  94203317.375 8      -601.389          51.000
> 2020 05 08 07 03  0.0000000  0 16        .000000000000
G12  22181441.531 8 116564253.934 8      3077.738          48.000    22181439.492 8  90829279.838 8      2398.241          48.000
G13  22346296.586 8 117430564.903 8     -3179.941          51.000    22346296.523 7  91504307.838 7     -2477.876          46.000
G15  21153846.836 8 111164203.206 8     -2232.379          49.000    21153845.289 8  86621458.545 8     -1739.519          49.000
G19  21859855.336 6 114874312.277 6      1482.898          36.000    21859855.523 5  89512445.923 5      1155.511          35.000
G28  24105311.953 5 126674268.320 5     -3103.516          32.000
R02  21821980.547 6 116446142.056 6     -4190.965          39.000    21821971.914 5  90569257.831 5     -3259.636          33.000
R03  19997636.961 6 107048908.243 6      -929.793          41.000    19997636.281 5  83260269.135 5      -723.172          30.000
R12  20926324.008 5 111784673.305 5     -2446.863          35.000    20926325.148 4  86943616.531 4     -1903.116          29.000
R14  22747866.273 5 121258925.298 5      2950.855          33.000    22747879.094 5  94312553.635 5      2295.107          30.000
C20  24237001.539 8 126208558.093 8     -2701.941          49.000
C23  25775060.773 5 134217540.288 5     -2604.117          31.000
C27  25750889.484 5 134091665.680 5      3215.992          34.000
C28  24159290.273 5 125803760.641 5      1736.266          31.000
E07  27281708.188 6 143366323.785 6     -3135.566          40.000    27281713.758 6 109852151.646 6     -2402.679          39.000
E21  24739133.148 6 130005013.894 6      1594.113          40.000    24739131.406 6  99614249.337 6      1221.484          39.000
E27  23399810.195 8 122966875.770 8      -788.617          51.000    23399812.141 8  94221385.536 8      -604.229          51.000
> 2020 05 08 07 03 30.0000000  0 15        .000000000000
G12  22163908.938 8 116472121.592 8      3068.684          48.000    22163906.555 8  90757488.435 8      2391.182          48.000
G13  22364487.883 8 117526158.080 8     -3188.566          51.000    22364487.719 7  91578796.016 7     -2484.600          46.000
G15  21166642.758 8 111231449.070 8     -2246.234          48.000    21166641.617 8  86673857.885 8     -1750.312          48.000
G19  21851452.844 6 114830157.234 6      1464.941          38.000    21851451.883 6  89478039.332 6      1141.510          37.000
G28  24123046.914 5 126767461.619 5     -3105.293          33.000
R02  21845577.094 5 116572062.011 5     -4199.770          35.000    21845569.750 5  90667195.603 5     -3266.484          34.000
R03  20002936.789 7 107077265.781 7      -956.223          42.000    20002934.984 5  83282324.906 5      -743.732          34.000
R12  20940089.594 5 111858207.210 5     -2451.227          34.000    20940089.281 4  87000822.586 4     -1906.510          29.000
R21  23142452.977 5 123839908.508 5     -1671.680          32.000    23142457.758 4  96319976.711 4     -1300.192          25.000
C20  24252601.344 8 126289794.806 8     -2709.602          49.000
C23  25790075.484 5 134295736.545 5     -2604.934          34.000
C27  25732374.312 5 133995245.172 5      3216.797          35.000
E07  27299625.125 6 143460475.564 6     -3136.887          40.000    27299630.000 6 109924293.897 6     -2403.481          38.000
E21  24730061.852 7 129957339.556 7      1588.438          42.000    24730060.703 6  99577719.661 6      1217.183          41.000
E27  23404340.766 8 122990683.341 8      -794.281          51.000    23404342.484 8  94239627.687 8      -608.575          51.000
> 2020 05 08 07 04  0.0000000  0 15        .000000000000
G12  22146432.258 8 116380282.008 8      3054.590          50.000    22146430.055 8  90685925.123 8      2380.200          49.000
G13  22382731.320 8 117622028.027 8     -3202.043          51.000    22382731.477 7  91653499.813 7     -2495.101          46.000
G15  21179521.656 8 111299129.377 8     -2264.988          49.000    21179521.023 8  86726595.773 8     -1764.926          50.000
G19  21843159.398 6 114786573.079 6      1441.820          38.000    21843158.750 5  89444077.612 5      1123.499          34.000
G28  24140787.633 5 126860684.929 5     -3109.953          34.000
R02  21869221.227 4 116698366.941 4     -4212.945          29.000    21869219.711 6  90765348.033 6     -3276.738          36.000
R03  20008385.344 7 107106422.262 7      -986.965          42.000    20008380.766 5  83305002.129 5      -767.639          32.000
R12  20953883.094 4 111931898.610 4     -2460.617          29.000    20953883.641 4  87058132.974 4     -1913.822          29.000
R21  23151906.625 4 123890483.525 4     -1699.016          29.000    23151907.648 4  96359312.242 4     -1321.463          27.000
C20  24268248.984 8 126371276.983 8     -2721.824          48.000
C23  25805093.961 5 134373951.711 5     -2609.770          31.000
C27  25713857.547 6 133898812.011 6      3212.914          37.000
E07  27317550.789 6 143554675.443 6     -3142.484          39.000    27317554.906 6 109996473.002 6     -2407.979          38.000
E21  24721025.422 7 129909851.332 7      1577.992          42.000    24721026.883 7  99541332.521 7      1209.213          43.000
E27  23408907.078 8 123014678.834 8      -804.711          51.000    23408908.852 8  94258013.842 8      -616.585          51.000
> 2020 05 08 07 04 30.0000000  0 15        .000000000000
G12  22129022.859 8 116288796.072 8      3043.609          50.000    22129021.570 8  90614637.398 8      2371.644          50.000
G13  22401038.148 8 117718232.549 8     -3212.266          50.000    22401038.414 7  91728464.310 7     -2503.064          45.000
G15  21192494.734 8 111367302.359 8     -2280.562          51.000    21192494.352 8  86779717.580 8     -1777.062          51.000
G19  21834985.758 6 114743621.239 6      1421.059          40.000    21834986.023 5  89410608.688 5      1107.315          35.000
G28  24158545.125 5 126953996.557 5     -3111.594          34.000    24158543.289 5  98925203.215 5     -2424.606          32.000
R02  21892926.914 4 116824857.841 4     -4223.328          29.000    21892932.070 6  90863759.399 6     -3284.811          36.000
R03  20013992.570 6 107136437.681 6     -1014.430          40.000    20013986.273 5  83328347.446 5      -789.004          34.000
R12  20967717.812 5 112005806.664 5     -2467.262          32.000    20967719.266 4  87115617.162 4     -1918.978          29.000
C20  24283955.305 8 126453061.486 8     -2731.145          49.000
C23  25820129.219 5 134452244.738 5     -2611.555          33.000
C27  25695349.438 6 133802427.793 6      3212.109          38.000
C28  24129648.945 5 125649415.394 5      1693.883          33.000
E07  27335496.195 6 143648981.650 6     -3145.004          39.000    27335500.516 6 110068733.563 6     -2409.910          39.000
E21  24712034.898 6 129862608.781 6      1570.715          41.000    24712039.312 7  99505133.658 7      1203.574          42.000
E27  23413520.336 8 123038921.134 8      -812.082          51.000    23413522.188 8  94276589.113 8      -622.269          51.000
> 2020 05 08 07 05  0.0000000  0 16        .000000000000
G12  22111668.094 8 116197597.030 8      3035.438          51.000    22111667.195 8  90543573.190 8      2365.276          51.000
G13  22419395.297 8 117814700.749 8     -3219.762          51.000    22419395.352 7  91803634.282 7     -2508.908          45.000
G15  21205548.078 8 111435897.038 8     -2293.254          51.000    21205548.117 8  86833167.989 8     -1786.951          51.000
G17  22442039.836 5 117933715.202 5      -581.195          33.000
G19  21826920.398 6 114701235.090 6      1403.840          41.000    21826918.875 5  89377580.362 5      1093.895          35.000
G28  24176305.523 5 127047325.684 5     -3111.055          34.000    24176304.133 5  98997927.160 5     -2424.205          32.000
R03  20019745.367 6 107167240.085 6     -1039.801          39.000    20019740.945 6  83352304.870 6      -808.734          36.000
R12  20981580.102 5 112079912.477 5     -2470.797          35.000    20981578.539 4  87173200.961 4     -1921.731          27.000
R14  22681743.133 5 120906482.358 5      2927.270          34.000    22681741.117 5  94038359.574 5      2276.765          31.000
R21  23171220.352 5 123993831.765 5     -1745.969          31.000    23171222.250 4  96439676.871 4     -1357.973          29.000
C20  24299706.352 7 126535077.532 7     -2737.379          47.000
C23  25835166.781 5 134530547.006 5     -2610.254          35.000
C27  25676837.016 6 133706026.565 6      3213.648          37.000
E07  27353448.875 6 143743323.650 6     -3145.070          40.000    27353453.141 6 110141021.567 6     -2409.787          38.000
E21  24703078.125 6 129815542.862 6      1566.258          41.000    24703083.297 6  99469070.183 6      1200.051          38.000
E27  23418167.336 8 123063340.445 8      -816.664          51.000    23418169.086 8  94295300.003 8      -625.720          51.000
> 2020 05 08 07 05 30.0000000  0 16        .000000000000
G12  22094374.258 8 116106717.594 8      3018.957          51.000    22094373.531 8  90472758.053 8      2352.434          51.000
G13  22437808.812 8 117911462.746 8     -3235.336          51.000    22437808.539 7  91879033.238 7     -2521.041          44.000
G15  21218687.250 8 111504943.567 8     -2314.203          51.000    21218687.672 8  86886970.461 8     -1803.275          51.000
G17  22445418.898 5 117951485.800 5      -606.684          34.000    22445417.555 5  91910237.060 5      -472.737          34.000
G19  21818968.914 7 114659448.536 7      1377.875          42.000    21818968.672 6  89345019.547 6      1073.672          36.000
R03  20025648.828 5 107198861.032 5     -1072.477          35.000    20025648.188 6  83376898.936 6      -834.148          36.000
R12  20995479.453 6 112154142.791 6     -2482.395          41.000    20995476.969 4  87230935.146 4     -1930.754          27.000
R21  23181079.453 5 124046637.439 5     -1775.609          31.000    23181079.227 4  96480717.533 4     -1381.030          27.000
C20  24315507.281 7 126617354.386 7     -2751.785          46.000
C23  25850212.617 5 134608889.830 5     -2618.102          31.000
C27  25658327.727 6 133609642.340 6      3207.223          38.000
C28  24110262.609 5 125548454.786 5      1663.266          34.000
E07  27371414.398 6 143837731.843 6     -3153.410          41.000    27371418.477 6 110213360.290 6     -2415.899          39.000
E21  24694161.070 6 129768685.504 6      1553.227          41.000    24694162.281 5  99433166.568 5      1190.236          34.000
E27  23422853.938 8 123087967.840 8      -829.469          51.000    23422855.477 8  94314170.335 8      -635.579          51.000
E30  25694034.422 5 135023067.373 5     -2463.488          34.000    25694039.109 6 103459240.211 6     -1887.536          40.000
> 2020 05 08 07 06  0.0000000  0 16        .000000000000
G12  22077143.953 8 116016171.280 8      3014.762          51.000    22077142.570 8  90402202.488 8      2349.165          51.000
G13  22456279.844 8 118008528.371 8     -3238.418          50.000    22456279.516 7  91954668.788 7     -2523.443          44.000
G15  21231914.297 8 111574451.767 8     -2322.504          51.000    21231914.781 8  86941132.701 8     -1809.743          51.000
G19  21811134.211 7 114618275.161 7      1364.184          42.000    21811133.438 5  89312936.486 5      1063.003          30.000
R02  21964375.977 5 117206110.740 5     -4248.535          32.000    21964400.180 4  91160412.942 4     -3304.410          27.000
R03  20031708.742 6 107231310.917 6     -1093.043          36.000    20031710.852 6  83402137.691 6      -850.145          38.000
R12  21009410.977 5 112228560.644 5     -2481.562          35.000    21009411.867 4  87288815.656 4     -1930.107          28.000
R21  23191080.523 5 124100129.285 5     -1793.031          31.000    23191078.617 5  96522317.184 5     -1394.580          30.000
C20  24331360.086 7 126699901.367 7     -2753.867          46.000
C23  25865269.742 5 134687242.312 5     -2611.957          31.000
C27  25639823.977 6 133513289.330 6      3213.277          39.000
C28  24100692.289 5 125498620.054 5      1656.402          32.000
E07  27389394.375 6 143932216.533 6     -3148.730          39.000    27389398.484 6 110285757.637 6     -2412.613          38.000
E21  24685285.469 6 129722048.453 6      1552.762          40.000    24685284.648 5  99397431.783 5      1189.599          34.000
E27  23427582.109 8 123112814.269 8      -829.754          51.000    23427583.539 8  94333208.494 8      -635.750          51.000
E30  25708073.281 5 135096834.581 5     -2457.473          35.000    25708075.469 6 103515763.102 6     -1882.954          39.000
> 2020 05 08 07 06 30.0000000  0 15        .000000000000
G12  22059979.398 8 115925969.836 8      3002.094          51.000    22059977.867 8  90331915.658 8      2339.294          51.000
G13  22474809.734 8 118105906.125 8     -3249.953          48.000    22474809.445 7  92030547.596 7     -2532.431          42.000
G15  21245230.828 8 111644430.060 8     -2339.340          51.000    21245231.125 8  86995661.212 8     -1822.862          51.000
G17  22452485.836 5 117988609.297 5      -637.762          30.000
G19  21803418.055 6 114577727.244 6      1342.027          39.000    21803416.117 6  89281340.696 6      1045.736          36.000
R02  21988304.000 6 117333780.211 6     -4259.395          38.000    21988289.820 5  91259557.764 5     -3312.862          30.000
R03  20037925.773 5 107264598.679 5     -1122.352          34.000    20037930.078 6  83428028.225 6      -872.934          39.000
R14  22632484.805 5 120643864.706 5      2907.805          33.000
C20  24347266.562 8 126782726.397 8     -2764.344          48.000
C23  25880337.938 5 134765698.897 5     -2614.875          30.000
C27  25621328.430 6 133416980.239 6      3210.875          41.000
E07  27407390.547 6 144026786.626 6     -3152.527          38.000    27407394.555 6 110358220.408 6     -2415.531          36.000
E21  24676454.016 7 129675641.937 7      1544.133          42.000    24676457.172 6  99361873.500 6      1183.301          37.000
E27  23432353.531 8 123137889.263 8      -838.480          51.000    23432355.094 8  94352421.811 8      -642.478          51.000
E30  25722118.961 5 135170642.750 5     -2459.617          32.000    25722119.125 6 103572317.350 6     -1884.944          39.000
> 2020 05 08 07 07  0.0000000  0 12        .000000000000
G12  22042877.039 8 115836094.712 8      2983.961          51.000    22042875.945 8  90261883.096 8      2325.164          51.000
G13  22493394.312 7 118203574.362 7     -3266.824          47.000    22493394.133 6  92106652.741 6     -2545.577          41.000
G15  21258632.766 8 111714856.780 8     -2361.363          51.000    21258632.633 8  87050539.126 8     -1840.023          51.000
G19  21795817.438 6 114537786.793 6      1314.516          37.000    21795815.875 6  89250218.251 6      1024.298          36.000
R02  22012282.086 6 117461726.197 6     -4275.812          36.000    22012273.680 5  91359071.222 5     -3325.635          34.000
R03  20044291.391 6 107298702.851 6     -1156.898          36.000    20044301.430 6  83454553.730 6      -899.810          40.000
R14  22616137.750 5 120556736.910 5      2894.574          31.000    22616150.477 5  93766372.308 5      2251.336          30.000
C20  24363222.188 8 126865807.430 8     -2779.926          49.000
C27  25602837.797 6 133320697.829 6      3202.555          40.000
E07  27425398.617 6 144121420.814 6     -3161.734          37.000    27425402.562 5 110430732.287 5     -2422.888          35.000
E21  24667663.977 7 129629445.983 7      1529.984          42.000    24667669.523 6  99326476.594 6      1172.448          38.000
E27  23437164.602 8 123163172.162 8      -852.523          51.000    23437166.195 8  94371794.421 8      -653.244          51.000
> 2020 05 08 07 07 30.0000000  0 13        .000000000000
G12  22025832.008 8 115746521.429 8      2977.566          51.000    22025831.328 8  90192085.750 8      2320.182          51.000
G13  22512029.609 7 118301505.158 7     -3271.828          47.000    22512028.383 6  92182962.402 6     -2549.480          40.000
G15  21272114.930 8 111785704.263 8     -2371.605          51.000    21272114.188 8  87105744.905 8     -1848.004          51.000
G17  22459989.992 5 118028052.174 5      -678.488          33.000
G19  21788326.602 5 114498430.070 5      1298.391          35.000    21788326.820 5  89219550.636 5      1011.733          34.000
R02  22036304.516 6 117589917.942 6     -4280.570          37.000    22036299.062 5  91458775.878 5     -3329.332          34.000
R03  20050809.812 7 107333595.470 7     -1179.461          43.000    20050820.438 6  83481692.381 6      -917.359          41.000
R14  22599821.391 5 120469763.631 5      2892.785          31.000    22599834.875 5  93698726.443 5      2249.944          33.000
C20  24379221.062 8 126949116.319 8     -2783.805          49.000
C27  25584348.133 6 133224418.741 6      3206.328          39.000
E07  27443413.414 6 144216091.520 6     -3159.379          38.000    27443418.438 5 110503272.125 5     -2420.790          35.000
E21  24658909.398 7 129583434.583 7      1527.570          42.000    24658914.336 6  99291221.102 6      1170.560          37.000
E27  23442010.352 8 123188636.140 8      -855.016          51.000    23442011.844 8  94391305.776 8      -655.112          51.000
> 2020 05 08 07 08  0.0000000  0 15        .000000000000
G12  22008846.922 8 115657264.941 8      2971.234          50.000    22008846.328 8  90122535.266 8      2315.248          51.000
G13  22530717.242 8 118399710.070 8     -3276.906          48.000    22530716.125 6  92259485.639 6     -2553.436          41.000
G15  21285679.281 8 111856984.228 8     -2381.844          51.000    21285678.500 8  87161287.685 8     -1855.982          51.000
G19  21780951.094 6 114459672.051 6      1283.105          41.000    21780951.281 5  89189349.590 5       999.819          34.000
G28  24283065.375 5 127608369.300 5     -3118.762          31.000
R02  22060374.117 6 117718364.765 6     -4284.645          38.000    22060369.984 5  91558678.923 5     -3332.507          32.000
R03  20057479.320 7 107369288.588 7     -1201.516          43.000    20057488.016 6  83509453.696 6      -934.515          40.000
R12  21065462.836 5 112527911.349 5     -2504.398          33.000    21065460.641 4  87521710.180 4     -1947.865          24.000
R14  22583538.992 5 120382959.126 5      2892.055          34.000    22583548.711 4  93631240.935 4      2249.382          29.000
C20  24395265.016 8 127032663.954 8     -2787.621          49.000
C27  25565862.281 6 133128158.849 6      3209.637          40.000
C28  24063218.172 5 125303483.751 5      1601.184          32.000
E07  27461438.242 6 144310810.647 6     -3156.711          39.000    27461443.953 5 110575849.042 5     -2418.599          34.000
E21  24650192.344 7 129537621.084 7      1525.219          43.000    24650193.938 6  99256117.286 6      1168.794          37.000
E27  23446892.875 8 123214293.802 8      -857.184          51.000    23446894.422 8  94410965.537 8      -656.764          51.000
> 2020 05 08 07 08 30.0000000  0 15        .000000000000
G12  21991916.719 8 115568297.552 8      2960.020          49.000    21991916.359 8  90053210.040 8      2306.509          49.000
G13  22549451.391 8 118498158.007 8     -3286.336          49.000    22549451.445 7  92336198.247 7     -2560.784          43.000
G15  21299319.766 8 111928665.075 8     -2396.605          51.000    21299319.406 8  87217142.867 8     -1867.485          51.000
G17  22467908.562 6 118069663.721 6      -711.992          40.000    22467904.125 5  92002306.004 5      -554.802          34.000
G19  21773684.547 6 114421485.309 6      1262.602          38.000    21773684.273 5  89159593.670 5       983.848          34.000
R02  22084484.969 6 117847033.359 6     -4293.234          39.000    22084485.453 5  91658754.527 5     -3339.179          33.000
R03  20064292.828 7 107405751.008 7     -1228.859          45.000    20064299.031 6  83537813.333 6      -955.780          40.000
R12  21079544.219 5 112603138.483 5     -2510.996          30.000    21079545.367 4  87580229.162 4     -1952.991          28.000
R14  22567283.789 5 120296294.283 5      2885.398          30.000
C20  24411348.328 8 127116419.159 8     -2795.883          48.000
C27  25547374.977 6 133031891.736 6      3208.336          40.000
C28  24054034.547 5 125255674.626 5      1586.887          31.000
E07  27479466.500 6 144405547.662 6     -3158.648          38.000    27479472.414 5 110648439.775 5     -2420.631          34.000
E21  24641507.516 7 129491976.364 7      1517.934          43.000    24641505.461 6  99221142.768 6      1162.999          37.000
E27  23451806.422 8 123240115.250 8      -864.133          51.000    23451808.164 8  94430750.808 8      -662.131          51.000
> 2020 05 08 07 09  0.0000000  0 14        .000000000000
G12  21975040.305 8 115479611.639 8      2950.848          50.000    21975040.289 8  89984104.132 8      2299.362          50.000
G13  22568230.117 8 118596838.498 8     -3293.762          50.000    22568230.867 7  92413092.095 7     -2566.568          45.000
G15  21313034.344 8 112000736.214 8     -2409.512          51.000    21313034.445 8  87273302.171 8     -1877.545          51.000
G17  22472020.297 5 118091246.103 5      -728.828          34.000    22472017.867 5  92019123.336 5      -567.915          33.000
G19  21766525.172 6 114383862.824 6      1243.938          38.000    21766523.539 5  89130277.458 5       969.305          34.000
R02  22108634.133 6 117975910.344 6     -4299.875          37.000    22108638.453 4  91758992.215 4     -3344.344          29.000
R03  20071247.695 7 107442971.850 7     -1253.977          43.000    20071252.016 6  83566762.859 6      -975.315          39.000
R12  21093678.242 5 112678615.068 5     -2514.219          33.000    21093655.664 4  87638854.855 4     -1955.503          29.000
C20  24427468.930 7 127200370.649 7     -2802.246          46.000
C27  25528885.086 6 132935610.992 6      3208.699          40.000
C28  24044919.508 5 125208210.391 5      1574.969          31.000
E07  27497495.773 5 144500292.146 5     -3159.086          35.000    27497500.781 5 110721036.151 5     -2420.538          32.000
E21  24632852.867 7 129446491.328 7      1512.754          43.000    24632848.656 6  99186290.570 6      1159.384          37.000
E27  23456749.328 8 123266090.695 8      -869.074          51.000    23456751.117 8  94450654.079 8      -665.938          51.000
> 2020 05 08 07 09 30.0000000  0 13        .000000000000
G12  21958239.102 8 115391320.728 8      2937.359          50.000    21958239.516 8  89915306.042 8      2288.851          50.000
G13  22587074.344 8 118695861.438 8     -3305.598          51.000    22587075.219 7  92490252.812 7     -2575.790          47.000
G15  21326843.883 8 112073307.920 8     -2426.520          48.000    21326844.453 8  87329851.535 8     -1890.797          48.000
G17  22476245.445 6 118113449.490 6      -749.707          39.000    22476246.992 6  92036424.800 6      -584.187          36.000
G19  21759495.047 6 114346918.591 6      1220.891          38.000    21759494.094 5  89101489.935 5       951.352          30.000
R02  22132842.867 6 118105104.879 6     -4310.660          36.000    22132850.773 5  91859476.890 5     -3352.739          30.000
R03  20078365.023 7 107481063.728 7     -1283.141          42.000    20078367.867 6  83596389.834 6      -997.998          40.000
C20  24443648.078 7 127284627.086 7     -2812.797          45.000
C27  25510414.859 6 132839430.096 6      3205.160          38.000
C28  24035908.352 5 125161260.060 5      1557.922          30.000
E07  27515547.281 5 144595154.610 5     -3163.117          34.000    27515551.969 5 110793725.948 5     -2423.538          32.000
E21  24624249.180 7 129401277.957 7      1503.582          42.000    24624244.500 6  99151646.602 6      1151.934          37.000
E27  23461742.766 8 123292331.397 8      -878.117          51.000    23461744.523 8  94470760.593 8      -672.810          51.000
> 2020 05 08 07 10  0.0000000  0 16        .000000000000
G12  21941478.273 8 115303242.508 8      2933.582          49.000    21941478.680 8  89846673.668 8      2285.908          49.000
G13  22605948.516 8 118795041.210 8     -3307.477          51.000    22605949.297 7  92567535.748 7     -2577.254          47.000
G15  21340712.953 7 112146194.305 7     -2433.641          47.000    21340713.906 7  87386646.128 7     -1896.343          47.000
G17  22480554.680 5 118136090.120 5      -761.105          32.000    22480551.297 5  92054066.788 5      -593.066          33.000
G19  21752559.148 6 114310470.358 6      1207.840          37.000    21752558.273 5  89073088.785 5       941.183          31.000
G24  20481088.461 5 107628852.915 5      1187.203          33.000
G28  24354321.383 5 127982808.341 5     -3117.902          30.000
R02  22157076.078 5 118234427.110 5     -4311.887          30.000    22157086.766 4  91960060.774 4     -3353.693          29.000
R03  20085609.172 6 107519837.551 6     -1302.602          41.000    20085611.047 6  83626547.270 6     -1013.135          41.000
R21  23275797.305 5 124553485.749 5     -1976.184          30.000
C20  24459850.766 7 127369004.013 7     -2813.633          44.000
C27  25491929.406 6 132743169.556 6      3210.941          39.000
E07                                                                  27533591.344 5 110866361.196 5     -2419.641          33.000
E21  24615660.586 6 129356152.534 6      1503.902          38.000    24615657.250 5  99117069.961 5      1152.398          35.000
E27  23466751.547 8 123318652.804 8      -877.648          51.000    23466753.406 8  94490928.948 8      -672.475          51.000
E30  25820436.359 5 135687308.084 5     -2455.516          33.000    25820438.344 6 103968198.460 6     -1881.373          36.000
> 2020 05 08 07 10 30.0000000  0 16        .000000000000
G12  21924795.133 8 115215572.164 8      2914.500          49.000    21924795.211 8  89778359.118 8      2271.039          49.000
G13  22624888.781 8 118894569.642 8     -3324.504          51.000    22624889.211 7  92645090.386 7     -2590.523          47.000
G15  21354678.742 8 112219587.210 8     -2455.934          48.000    21354680.055 8  87443835.441 8     -1913.714          48.000
G17  22484981.867 6 118159360.746 6      -787.340          36.000    22484976.711 6  92072199.795 6      -613.505          36.000
G19  21745755.461 6 114274713.847 6      1179.273          38.000    21745752.781 6  89045226.484 6       918.911          36.000
G24  20474380.273 5 107593592.561 5      1167.625          35.000
G28  24372155.484 5 128076513.465 5     -3126.094          32.000    24372161.359 4  99799925.137 4     -2435.917          24.000
R03  20093015.836 6 107559489.132 6     -1337.426          41.000    20093018.641 7  83657387.367 7     -1040.220          42.000
R12  21136160.992 5 112905615.642 5     -2533.992          30.000    21136168.484 5  87815474.369 5     -1970.883          31.000
R14  22502557.633 5 119951301.264 5      2860.605          33.000
C20  24476113.828 7 127453690.927 7     -2829.137          42.000
C27  25473465.633 6 132647023.802 6      3201.531          38.000
E07                                                                  27551654.484 5 110939095.191 5     -2426.845          32.000
E21  24607123.906 6 129311308.648 6      1489.008          38.000    24607122.867 5  99082709.061 5      1140.940          34.000
E27  23471812.297 8 123345247.779 8      -892.094          51.000    23471814.438 8  94511306.918 8      -683.567          51.000
E30  25834488.109 5 135761145.033 5     -2463.586          34.000    25834489.164 6 104024773.325 6     -1887.859          37.000
> 2020 05 08 07 11  0.0000000  0 18        .000000000000
G12  21908179.641 8 115128256.144 8      2906.082          51.000    21908178.711 8  89710320.692 8      2264.480          51.000
G13  22643884.055 8 118994389.993 8     -3330.867          49.000    22643884.508 7  92722872.481 7     -2595.481          46.000
G15  21368730.781 8 112293429.742 8     -2467.480          49.000    21368732.016 8  87501375.079 8     -1922.712          49.000
G17  22489519.391 6 118183205.783 6      -803.070          37.000    22489515.695 6  92090780.303 6      -625.769          38.000
G19  21739072.859 6 114239595.653 6      1162.023          36.000    21739071.328 5  89017861.692 5       905.476          35.000
G24  20467738.391 6 107558686.575 6      1159.047          38.000
G28  24389997.414 5 128170268.948 5     -3124.301          32.000
R03  20100576.344 7 107599960.683 7     -1361.293          42.000    20100579.125 6  83688865.258 6     -1058.780          41.000
R12  21150396.602 5 112981617.147 5     -2535.812          34.000    21150407.656 5  87874619.988 5     -1972.305          32.000
R14  22486471.500 5 119865527.835 5      2856.801          35.000    22486488.289 5  93228835.913 5      2221.962          30.000
R21  23298286.836 4 124673820.295 4     -2027.668          29.000
R22  21828715.328 4 116523163.413 4      1630.820          28.000
C20  24492426.547 7 127538631.220 7     -2834.168          42.000
C27  25455013.469 6 132550940.965 6      3203.227          39.000
E07                                                                  27569730.523 5 111011878.866 5     -2426.067          33.000
E21  24598632.344 6 129266691.349 6      1485.141          37.000    24598634.516 6  99048521.833 6      1137.731          38.000
E27  23476914.477 8 123372060.787 8      -895.832          51.000    23476916.969 8  94531851.950 8      -686.402          51.000
E30  25848546.086 5 135835012.554 5     -2461.414          35.000    25848546.789 6 104081373.073 6     -1885.665          36.000
> 2020 05 08 07 11 30.0000000  0 17        .000000000000
G12  21891634.203 8 115041308.852 8      2891.969          50.000    21891633.195 8  89642569.611 8      2253.485          50.000
G13  22662936.023 7 119094513.581 7     -3342.648          44.000    22662937.461 7  92800890.844 7     -2604.661          44.000
G15  21382870.664 8 112367733.547 8     -2484.656          50.000    21382871.688 8  87559274.119 8     -1936.096          50.000
G17  22494168.469 6 118207637.677 6      -824.500          36.000    22494165.086 6  92109818.121 6      -642.468          36.000
G19  21732514.945 6 114205131.193 6      1137.891          36.000    21732513.234 5  88991006.179 5       886.668          35.000
G24  20461168.109 5 107524149.150 5      1145.246          35.000    20461173.969 5  83785086.076 5       892.400          33.000
R02  22230109.602 5 118624129.567 5     -4343.227          32.000
R03  20108290.617 6 107641263.951 6     -1391.035          40.000    20108294.945 6  83720990.019 6     -1081.916          41.000
R12  21164671.156 6 113057856.603 6     -2544.656          37.000    21164675.695 4  87933930.365 4     -1979.177          29.000
R14  22470423.117 5 119779968.920 5      2848.941          32.000
R22  21819621.172 5 116474598.654 5      1603.309          33.000    21819634.891 4  90591436.444 4      1247.027          26.000
C20  24508791.016 7 127623835.572 7     -2844.738          43.000
C27  25436576.594 6 132454936.714 6      3198.707          38.000
E07                                                                  27587821.719 5 111084725.136 5     -2429.431          33.000
E21  24590186.945 5 129222313.739 5      1475.238          35.000    24590193.516 7  99014518.236 7      1130.332          43.000
E27  23482060.562 8 123399104.229 8      -905.547          51.000    23482063.266 8  94552573.548 8      -693.837          51.000
E30  25862611.320 6 135908925.206 6     -2464.980          36.000    25862612.547 5 104138007.428 5     -1888.781          35.000
> 2020 05 08 07 12  0.0000000  0 16        .000000000000
G12  21875144.367 7 114954655.596 7      2881.984          47.000    21875143.297 7  89575047.561 7      2245.702          47.000
G13  22682029.859 5 119194862.057 5     -3350.371          33.000    22682032.672 5  92879084.422 5     -2610.679          32.000
G15  21397083.328 8 112442420.095 8     -2497.512          50.000    21397084.180 8  87617471.401 8     -1946.113          50.000
G17  22498914.094 5 118232579.433 5      -841.230          32.000    22498911.547 4  92129253.167 4      -655.504          29.000
G19  21726066.266 6 114171245.321 6      1118.145          37.000    21726066.828 5  88964601.573 5       871.278          33.000
R02  22254541.969 6 118754488.137 6     -4349.965          37.000    22254545.422 4  92364618.429 4     -3383.306          25.000
R03  20116146.820 7 107683319.127 7     -1415.945          43.000    20116151.234 6  83753699.589 6     -1101.291          41.000
R14  22454390.211 5 119694557.501 5      2843.699          33.000
R22  21810669.336 5 116426819.083 5      1579.238          32.000    21810692.062 4  90554283.847 4      1228.303          27.000
C20  24525191.867 7 127709225.929 7     -2851.016          43.000
C27  25418141.008 6 132358937.872 6      3197.980          37.000
C28  23992008.930 5 124932654.568 5      1487.227          32.000
E07                                                                  27605913.672 5 111157572.326 5     -2429.685          34.000
E21  24581773.148 6 129178099.526 6      1469.598          36.000    24581782.992 7  98980639.767 7      1125.927          45.000
E27  23487235.930 8 123426300.969 8      -910.742          51.000    23487238.727 8  94573412.597 8      -697.829          51.000
E30  25876669.641 6 135982805.965 6     -2463.680          37.000    25876672.281 5 104194617.345 5     -1887.865          34.000
> 2020 05 08 07 12 30.0000000  0 15        .000000000000
G12  21858720.211 7 114868348.415 7      2874.914          47.000    21858719.203 7  89507795.158 7      2240.190          47.000
G13  22701174.477 5 119295483.195 5     -3354.934          34.000    22701179.453 5  92957491.409 5     -2614.234          34.000
G15  21411377.836 8 112517537.765 8     -2507.277          50.000    21411378.953 8  87676004.625 8     -1953.726          50.000
G17  22503765.930 5 118258089.605 5      -855.648          34.000    22503764.328 5  92149124.359 5      -666.739          34.000
G19  21719738.125 5 114137990.535 5      1101.672          33.000    21719738.547 5  88938688.561 5       858.440          32.000
R02  22279016.195 6 118885081.135 6     -4353.016          41.000    22279022.773 4  92466189.751 4     -3385.679          29.000
R03  20124153.938 7 107726175.885 7     -1437.875          45.000    20124156.734 6  83787032.582 6     -1118.347          41.000
R14  22438406.656 6 119609325.132 6      2841.758          38.000
R22  21801861.172 6 116379789.318 6      1559.180          36.000    21801876.633 4  90517704.940 4      1212.704          25.000
C20  24541637.055 7 127794850.056 7     -2854.402          42.000
C27  25399717.125 5 132262997.029 5      3200.977          35.000
C28  23983475.688 4 124888257.728 4      1476.305          29.000
E21  24573400.891 6 129134099.075 6      1466.762          36.000    24573412.250 7  98946925.137 7      1124.080          44.000
E27  23492450.078 8 123453700.814 8      -912.891          51.000    23492452.977 8  94594407.270 8      -699.473          51.000
E30  25890729.055 6 136056694.953 6     -2459.996          37.000
> 2020 05 08 07 13  0.0000000  0 16        .000000000000
G12  21842348.641 8 114782313.849 8      2861.926          48.000    21842347.133 8  89440755.245 8      2230.072          48.000
G13  22720360.312 6 119396302.526 6     -3365.254          41.000    22720364.078 6  93036051.919 6     -2622.276          41.000
G15  21425739.852 8 112593010.349 8     -2522.945          50.000    21425741.156 8  87734814.401 8     -1965.931          50.000
G17  22508710.422 6 118284075.152 6      -875.449          38.000    22508707.875 6  92169372.724 6      -682.168          38.000
G19  21713515.633 6 114105293.489 6      1079.621          37.000    21713519.195 4  88913210.419 4       841.269          28.000
R02  22303519.891 6 119015829.338 6     -4362.129          41.000    22303528.492 5  92567882.719 5     -3392.770          30.000
R03  20132295.938 7 107769756.542 7     -1466.109          45.000    20132297.961 6  83820928.600 6     -1140.310          41.000
R12  21207649.586 5 113287451.436 5     -2556.852          35.000    21207641.609 4  88112439.665 4     -1988.656          29.000
R14  22422444.023 5 119524206.344 5      2834.023          31.000    22422465.047 4  92963392.258 4      2204.243          25.000
R22  21793178.633 5 116333470.254 5      1532.293          32.000
C20  24558111.055 7 127880631.561 7     -2863.352          42.000
C23  26076687.992 5 135788133.212 5     -2627.922          30.000
C27  25381290.484 6 132167042.848 6      3197.324          37.000
E21  24565056.188 6 129090237.619 6      1458.344          39.000    24565067.219 7  98913317.071 7      1117.612          43.000
E27  23497688.586 8 123481228.299 8      -920.910          51.000    23497691.531 8  94615499.758 8      -705.686          51.000
E30  25904781.516 6 136130536.949 6     -2461.508          38.000
> 2020 05 08 07 13 30.0000000  0 15        .000000000000
G12  21826054.125 8 114696683.347 8      2849.844          49.000    21826052.750 8  89374030.212 8      2220.661          49.000
G13  22739608.531 7 119497447.071 7     -3374.773          46.000    22739610.914 6  93114865.772 6     -2629.697          40.000
G15  21440193.906 8 112668965.554 8     -2537.602          51.000    21440194.891 8  87794000.265 8     -1977.352          51.000
G17  22513771.539 5 118310674.279 5      -894.758          35.000    22513770.102 5  92190099.256 5      -697.211          35.000
G19  21707425.688 6 114073286.272 6      1057.441          38.000    21707429.258 5  88888269.594 5       823.986          33.000
R02  22328075.242 6 119146859.924 6     -4370.043          40.000    22328083.188 4  92669795.325 4     -3398.922          25.000
R03  20140596.727 7 107814191.135 7     -1493.094          44.000    20140598.211 6  83855488.876 6     -1161.295          41.000
R14  22406510.133 4 119439328.783 4      2827.332          29.000
R22  21784644.055 5 116287917.168 5      1506.520          32.000
C20  24574638.852 7 127966696.937 7     -2871.289          43.000
C27  25362886.477 6 132071206.664 6      3194.871          37.000
C28  23966680.930 4 124800815.123 4      1445.547          29.000
E21  24556763.438 6 129046645.347 6      1450.730          41.000    24556772.859 6  98879915.245 6      1111.641          41.000
E27  23502975.969 8 123509012.774 8      -928.242          51.000    23502978.766 8  94636789.161 8      -711.265          51.000
E30  25918848.445 6 136204451.601 6     -2462.676          39.000
> 2020 05 08 07 14  0.0000000  0 14        .000000000000
G12  21809817.852 8 114611359.635 8      2837.723          48.000    21809816.820 8  89307544.215 8      2211.212          48.000
G13  22758899.367 7 119598816.300 7     -3383.938          47.000    22758900.539 6  93193854.685 6     -2636.837          38.000
G15  21454720.883 8 112745302.986 8     -2552.223          51.000    21454721.445 8  87853483.964 8     -1988.745          51.000
G17  22518930.258 6 118337787.334 6      -913.309          36.000    22518930.266 6  92211226.364 6      -711.669          36.000
G19  21701447.758 6 114041871.408 6      1035.895          36.000    21701448.453 4  88863802.424 4       807.191          29.000
R02  22352663.094 5 119278069.390 5     -4377.781          35.000    22352671.008 4  92771882.574 4     -3404.944          25.000
R03  20149038.141 7 107859377.719 7     -1520.055          46.000    20149039.258 7  83890633.974 7     -1182.265          42.000
R12  21236448.586 5 113441267.350 5     -2567.926          32.000
R22  21776271.844 5 116243169.042 5      1480.387          35.000
C20  24591201.789 7 128052946.134 7     -2879.211          43.000
C27  25344487.039 6 131975393.353 6      3192.281          37.000
E21  24548502.625 6 129003223.595 6      1443.211          41.000    24548510.039 6  98846644.119 6      1105.786          38.000
E27  23508293.281 8 123536954.873 8      -935.176          51.000    23508295.828 8  94658199.341 8      -716.551          51.000
E30  25932909.453 6 136278339.848 6     -2463.723          40.000
> 2020 05 08 07 14 30.0000000  0 16        .000000000000
G12  21793644.430 8 114526368.843 8      2828.570          48.000    21793643.695 8  89241317.582 8      2204.078          48.000
G13  22778236.984 7 119700432.983 7     -3390.184          47.000    22778237.859 6  93273036.438 6     -2641.702          39.000
G15  21469324.891 8 112822045.302 8     -2563.676          51.000    21469325.148 8  87913283.145 8     -1997.669          51.000
G17  22524191.742 6 118365438.322 6      -929.426          37.000    22524190.789 5  92232772.487 5      -724.228          35.000
G19  21695588.312 6 114011075.763 6      1016.660          37.000    21695596.328 5  88839824.917 5       792.203          33.000
R02  22377287.695 5 119409478.380 5     -4382.289          35.000    22377294.656 4  92874089.085 4     -3408.444          28.000
R03  20157625.062 8 107905339.171 8     -1543.801          48.000    20157625.086 7  83926381.782 7     -1200.731          42.000
R12  21250878.891 5 113518332.165 5     -2571.574          35.000
R21  23381037.164 4 125116600.760 4     -2186.488          28.000
C19  23544782.695 6 122603856.697 6      -512.867          37.000
C20  24607804.336 7 128139401.244 7     -2884.199          44.000
C27  25326096.578 6 131879629.987 6      3192.414          37.000
C28  23950169.734 5 124714807.227 5      1417.789          34.000
E21  24540277.859 6 128959996.961 6      1438.609          36.000    24540282.688 6  98813522.517 6      1102.350          37.000
E27  23513645.109 8 123565078.519 8      -939.367          51.000    23513647.461 8  94679748.628 8      -719.772          51.000
E30  25946969.242 6 136352225.793 6     -2461.555          39.000
> 2020 05 08 07 15  0.0000000  0 14        .000000000000
G12  21777526.320 8 114441667.147 8      2815.914          49.000    21777524.719 8  89175316.272 8      2194.222          49.000
G13  22797612.547 8 119802250.013 8     -3399.898          48.000    22797613.781 7  93352374.384 7     -2649.272          42.000
G15  21483996.812 8 112899145.219 8     -2578.574          51.000    21483996.750 8  87973360.949 8     -2009.279          51.000
G17  22529546.500 5 118393580.774 5      -949.215          33.000    22529545.641 5  92254701.726 5      -739.645          33.000
R03  20166347.141 8 107952027.253 8     -1570.980          48.000    20166346.367 7  83962694.749 7     -1221.874          42.000
R12  21265327.984 5 113595564.172 5     -2577.375          32.000
R21  23393350.062 5 125182489.553 5     -2208.977          33.000
C19  23547784.453 6 122619478.606 6      -531.008          37.000
C20  24624437.039 7 128226014.893 7     -2892.488          43.000
C27  25307707.602 6 131783874.070 6      3188.902          39.000
C28  23942041.438 4 124672493.137 4      1401.242          28.000
E21  24532077.547 5 128916942.096 5      1431.477          32.000    24532081.148 6  98780515.562 6      1096.026          36.000
E27  23519022.648 8 123593337.591 8      -946.891          51.000    23519025.016 8  94701401.677 8      -725.543          51.000
E30  25961019.922 6 136426063.644 6     -2463.273          37.000
> 2020 05 08 07 15 30.0000000  0 13        .000000000000
G12  21761522.625 8 114357567.402 8      2795.305          50.000    21761520.320 8  89109784.059 8      2178.159          50.000
G13  22817085.117 8 119904577.234 8     -3417.363          49.000    22817086.742 7  93432109.855 7     -2662.880          44.000
G15  21498795.625 8 112976912.459 8     -2601.367          51.000    21498795.234 8  88033958.764 8     -2027.039          51.000
G17  22535054.125 6 118422525.846 6      -975.934          36.000    22535055.039 6  92277256.251 6      -760.468          37.000
R03  20175263.633 8 107999757.471 8     -1606.297          48.000    20175262.656 7  83999818.224 7     -1249.345          43.000
R14  22343173.312 5 119101691.943 5      2794.148          34.000    22343164.227 4  92634629.401 4      2173.230          28.000
C19  23550931.266 6 122635858.497 6      -556.715          37.000
C20  24641158.461 6 128313093.693 6     -2908.480          40.000
C27  25289379.750 6 131688437.168 6      3178.035          40.000
C28  23934048.617 4 124630861.221 4      1378.570          29.000
E21  24523967.578 6 128874326.599 6      1414.461          39.000    24523967.906 6  98747862.096 6      1084.074          36.000
E27  23524485.109 8 123622043.171 8      -962.383          51.000    23524487.578 8  94723396.862 8      -737.449          51.000
E30  25975121.406 6 136500164.681 6     -2472.719          38.000
> 2020 05 08 07 16  0.0000000  0 14        .000000000000
G12  21745521.734 8 114273482.683 8      2777.844          51.000    21745520.023 8  89044263.515 8      2164.554          51.000
G13  22836542.594 8 120006824.031 8     -3431.676          51.000    22836543.875 7  93511782.665 7     -2674.036          43.000
G15  21513608.602 8 113054756.639 8     -2620.840          51.000    21513608.211 8  88094616.531 8     -2042.216          51.000
G17  22540602.523 5 118451684.403 5     -1001.781          31.000    22540605.289 5  92299977.247 5      -780.609          31.000
