     3.02           OBSERVATION DATA    M (MIXED)           RINEX VERSION / TYPE
SAVERINEX           SC600               20200501 115931 LCL PGM / RUN BY / DATE
       G = GPS       R = GLONASS       C = COMPASS          COMMENT
       S = SBAS      J = QZSS          E = GALILEO          COMMENT
BEAN                                                        MARKER NAME
1                                                           MARKER NUMBER
GEODETIC                                                    MARKER TYPE
Unige DICCA         GTER                                    OBSERVER / AGENCY
SC60291900056       SC600               2.12(191226)        REC # / TYPE / VERS
                    HEMA45          NONE                    ANT # / TYPE
  4509407.8091   693652.4678  4442337.6214                  APPROX POSITION XYZ
        0.0000        0.0000        0.0000                  ANTENNA: DELTA H/E/N
G    8 C1C L1C D1C S1C C2Y L2Y D2Y S2Y                      SYS / # / OBS TYPES
R    8 C1C L1C D1C S1C C2P L2P D2P S2P                      SYS / # / OBS TYPES
C    8 C1I L1I D1I S1I C7I L7I D7I S7I                      SYS / # / OBS TYPES
E    8 C1C L1C D1C S1C C7Q L7Q D7Q S7Q                      SYS / # / OBS TYPES
DBHZ                                                        COMMENT
     30.000                                                 INTERVAL
  2020    05    01    09    00    0.0000000     GPS         TIME OF FIRST OBS
  2020    05    01    09    59   30.0000000     GPS         TIME OF LAST OBS
     0                                                      RCV CLOCK OFFS APPL
G L1C  0.00000                                              SYS / PHASE SHIFT
G L2Y  0.00000                                              SYS / PHASE SHIFT
R L1C  0.00000                                              SYS / PHASE SHIFT
R L2P  0.25000                                              SYS / PHASE SHIFT
C L1I  0.00000                                              SYS / PHASE SHIFT
C L7I  0.00000                                              SYS / PHASE SHIFT
E L1C  0.50000                                              SYS / PHASE SHIFT
E L7Q -0.25000                                              SYS / PHASE SHIFT
 12 R02 -4 R03  5 R04  6 R05  1 R10 -5 R12 -1 R13 -2 R14 -7 GLONASS SLOT / FRQ #
    R15  0 R17  4 R22 -3 R23  3                             GLONASS SLOT / FRQ #
 C1C   71.950 C2C   71.950 C2P   71.950                     GLONASS COD/PHS/BIS
    18                                                      LEAP SECONDS
*** Above antenna height is from mark to ANTENNA BOTTOM.    COMMENT
    17     4        0.0000        ANT MEASURE TYPE/HEIGT    COMMENT
    0.0000    0.0000    0.0458    0.0405    0.0000          COMMENT
                    BASE STATION                            COMMENT
                                                            END OF HEADER
> 2020 05 01 09 00  0.0000000  0 14        .000000000000
G12  20178742.469 8 106040004.411 8       776.395          49.000    20178741.930 8  82628570.235 8       604.980          48.000
G19  22261234.156 6 116983574.254 6     -2199.840          37.000
G24  20315676.578 8 106759600.237 8      -908.012          51.000    20315678.492 8  83189307.219 8      -707.542          51.000
R05  21178833.164 4 113212967.413 4     -1654.621          28.000
R14  20076776.203 8 107020495.922 8     -1288.883          51.000    20076779.828 8  83238178.206 8     -1002.464          49.000
R17  22124120.000 8 118390728.589 8      4159.051          48.000    22124123.695 7  92081689.958 7      3234.817          43.000
C05                                                                  39711681.844 6 159902485.873 6        27.551          36.000
C19  24990488.031 7 130132019.230 7     -2491.238          43.000
C27  22918303.828 8 119341673.169 8      1912.504          49.000
C28  23815807.883 5 124015145.418 5     -1140.738          32.000
E01  24073210.594 6 126505567.848 6       892.672          36.000    24073213.758 5  96932840.144 5       683.894          33.000
E19  26701884.344 6 140319352.837 6     -2958.637          39.000    26701888.172 6 107517444.379 6     -2266.986          41.000
E21  24315185.094 6 127777229.119 6     -1278.512          40.000    24315188.719 7  97907174.752 7      -979.588          46.000
E26  26136753.281 6 137349581.643 6      2980.156          38.000    26136743.727 7 105241876.555 7      2283.439          42.000
> 2020 05 01 09 00 30.0000000  0 14        .000000000000
G12  20174352.234 8 106016933.024 8       762.789          48.000    20174351.164 8  82610592.533 8       594.384          48.000
G24  20320903.070 8 106787064.307 8      -921.762          51.000    20320904.812 8  83210707.790 8      -718.256          51.000
G25  21795235.977 4 114534737.479 4      2479.746          29.000
R14  20084059.102 8 107059317.996 8     -1298.062          51.000    20084062.672 8  83268373.151 8     -1009.604          49.000
R17  22100833.008 8 118266110.390 8      4150.047          48.000    22100836.898 7  91984764.700 7      3227.814          45.000
R24  20707706.820 6 110733398.106 6      1079.285          39.000    20707704.609 4  86125986.765 4       839.441          25.000
C05                                                                  39711480.359 6 159901674.835 6        27.665          37.000
C19  25004864.055 7 130206878.903 7     -2498.215          44.000
C27  22907327.508 8 119284520.085 8      1898.816          49.000
C28  23822436.625 5 124049626.072 5     -1156.309          33.000
E01  24068131.367 6 126478875.024 6       887.934          37.000
E19  26718787.664 6 140408183.208 6     -2962.227          37.000    26718791.773 6 107585509.157 6     -2269.851          41.000
E21  24322498.227 6 127815656.199 6     -1282.098          40.000    24322501.008 7  97936618.898 7      -982.503          46.000
E26  26119744.953 6 137260220.057 6      2978.672          38.000    26119740.477 7 105173404.779 7      2282.293          42.000
> 2020 05 01 09 01  0.0000000  0 15        .000000000000
G12  20170069.477 8 105994426.908 8       746.434          49.000    20170068.633 8  82593055.324 8       581.637          49.000
G24  20326237.641 8 106815096.411 8      -938.121          51.000    20326239.133 8  83232550.969 8      -731.003          51.000
G25  21781147.734 5 114460706.035 5      2468.453          35.000
R04  22970931.711 5 123008256.312 5     -4198.828          33.000
R14  20091424.562 8 107098580.428 8     -1310.309          51.000    20091428.188 8  83298910.583 8     -1019.129          48.000
R17  22077625.883 7 118141922.215 7      4138.148          47.000    22077629.930 7  91888173.900 7      3218.560          46.000
R24  20701756.562 6 110701594.166 6      1049.922          39.000    20701761.867 5  86101250.512 5       816.612          31.000
C05                                                                  39711307.008 6 159900976.479 6        25.847          37.000
C19  25019310.820 7 130282103.937 7     -2508.016          45.000
C27  22896461.383 8 119227936.133 8      1882.336          50.000
C28  23829196.570 4 124084871.704 4     -1175.609          27.000
E01  24063111.453 6 126452488.962 6       880.309          37.000    24063110.625 5  96892173.334 5       674.408          32.000
E19  26735742.141 5 140497282.344 5     -2968.836          35.000    26735746.641 6 107653779.859 6     -2274.742          40.000
E21  24329862.797 6 127854354.578 6     -1288.746          40.000    24329865.266 7  97966270.873 7      -987.487          46.000
E26  26102774.516 6 137171069.325 6      2973.848          37.000    26102777.219 7 105105094.564 7      2278.657          42.000
> 2020 05 01 09 01 30.0000000  0 16        .000000000000
G12  20165841.430 8 105972208.911 8       744.152          48.000    20165840.992 8  82575742.600 8       579.859          48.000
G24  20331627.430 8 106843419.081 8      -940.559          51.000    20331628.461 8  83254620.571 8      -732.903          51.000
G25  21767076.875 5 114386771.063 5      2470.609          32.000    21767082.133 5  89132545.075 5      1925.156          31.000
R04  22994460.273 6 123134265.170 6     -4192.363          36.000
R05  21207372.273 5 113365535.525 5     -1718.855          32.000    21207359.461 5  88173145.148 5     -1336.882          31.000
R14  20098819.906 8 107138001.995 8     -1308.242          51.000    20098823.414 7  83329571.807 7     -1017.519          47.000
R17  22054446.836 7 118017886.367 7      4140.496          46.000    22054451.047 7  91791701.572 7      3220.386          45.000
R24  20695932.438 6 110670460.449 6      1035.059          41.000    20695937.859 5  86077035.451 5       805.046          33.000
C05                                                                  39711109.000 6 159900179.540 6        34.604          37.000
C19  25033774.500 7 130357417.242 7     -2503.586          45.000
C27  22885652.406 8 119171648.518 8      1879.562          49.000
C28  23835989.977 5 124120242.695 5     -1179.590          33.000
E01  24058096.672 6 126426132.493 6       886.469          36.000    24058097.672 5  96871978.137 5       679.449          34.000
E19  26752694.625 5 140586358.375 5     -2960.598          30.000    26752699.891 6 107722042.820 6     -2268.842          38.000
E21  24337225.508 6 127893046.793 6     -1281.355          40.000    24337228.414 7  97995918.104 7      -981.776          46.000
E26  26085792.914 6 137081854.529 6      2983.164          40.000    26085800.703 7 105036735.195 7      2285.894          43.000
> 2020 05 01 09 02  0.0000000  0 17        .000000000000
G12  20161688.945 8 105950388.810 8       713.832          48.000    20161688.594 8  82558739.921 8       556.233          48.000
G17  24459201.711 5 128533934.399 5     -3067.449          34.000    24459197.570 5 100156325.157 5     -2390.220          32.000
G24  20337093.570 8 106872143.005 8      -970.984          51.000    20337094.180 8  83277002.837 8      -756.611          51.000
G25  21753054.391 5 114313071.911 5      2444.961          30.000    21753063.547 4  89075144.477 4      1905.164          28.000
R04  23018010.570 6 123260398.851 6     -4213.484          39.000
R05  21217150.336 4 113417745.808 4     -1760.152          29.000    21217129.508 5  88213777.006 5     -1369.007          30.000
R14  20106266.344 8 107177694.398 8     -1334.520          51.000    20106269.641 7  83360443.676 7     -1037.960          47.000
R17  22031317.789 7 117894119.547 7      4114.145          45.000    22031321.797 7  91695438.532 7      3199.890          44.000
R24  20690257.484 6 110640110.929 6       991.734          36.000    20690262.836 5  86053430.286 5       771.352          35.000
C05                                                                  39710907.312 6 159899366.520 6        22.195          37.000
C19  25048274.938 7 130432925.595 7     -2527.070          46.000
C27  22874921.008 8 119115768.317 8      1849.133          48.000
C28  23842900.266 5 124156166.767 5     -1212.137          33.000
E01  24053107.219 5 126399915.927 5       864.508          34.000    24053110.891 5  96851890.128 5       662.170          32.000
E19                                                                  26769672.094 6 107790381.194 6     -2284.269          37.000
E21  24344607.992 6 127931842.772 6     -1301.836          39.000    24344611.203 7  98025644.899 7      -997.466          46.000
E26  26068823.664 7 136992688.054 7      2964.465          44.000    26068833.516 7 104968412.849 7      2271.563          46.000
> 2020 05 01 09 02 30.0000000  0 17        .000000000000
G12  20157628.711 8 105929051.934 8       704.812          49.000    20157628.148 8  82542113.778 8       549.205          49.000
G17  24476710.977 6 128625942.093 6     -3070.359          36.000    24476706.750 5 100228027.258 5     -2392.485          34.000
G24  20342652.273 8 106901353.597 8      -980.195          51.000    20342652.586 8  83299764.335 8      -763.789          51.000
G25  21739100.203 5 114239751.777 5      2439.867          33.000    21739109.375 5  89018016.646 5      1901.189          33.000
R04  23041600.492 6 123386740.039 6     -4213.090          40.000
R05  21227062.422 4 113470814.645 4     -1777.934          29.000
R14  20113779.781 8 107217744.046 8     -1339.297          51.000    20113782.727 7  83391593.385 7     -1041.675          45.000
R17  22008254.898 6 117770713.539 6      4109.145          41.000    22008259.102 7  91599456.126 7      3196.004          42.000
R23  21756107.016 4 116380476.647 4     -2121.793          29.000
R24  20684744.734 6 110610634.592 6       969.602          37.000    20684749.148 5  86030504.256 5       754.128          33.000
C05                                                                  39710717.945 6 159898604.948 6        25.910          37.000
C19  25062828.234 7 130508711.147 7     -2529.109          45.000
C27  22864284.242 8 119060381.956 8      1839.590          48.000
E01  24048160.523 5 126373939.566 5       863.898          35.000
E19                                                                  26786679.734 6 107858858.894 6     -2283.867          36.000
E21  24352026.672 6 127970827.720 6     -1300.848          39.000    24352029.453 7  98055516.492 7      -996.879          46.000
E26  26051881.961 7 136903657.446 7      2966.922          46.000    26051892.328 8 104900194.610 8      2273.410          48.000
> 2020 05 01 09 03  0.0000000  0 19        .000000000000
G12  20153638.070 8 105908080.332 8       692.941          48.000    20153637.273 8  82525772.270 8       539.954          48.000
G15  24495347.914 5 128723925.265 5     -3715.109          30.000    24495343.352 4 100304317.196 4     -2894.903          29.000
G17  24494252.789 5 128718123.020 5     -3075.633          35.000    24494251.523 5 100299856.434 5     -2396.597          34.000
G24  20348281.094 8 106930933.322 8      -992.141          51.000    20348281.344 8  83322813.450 8      -773.097          51.000
R04  23065206.961 6 123513164.626 6     -4215.586          38.000
R05  21237100.320 5 113524506.996 5     -1801.500          30.000    21237091.133 4  88296805.682 4     -1401.173          27.000
R14  20121337.828 8 107258031.832 8     -1346.926          51.000    20121340.109 7  83422928.330 7     -1047.609          45.000
R17  21985236.609 6 117647553.133 6      4101.137          41.000    21985242.828 7  91503664.750 7      3189.776          42.000
R23  21768069.195 5 116444452.034 5     -2143.453          35.000
R24  20679373.836 5 110581913.032 5       944.477          34.000    20679378.945 5  86008165.419 5       734.596          35.000
C05                                                                  39710518.703 6 159897802.753 6        27.303          37.000
C19  25077412.195 7 130584654.955 7     -2534.008          44.000
C27  22853721.016 8 119005374.735 8      1827.227          50.000
C28  23856984.508 5 124229515.447 5     -1236.914          32.000
C30  25370514.609 5 132110933.357 5      3477.270          35.000
E04  25100183.680 6 131902360.164 6      -783.332          39.000    25100176.547 5 101068013.573 5      -600.144          35.000
E19                                                                  26803700.258 5 107927384.472 5     -2285.295          35.000
E21  24359458.539 6 128009883.898 6     -1303.098          40.000    24359461.141 7  98085442.611 7      -998.403          46.000
E26  26034944.844 7 136814647.275 7      2966.602          46.000    26034954.969 8 104831992.045 8      2273.104          49.000
> 2020 05 01 09 03 30.0000000  0 18        .000000000000
G12  20149743.953 8 105887615.931 8       675.777          49.000    20149742.883 8  82509825.983 8       526.580          49.000
G17  24511853.742 5 128810616.877 5     -3086.344          34.000    24511852.211 5 100371929.469 5     -2404.943          34.000
G24  20354007.156 8 106961023.940 8     -1009.449          51.000    20354007.461 8  83346260.670 8      -786.584          51.000
R04  23088856.750 5 123639812.942 5     -4223.137          35.000    23088865.969 4  96164301.267 4     -3284.665          26.000
R05  21247291.805 5 113578929.112 5     -1828.363          31.000    21247289.711 4  88339172.722 4     -1422.054          29.000
R14  20128967.078 8 107298701.793 8     -1359.965          49.000    20128969.562 7  83454560.500 7     -1057.750          44.000
R17  21962293.797 6 117524787.730 6      4087.727          41.000    21962301.102 7  91408180.572 7      3179.343          42.000
R24  20674174.469 5 110554092.803 5       914.164          31.000    20674174.906 5  85986527.472 5       711.026          31.000
C05                                                                  39710336.617 6 159897069.911 6        24.989          36.000
C19  25092053.516 7 130660895.423 7     -2544.230          44.000
C27  22843258.312 8 118950889.251 8      1809.531          51.000
C28  23864181.812 5 124266978.731 5     -1255.762          33.000
C30  25350507.789 5 132006757.485 5      3472.188          33.000
E01  24038355.883 5 126322412.378 5       852.504          31.000    24038364.648 5  96792512.760 5       652.774          33.000
E04  25104715.781 6 131926181.951 6      -800.656          36.000    25104711.672 5 101086266.554 5      -613.286          35.000
E19                                                                  26820758.883 5 107996065.328 5     -2290.261          34.000
E21  24366931.039 6 128049153.049 6     -1310.344          39.000    24366933.383 7  98115531.976 7     -1004.122          45.000
E26  26018039.312 7 136725801.864 7      2960.844          47.000    26018048.672 8 104763915.701 8      2268.678          50.000
> 2020 05 01 09 04  0.0000000  0 21        .000000000000
G02  24469173.383 5 128586381.716 5      2423.219          34.000
G12  20145929.578 8 105867570.152 8       646.203          48.000    20145927.898 8  82494205.889 8       503.535          48.000
G15  24537819.141 5 128947098.015 5     -3735.203          33.000
G17  24529497.219 5 128903333.612 5     -3109.230          34.000    24529496.219 5 100444176.176 5     -2422.780          33.000
G24  20359813.617 8 106991537.444 8     -1039.090          51.000    20359814.109 8  83370037.413 8      -809.680          51.000
G25  21697575.406 5 114021523.608 5      2393.238          32.000    21697595.500 5  88847990.861 5      1864.867          31.000
R04  23112532.461 4 123766590.956 4     -4243.246          29.000    23112538.680 4  96262906.767 4     -3300.306          25.000
R14  20136651.094 8 107339664.223 8     -1385.543          49.000    20136653.938 7  83486420.162 7     -1077.645          43.000
R15  20248437.523 5 108201514.787 5      1625.250          34.000
R17  21939411.219 7 117402331.848 7      4061.410          44.000    21939417.688 7  91312937.147 7      3158.878          43.000
R24  20669125.117 6 110527085.604 6       871.207          37.000    20669125.508 5  85965521.951 5       677.605          30.000
C05                                                                  39710154.953 6 159896338.785 6        12.445          36.000
C19  25106734.453 7 130737342.528 7     -2566.500          45.000
C27  22832879.164 8 118896839.744 8      1779.504          51.000
C28  23871465.539 5 124304920.553 5     -1287.305          30.000
C30  25330512.586 5 131902636.051 5      3454.770          33.000
E01  24033508.570 6 126296937.259 6       831.633          36.000    24033521.281 5  96773029.418 5       637.141          34.000
E04  25109328.062 5 131950409.830 5      -830.023          31.000    25109321.859 5 101104841.500 5      -635.800          33.000
E19  26837834.047 5 141033769.416 5     -3008.160          32.000    26837838.297 5 108064832.411 5     -2305.295          33.000
E21  24374426.977 6 128088546.673 6     -1330.359          37.000    24374429.227 7  98145716.676 7     -1019.175          45.000
E26  26001148.492 8 136637034.941 8      2942.562          48.000    26001157.328 8 104695899.515 8      2254.607          51.000
> 2020 05 01 09 04 30.0000000  0 17        .000000000000
G02  24455248.984 6 128513202.240 6      2436.383          37.000
G12  20142172.867 8 105847828.223 8       650.855          48.000    20142170.922 8  82478822.554 8       507.160          48.000
G17  24547160.742 5 128996155.970 5     -3097.773          33.000    24547159.680 5 100516505.254 5     -2413.852          32.000
G24  20365678.539 8 107022359.149 8     -1034.652          51.000    20365679.172 8  83394054.294 8      -806.223          51.000
R14  20144368.445 8 107380802.802 8     -1376.426          48.000    20144371.633 7  83518416.838 7     -1070.553          43.000
R15  20239225.195 5 108152307.023 5      1636.395          32.000
R17  21916566.734 7 117280073.641 7      4069.742          46.000    21916571.773 7  91217847.550 7      3165.361          42.000
R24  20664205.781 6 110500776.738 6       863.223          39.000
C05                                                                  39709951.906 6 159895521.708 6        27.028          36.000
C19  25121432.680 7 130813880.427 7     -2554.844          45.000
C27  22822562.016 8 118843114.605 8      1783.301          51.000
C28  23878817.742 5 124343226.088 5     -1285.410          30.000
C30  25310506.508 5 131798457.911 5      3471.734          34.000
E01  24028671.367 6 126271510.955 6       844.660          36.000    24028682.289 5  96753546.895 5       646.833          30.000
E19  26854910.945 5 141123509.774 5     -2993.621          32.000    26854917.234 5 108133622.804 5     -2293.613          32.000
E21  24381924.688 6 128127950.106 6     -1315.734          38.000    24381926.984 7  98175908.901 7     -1008.256          44.000
E26  25984250.852 7 136548234.228 7      2958.441          46.000    25984259.406 8 104627857.408 8      2266.867          50.000
> 2020 05 01 09 05  0.0000000  0 20        .000000000000
G02  24441383.180 5 128440335.359 5      2426.762          35.000    24441377.820 5 100083343.550 5      1890.977          32.000
G12  20138522.953 8 105828647.233 8       633.121          49.000    20138520.945 8  82463876.332 8       493.341          49.000
G17  24564892.953 5 129089383.286 5     -3110.023          32.000    24564892.297 5 100589115.523 5     -2423.407          30.000
G19  22391819.727 5 117669806.571 5     -2373.988          34.000
G24  20371651.125 8 107053746.567 8     -1052.562          51.000    20371651.711 8  83418512.012 8      -820.179          51.000
R05  21278675.312 5 113746669.299 5     -1900.773          33.000
R14  20152168.234 7 107422378.719 7     -1390.074          46.000    20152171.812 7  83550753.690 7     -1081.169          42.000
R15  20230091.328 5 108103498.334 5      1623.746          32.000
R17  21893808.172 7 117158279.724 7      4055.164          46.000    21893812.281 7  91123119.040 7      3154.020          42.000
R23  21817309.930 5 116707833.946 5     -2243.406          32.000
R24  20659465.352 6 110475429.436 6       831.977          41.000    20659467.664 4  85925351.711 4       647.093          27.000
C05                                                                  39709776.555 6 159894816.012 6        24.291          36.000
C19  25136196.742 7 130890761.603 7     -2565.258          45.000
C27  22812356.336 8 118789970.584 8      1764.914          51.000
C30  25290538.953 5 131694480.480 5      3466.031          33.000
E01  24023891.477 5 126246388.791 5       835.418          35.000    24023898.125 4  96734282.294 4       639.916          29.000
E04  25118792.125 5 132000143.152 5      -843.352          32.000
E19                                                                  26872043.836 5 108202585.206 5     -2299.713          30.000
E21  24389473.469 6 128167620.436 6     -1323.922          39.000    24389475.742 7  98206305.655 7     -1014.356          44.000
E26  25967395.680 7 136459659.302 7      2951.828          47.000    25967404.133 8 104559988.330 8      2261.751          50.000
> 2020 05 01 09 05 30.0000000  0 19        .000000000000
G02  24427542.758 5 128367606.810 5      2428.371          34.000    24427539.422 5 100026691.831 5      1892.225          31.000
G12  20134946.039 8 105809850.043 8       626.566          49.000    20134943.727 8  82449229.169 8       488.234          49.000
G17  24582659.789 5 129182747.710 5     -3108.230          31.000    24582659.250 4 100661878.989 4     -2421.983          28.000
G24  20377697.711 8 107085522.953 8     -1059.199          51.000    20377698.453 8  83443272.831 8      -825.350          51.000
G25  21656564.516 5 113806017.554 5      2385.766          32.000
R04  23183686.961 5 124147580.715 5     -4233.164          31.000
R14  20160016.039 7 107464212.332 7     -1392.160          46.000    20160019.570 6  83583290.953 6     -1082.791          41.000
R17  21871102.867 7 117036774.459 7      4051.816          46.000    21871106.688 7  91028614.996 7      3151.416          43.000
R23  21829957.398 5 116775489.851 5     -2259.562          35.000
R24  20654871.086 6 110450865.128 6       812.629          39.000    20654872.531 5  85906231.027 5       632.045          34.000
C05                                                                  39709595.336 6 159894086.073 6        29.683          37.000
C19  25150992.703 7 130967808.294 7     -2564.695          44.000
C27  22802228.828 8 118737234.003 8      1757.391          51.000
C30  25270576.414 5 131590530.497 5      3471.133          34.000
E01  24019133.953 4 126221400.591 4       837.109          29.000
E04  25123643.281 5 132025636.248 5      -849.859          34.000
E19                                                                  26889182.945 4 108271596.574 4     -2296.489          28.000
E21  24397039.578 6 128207380.375 6     -1320.320          39.000    24397042.117 7  98236771.034 7     -1011.731          44.000
E26  25950549.953 7 136371135.222 7      2956.477          47.000    25950558.344 8 104492158.221 8      2265.271          50.000
> 2020 05 01 09 06  0.0000000  0 17        .000000000000
G02  24413720.523 5 128294975.528 5      2418.809          32.000    24413718.969 4  99970085.128 4      1884.798          25.000
G12  20131433.633 8 105791392.159 8       609.230          49.000    20131431.188 8  82434846.389 8       474.725          49.000
G17  24600452.094 5 129276248.018 5     -3119.547          31.000    24600451.656 4 100734736.486 4     -2430.822          26.000
G24  20383809.875 8 107117643.996 8     -1076.906          51.000    20383811.016 8  83468302.210 8      -839.148          51.000
G25  21643000.023 6 113734742.415 6      2372.836          36.000    21643010.211 5  88624495.219 5      1848.966          35.000
R04  23207431.727 5 124274747.949 5     -4239.629          33.000
R05  21300257.562 4 113862048.070 4     -1943.613          29.000    21300243.953 4  88559352.931 4     -1511.702          27.000
R14  20167904.094 7 107506258.603 7     -1405.473          45.000    20167907.547 6  83615993.665 6     -1093.145          41.000
R17  21848442.805 7 116915517.484 7      4037.098          47.000    21848447.625 7  90934304.052 7      3139.965          43.000
R23  21842723.047 5 116843776.528 5     -2287.504          32.000
R24  20650414.312 6 110427040.416 6       781.223          37.000    20650418.148 6  85887700.752 6       607.618          36.000
C05                                                                  39709399.469 6 159893298.137 6        26.810          36.000
C19  25165811.555 7 131044974.301 7     -2574.324          44.000
C27  22792171.195 8 118684862.823 8      1739.223          51.000
C30  25250609.453 5 131486566.559 5      3464.809          31.000
E21  24404614.242 6 128247185.591 6     -1328.008          40.000    24404617.016 7  98267271.154 7     -1017.639          43.000
E26  25933705.664 7 136282620.020 7      2949.820          46.000    25933713.828 8 104424334.910 8      2260.348          49.000
> 2020 05 01 09 06 30.0000000  0 19        .000000000000
G02  24399936.641 6 128222545.974 6      2412.832          36.000    24399935.570 6  99913655.472 6      1880.120          36.000
G12  20128005.188 8 105773375.683 8       595.238          49.000    20128003.133 8  82420807.590 8       463.822          49.000
G15  24643984.539 5 129505029.167 5     -3717.691          35.000    24643979.297 5 100912974.166 5     -2896.902          33.000
G17  24618289.055 5 129369981.873 5     -3126.340          32.000
G24  20390006.938 8 107150211.226 8     -1091.008          51.000    20390008.414 8  83493679.261 8      -850.136          51.000
G25  21629489.047 6 113663749.867 6      2362.438          36.000    21629505.750 5  88569199.626 5      1840.860          35.000
R04  23231202.453 5 124402047.514 5     -4243.383          34.000
R05  21311233.094 5 113920760.671 5     -1967.273          33.000    21311236.477 4  88605031.268 4     -1530.111          24.000
R14  20175851.469 7 107548621.022 7     -1415.359          43.000    20175854.719 6  83648942.230 6     -1100.838          39.000
R17  21825850.023 8 116794617.192 8      4026.039          48.000    21825854.867 7  90840270.481 7      3131.364          43.000
R23  21855624.086 4 116912794.552 4     -2310.719          29.000
R24  20646115.891 5 110404060.366 5       753.918          31.000    20646120.156 6  85869827.467 6       586.390          36.000
C05                                                                  39709208.820 6 159892530.368 6        26.777          36.000
C19  25180671.914 7 131122358.213 7     -2581.172          42.000
C27  22782203.719 8 118632959.870 8      1724.277          51.000
C30  25230659.172 5 131382691.949 5      3463.414          32.000
E01  24009687.984 5 126171759.463 5       823.324          34.000    24009689.281 5  96677069.492 5       630.996          34.000
E21  24412217.039 6 128287137.940 6     -1332.465          39.000    24412219.164 7  98297883.965 7     -1020.725          43.000
E26  25916882.719 7 136194217.830 7      2946.797          46.000    25916890.477 8 104356598.230 8      2257.974          48.000
> 2020 05 01 09 07  0.0000000  0 17        .000000000000
G02  24386183.125 5 128150275.519 5      2404.094          33.000    24386184.000 4  99857340.880 4      1873.326          29.000
G12  20124651.773 8 105755754.082 8       578.512          50.000    20124649.977 8  82407076.484 8       450.788          49.000
G17  24636161.680 5 129463902.169 5     -3135.840          32.000
G19  22446757.234 5 117958450.169 5     -2438.156          31.000
G24  20396280.328 8 107183178.843 8     -1107.867          51.000    20396281.766 8  83519368.311 8      -863.273          50.000
R04  23254988.766 5 124529428.405 5     -4249.445          34.000
R14  20183849.352 7 107591253.246 7     -1427.789          44.000    20183852.086 6  83682100.663 6     -1110.500          37.000
R17  21803316.414 8 116674031.717 8      4011.945          49.000    21803320.609 7  90746481.837 7      3120.405          45.000
R23  21868654.609 5 116982494.737 5     -2336.621          31.000
C05                                                                  39709014.602 6 159891746.885 6        25.053          36.000
C19  25195564.992 7 131199912.250 7     -2589.949          43.000
C27  22772318.148 8 118581481.608 8      1706.664          51.000
C28  23917039.289 4 124542282.393 4     -1366.512          28.000
C30  25210719.148 5 131278863.908 5      3458.840          30.000
E01                                                                  24005011.180 6  96658228.937 6       624.780          37.000
E21  24419839.352 6 128327191.456 6     -1338.754          41.000    24419840.570 7  98328574.313 7     -1025.999          43.000
E26  25900073.297 7 136105885.251 7      2940.941          46.000    25900080.336 8 104288914.853 8      2253.461          48.000
> 2020 05 01 09 07 30.0000000  0 14        .000000000000
G02  24372490.945 5 128078329.195 5      2382.344          31.000    24372492.938 4  99801278.838 4      1856.381          29.000
G12  20121404.273 8 105738689.121 8       549.039          49.000    20121402.547 8  82393779.094 8       427.823          49.000
G24  20402661.125 8 107216709.710 8     -1137.586          51.000    20402662.234 8  83545496.243 8      -886.431          51.000
R04  23278820.547 6 124657051.804 6     -4268.855          37.000
R14  20191928.562 7 107634319.539 7     -1453.387          43.000    20191932.914 6  83715596.675 6     -1130.412          36.000
R17  21780872.898 8 116553930.972 8      3984.629          50.000    21780876.969 7  90653070.218 7      3099.156          45.000
C05                                                                  39708847.523 6 159891074.115 6        12.415          36.000
C19  25210521.672 7 131277794.803 7     -2611.965          44.000
C27  22762545.039 8 118530590.445 8      1676.117          51.000
C28  23924972.336 4 124583614.364 4     -1397.945          29.000
E04  25143796.039 5 132131540.644 5      -927.703          32.000    25143795.539 6 101243640.944 6      -710.359          36.000
E19  26957905.414 5 141664751.003 5     -3032.605          34.000
E21  24427511.773 7 128367508.209 7     -1358.867          43.000    24427512.320 7  98359466.347 7     -1041.222          43.000
E26  25883308.570 7 136017786.573 7      2922.156          47.000    25883315.289 8 104221410.714 8      2239.088          48.000
> 2020 05 01 09 08  0.0000000  0 18        .000000000000
G02  24358837.289 5 128006583.117 5      2395.391          32.000    24358839.586 5  99745376.844 5      1866.541          32.000
G12  20118238.547 8 105722054.022 8       554.012          48.000    20118237.227 8  82380816.683 8       431.697          48.000
G15  24707727.594 5 129839967.915 5     -3716.812          34.000    24707733.531 5 101174027.067 5     -2896.214          34.000
G24  20409125.109 8 107250676.794 8     -1132.602          51.000    20409125.883 8  83571964.075 8      -882.547          51.000
G25  21589351.562 4 113452795.426 4      2333.258          27.000
R04  23302673.367 5 124784783.873 5     -4252.254          35.000
R14  20200064.930 7 107677691.429 7     -1443.961          42.000    20200069.820 5  83749330.330 5     -1123.081          32.000
R17  21758496.500 8 116434190.305 8      3992.199          51.000    21758500.461 7  90559938.657 7      3105.047          46.000
R24  20634193.875 5 110340316.075 5       671.914          31.000    20634196.609 5  85820253.614 5       522.603          35.000
C05                                                                  39708683.508 6 159890413.794 6        27.264          36.000
C19  25225516.977 7 131355877.624 7     -2599.480          44.000
C27  22752860.094 8 118480162.238 8      1679.941          50.000
C30  25170942.289 4 131071682.762 4      3456.699          28.000
E01  23995800.352 5 126098773.130 5       807.566          33.000    23995802.500 6  96621151.244 6       619.027          38.000
E04  25149051.297 5 132159166.722 5      -922.125          35.000    25149057.211 5 101264828.906 5      -706.506          35.000
E19  26975156.766 5 141755404.753 5     -3016.906          35.000
E21  24435210.156 7 128407961.048 7     -1343.922          44.000    24435210.250 7  98390462.647 7     -1029.809          43.000
E26  25866564.906 7 135929797.124 7      2937.832          47.000    25866571.555 8 104153990.235 8      2251.141          48.000
> 2020 05 01 09 08 30.0000000  0 16        .000000000000
G02  24345190.008 5 127934866.560 5      2386.906          32.000    24345191.953 4  99689493.732 4      1859.924          29.000
G12  20115121.578 8 105705674.751 8       538.766          49.000    20115120.703 8  82368053.611 8       419.817          49.000
G15  24728953.047 5 129951513.754 5     -3718.355          34.000    24728958.750 5 101260945.833 5     -2897.429          33.000
G24  20415639.117 8 107284906.109 8     -1148.340          51.000    20415639.578 8  83598636.235 8      -894.810          51.000
R04  23326513.023 5 124912443.899 5     -4256.648          34.000
R14  20208225.398 7 107721192.813 7     -1455.414          43.000    20208228.844 4  83783180.198 4     -1131.986          24.000
R17  21736155.414 8 116314637.502 8      3978.852          51.000    21736159.016 7  90466953.198 7      3094.665          46.000
R24  20630501.016 6 110320572.385 6       643.027          36.000    20630507.680 5  85804921.527 5       500.132          33.000
C05                                                                  39708489.680 6 159889633.110 6        25.645          36.000
C19  25240517.391 7 131433986.308 7     -2607.016          44.000
C27  22743231.547 8 118430026.804 8      1663.379          51.000
E01  23991214.602 6 126074661.208 6       800.570          39.000    23991213.133 6  96602675.879 6       613.478          36.000
E04  25154356.016 5 132187046.938 5      -937.531          34.000    25154368.492 5 101286211.688 5      -717.904          34.000
E19  26992396.352 5 141845994.664 5     -3021.992          35.000
E21  24442901.578 7 128448376.320 7     -1349.516          44.000    24442901.156 7  98421430.178 7     -1034.167          43.000
E26  25849809.266 7 135841745.597 7      2932.977          46.000    25849816.227 7 104086522.176 7      2247.361          46.000
> 2020 05 01 09 09  0.0000000  0 17        .000000000000
G02  24331586.250 5 127863347.467 5      2379.953          32.000    24331588.094 5  99633785.225 5      1854.509          31.000
G12  20112090.242 8 105689745.514 8       524.094          50.000    20112089.539 8  82355641.207 8       408.385          49.000
G24  20422240.031 8 107319592.099 8     -1163.203          51.000    20422240.406 8  83625664.235 8      -906.395          51.000
R04  23350376.039 5 125040225.318 5     -4260.695          33.000
R05  21368145.477 5 114224926.545 5     -2084.234          33.000
R14  20216447.234 7 107765020.609 7     -1465.688          43.000
R17  21713887.000 8 116195475.107 8      3966.234          49.000    21713890.406 7  90374271.384 7      3084.849          45.000
R24  20626976.359 6 110301721.417 6       614.809          36.000    20626984.930 4  85790259.773 4       478.178          29.000
C05                                                                  39708302.875 6 159888880.901 6        25.512          36.000
C19  25255558.922 7 131512310.962 7     -2613.801          42.000
C27  22733696.984 8 118380378.321 8      1647.453          51.000
C30  25131178.031 5 130864632.634 5      3448.898          31.000
E01  23986663.531 6 126050744.446 6       794.707          36.000    23986660.945 5  96584350.045 5       608.943          34.000
E04                                                                  25159765.359 5 101307937.573 5      -729.155          34.000
E19  27009660.555 5 141936713.052 5     -3024.957          34.000
E21  24450622.742 7 128488948.160 7     -1354.301          44.000    24450622.117 7  98452517.664 7     -1037.747          43.000
E26  25833078.727 7 135753828.394 7      2928.930          45.000    25833086.430 7 104019157.042 7      2244.239          44.000
> 2020 05 01 09 09 30.0000000  0 18        .000000000000
G02  24318002.633 6 127791964.649 6      2378.031          39.000    24318003.773 5  99578156.243 5      1853.002          35.000
G12  20109121.305 8 105674143.761 8       515.234          49.000    20109120.633 8  82343483.994 8       401.481          49.000
G15  24771399.789 5 130174549.185 5     -3713.383          35.000    24771404.898 5 101434741.233 5     -2893.545          35.000
G24  20428904.508 8 107354612.566 8     -1172.207          51.000    20428905.055 8  83652952.881 8      -913.408          51.000
R04  23374238.836 5 125167999.796 5     -4258.230          32.000
R05  21379889.602 5 114287712.778 5     -2101.730          32.000    21379878.477 4  88890433.408 4     -1634.679          25.000
R14  20224707.672 7 107809051.161 7     -1470.422          42.000
R17  21691668.953 7 116076583.353 7      3959.125          47.000    21691672.461 7  90281800.081 7      3079.319          43.000
R24  20623589.758 5 110283609.413 5       592.375          34.000    20623596.344 5  85776172.591 5       460.742          33.000
C05                                                                  39708100.055 6 159888063.900 6        28.556          36.000
C19  25270617.328 6 131590728.113 6     -2614.758          41.000
C27  22724233.219 8 118331097.367 8      1637.195          51.000
C30  25111298.023 5 130761120.330 5      3451.684          33.000
E01                                                                  23982121.125 5  96566069.224 5       609.117          31.000
E04  25165218.602 5 132244096.927 5      -960.316          32.000    25165225.594 5 101329912.446 5      -736.291          33.000
E19  27026925.953 5 142027453.102 5     -3022.688          32.000
E21  24458350.141 7 128529554.294 7     -1353.465          45.000    24458350.039 7  98483631.449 7     -1037.112          43.000
E26  25816351.289 7 135665925.676 7      2930.555          46.000    25816360.008 7 103951802.965 7      2245.403          42.000
> 2020 05 01 09 10  0.0000000  0 20        .000000000000
G02  24304467.219 6 127720832.407 6      2367.863          36.000    24304469.656 5  99522728.542 5      1845.085          33.000
G12  20106241.359 8 105659009.394 8       497.355          50.000    20106240.602 8  82331690.983 8       387.550          50.000
G15  24792620.375 5 130286062.429 5     -3716.938          32.000    24792622.906 5 101521634.611 5     -2896.312          31.000
G19  22531929.086 5 118406086.188 5     -2533.125          32.000
G24  20435659.195 8 107390107.775 8     -1190.426          51.000    20435659.898 8  83680611.461 8      -927.605          51.000
R04  23398125.617 5 125295905.566 5     -4265.387          31.000
R05  21391762.391 5 114351234.766 5     -2129.191          33.000    21391764.656 4  88939861.557 4     -1656.041          29.000
R14  20233032.492 7 107853426.193 7     -1484.336          43.000    20233047.258 4  83886078.031 4     -1154.487          28.000
R17  21669528.828 7 115958109.494 7      3942.738          44.000    21669532.164 6  90189653.864 6      3066.580          40.000
R24  20620368.109 5 110266380.088 5       559.832          33.000    20620374.211 4  85762771.885 4       435.419          29.000
C05                                                                  39707907.695 6 159887289.279 6        25.932          36.000
C19  25285719.734 7 131669374.046 7     -2624.605          43.000
C27  22714867.531 8 118282324.461 8      1617.812          51.000
C28  23965877.031 5 124796593.599 5     -1457.945          32.000
C30  25091440.875 6 130657741.711 6      3444.422          37.000
E01                                                                  23977622.359 5  96547949.707 5       601.709          32.000
E04  25170765.398 5 132273264.393 5      -978.672          32.000    25170775.062 5 101352273.079 5      -749.460          34.000
E19  27044217.758 5 142118323.080 5     -3030.504          30.000
E21  24466110.508 7 128570334.570 7     -1361.617          44.000    24466111.133 7  98514878.628 7     -1043.326          43.000
E26  25799654.203 8 135578179.621 8      2922.961          48.000    25799665.781 6 103884568.880 6      2239.752          39.000
> 2020 05 01 09 10 30.0000000  0 17        .000000000000
G02  24290976.781 5 127649940.603 5      2361.023          34.000    24290979.133 5  99467498.197 5      1839.762          33.000
G12  20103447.672 8 105644328.814 8       483.414          49.000    20103447.008 8  82320251.572 8       376.686          50.000
G15  24813839.289 4 130397605.019 4     -3716.578          28.000
G24  20442501.547 8 107426064.357 8     -1204.602          51.000    20442502.305 8  83708629.567 8      -938.651          51.000
R04  23422034.625 4 125423925.692 4     -4267.945          29.000
R05  21403783.297 5 114415474.082 5     -2151.676          34.000    21403784.883 5  88989825.349 5     -1673.529          32.000
R14  20241418.945 7 107898132.779 7     -1494.047          44.000    20241428.703 5  83920849.756 5     -1162.036          30.000
R17  21647464.617 6 115840045.318 6      3930.270          40.000    21647468.305 6  90097826.287 6      3056.879          41.000
R24  20617309.016 5 110250021.263 5       532.320          34.000    20617316.641 5  85750048.406 5       414.030          34.000
C05                                                                  39707723.477 6 159886547.513 6        25.433          36.000
C19  25300864.008 7 131748233.764 7     -2630.668          45.000
C27  22705597.117 8 118234048.541 8      1602.488          51.000
C30  25071606.547 6 130554486.495 6      3441.480          38.000
E01                                                                  23973164.414 5  96529995.789 5       596.950          34.000
E04  25176391.672 5 132302837.549 5      -992.609          34.000    25176408.867 4 101374966.160 4      -759.604          29.000
E21  24473901.000 7 128611276.015 7     -1365.746          43.000    24473902.219 7  98546249.354 7     -1046.511          43.000
E26  25782985.352 8 135490579.727 8      2919.238          50.000    25783000.102 5 103817446.972 5      2236.831          34.000
> 2020 05 01 09 11  0.0000000  0 15        .000000000000
G02  24277512.336 5 127579188.275 5      2344.699          33.000    24277516.484 5  99412366.619 5      1827.038          33.000
G12  20100720.844 8 105629998.815 8       460.773          49.000    20100720.141 8  82309085.331 8       359.044          50.000
G15  24835052.547 5 130509081.877 5     -3725.145          32.000
G19  22561041.672 5 118559074.725 5     -2574.355          30.000
G24  20449411.828 8 107462378.803 8     -1227.535          51.000    20449412.922 8  83736926.531 8      -956.521          51.000
R14  20249848.188 7 107943065.834 7     -1512.758          45.000    20249858.789 4  83955797.568 4     -1176.589          27.000
R17  21625454.969 6 115722289.818 6      3908.883          41.000    21625462.984 7  90006238.600 7      3040.239          44.000
R24  20614393.352 5 110234428.908 5       495.656          33.000    20614400.617 5  85737920.943 5       385.501          31.000
C05                                                                  39707527.719 6 159885759.098 6        18.564          36.000
C19  25316029.430 7 131827202.023 7     -2645.121          46.000
C27  22696402.250 8 118186168.386 8      1578.398          51.000
C30  25051778.195 6 130451254.152 6      3429.637          37.000
E01                                                                  23968726.875 6  96512116.903 6       586.196          36.000
E21  24481702.016 7 128652274.883 7     -1378.668          42.000    24481704.086 7  98577664.022 7     -1056.457          43.000
E26  25766324.867 8 135403024.373 8      2906.570          50.000    25766332.711 7 103750359.351 7      2227.020          42.000
> 2020 05 01 09 11 30.0000000  0 15        .000000000000
G12  20098063.656 8 105616034.338 8       472.500          49.000    20098062.727 8  82298203.934 8       368.182          49.000
G15  24856254.148 5 130620470.200 5     -3698.582          34.000    24856255.172 4 101782198.518 4     -2882.012          27.000
G19  22575714.516 5 118636180.944 5     -2563.922          31.000
G24  20456393.070 8 107499066.843 8     -1216.051          51.000    20456394.492 8  83765514.613 8      -947.572          51.000
R14  20258323.445 7 107988241.390 7     -1496.656          45.000    20258324.727 4  83990891.297 4     -1164.063          29.000
R17  21603512.414 7 115604863.588 7      3922.027          45.000    21603519.531 7  89914907.056 7      3050.466          45.000
C05                                                                  39707323.430 6 159884936.352 6        38.171          36.000
C19  25331218.125 7 131906292.109 7     -2625.129          45.000
C27  22687286.695 8 118138701.398 8      1588.336          51.000
C30  25031959.422 6 130348062.842 6      3451.996          37.000
E01  23964310.711 5 125933302.740 5       785.109          35.000    23964310.250 5  96494324.286 5       601.727          34.000
E04  25187858.805 5 132363091.871 5     -1003.238          35.000    25187869.422 5 101421115.125 5      -768.281          35.000
E19  27096173.820 5 142391355.004 5     -3023.070          34.000
E21  24489517.414 6 128693346.847 6     -1357.055          41.000    24489520.188 7  98609134.690 7     -1039.908          43.000
E26  25749676.039 8 135315531.725 8      2928.477          50.000    25749680.719 7 103683319.557 7      2243.898          46.000
> 2020 05 01 09 12  0.0000000  0 16        .000000000000
G02  24250736.219 5 127438478.496 5      2339.824          31.000
G12  20095535.305 8 105602747.879 8       441.973          49.000    20095534.477 8  82287850.871 8       344.397          49.000
G19  22590524.766 5 118714008.081 5     -2596.391          30.000
G24  20463504.891 8 107536440.999 8     -1246.836          51.000    20463506.633 8  83794637.342 8      -971.560          51.000
R14  20266903.031 7 108033976.452 7     -1523.199          44.000    20266908.625 5  84026462.886 5     -1184.714          30.000
R17  21581691.688 8 115488089.504 8      3892.121          48.000    21581697.617 7  89824082.799 7      3027.205          46.000
R24  20609072.531 5 110205948.982 5       448.668          35.000    20609070.359 5  85715741.747 5       348.955          35.000
C05                                                                  39707170.117 6 159884319.818 6        24.986          36.000
C19  25346488.930 7 131985811.315 7     -2647.574          44.000
C27  22678309.891 8 118091958.852 8      1556.203          50.000
C30  25012208.836 5 130245224.548 5      3432.555          34.000
E01  23959977.664 5 125910525.012 5       763.262          34.000    23959971.578 5  96476857.353 5       584.903          34.000
E04  25193751.297 6 132394067.067 6     -1033.258          37.000    25193764.258 5 101444849.427 5      -791.516          32.000
E19  27113566.922 5 142482756.921 5     -3042.035          34.000
E21  24497406.289 7 128734804.263 7     -1378.047          43.000    24497409.422 7  98640900.725 7     -1055.753          42.000
E26  25733098.547 8 135228416.485 8      2907.914          49.000    25733102.844 7 103616568.916 7      2228.163          47.000
> 2020 05 01 09 12 30.0000000  0 17        .000000000000
G02  24237388.156 5 127368340.777 5      2331.629          34.000
G12  20093042.008 8 105589645.336 8       427.477          49.000    20093041.445 8  82277641.081 8       333.099          49.000
G19  22605352.109 5 118791927.040 5     -2611.664          30.000
G24  20470653.273 8 107574007.559 8     -1261.566          51.000    20470655.562 8  83823909.966 8      -983.039          51.000
R05  21453087.344 5 114679012.096 5     -2241.117          35.000    21453094.016 5  89194816.996 5     -1743.085          34.000
R14  20275493.656 7 108079770.408 7     -1533.676          44.000    20275495.367 4  84062070.528 4     -1192.853          29.000
R17  21559899.781 8 115371469.541 8      3878.363          50.000    21559904.461 7  89733378.429 7      3016.508          47.000
R23  22020559.258 5 117795117.998 5     -2586.402          33.000
C05                                                                  39706973.750 6 159883529.410 6        24.424          36.000
C19  25361747.891 7 132065268.142 7     -2653.648          44.000
C27  22669378.406 8 118045453.226 8      1540.137          51.000
C30  24992432.930 5 130142252.520 5      3428.332          34.000
E01  23955627.836 4 125887673.963 4       757.926          29.000    23955620.352 5  96459356.139 5       579.865          34.000
E04  25199680.430 6 132425221.183 6     -1047.598          39.000    25199694.008 5 101468720.902 5      -802.681          34.000
E19  27130931.719 5 142574011.197 5     -3045.332          33.000
E21  24505274.727 7 128776153.438 7     -1382.645          43.000    24505277.469 6  98672583.855 6     -1059.444          41.000
E26  25716498.617 7 135141187.366 7      2903.332          47.000    25716503.891 8 103549731.016 8      2224.649          48.000
> 2020 05 01 09 13  0.0000000  0 15        .000000000000
G02  24224061.703 5 127298303.625 5      2339.965          30.000
G12  20090605.617 8 105576841.334 8       428.398          49.000    20090604.859 8  82267663.923 8       333.817          48.000
G24  20477860.008 8 107611880.454 8     -1260.863          51.000    20477862.406 8  83853421.314 8      -982.491          51.000
R14  20284117.664 7 108125739.746 7     -1528.398          46.000    20284121.062 5  84097824.426 5     -1188.757          33.000
R17  21538159.062 8 115255125.432 8      3880.352          49.000    21538162.773 7  89642888.566 7      3018.051          47.000
R23  22035096.328 5 117872858.014 5     -2593.461          31.000
C05                                                                  39706756.438 6 159882654.162 6        35.606          36.000
C19  25377016.492 7 132144773.827 7     -2644.344          44.000
C27  22660514.977 8 117999299.777 8      1539.211          51.000
C28  24017843.883 5 125067221.546 5     -1536.012          35.000
C30  24972654.422 5 130039262.895 5      3440.004          34.000
E01                                                                  23951279.219 5  96441872.470 5       587.228          35.000
E04  25205665.133 6 132456668.241 6     -1046.441          37.000    25205675.750 6 101492818.755 6      -801.765          36.000
E21  24513144.508 7 128817509.027 7     -1372.020          44.000    24513146.641 6  98704271.906 6     -1051.069          40.000
E26  25699898.773 7 135053961.313 7      2914.145          46.000    25699905.789 8 103482895.450 8      2232.925          48.000
> 2020 05 01 09 13 30.0000000  0 14        .000000000000
G02  24210834.383 4 127228786.105 4      2318.875          29.000
G12  20088305.070 8 105564751.548 8       402.355          49.000    20088304.133 8  82258243.326 8       313.524          49.000
G24  20485204.523 8 107650476.839 8     -1287.383          51.000    20485206.688 8  83883496.402 8     -1003.155          51.000
R14  20292853.758 7 108172306.129 7     -1550.812          45.000    20292858.055 5  84134042.738 5     -1206.184          31.000
R17  21516549.094 7 115139485.134 7      3854.402          47.000    21516552.531 7  89552946.108 7      2997.868          47.000
C05                                                                  39706597.102 6 159882012.879 6        26.052          36.000
C19  25392372.914 7 132224738.113 7     -2661.906          42.000
C27  22651799.250 8 117953912.248 8      1511.250          51.000
C28  24026834.680 5 125114077.205 5     -1563.125          31.000
C30  24952951.266 5 129936670.230 5      3424.715          33.000
E01                                                                  23947026.562 5  96424743.151 5       573.801          34.000
E04  25211783.672 6 132488823.411 6     -1072.441          36.000    25211791.062 5 101517457.037 5      -821.693          34.000
E21  24521094.445 7 128859286.819 7     -1388.344          43.000    24521096.812 6  98736283.492 6     -1063.969          40.000
E26  25683379.109 7 134967156.497 7      2897.691          45.000    25683387.711 8 103416382.680 8      2220.348          48.000
> 2020 05 01 09 14  0.0000000  0 13        .000000000000
G12  20086051.352 8 105552907.539 8       387.590          50.000    20086050.414 8  82249014.225 8       302.018          50.000
G24  20492597.688 8 107689327.709 8     -1302.363          51.000    20492599.633 8  83913769.783 8     -1014.829          51.000
R05  21491346.672 5 114883579.038 5     -2306.391          32.000
R14  20301612.031 7 108218995.185 7     -1561.539          44.000    20301617.664 5  84170356.442 5     -1214.527          30.000
R17  21494982.000 8 115024077.004 8      3839.793          48.000    21494985.656 7  89463184.239 7      2986.506          45.000
R24  20600218.188 5 110158598.660 5       338.125          32.000    20600215.734 5  85678921.143 5       262.983          35.000
C05                                                                  39706406.852 6 159881246.218 6        25.397          36.000
C19  25407727.531 6 132304695.108 6     -2668.035          40.000
C27  22643141.680 8 117908828.624 8      1494.652          51.000
C30  24933235.781 5 129834013.277 5      3419.527          31.000
E04  25217947.797 6 132521218.069 6     -1086.668          37.000    25217949.938 5 101542239.809 5      -832.872          31.000
E21  24529035.719 7 128901019.057 7     -1393.473          42.000    24529038.117 6  98768260.059 6     -1067.738          39.000
E26  25666851.930 7 134880307.370 7      2892.617          45.000    25666859.836 7 103349835.974 7      2216.364          46.000
> 2020 05 01 09 14 30.0000000  0 17        .000000000000
G02  24184418.359 4 127089963.033 4      2304.117          29.000
G12  20083845.117 8 105541313.835 8       374.281          49.000    20083844.266 8  82239980.170 8       291.648          49.000
G24  20500040.398 8 107728438.362 8     -1316.031          51.000    20500042.008 8  83944245.578 8     -1025.482          51.000
G25  21421091.031 5 112568612.058 5      2201.445          30.000
R05  21504322.578 5 114952927.615 5     -2326.621          32.000
R14  20310394.703 6 108265811.817 6     -1570.809          40.000    20310398.414 5  84206776.478 5     -1221.740          30.000
R17  21473460.562 8 114908910.760 8      3826.652          50.000    21473463.695 7  89373610.522 7      2976.288          43.000
R23  22079511.922 5 118110471.904 5     -2672.414          33.000
R24  20598363.414 5 110148695.601 5       310.438          30.000    20598367.547 6  85671218.715 6       241.461          36.000
C19  25423080.875 6 132384647.184 6     -2672.691          39.000
C27  22634543.930 8 117864055.412 8      1479.262          51.000
C28  24045004.188 4 125208595.499 4     -1594.121          29.000
C30  24913512.086 5 129731190.157 5      3416.195          33.000
E01  23938510.406 5 125797727.806 5       737.273          35.000    23938509.742 5  96390459.167 5       564.738          30.000
E04  25224158.047 5 132553856.355 5     -1100.266          34.000    25224155.102 4 101567224.310 4      -843.252          29.000
E21  24536969.188 7 128942710.445 7     -1397.004          42.000    24536971.922 6  98800205.393 6     -1070.602          37.000
E26  25650317.773 7 134793421.127 7      2888.699          44.000    25650323.883 7 103283260.870 7      2213.467          45.000
> 2020 05 01 09 15  0.0000000  0 16        .000000000000
G02  24171297.836 4 127021035.044 4      2294.438          29.000
G12  20081761.914 8 105530367.088 8       358.551          49.000    20081761.258 8  82231450.235 8       279.390          49.000
G24  20507608.055 8 107768205.214 8     -1332.102          51.000    20507609.070 8  83975232.702 8     -1038.004          51.000
G25  21408569.719 5 112502802.697 5      2188.832          34.000    21408576.680 5  87664540.801 5      1705.580          33.000
R05  21517462.711 6 115023163.144 6     -2350.473          38.000
R14  20319276.867 6 108313159.005 6     -1582.781          41.000    20319280.062 4  84243602.020 4     -1231.052          29.000
R17  21452060.969 8 114794395.110 8      3810.820          51.000    21452063.109 6  89284542.843 6      2963.977          40.000
R23  22094573.750 4 118191069.907 4     -2696.266          27.000
R24  20596712.828 5 110139870.704 5       280.730          32.000    20596715.914 5  85664354.815 5       218.340          31.000
C05                                                                  39706012.344 6 159879657.814 6        23.914          36.000
C19  25438508.711 6 132464985.172 6     -2680.242          40.000
