     3.02           OBSERVATION DATA    M (MIXED)           RINEX VERSION / TYPE
SAVERINEX           SC600               20200518 125932 LCL PGM / RUN BY / DATE
       G = GPS       R = GLONASS       C = COMPASS          COMMENT
       S = SBAS      J = QZSS          E = GALILEO          COMMENT
BEAN                                                        MARKER NAME
1                                                           MARKER NUMBER
GEODETIC                                                    MARKER TYPE
Unige DICCA         GTER                                    OBSERVER / AGENCY
SC60291900056       SC600               2.12(191202)        REC # / TYPE / VERS
                    HEMA45          NONE                    ANT # / TYPE
  4509407.8091   693652.4678  4442337.6214                  APPROX POSITION XYZ
        0.0000        0.0000        0.0000                  ANTENNA: DELTA H/E/N
G    8 C1C L1C D1C S1C C2Y L2Y D2Y S2Y                      SYS / # / OBS TYPES
R    8 C1C L1C D1C S1C C2P L2P D2P S2P                      SYS / # / OBS TYPES
C    8 C1I L1I D1I S1I C7I L7I D7I S7I                      SYS / # / OBS TYPES
E    8 C1C L1C D1C S1C C7Q L7Q D7Q S7Q                      SYS / # / OBS TYPES
DBHZ                                                        COMMENT
     30.000                                                 INTERVAL
  2020    05    18    10    00    0.0000000     GPS         TIME OF FIRST OBS
  2020    05    18    10    59   30.0000000     GPS         TIME OF LAST OBS
     0                                                      RCV CLOCK OFFS APPL
G L1C  0.00000                                              SYS / PHASE SHIFT
G L2Y  0.00000                                              SYS / PHASE SHIFT
R L1C  0.00000                                              SYS / PHASE SHIFT
R L2P  0.25000                                              SYS / PHASE SHIFT
C L1I  0.00000                                              SYS / PHASE SHIFT
C L7I  0.00000                                              SYS / PHASE SHIFT
E L1C  0.50000                                              SYS / PHASE SHIFT
E L7Q -0.25000                                              SYS / PHASE SHIFT
 13 R03  5 R04  6 R05  1 R06 -4 R09 -2 R10 -5 R14 -7 R15  0 GLONASS SLOT / FRQ #
    R16 -1 R17  4 R18 -3 R19  3 R20  2                      GLONASS SLOT / FRQ #
 C1C   71.950 C2C   71.950 C2P   71.950                     GLONASS COD/PHS/BIS
    18                                                      LEAP SECONDS
*** Above antenna height is from mark to ANTENNA BOTTOM.    COMMENT
    17     4        0.0000        ANT MEASURE TYPE/HEIGT    COMMENT
    0.0000    0.0000    0.0458    0.0405    0.0000          COMMENT
                    BASE STATION                            COMMENT
                                                            END OF HEADER
> 2020 05 18 10 00  0.0000000  0 15        .000000000000
G12  21353368.547 7 112212704.792 7     -2085.371          42.000    21353368.062 7  87438468.171 7     -1624.964          43.000
G24  24016652.250 7 126208301.759 7     -3624.871          42.000    24016654.289 7  98344118.928 7     -2824.578          42.000
G25  20192938.805 8 106114652.484 8      -426.113          51.000    20192941.062 8  82686720.110 8      -332.036          51.000
G29  20718467.305 8 108876275.878 8      1693.355          51.000    20718466.773 8  84838664.420 8      1319.498          51.000
G32  22887744.305 7 120275813.503 7     -2080.750          47.000    22887747.031 7  93721438.900 7     -1621.367          47.000
R16  19822291.531 8 105887162.197 8     -1410.562          48.000    19822293.680 7  82356645.393 7     -1097.104          45.000
R18  19988754.359 8 106701417.673 8     -1909.465          51.000    19988757.664 8  82989981.843 8     -1485.139          50.000
R19  19775801.219 7 105787185.589 7      2258.273          42.000    19775804.320 7  82278946.530 7      1756.435          46.000
C11  21932003.312 7 114205728.344 7       848.211          47.000    21932004.438 8  88311123.756 8       655.894          51.000
C12  23347613.953 4 121577117.195 4     -2262.332          29.000    23347613.016 5  94011171.694 5     -1750.487          32.000
C24  25807593.664 7 134386896.012 7     -2999.895          43.000
C25  22001878.406 8 114569554.645 8     -1050.051          51.000
E13  24255302.750 6 127462475.734 6      -219.285          37.000    24255304.805 8  97666074.452 8      -168.066          50.000
E21  24034937.008 8 126304450.682 8      -979.059          51.000    24034938.852 8  96778734.899 8      -750.152          51.000
E26  24023681.844 8 126245290.293 8      2526.113          49.000    24023685.016 8  96733462.255 8      1935.536          51.000
> 2020 05 18 10 00 30.0000000  0 15        .000000000000
G12  21365298.094 6 112275393.370 6     -2094.121          38.000    21365297.125 6  87487316.368 6     -1631.783          39.000
G24  24037360.008 6 126317123.102 6     -3629.969          41.000    24037362.398 6  98428914.732 6     -2828.550          41.000
G25  20195405.820 8 106127616.354 8      -438.207          51.000    20195407.984 8  82696821.823 8      -341.460          51.000
G29  20708847.516 8 108825722.712 8      1676.820          51.000    20708847.148 8  84799272.340 8      1306.613          51.000
G32  22899663.281 8 120338445.941 8     -2094.895          48.000    22899665.023 8  93770243.353 8     -1632.385          48.000
R16  19830260.281 7 105929729.151 7     -1427.355          47.000    19830262.031 7  82389753.010 7     -1110.165          44.000
R18  19999553.430 8 106759064.396 8     -1933.574          51.000    19999556.914 8  83034818.195 8     -1503.891          50.000
R19  19763206.336 7 105719809.612 7      2233.355          42.000    19763209.297 7  82226543.022 7      1737.054          46.000
C11  21927164.203 8 114180529.577 8       831.781          48.000    21927165.445 8  88291638.501 8       643.065          51.000
C12  23360684.242 5 121645177.900 5     -2274.160          31.000    23360682.453 5  94063800.432 5     -1758.178          30.000
C24  25824892.039 7 134476970.574 7     -3004.988          43.000
C25  22007966.016 8 114601254.150 8     -1063.203          51.000
E13  24256599.305 6 127469291.725 6      -235.078          40.000    24256601.695 8  97671297.105 8      -180.044          51.000
E21  24040547.391 8 126333932.439 8      -986.387          51.000    24040549.078 8  96801324.817 8      -755.779          51.000
E26  24009288.320 8 126169655.063 8      2516.336          48.000    24009291.836 8  96675508.003 8      1928.009          51.000
> 2020 05 18 10 01  0.0000000  0 15        .000000000000
G12  21377274.000 6 112338326.453 6     -2102.461          37.000    21377272.703 6  87536355.098 6     -1638.281          36.000
G24  24058091.734 6 126426072.212 6     -3633.758          38.000    24058094.641 6  98513810.096 6     -2831.500          38.000
G25  20197939.945 8 106140933.053 8      -449.691          51.000    20197942.156 8  82707198.465 8      -350.409          51.000
G29  20699319.688 8 108775652.670 8      1660.934          51.000    20699319.609 8  84760256.733 8      1294.234          51.000
G32  22911660.859 8 120401491.602 8     -2108.273          48.000    22911662.219 8  93819369.792 8     -1642.814          48.000
R16  19838321.297 7 105972790.518 7     -1443.508          45.000    19838323.422 7  82423245.184 7     -1122.728          45.000
R18  20010486.062 8 106817423.097 8     -1957.074          51.000    20010489.367 8  83080208.272 8     -1522.172          50.000
R19  19750747.336 6 105653162.376 6      2209.324          41.000    19750750.211 7  82174706.312 7      1718.363          46.000
C11  21922417.758 8 114155813.163 8       815.938          48.000    21922419.086 8  88272526.178 8       630.968          51.000
C12  23373816.539 5 121713561.565 5     -2284.812          31.000    23373814.688 5  94116678.880 5     -1766.267          33.000
C24  25842216.672 7 134567184.649 7     -3009.277          42.000
C25  22014126.859 8 114633335.273 8     -1075.750          50.000
E13  24257983.523 6 127476564.209 6      -249.949          40.000    24257985.664 8  97676869.455 8      -191.445          51.000
E21  24046197.070 8 126363620.980 8      -992.922          51.000    24046198.750 8  96824073.175 8      -760.876          51.000
E26  23994948.641 8 126094302.753 8      2507.199          49.000    23994952.797 8  96617770.534 8      1921.059          51.000
> 2020 05 18 10 01 30.0000000  0 15        .000000000000
G12  21389293.516 6 112401487.872 6     -2109.531          40.000    21389291.953 6  87585571.792 6     -1643.788          40.000
G24  24078844.484 6 126535131.228 6     -3637.152          36.000    24078847.562 6  98598791.072 6     -2834.145          36.000
G25  20200538.125 8 106154586.743 8      -461.121          51.000    20200540.469 8  82717837.696 8      -359.315          51.000
G29  20689880.859 8 108726050.782 8      1645.250          51.000    20689880.953 8  84721605.936 8      1282.013          51.000
G32  22923733.453 8 120464931.989 8     -2121.473          48.000    22923735.250 8  93868803.824 8     -1653.099          48.000
R16  19846471.797 7 106016330.800 7     -1459.539          45.000    19846474.414 7  82457109.868 7     -1135.197          45.000
R18  20021548.234 8 106876474.311 8     -1980.184          51.000    20021551.797 8  83126136.998 8     -1540.143          50.000
R19  19738421.820 7 105587230.239 7      2185.617          42.000    19738424.398 7  82123425.769 7      1699.924          45.000
C11  21917760.711 8 114131563.553 8       800.242          48.000    21917762.508 8  88253774.853 8       618.816          51.000
C12  23387008.039 5 121782250.311 5     -2295.305          30.000    23387006.547 5  94169793.410 5     -1774.461          35.000
C24  25859564.453 6 134657521.720 6     -3013.496          40.000
C25  22020357.789 8 114665782.462 8     -1087.906          50.000
E13  24259450.766 6 127484276.641 6      -264.605          39.000    24259453.445 8  97682779.065 8      -202.789          50.000
E21  24051882.977 8 126393500.801 8      -999.469          51.000    24051884.977 8  96846968.086 8      -765.854          51.000
E26  23980660.438 8 126019219.209 8      2497.930          50.000    23980665.211 8  96560239.031 8      1914.085          51.000
> 2020 05 18 10 02  0.0000000  0 15        .000000000000
G12  21401357.680 6 112464882.585 6     -2117.340          36.000    21401356.445 6  87634970.317 6     -1649.872          36.000
G24  24099619.102 6 126644304.269 6     -3641.172          39.000    24099621.969 6  98683860.914 6     -2837.280          39.000
G25  20203201.500 8 106168583.181 8      -472.680          51.000    20203203.969 8  82728744.002 8      -368.322          51.000
G29  20680532.375 8 108676923.547 8      1629.223          51.000    20680532.375 8  84683324.973 8      1269.524          51.000
G32  22935881.672 7 120528770.285 7     -2135.027          47.000    22935884.062 7  93918547.909 7     -1663.658          47.000
R16  19854713.281 7 106060356.167 7     -1476.004          46.000    19854716.211 7  82491351.827 7     -1148.003          45.000
R18  20032740.789 8 106936220.850 8     -2003.461          51.000    20032744.602 8  83172606.530 8     -1558.247          50.000
R19  19726231.797 6 105522021.319 6      2161.109          41.000    19726233.828 7  82072707.748 7      1680.863          45.000
C11  21913194.258 8 114107786.661 8       784.309          48.000    21913196.633 8  88235389.082 8       606.365          51.000
C12  23400258.164 4 121851248.105 4     -2305.383          28.000    23400257.938 5  94223146.943 5     -1782.692          35.000
C24  25876936.547 6 134747986.650 6     -3017.852          40.000
C25  22026660.164 8 114698601.572 8     -1100.621          51.000
E13  24261004.445 7 127492434.817 7      -279.762          42.000    24261005.789 8  97689030.094 8      -214.387          50.000
E21  24057606.258 8 126423577.992 8     -1006.355          51.000    24057608.648 8  96870014.225 8      -771.038          51.000
E26  23966425.203 8 125944411.852 8      2488.469          51.000    23966430.336 8  96502919.159 8      1906.794          50.000
> 2020 05 18 10 02 30.0000000  0 15        .000000000000
G12  21413466.969 5 112528513.869 5     -2124.152          35.000    21413465.602 5  87684553.063 5     -1655.190          35.000
G24  24120416.328 6 126753593.252 6     -3644.219          39.000    24120419.078 6  98769021.122 6     -2839.651          39.000
G25  20205930.812 8 106182926.067 8      -483.367          51.000    20205933.375 8  82739920.272 8      -376.650          51.000
G29  20671274.844 8 108628275.356 8      1614.195          50.000    20671274.906 8  84645417.312 8      1257.815          51.000
G32  22948105.523 7 120593007.541 7     -2147.375          47.000    22948107.680 7  93968602.898 7     -1673.279          46.000
R16  19863046.523 8 106104869.993 8     -1491.348          48.000    19863049.531 7  82525973.669 7     -1159.937          45.000
R18  20044063.672 8 106996663.295 8     -2025.734          51.000    20044067.406 8  83219617.323 8     -1575.571          50.000
R19  19714178.469 6 105457541.803 6      2137.605          41.000    19714179.672 7  82022557.022 7      1662.582          44.000
C11  21908719.820 8 114084486.333 8       769.289          49.000    21908722.023 8  88217371.782 8       594.845          51.000
C12  23413567.148 5 121920590.666 5     -2315.062          30.000    23413568.617 6  94276740.688 6     -1790.256          36.000
C24  25894334.094 6 134838582.368 6     -3021.777          40.000
C25  22033035.031 8 114731796.357 8     -1112.211          51.000
E13  24262642.469 6 127501041.828 6      -293.852          37.000    24262643.398 8  97695625.096 8      -225.177          49.000
E21  24063368.039 8 126453856.624 8     -1012.035          51.000    24063370.438 8  96893214.737 8      -775.524          51.000
E26  23952243.891 8 125869886.119 8      2480.027          51.000    23952249.008 8  96445815.085 8      1900.302          51.000
> 2020 05 18 10 03  0.0000000  0 16        .000000000000
G02  23125549.320 6 121525557.234 6     -1106.484          39.000
G12  21425619.930 5 112592373.979 5     -2132.766          35.000    21425616.602 5  87734314.289 5     -1661.889          35.000
G24  24141234.305 6 126862989.121 6     -3648.406          39.000    24141236.102 6  98854264.573 6     -2842.917          39.000
G25  20208724.758 8 106197608.592 8      -495.215          51.000    20208727.305 8  82751361.193 8      -385.882          51.000
G29  20662107.180 8 108580100.150 8      1597.719          51.000    20662107.281 8  84607878.230 8      1244.976          51.000
G32  22960403.391 7 120657634.322 7     -2160.805          45.000    22960405.070 7  94018961.422 7     -1683.744          46.000
R16  19871469.945 8 106149865.631 8     -1507.957          49.000    19871472.773 7  82560970.244 7     -1172.855          43.000
R18  20055515.133 8 107057791.538 8     -2049.152          51.000    20055518.742 8  83267161.508 8     -1593.785          50.000
R19  19702260.461 6 105393786.774 6      2112.836          41.000    19702261.016 7  81972969.779 7      1643.317          44.000
C11  21904335.367 7 114061656.055 7       752.965          47.000    21904337.617 8  88199717.966 8       582.310          51.000
C12  23426934.992 5 121990201.383 5     -2325.773          30.000    23426936.820 6  94330568.005 6     -1798.300          37.000
C24  25911755.445 6 134929301.227 6     -3026.215          40.000
C25  22039480.891 8 114765360.212 8     -1125.117          51.000
E13  24264365.594 6 127510090.556 6      -309.027          39.000    24264365.484 8  97702558.560 8      -236.856          49.000
E21  24069166.922 8 126484330.305 8     -1019.188          51.000    24069169.578 8  96916564.692 8      -780.918          51.000
E26  23938115.164 8 125795636.889 8      2470.191          51.000    23938120.023 8  96388922.879 8      1892.741          50.000
> 2020 05 18 10 03 30.0000000  0 15        .000000000000
G02  23131912.469 5 121559005.799 5     -1122.672          35.000
G24  24162074.141 6 126972501.692 6     -3651.461          39.000    24162075.219 6  98939598.902 6     -2845.300          38.000
G25  20211585.438 8 106212641.814 8      -506.238          51.000    20211588.008 8  82763075.388 8      -394.471          51.000
G29  20653031.641 8 108532409.592 8      1582.324          49.000    20653031.750 8  84570716.800 8      1232.980          49.000
G32  22972776.766 7 120722658.984 7     -2173.453          44.000    22972778.547 7  94069629.967 7     -1693.600          44.000
R16  19879985.773 8 106195354.639 8     -1523.801          49.000    19879988.133 7  82596350.549 7     -1185.178          43.000
R18  20067096.625 8 107119613.618 8     -2071.523          51.000    20067099.766 8  83315245.334 8     -1611.185          50.000
R19  19690480.297 6 105330769.745 6      2088.723          40.000    19690480.461 7  81923956.563 7      1624.562          44.000
C11  21900043.109 7 114039306.861 7       737.707          47.000    21900045.469 8  88182436.174 8       570.427          51.000
C12                                                                  23440364.188 6  94384635.873 6     -1805.821          37.000
C24  25929203.156 7 135020153.333 7     -3029.789          42.000
C25  22045999.484 8 114799304.174 8     -1137.070          51.000
E13  24266174.789 5 127519591.655 5      -323.512          35.000    24266173.789 8  97709838.645 8      -247.901          48.000
E21  24075004.969 8 126515010.392 8     -1025.398          51.000    24075007.992 8  96940072.806 8      -785.662          51.000
E26  23924041.055 8 125721676.814 8      2461.160          50.000    23924045.445 8  96332252.237 8      1885.842          50.000
> 2020 05 18 10 04  0.0000000  0 15        .000000000000
G02  23138370.141 6 121592933.771 6     -1138.594          36.000
G24  24182932.328 6 127082111.502 6     -3655.375          41.000    24182932.742 6  99025009.031 6     -2848.347          41.000
G25  20214509.648 8 106228008.590 8      -517.875          51.000    20214512.219 8  82775049.489 8      -403.539          51.000
G29  20644044.906 8 108485187.109 8      1566.090          48.000    20644045.016 8  84533920.093 8      1220.330          48.000
G32  22985222.164 7 120788061.651 7     -2186.543          45.000    22985224.117 7  94120593.099 7     -1703.797          45.000
R16  19888590.531 8 106241319.531 8     -1540.301          48.000    19888592.727 7  82632100.980 7     -1198.015          43.000
R18  20078804.078 8 107182108.777 8     -2094.445          50.000    20078807.188 8  83363852.684 8     -1629.010          51.000
R19  19678835.086 6 105268475.649 6      2064.344          40.000    19678835.062 7  81875505.593 7      1605.601          44.000
C11  21895840.445 8 114017421.932 8       721.719          48.000    21895842.328 8  88165513.364 8       557.934          51.000
C12                                                                  23453847.758 6  94438929.631 6     -1813.608          36.000
C24  25946673.516 7 135111120.908 7     -3034.164          43.000
C25  22052587.930 8 114833611.315 8     -1149.777          51.000
E13  24268066.539 6 127529527.462 6      -338.637          38.000    24268064.336 7  97717451.868 7      -259.373          47.000
E21  24080879.227 8 126545880.072 8     -1032.344          51.000    24080882.336 8  96963726.200 8      -790.981          51.000
E26  23910018.211 7 125647990.486 7      2451.410          45.000    23910022.664 8  96275791.318 8      1878.416          50.000
> 2020 05 18 10 04 30.0000000  0 15        .000000000000
G02  23144916.070 6 121627331.632 6     -1155.273          36.000    23144901.281 5  94774501.523 5      -900.213          34.000
G24  24203807.602 6 127191808.917 6     -3658.930          41.000    24203808.320 6  99110487.473 6     -2851.120          40.000
G25  20217495.828 8 106243700.791 8      -529.363          51.000    20217498.227 8  82787277.164 8      -412.491          51.000
G29  20635146.172 8 108438425.102 8      1550.145          48.000    20635146.211 8  84497482.147 8      1207.905          48.000
G32  22997737.656 7 120853831.658 7     -2199.352          46.000    22997739.594 7  94171842.419 7     -1713.783          46.000
R16  19897282.766 7 106287752.234 7     -1556.531          47.000    19897284.562 7  82668215.274 7     -1210.635          43.000
R18  20090635.672 8 107245265.922 8     -2117.082          50.000    20090638.836 8  83412974.906 8     -1646.619          50.000
R19  19667322.797 6 105206898.121 6      2039.320          39.000    19667323.562 7  81827611.977 7      1586.138          43.000
C11  21891725.359 8 113995993.416 8       705.773          48.000    21891726.914 8  88148943.467 8       545.806          51.000
C12  23467388.055 5 122200845.463 5     -2354.992          31.000    23467385.297 5  94493441.567 5     -1821.365          35.000
C24  25964164.367 7 135202195.060 7     -3038.543          43.000
C25  22059244.758 8 114868273.643 8     -1162.254          51.000
E13  24270037.625 6 127539889.601 6      -353.344          37.000    24270036.477 7  97725391.709 7      -270.744          47.000
E21  24086788.094 8 126576931.627 8     -1038.895          51.000    24086791.391 8  96987518.963 8      -796.066          51.000
E26  23896044.281 7 125574571.439 7      2442.043          42.000    23896050.453 8  96219535.128 8      1871.161          50.000
> 2020 05 18 10 05  0.0000000  0 15        .000000000000
G02  23151558.484 5 121662236.199 5     -1171.926          31.000
G24  24224706.430 7 127301629.316 7     -3662.945          42.000    24224708.180 7  99196061.715 7     -2854.246          42.000
G25  20220551.102 8 106259755.927 8      -541.691          51.000    20220553.398 8  82799787.650 8      -422.097          51.000
G29  20626342.570 8 108392161.804 8      1533.301          50.000    20626342.727 8  84461432.834 8      1194.780          50.000
G32  23010329.992 8 120920003.735 8     -2212.891          48.000    23010331.234 8  94223405.044 8     -1724.330          48.000
R16  19906069.758 7 106334691.374 7     -1573.605          47.000    19906071.562 7  82704723.484 7     -1223.915          44.000
R18  20102597.391 8 107309119.562 8     -2140.438          48.000    20102600.836 8  83462638.868 8     -1664.782          50.000
R19  19655952.398 6 105146077.573 6      2014.059          39.000    19655953.820 7  81780307.122 7      1566.490          44.000
C11  21887705.047 8 113975058.558 8       689.148          48.000    21887706.523 8  88132755.327 8       532.978          51.000
C12                                                                  23480983.711 5  94548198.897 5     -1829.212          34.000
C24  25981682.836 7 135293412.125 7     -3043.512          45.000
C25  22065976.648 8 114903328.442 8     -1175.422          51.000
E13  24272096.125 7 127550715.010 7      -368.996          43.000    24272097.055 7  97733686.568 7      -282.636          47.000
E21  24092738.750 8 126608202.899 8     -1046.387          51.000    24092742.188 8  97011480.059 8      -801.798          51.000
E26  23882130.617 7 125501458.751 7      2431.566          46.000    23882137.016 8  96163513.692 8      1863.178          51.000
> 2020 05 18 10 05 30.0000000  0 15        .000000000000
G02  23158294.297 6 121697632.991 6     -1187.316          36.000    23158304.086 5  94829383.794 5      -925.182          31.000
G24  24245625.719 6 127411557.676 6     -3665.277          41.000    24245628.766 6  99281720.074 6     -2856.060          41.000
G25  20223672.836 8 106276160.483 8      -551.887          51.000    20223675.016 8  82812570.412 8      -430.042          51.000
G29  20617631.703 8 108346384.402 8      1518.473          51.000    20617632.023 8  84425762.146 8      1183.225          51.000
G32  23022995.805 8 120986561.679 8     -2224.180          48.000    23022996.430 8  94275268.344 8     -1733.127          48.000
R16  19914948.891 7 106382122.642 7     -1588.648          47.000    19914951.016 7  82741614.470 7     -1235.615          45.000
R18  20114686.773 8 107373652.755 8     -2161.664          50.000    20114690.195 8  83512831.350 8     -1681.297          50.000
R19  19644721.445 6 105086002.284 6      1991.121          39.000    19644723.758 7  81733581.904 7      1548.650          44.000
C11  21883777.148 8 113954603.954 8       674.621          49.000    21883778.250 8  88116938.548 8       521.708          51.000
C12                                                                  23494640.117 5  94603189.646 5     -1836.350          32.000
C24  25999225.898 7 135384757.785 7     -3046.160          46.000
C25  22072781.258 8 114938762.320 8     -1186.676          51.000
E13  24274241.141 7 127561989.920 7      -382.648          43.000    24274242.039 7  97742325.739 7      -292.995          45.000
E21  24098728.852 8 126639680.726 8     -1051.836          51.000    24098732.266 8  97035599.434 8      -806.015          51.000
E26  23868274.820 8 125428640.454 8      2423.223          49.000    23868280.680 8  96107717.893 8      1856.743          51.000
> 2020 05 18 10 06  0.0000000  0 15        .000000000000
G02  23165103.586 5 121733416.260 5     -1196.145          35.000
G24  24266545.789 6 127521488.001 6     -3660.980          41.000    24266549.086 6  99367380.040 6     -2852.715          41.000
G25  20226841.172 8 106292810.172 8      -555.859          51.000    20226843.180 8  82825544.192 8      -433.137          51.000
G29  20608993.875 8 108300988.953 8      1510.031          51.000    20608993.820 8  84390389.056 8      1176.648          51.000
G32  23035714.562 8 121053398.502 8     -2229.398          48.000    23035715.156 8  94327348.951 8     -1737.194          48.000
R16  19923900.234 7 106429940.481 7     -1597.223          47.000    19923902.719 7  82778806.102 7     -1242.284          45.000
R18  20126882.820 8 107438756.183 8     -2176.328          48.000    20126886.102 8  83563467.353 8     -1692.700          50.000
R19  19633610.664 6 105026568.267 6      1973.473          40.000    19633613.312 7  81687355.460 7      1534.926          43.000
C11  21879921.719 8 113934526.380 8       666.129          50.000    21879922.141 8  88101413.310 8       515.030          51.000
C12  23508364.602 5 122414137.744 5     -2376.891          33.000    23508334.539 5  94658320.573 5     -1838.367          30.000
C24  26016773.336 7 135476127.903 7     -3042.980          45.000
C25  22079638.836 8 114974471.994 8     -1191.809          50.000
E13  24276451.062 7 127573609.309 7      -389.887          44.000    24276452.383 7  97751228.948 7      -298.702          45.000
E21  24104738.625 8 126671261.185 8     -1051.211          51.000    24104741.812 8  97059797.443 8      -805.464          51.000
E26  23854455.586 8 125356013.952 8      2420.832          51.000    23854460.953 8  96052069.070 8      1854.926          51.000
> 2020 05 18 10 06 30.0000000  0 16        .000000000000
G12  21511910.336 6 113045864.801 6     -2185.656          37.000    21511911.164 6  88087682.771 6     -1703.106          37.000
G24  24287518.422 6 127631695.948 6     -3671.570          40.000    24287521.500 6  99453256.306 6     -2860.967          41.000
G25  20230108.969 8 106309982.730 8      -574.516          51.000    20230110.914 8  82838925.408 8      -447.675          51.000
G29  20600481.477 8 108256253.927 8      1486.723          50.000    20600481.125 8  84355530.580 8      1158.488          50.000
G32  23048538.664 8 121120789.215 8     -2248.941          48.000    23048539.703 8  94379861.161 8     -1752.422          48.000
R09  20441549.383 5 109156731.777 5      2651.570          33.000
R16  19932977.109 7 106478427.059 7     -1620.691          46.000    19932979.664 7  82816517.881 7     -1260.538          45.000
R18  20139238.109 7 107504708.750 7     -2205.887          47.000    20139241.086 8  83614763.784 8     -1715.690          50.000
R19  19622673.797 7 104968060.508 7      1941.516          42.000    19622675.750 7  81641849.452 7      1510.068          43.000
C11  21876191.562 8 113915101.170 8       643.109          50.000    21876191.531 8  88086392.524 8       497.230          51.000
C12  23522155.195 5 122485919.945 5     -2394.219          35.000    23522119.320 5  94713826.938 5     -1851.585          30.000
C24  26034377.695 7 135567796.825 7     -3054.141          43.000
C25  22086602.156 8 115010732.720 8     -1211.402          51.000
E13  24278780.039 7 127585850.683 7      -411.945          46.000    24278781.992 7  97760608.669 7      -315.652          44.000
E21  24110820.727 8 126703222.387 8     -1065.301          51.000    24110823.820 8  97084287.178 8      -816.231          51.000
E26  23840725.977 8 125283858.663 8      2403.820          51.000    23840730.945 8  95996781.307 8      1841.834          51.000
> 2020 05 18 10 07  0.0000000  0 15        .000000000000
G02  23179033.344 6 121806620.543 6     -1233.031          36.000
G24  24308486.461 6 127741881.197 6     -3671.922          39.000    24308489.375 6  99539114.871 6     -2861.238          38.000
G25  20233419.391 8 106327379.553 8      -583.266          51.000    20233421.375 8  82852481.352 8      -454.493          51.000
G29  20592037.578 8 108211881.246 8      1473.375          50.000    20592037.391 8  84320954.473 8      1148.084          50.000
G32  23061410.844 8 121188432.450 8     -2258.551          48.000    23061412.320 8  94432570.151 8     -1759.910          49.000
R16  19942122.102 7 106527279.017 7     -1634.246          46.000    19942125.086 7  82854513.830 7     -1271.080          45.000
R18  20151694.750 7 107571203.696 7     -2225.031          45.000    20151698.039 8  83666482.096 8     -1730.577          49.000
R19  19611853.766 7 104910176.669 7      1919.176          42.000    19611854.789 7  81596828.733 7      1492.692          43.000
C11  21872529.844 8 113896032.488 8       629.957          51.000    21872529.750 8  88071647.435 8       487.256          51.000
C12  23535975.086 5 122557874.243 5     -2400.508          33.000    23535937.109 5  94769466.445 5     -1856.569          32.000
C24  26051981.812 6 135659467.850 6     -3055.605          41.000
C25  22093614.617 8 115047248.666 8     -1221.133          50.000
E13  24281170.438 7 127598414.788 7      -423.926          46.000    24281173.227 7  97770235.701 7      -324.668          44.000
E21  24116918.547 8 126735266.044 8     -1069.105          51.000    24116921.484 8  97108840.089 8      -819.212          51.000
E26  23827029.398 8 125211877.597 8      2396.816          51.000    23827033.875 8  95941627.011 8      1836.552          51.000
> 2020 05 18 10 07 30.0000000  0 14        .000000000000
G24  24329477.523 6 127852190.812 6     -3678.367          37.000    24329480.719 6  99625070.365 6     -2866.260          37.000
G25  20236800.938 8 106345149.797 8      -597.961          51.000    20236802.875 8  82866328.287 8      -465.944          51.000
G29  20583691.367 8 108168020.793 8      1454.195          51.000    20583691.055 8  84286777.481 8      1133.136          51.000
G32  23074359.070 8 121256474.714 8     -2274.070          48.000    23074360.484 8  94485590.067 8     -1772.006          48.000
R16  19951364.094 7 106576647.723 7     -1653.488          45.000    19951367.086 7  82892911.737 7     -1286.043          44.000
R18  20164280.633 7 107638389.145 7     -2250.312          46.000    20164284.250 8  83718737.465 8     -1750.240          48.000
R19  19601178.641 7 104853070.718 7      1891.113          42.000    19601179.180 7  81552413.038 7      1470.869          44.000
C11  21868964.930 8 113877468.173 8       611.070          51.000    21868964.805 8  88057292.346 8       472.494          51.000
C12                                                                  23549816.164 5  94825351.968 5     -1866.712          31.000
C24  26069613.828 6 135751287.920 6     -3062.328          39.000
C25  22100704.492 8 115084167.693 8     -1236.762          51.000
E13  24283650.648 7 127611450.380 7      -441.633          47.000    24283653.422 7  97780224.008 7      -338.502          43.000
E21  24123060.531 8 126767541.743 8     -1079.047          51.000    24123063.109 8  97133570.798 8      -826.844          51.000
E26  23813394.031 8 125140221.563 8      2383.738          50.000    23813398.484 8  95886721.761 8      1826.486          51.000
> 2020 05 18 10 08  0.0000000  0 14        .000000000000
G24  24350482.570 5 127962576.570 5     -3679.090          34.000    24350486.062 5  99711085.140 5     -2866.823          32.000
G25  20240244.781 8 106363246.756 8      -607.180          51.000    20240246.562 8  82880429.808 8      -473.124          51.000
G29  20575433.727 8 108124626.178 8      1440.234          50.000    20575433.250 8  84252963.507 8      1122.261          50.000
G32  23087373.688 8 121324866.542 8     -2284.012          48.000    23087375.328 8  94538882.359 8     -1779.752          48.000
R16  19960693.836 7 106626486.384 7     -1667.660          45.000    19960696.828 7  82931675.140 7     -1297.069          43.000
R18  20176986.414 7 107706214.412 7     -2270.082          43.000    20176990.273 8  83771490.491 8     -1765.616          48.000
R19  19590640.117 6 104796697.098 6      1868.484          41.000    19590640.539 7  81508566.907 7      1453.266          44.000
C11  21865487.805 8 113859361.932 8       597.328          50.000    21865487.852 8  88043291.466 8       461.974          51.000
C12  23563750.820 4 122702633.580 4     -2421.875          29.000    23563746.828 5  94881445.896 5     -1871.775          31.000
C24  26087265.211 6 135843209.857 6     -3064.289          38.000
C25  22107863.086 8 115121443.503 8     -1246.934          51.000
E13  24286212.055 7 127624910.181 7      -454.168          45.000    24286214.164 7  97790537.358 7      -348.047          43.000
E21  24129237.641 8 126800003.103 8     -1083.551          51.000    24129239.789 8  97158443.767 8      -830.286          51.000
E26  23799810.773 8 125068845.441 8      2376.098          48.000    23799816.250 8  95832030.975 8      1820.541          51.000
> 2020 05 18 10 08 30.0000000  0 15        .000000000000
G02  23200613.125 5 121919983.374 5     -1284.738          32.000
G24  24371502.484 5 128073038.768 5     -3684.430          34.000    24371505.328 5  99797159.530 5     -2870.984          33.000
G25  20243751.203 8 106381672.412 8      -621.203          51.000    20243752.773 8  82894787.464 8      -484.054          51.000
G29  20567264.742 8 108081699.918 8      1421.434          51.000    20567264.156 8  84219514.527 8      1107.614          51.000
G32  23100454.539 7 121393607.148 7     -2298.793          47.000    23100456.578 7  94592446.425 7     -1791.267          47.000
R16  19970112.164 7 106676796.129 7     -1686.449          47.000    19970114.992 7  82970804.932 7     -1311.683          43.000
R18  20189811.945 7 107774677.992 7     -2294.402          45.000    20189815.578 7  83824739.932 7     -1784.535          46.000
R19  19580239.305 6 104741059.435 6      1840.738          41.000    19580239.805 7  81465293.165 7      1431.682          45.000
C11  21862098.992 8 113841715.811 8       578.895          50.000    21862099.305 8  88029646.386 8       447.590          51.000
C12  23577738.227 5 122775445.470 5     -2433.738          33.000    23577730.227 6  94937748.655 6     -1881.709          36.000
C24  26104936.461 6 135935234.796 6     -3071.062          39.000
C25  22115090.758 8 115159078.079 8     -1262.109          51.000
E13  24288854.312 7 127638795.712 7      -471.598          47.000    24288857.180 7  97801176.944 7      -361.420          44.000
E21  24135450.555 8 126832652.474 8     -1093.172          51.000    24135452.266 8  97183460.788 8      -837.589          51.000
E26  23786280.953 7 124997752.856 7      2363.379          47.000    23786287.789 8  95777557.409 8      1810.865          51.000
> 2020 05 18 10 09  0.0000000  0 16        .000000000000
G02  23207973.586 5 121958721.972 5     -1297.867          35.000
G12  21574844.250 5 113376620.364 5     -2221.656          33.000
G24  24392538.641 5 128183583.314 5     -3684.582          35.000    24392539.938 5  99883298.025 5     -2871.106          35.000
G25  20247321.711 8 106400435.026 8      -629.957          51.000    20247323.000 8  82909407.680 8      -490.876          51.000
G29  20559186.719 8 108039250.973 8      1408.047          51.000    20559185.812 8  84186437.451 8      1097.179          51.000
G32  23113602.516 7 121462701.994 7     -2307.871          47.000    23113605.117 7  94646286.557 7     -1798.341          47.000
R16  19979620.227 7 106727585.906 7     -1699.848          47.000    19979623.070 7  83010308.059 7     -1322.107          43.000
R18  20202758.016 7 107843784.877 7     -2313.203          44.000    20202761.445 7  83878489.770 7     -1799.155          46.000
R19  19569977.875 6 104686168.314 6      1818.262          40.000    19569978.711 7  81422600.063 7      1414.204          45.000
C11  21858800.047 8 113824537.990 8       565.824          49.000    21858800.688 8  88016363.415 8       437.525          51.000
C12  23591784.578 5 122848533.588 5     -2439.922          33.000    23591766.586 6  94994264.938 6     -1886.600          37.000
C24  26122629.750 6 136027370.017 6     -3071.922          40.000
C25  22122388.617 8 115197079.579 8     -1271.801          51.000
E13  24291579.414 7 127653114.731 7      -483.449          47.000    24291582.125 7  97812148.633 7      -370.459          44.000
E21  24141700.930 8 126865498.426 8     -1097.090          51.000    24141702.336 8  97208628.454 8      -840.633          51.000
E26  23772807.961 8 124926953.567 8      2356.113          50.000    23772814.773 8  95723308.605 8      1805.325          51.000
> 2020 05 18 10 09 30.0000000  0 15        .000000000000
G02  23215426.445 6 121997838.998 6     -1338.848          39.000
G24  24413574.469 5 128294122.837 5     -3713.242          35.000    24413574.352 5  99969432.604 5     -2893.442          35.000
G25  20250939.906 8 106419448.426 8      -666.621          51.000    20250941.039 8  82924223.333 8      -519.445          51.000
G29  20551183.195 8 107997193.782 8      1366.824          51.000    20551182.664 8  84153665.632 8      1065.061          51.000
G32  23126800.781 7 121532062.227 7     -2345.203          47.000    23126804.188 7  94700333.509 7     -1827.431          47.000
R16  19989201.742 8 106778767.941 8     -1741.723          48.000    19989204.664 7  83050116.282 7     -1354.673          43.000
R18  20215807.797 7 107913444.268 7     -2360.285          44.000    20215811.383 7  83932669.280 7     -1835.777          45.000
R19  19559840.297 6 104631937.691 6      1767.566          41.000    19559840.883 7  81380420.704 7      1374.774          45.000
C11  21855574.203 8 113807743.038 8       525.117          48.000    21855575.594 8  88003376.497 8       406.169          51.000
C12  23605869.734 4 122921810.741 4     -2474.465          29.000    23605838.438 5  95050927.313 5     -1912.978          33.000
C24  26140328.719 7 136119529.340 7     -3100.484          42.000
C25  22129740.242 8 115235362.688 8     -1309.121          51.000
E13  24294370.328 7 127667780.471 7      -523.047          44.000    24294372.086 7  97823385.998 7      -400.779          44.000
E21  24147972.445 8 126898455.248 8     -1128.867          51.000    24147974.148 8  97233881.066 8      -864.967          51.000
E26  23759375.641 8 124856363.060 8      2320.980          51.000    23759381.031 8  95669219.803 8      1778.488          51.000
> 2020 05 18 10 10  0.0000000  0 14        .000000000000
G24  24434682.258 6 128405043.308 6     -3690.871          37.000    24434681.977 6 100055864.048 6     -2876.003          38.000
G25  20254679.734 8 106439101.030 8      -652.449          51.000    20254680.836 8  82939537.060 8      -508.402          51.000
G29  20543328.375 8 107955916.751 8      1376.078          51.000    20543328.062 8  84121501.720 8      1072.269          51.000
G32  23140123.062 8 121602073.466 8     -2331.148          48.000    23140126.930 8  94754887.690 8     -1816.482          48.000
R16  19998930.602 7 106830737.302 7     -1731.961          47.000    19998933.414 7  83090536.876 7     -1347.081          44.000
R18  20229033.953 7 107984046.999 7     -2355.832          44.000    20229037.695 7  83987582.574 7     -1832.314          43.000
R19  19549900.477 7 104578764.845 7      1768.195          42.000    19549900.383 7  81339064.050 7      1375.263          43.000
C11  21852495.859 7 113791715.860 7       534.605          47.000    21852497.891 8  87990983.272 8       413.340          51.000
C12  23620059.688 4 122995838.537 4     -2457.016          28.000
C24  26158106.656 7 136212096.761 7     -3079.125          42.000
C25  22137219.797 8 115274312.180 8     -1296.223          51.000
E13  24297301.047 7 127683180.727 7      -512.359          45.000    24297302.953 7  97835186.269 7      -392.596          45.000
E21  24154339.039 8 126931911.662 8     -1110.324          51.000    24154341.148 8  97259516.482 8      -850.756          51.000
E26  23746057.641 8 124786371.327 8      2336.301          51.000    23746060.695 8  95615589.823 8      1790.120          50.000
> 2020 05 18 10 10 30.0000000  0 14        .000000000000
G24  24455758.391 6 128515798.043 6     -3692.895          37.000    24455758.922 6 100142166.367 6     -2877.583          36.000
G25  20258437.406 8 106458847.534 8      -663.449          51.000    20258438.617 8  82954923.953 8      -516.973          51.000
G29  20535518.750 8 107914875.353 8      1360.395          51.000    20535517.922 8  84089521.392 8      1060.048          51.000
G32  23153465.375 8 121672187.609 8     -2342.590          49.000    23153469.109 8  94809522.045 8     -1825.395          49.000
R16  20008702.898 7 106882939.161 7     -1747.715          47.000    20008705.547 7  83131138.295 7     -1359.334          43.000
R18  20242332.789 7 108055035.819 7     -2376.402          44.000    20242335.812 7  84042796.072 7     -1848.313          42.000
R19  19540054.781 6 104526096.301 6      1743.508          41.000    19540054.508 7  81298099.657 7      1356.062          44.000
C11  21849461.344 7 113775916.006 7       519.305          46.000    21849463.836 8  87978765.811 8       401.493          51.000
C12  23634233.211 5 123069588.707 5     -2466.523          30.000    23634237.578 4  95165276.888 4     -1907.550          29.000
C24  26175859.031 7 136304531.004 7     -3082.496          42.000
C25  22144723.367 8 115313387.731 8     -1308.344          51.000
E13  24300267.867 7 127698769.787 7      -526.324          46.000    24300270.039 7  97847131.107 7      -403.353          45.000
E21  24160696.953 8 126965322.683 8     -1116.645          51.000    24160699.430 8  97285117.121 8      -855.638          51.000
E26  23732750.133 8 124716434.603 8      2326.594          51.000    23732751.055 8  95562001.989 8      1782.748          49.000
> 2020 05 18 10 11  0.0000000  0 15        .000000000000
G12  21625956.984 5 113645141.499 5     -2252.930          35.000    21625949.016 5  88554658.149 5     -1755.533          35.000
G24  24476863.656 5 128626707.457 5     -3697.414          35.000    24476865.312 5 100228589.220 5     -2881.102          34.000
G25  20262274.273 8 106479010.230 8      -677.090          51.000    20262275.617 8  82970635.146 8      -527.602          51.000
G29  20527815.445 8 107874392.115 8      1342.098          51.000    20527814.359 8  84057976.023 8      1045.790          51.000
G32  23166888.242 8 121742724.200 8     -2356.320          48.000    23166891.898 8  94864485.572 8     -1836.094          49.000
R16  20018580.109 8 106935701.297 8     -1766.160          48.000    20018582.461 7  83172175.492 7     -1373.683          44.000
R18  20255764.477 7 108126734.758 7     -2399.629          44.000    20255767.930 6  84098561.962 6     -1866.378          40.000
R19  19530364.680 7 104474261.808 7      1715.855          42.000    19530365.047 7  81257783.989 7      1334.557          45.000
C11  21846531.844 7 113760662.773 7       501.348          46.000    21846534.812 8  87966971.047 8       387.571          51.000
C12                                                                  23648490.258 5  95222671.952 5     -1916.410          34.000
C24  26193646.492 6 136397150.610 6     -3088.398          41.000
C25  22152312.469 8 115352908.682 8     -1322.844          50.000
E13  24303331.734 7 127714869.263 7      -543.246          43.000    24303333.227 7  97859467.074 7      -416.209          45.000
E21  24167107.719 8 126999011.034 8     -1125.633          51.000    24167110.414 8  97310930.252 8      -862.492          51.000
E26  23719514.438 8 124646876.847 8      2314.211          51.000    23719513.961 8  95508704.501 8      1773.277          49.000
> 2020 05 18 10 11 30.0000000  0 14        .000000000000
G02  23246183.977 5 122159537.620 5     -1379.418          31.000
G25  20266164.797 8 106499455.141 8      -689.832          51.000    20266166.273 8  82986566.242 8      -537.531          51.000
G29  20520192.992 8 107834333.857 8      1324.547          51.000    20520191.703 8  84026761.816 8      1032.114          51.000
G32  23180365.430 8 121813546.464 8     -2369.031          49.000    23180369.328 8  94919671.723 8     -1846.001          49.000
R16  20028536.805 7 106988887.311 7     -1783.664          46.000    20028539.039 7  83213542.359 7     -1387.297          43.000
R18  20269303.312 7 108199004.258 7     -2422.148          46.000    20269306.258 6  84154771.553 6     -1883.896          36.000
R19  19520804.859 6 104423126.807 6      1688.984          40.000    19520806.016 7  81218012.348 7      1313.658          44.000
C11  21843682.258 7 113745823.407 7       484.254          46.000    21843685.023 8  87955496.306 8       374.368          51.000
C12                                                                  23662778.250 6  95280231.500 6     -1924.638          36.000
C24  26211443.648 6 136489822.106 6     -3093.328          39.000
C25  22159961.984 8 115392742.312 8     -1336.609          51.000
E13  24306467.250 7 127731344.705 7      -559.121          43.000    24306468.406 7  97872091.135 7      -428.420          46.000
E21  24173545.891 8 127032843.083 8     -1133.809          51.000    24173548.469 8  97336853.510 8      -868.735          51.000
E26  23706325.273 8 124577565.687 8      2302.633          51.000    23706324.391 8  95455595.955 8      1764.346          50.000
> 2020 05 18 10 12  0.0000000  0 16        .000000000000
G12  21651763.070 6 113780781.000 6     -2267.902          37.000    21651750.812 6  88660314.951 6     -1767.197          36.000
G24  24519106.828 5 128848776.540 5     -3703.223          34.000    24519117.570 5 100401684.599 5     -2885.631          34.000
G25  20270133.664 8 106520312.097 8      -699.730          51.000    20270135.414 8  83002818.409 8      -545.245          51.000
G29  20512675.758 8 107794830.547 8      1309.914          51.000    20512674.523 8  83995980.042 8      1020.712          51.000
G32  23193921.125 8 121884781.431 8     -2379.039          49.000    23193925.508 8  94975179.467 8     -1853.797          49.000
R09  20281077.641 5 108299788.729 5      2541.344          33.000
R16  20038597.344 7 107042628.899 7     -1798.289          46.000    20038599.484 7  83255341.340 7     -1398.672          42.000
R18  20282972.891 7 108271972.553 7     -2441.527          45.000    20282975.484 5  84211524.594 5     -1898.966          35.000
R19  19511400.914 6 104372825.355 6      1665.141          40.000    19511402.844 7  81178889.009 7      1295.112          45.000
C11  21840937.016 7 113731526.467 7       469.770          47.000    21840939.312 8  87944441.001 8       363.247          51.000
C12                                                                  23677130.109 5  95338053.102 5     -1929.957          35.000
C24  26229274.125 6 136582673.076 6     -3096.121          36.000
C25  22167696.789 8 115433017.108 8     -1347.512          51.000
E13  24309698.164 6 127748325.272 6      -572.016          41.000    24309700.406 7  97885102.254 7      -438.289          46.000
E21  24180036.062 8 127066949.013 8     -1139.070          51.000    24180038.734 8  97362986.607 8      -872.809          51.000
E26  23693207.609 8 124508632.447 8      2293.703          51.000    23693207.281 8  95402776.972 8      1757.588          50.000
> 2020 05 18 10 12 30.0000000  0 16        .000000000000
G12  21664724.250 5 113848902.123 5     -2272.934          34.000    21664716.664 5  88713396.363 5     -1771.120          33.000
G24  24540249.016 6 128959877.537 6     -3703.008          36.000    24540265.359 6 100488232.058 6     -2885.461          36.000
G25  20274158.102 8 106541460.735 8      -709.012          51.000    20274159.984 8  83019297.864 8      -552.477          51.000
G29  20505241.133 8 107755762.601 8      1295.465          51.000    20505240.109 8  83965537.513 8      1009.456          51.000
G32  23207531.836 8 121956305.918 8     -2388.375          48.000    23207536.469 8  95030912.807 8     -1861.071          48.000
R09  20266820.180 5 108223680.480 5      2532.441          33.000
R16  20048738.773 7 107096804.101 7     -1812.434          44.000    20048741.023 7  83297477.586 7     -1409.674          42.000
R18  20296749.680 7 108345513.850 7     -2460.199          44.000    20296753.641 5  84268723.422 5     -1913.488          31.000
R19  19502130.344 6 104323236.192 6      1641.785          41.000    19502133.109 7  81140319.696 7      1276.947          46.000
C11  21838272.875 7 113717652.519 7       456.102          47.000    21838274.969 8  87933712.792 8       352.762          51.000
C12  23691542.531 5 123368008.398 5     -2502.766          31.000    23691522.828 5  95396043.029 5     -1935.128          32.000
C24  26247114.922 5 136675583.328 5     -3097.547          35.000
C25  22175493.430 8 115473613.754 8     -1357.918          51.000
E13  24313002.531 6 127765689.933 6      -584.477          41.000    24313004.547 7  97898407.701 7      -447.873          45.000
E21  24186555.492 8 127101208.804 8     -1143.824          51.000    24186558.430 8  97389237.602 8      -876.464          51.000
E26  23680138.727 8 124439958.286 8      2285.355          49.000    23680139.539 8  95350156.513 8      1751.221          50.000
> 2020 05 18 10 13  0.0000000  0 17        .000000000000
G02  23270208.055 6 122285707.296 6     -1428.863          36.000
G12  21677735.766 5 113917260.512 5     -2285.957          34.000    21677734.094 5  88766694.447 5     -1781.265          35.000
G24  24561415.891 6 129071110.419 6     -3711.398          36.000    24561441.469 5 100574905.688 5     -2891.996          32.000
G25  20278258.484 8 106563008.639 8      -726.621          51.000    20278260.336 8  83036088.448 8      -566.198          51.000
G29  20497910.008 8 107717237.605 8      1273.543          51.000    20497909.133 8  83935518.044 8       992.371          51.000
G32  23221217.672 8 122028224.714 8     -2405.461          48.000    23221222.047 8  95086953.380 8     -1874.388          48.000
R09  20252645.836 6 108147960.045 6      2515.855          36.000
R16  20058981.852 7 107151521.884 7     -1834.516          46.000    20058984.508 7  83340035.853 7     -1426.845          43.000
R18  20310653.438 7 108419733.799 7     -2486.980          44.000    20310655.203 4  84326398.889 4     -1934.321          28.000
R19  19493014.102 6 104274470.467 6      1610.125          41.000    19493016.945 7  81102390.827 7      1252.319          45.000
C11  21835710.617 8 113704308.068 8       434.422          48.000    21835712.258 8  87923394.044 8       335.820          51.000
C12  23706009.531 5 123443396.777 5     -2518.090          31.000    23706031.375 4  95454370.538 4     -1946.963          27.000
C24  26264987.789 5 136768658.689 5     -3107.031          35.000
C25  22183372.094 8 115514638.851 8     -1376.230          51.000
E13  24316400.297 6 127783545.823 6      -605.152          40.000    24316401.664 7  97912089.481 7      -463.476          45.000
E21  24193124.719 8 127135730.443 8     -1156.727          51.000    24193127.789 8  97415689.236 8      -886.323          51.000
E26  23667139.484 8 124371652.378 8      2269.031          49.000    23667141.203 8  95297818.239 8      1738.626          49.000
> 2020 05 18 10 13 30.0000000  0 16        .000000000000
G02  23278392.156 5 122328705.682 5     -1440.457          32.000
G12  21690791.438 5 113985862.380 5     -2289.934          34.000    21690785.094 5  88820150.491 5     -1784.358          33.000
G24  24582592.969 6 129182397.375 6     -3711.473          36.000    24582626.727 5 100661621.121 5     -2892.060          33.000
G25  20282420.641 8 106584881.133 8      -734.418          51.000    20282422.500 8  83053131.932 8      -572.274          51.000
G29  20490668.039 8 107679181.180 8      1260.773          51.000    20490667.695 8  83905863.722 8       982.421          51.000
G32  23234963.859 8 122100460.334 8     -2413.020          48.000    23234967.680 8  95143240.818 8     -1880.278          48.000
R16  20069312.609 7 107206706.064 7     -1847.207          46.000    20069315.352 7  83382956.903 7     -1436.714          44.000
R18  20324669.227 7 108494553.131 7     -2503.645          42.000    20324674.570 4  84384591.765 4     -1947.276          29.000
R19  19484038.031 6 104226453.754 6      1588.301          40.000    19484040.383 7  81065044.497 7      1235.345          45.000
C11  21833236.000 8 113691418.990 8       422.086          50.000    21833236.859 8  87913427.383 8       326.411          51.000
C12  23720523.539 5 123518987.643 5     -2522.852          31.000    23720528.055 4  95512718.168 4     -1950.439          29.000
C24  26282878.969 6 136861824.257 6     -3106.906          37.000
C25  22191318.984 8 115556018.319 8     -1385.168          51.000
E13  24319876.523 6 127801817.473 6      -616.137          39.000    24319879.102 7  97926089.899 7      -472.024          45.000
E21  24199729.516 8 127170439.565 8     -1159.941          51.000    24199732.508 8  97442284.543 8      -888.807          51.000
E26  23654196.469 8 124303641.616 8      2262.125          48.000    23654198.766 8  95245706.101 8      1733.361          49.000
> 2020 05 18 10 14  0.0000000  0 16        .000000000000
G02  23286606.945 6 122371873.363 6     -1479.742          36.000
G12  21703830.406 5 114054403.944 5     -2321.184          33.000    21703828.172 5  88873543.912 5     -1808.708          32.000
G24  24603726.258 6 129293454.516 6     -3736.492          36.000    24603768.562 5 100748159.030 5     -2911.555          32.000
G25  20286591.609 8 106606799.460 8      -769.031          51.000    20286593.422 8  83070211.144 8      -599.245          51.000
G29  20483462.477 8 107641315.385 8      1221.336          51.000    20483462.555 8  83876357.921 8       951.690          51.000
G32  23248716.523 8 122172731.228 8     -2447.332          49.000    23248720.133 8  95199555.744 8     -1907.015          49.000
R16  20079677.484 7 107262073.543 7     -1886.836          46.000    20079680.391 7  83426020.481 7     -1467.542          44.000
R18  20338743.844 7 108569685.282 7     -2547.805          42.000
R19  19475149.039 6 104178904.032 6      1539.062          41.000    19475151.227 7  81028061.392 7      1197.049          45.000
C11  21830795.516 8 113678709.072 8       383.336          50.000    21830795.852 8  87903599.294 8       296.540          51.000
C12  23735029.656 5 123594518.880 5     -2554.633          30.000    23735032.578 5  95571123.273 5     -1975.549          32.000
C24  26300734.391 6 136954803.088 6     -3133.562          37.000
C25  22199280.977 8 115597475.865 8     -1420.523          51.000
E13  24323379.320 7 127820225.634 7      -653.551          42.000    24323382.914 7  97940194.889 7      -500.689          44.000
E21  24206316.914 8 127205057.824 8     -1190.051          49.000    24206319.922 8  97468810.224 8      -911.854          51.000
E26  23641257.117 8 124235648.780 8      2228.539          48.000    23641259.336 8  95193607.724 8      1707.552          48.000
> 2020 05 18 10 14 30.0000000  0 15        .000000000000
G02  23295003.641 6 122415994.923 6     -1467.855          38.000
G24  24624966.219 5 129405070.476 5     -3710.910          35.000    24624971.391 5 100835145.916 5     -2891.618          35.000
G25  20290920.992 8 106629549.902 8      -753.211          51.000    20290922.680 8  83087938.749 8      -586.915          51.000
G29  20476442.898 8 107604426.776 8      1232.395          51.000    20476443.188 8  83847613.536 8       960.307          51.000
G32  23262624.852 8 122245820.756 8     -2430.918          50.000    23262628.664 8  95256508.597 8     -1894.222          50.000
R16  20090226.531 8 107318423.067 8     -1875.355          48.000    20090229.188 7  83469847.883 7     -1458.610          44.000
R18  20353026.391 7 108645925.257 7     -2540.227          42.000    20353037.711 4  84502335.433 4     -1975.732          29.000
R19  19466497.312 6 104132622.708 6      1541.070          40.000    19466499.219 7  80992064.835 7      1198.613          45.000
C11  21828539.109 8 113666957.155 8       394.570          51.000    21828538.914 8  87894511.976 8       305.158          51.000
C12                                                                  23749680.648 5  95630105.313 5     -1961.328          34.000
C24  26318703.289 6 137048373.360 6     -3110.590          37.000
C25  22207407.406 8 115639790.544 8     -1405.973          51.000
E13  24327057.469 7 127839555.931 7      -640.773          43.000    24327061.219 7  97955006.425 7      -491.105          43.000
E21  24213036.555 8 127240371.842 8     -1169.742          49.000    24213039.680 8  97495869.021 8      -896.329          51.000
E26  23628471.734 8 124168461.707 8      2245.113          50.000    23628473.180 8  95142126.754 8      1720.306          48.000
> 2020 05 18 10 15  0.0000000  0 16        .000000000000
G02  23303445.672 5 122460353.532 5     -1497.117          32.000
G12  21730177.797 5 114192872.268 5     -2321.555          32.000    21730170.727 5  88981432.506 5     -1809.004          32.000
G24  24646176.508 5 129516526.417 5     -3726.496          35.000    24646179.750 5 100921994.595 5     -2903.766          34.000
G25  20295272.438 8 106652416.727 8      -778.539          51.000    20295274.164 8  83105757.040 8      -606.654          51.000
G29  20469472.945 8 107567799.605 8      1202.191          51.000    20469473.430 8  83819072.889 8       936.769          51.000
G32  23276552.258 8 122319010.449 8     -2455.602          49.000    23276556.430 8  95313539.485 8     -1913.459          50.000
R16  20100823.086 8 107375027.097 8     -1905.613          48.000    20100825.734 7  83513873.197 7     -1482.147          43.000
R18  20367379.180 6 108722542.139 6     -2574.758          40.000    20367385.328 4  84561926.382 4     -2002.589          27.000
R19  19457946.922 6 104086882.690 6      1501.125          40.000    19457948.234 7  80956489.255 7      1167.542          44.000
C11  21826330.344 8 113655453.900 8       365.078          51.000    21826329.758 8  87885616.950 8       282.326          51.000
C12                                                                  23764333.430 5  95689114.123 5     -1978.322          31.000
C24  26336648.914 5 137141824.786 5     -3127.340          35.000
C25  22215562.078 8 115682253.033 8     -1432.082          51.000
