     3.02           OBSERVATION DATA    M (MIXED)           RINEX VERSION / TYPE
SAVERINEX           SC600               20200516 155931 LCL PGM / RUN BY / DATE
       G = GPS       R = GLONASS       C = COMPASS          COMMENT
       S = SBAS      J = QZSS          E = GALILEO          COMMENT
BEAN                                                        MARKER NAME
1                                                           MARKER NUMBER
GEODETIC                                                    MARKER TYPE
Unige DICCA         GTER                                    OBSERVER / AGENCY
SC60291900056       SC600               2.12(191202)        REC # / TYPE / VERS
                    HEMA45          NONE                    ANT # / TYPE
  4509407.8091   693652.4678  4442337.6214                  APPROX POSITION XYZ
        0.0000        0.0000        0.0000                  ANTENNA: DELTA H/E/N
G    8 C1C L1C D1C S1C C2Y L2Y D2Y S2Y                      SYS / # / OBS TYPES
R    8 C1C L1C D1C S1C C2P L2P D2P S2P                      SYS / # / OBS TYPES
C    8 C1I L1I D1I S1I C7I L7I D7I S7I                      SYS / # / OBS TYPES
E    8 C1C L1C D1C S1C C7Q L7Q D7Q S7Q                      SYS / # / OBS TYPES
DBHZ                                                        COMMENT
     30.000                                                 INTERVAL
  2020    05    16    13    00    0.0000000     GPS         TIME OF FIRST OBS
  2020    05    16    13    59   30.0000000     GPS         TIME OF LAST OBS
     0                                                      RCV CLOCK OFFS APPL
G L1C  0.00000                                              SYS / PHASE SHIFT
G L2Y  0.00000                                              SYS / PHASE SHIFT
R L1C  0.00000                                              SYS / PHASE SHIFT
R L2P  0.25000                                              SYS / PHASE SHIFT
C L1I  0.00000                                              SYS / PHASE SHIFT
C L7I  0.00000                                              SYS / PHASE SHIFT
E L1C  0.50000                                              SYS / PHASE SHIFT
E L7Q -0.25000                                              SYS / PHASE SHIFT
 12 R02 -4 R03  5 R04  6 R05  1 R10 -5 R13 -2 R14 -7 R15  0 GLONASS SLOT / FRQ #
    R16 -1 R17  4 R18 -3 R19  3                             GLONASS SLOT / FRQ #
 C1C   71.950 C2C   71.950 C2P   71.950                     GLONASS COD/PHS/BIS
    18                                                      LEAP SECONDS
*** Above antenna height is from mark to ANTENNA BOTTOM.    COMMENT
    17     4        0.0000        ANT MEASURE TYPE/HEIGT    COMMENT
    0.0000    0.0000    0.0458    0.0405    0.0000          COMMENT
                    BASE STATION                            COMMENT
                                                            END OF HEADER
> 2020 05 16 13 00  0.0000000  0 16        .000000000000
G18  20318877.641 8 106776462.337 8       387.637          51.000    20318878.438 8  83202461.978 8       302.058          51.000
G20  23893310.586 5 125560194.321 5      3305.168          31.000
G21  20657505.234 8 108555996.141 8       280.320          48.000    20657504.086 8  84589109.118 8       218.431          49.000
G25  24459238.828 7 128534131.584 7     -3508.551          42.000    24459242.945 7 100156478.422 7     -2733.939          42.000
G26  20538000.539 5 107927922.431 5      1213.676          33.000    20538004.555 5  84099700.696 5       945.721          32.000
G31  22467602.102 7 118068042.063 7     -2683.625          44.000    22467602.398 7  92001064.903 7     -2091.133          44.000
R15  21864704.211 8 116838323.915 8     -4079.641          49.000    21864706.453 6  90874250.014 6     -3173.060          39.000
R16  19367538.609 7 103457899.048 7      -690.570          47.000    19367541.211 7  80467270.895 7      -537.110          45.000
R18  19374422.961 7 103422110.167 7      -893.055          43.000    19374426.305 6  80439392.972 6      -694.595          40.000
R19  20739148.578 5 110940472.940 5      2402.773          30.000    20739151.664 6  86287034.312 6      1868.827          36.000
C05  39629564.438 6 206361541.200 6        17.766          36.000    39629564.578 6 159571833.094 6        13.837          36.000
C29  24249571.547 6 126273878.114 6      2457.355          38.000
C30  21514183.492 8 112030112.371 8       140.520          51.000
E02  27058950.844 6 142195673.964 6     -2941.559          41.000    27058947.609 6 108955153.325 6     -2253.799          37.000
E15  23823865.453 8 125195258.329 8      1610.293          51.000    23823869.891 8  95928911.771 8      1233.921          51.000
E30  22466459.367 8 118062048.600 8     -1284.777          51.000    22466464.875 8  90463130.846 8      -984.422          51.000
> 2020 05 16 13 00 30.0000000  0 18        .000000000000
G18  20316721.586 8 106765132.121 8       364.930          51.000    20316722.383 8  83193633.252 8       284.364          50.000
G21  20655954.141 8 108547845.353 8       260.359          49.000    20655952.977 8  84582757.860 8       202.877          49.000
G25  24479283.742 6 128639468.469 6     -3516.129          38.000    24479287.719 6 100238559.036 6     -2739.844          38.000
G26  20531117.000 5 107891745.404 5      1194.109          31.000    20531123.828 5  84071510.845 5       930.469          31.000
G29  22143950.836 5 116367248.730 5     -2433.773          31.000    22143947.617 5  90675761.322 5     -1896.447          30.000
G31  22482957.047 7 118148733.566 7     -2698.676          45.000    22482956.695 7  92063941.425 7     -2102.864          45.000
R15  21887641.672 8 116960888.756 8     -4094.277          49.000    21887644.688 7  90969578.136 7     -3184.438          43.000
R16  19371492.820 7 103479023.249 7      -720.457          46.000    19371495.711 7  80483700.828 7      -560.355          44.000
R17  21923893.125 5 117319102.382 5     -3445.973          34.000
R18  19379490.938 7 103449161.128 7      -913.133          44.000    19379494.750 6  80460432.615 6      -710.214          39.000
R19  20725716.156 5 110868624.091 5      2384.617          31.000    20725719.094 5  86231151.961 5      1854.705          35.000
C05  39629465.031 5 206361022.559 5        13.984          35.000    39629465.328 6 159571432.813 6        10.950          36.000
C27  23479670.203 5 122264804.858 5     -2367.480          31.000
C29  24235435.320 6 126200259.026 6      2447.902          39.000
C30  21513405.422 8 112026061.179 8       126.895          51.000
E02  27075758.047 6 142283997.041 6     -2949.445          39.000    27075754.945 6 109022829.313 6     -2259.794          37.000
E15  23814703.578 8 125147110.632 8      1596.781          51.000    23814707.406 8  95892019.387 8      1223.586          51.000
E30  22473830.328 8 118100781.414 8     -1300.234          51.000    22473835.828 8  90492809.231 8      -996.251          51.000
> 2020 05 16 13 01  0.0000000  0 18        .000000000000
G18  20314694.250 8 106754478.520 8       343.508          51.000    20314695.039 8  83185331.747 8       267.668          50.000
G20  23855623.781 5 125362129.766 5      3294.293          30.000
G21  20654515.805 8 108540286.739 8       241.715          49.000    20654514.797 8  84576868.043 8       188.349          49.000
G25  24499370.508 5 128745029.159 5     -3523.105          34.000    24499374.648 5 100320814.028 5     -2745.283          32.000
G26  20524335.820 5 107856109.923 5      1178.230          33.000    20524339.969 5  84043743.020 5       918.102          33.000
G29  22157868.867 5 116440387.554 5     -2442.418          32.000    22157863.938 5  90732748.213 5     -1903.189          31.000
G31  22498397.133 7 118229868.835 7     -2712.145          47.000    22498395.680 7  92127163.643 7     -2113.362          47.000
R15  21910660.109 8 117083886.144 8     -4107.293          49.000    21910663.727 7  91065242.743 7     -3194.561          45.000
R16  19375613.727 7 103501038.005 7      -749.070          47.000    19375617.016 7  80500823.398 7      -582.610          44.000
R18  19384669.578 7 103476805.470 7      -931.754          43.000    19384672.742 6  80481933.739 6      -724.697          40.000
R19  20712386.094 5 110797323.284 5      2367.883          32.000    20712389.664 5  86175695.772 5      1841.687          35.000
C05  39629386.320 5 206360613.064 5        12.078          35.000    39629386.773 6 159571116.181 6         9.077          36.000
C27  23493319.188 5 122335891.761 5     -2373.645          31.000
C29  24221351.211 6 126126916.286 6      2439.770          39.000
C30  21512704.844 8 112022412.874 8       114.551          51.000
E02  27092608.289 6 142372546.960 6     -2955.617          40.000    27092605.883 6 109090679.164 6     -2264.813          38.000
E15  23805617.359 8 125099361.009 8      1584.695          51.000    23805620.641 8  95855432.018 8      1214.307          51.000
E30  22481288.219 8 118139970.571 8     -1314.199          51.000    22481293.352 8  90522837.254 8     -1006.975          51.000
> 2020 05 16 13 01 30.0000000  0 17        .000000000000
G18  20312774.000 8 106744387.443 8       327.918          51.000    20312775.094 8  83177468.574 8       255.520          51.000
G20  23836806.094 5 125263263.204 5      3295.359          34.000    23836811.188 5  97607762.737 5      2567.812          34.000
G21  20653168.430 8 108533205.825 8       229.117          50.000    20653167.438 8  84571350.460 8       178.536          50.000
G25  24519476.992 5 128850698.284 5     -3523.633          32.000    24519482.000 5 100403153.567 5     -2745.691          32.000
G26  20517636.312 5 107820906.949 5      1166.684          34.000    20517636.922 5  84016309.765 5       909.107          33.000
G29  22171812.258 6 116513666.314 6     -2444.223          36.000    22171815.055 6  90789848.573 6     -1904.589          36.000
G31  22513899.469 8 118311331.086 8     -2719.945          49.000    22513897.547 8  92190640.664 8     -2119.441          49.000
R15  21933736.898 8 117207196.733 8     -4114.637          49.000    21933740.766 7  91161150.956 7     -3200.273          46.000
R16  19379879.742 7 103523827.004 7      -771.605          47.000    19379883.367 7  80518548.149 7      -600.138          44.000
R18  19389937.664 7 103504925.432 7      -944.359          43.000    19389941.805 6  80503804.823 6      -734.502          41.000
R19  20699138.000 5 110726454.824 5      2355.750          32.000    20699141.430 5  86120575.893 5      1832.250          34.000
C05  39629306.812 5 206360198.982 5        14.988          35.000    39629307.367 6 159570796.986 6        11.363          36.000
C29  24207298.695 6 126053737.457 6      2437.574          39.000
C30  21512059.930 8 112019054.022 8       108.148          51.000
E02  27109479.648 6 142461208.836 6     -2956.430          39.000    27109478.281 6 109158614.771 6     -2265.340          38.000
E15  23796585.109 8 125051895.753 8      1578.320          51.000    23796588.211 8  95819062.551 8      1209.380          51.000
E30  22488811.266 8 118179501.914 8     -1322.500          51.000    22488815.883 8  90553127.478 8     -1013.362          51.000
> 2020 05 16 13 02  0.0000000  0 18        .000000000000
G18  20310958.906 8 106734849.702 8       307.965          51.000    20310960.203 8  83170036.586 8       239.976          51.000
G20  23818006.352 6 125164470.316 6      3291.059          38.000    23818012.250 5  97530775.323 5      2564.464          35.000
G21  20651910.297 8 108526592.973 8       211.859          50.000    20651908.914 8  84566197.585 8       165.085          50.000
G25  24539603.055 5 128956465.634 5     -3527.832          33.000    24539608.008 5 100485569.651 5     -2748.960          34.000
G26  20511016.484 5 107786122.894 5      1151.914          32.000    20511017.664 5  83989205.325 5       897.589          32.000
G29  22185783.758 5 116587087.294 5     -2450.590          35.000    22185793.797 6  90847059.690 6     -1909.557          36.000
G31  22529461.586 8 118393109.058 8     -2732.109          49.000    22529459.906 8  92254363.710 8     -2128.916          49.000
R15  21956869.914 8 117330808.223 8     -4126.199          50.000    21956873.703 7  91257293.194 7     -3209.266          45.000
R16  19384289.242 7 103547381.143 7      -798.754          47.000    19384292.531 7  80536868.015 7      -621.253          44.000
R18  19395292.352 7 103533509.826 7      -961.223          43.000    19395296.680 6  80526037.101 6      -747.621          40.000
R19  20685969.148 4 110656010.249 4      2339.609          29.000    20685972.430 5  86065785.678 5      1819.696          35.000
C05  39629224.758 6 206359771.473 6        13.391          36.000    39629225.289 6 159570467.350 6        10.578          36.000
C27  23520685.148 5 122478333.139 5     -2379.117          32.000
C29  24193274.906 6 125980714.031 6      2430.699          36.000
C30  21511468.578 8 112015975.230 8        97.176          51.000
E02  27126370.039 6 142549972.656 6     -2961.312          37.000    27126370.047 6 109226628.503 6     -2269.010          38.000
E15  23787605.344 8 125004706.127 8      1567.570          51.000    23787608.352 8  95782904.277 8      1201.188          51.000
E30  22496398.008 8 118219366.313 8     -1335.160          51.000    22496401.523 8  90583672.915 8     -1023.015          51.000
> 2020 05 16 13 02 30.0000000  0 17        .000000000000
G18  20309253.312 8 106725887.073 8       289.230          51.000    20309254.477 8  83163052.707 8       225.374          51.000
G20  23799224.289 6 125065768.387 6      3288.312          39.000    23799230.406 5  97453864.787 5      2562.318          33.000
G21  20650745.211 8 108520469.425 8       196.145          50.000    20650743.617 8  84561426.001 8       152.840          50.000
G25  24559752.391 5 129062351.979 5     -3531.430          35.000    24559756.914 5 100568078.400 5     -2751.766          35.000
G26  20504481.984 5 107751784.465 5      1137.113          34.000    20504483.750 5  83962448.042 5       886.065          34.000
G29  22199786.344 5 116660671.752 5     -2455.668          35.000    22199794.180 5  90904398.121 5     -1913.514          34.000
G31  22545087.125 8 118475221.604 8     -2742.520          51.000    22545085.984 8  92318347.473 8     -2137.028          51.000
R15  21980062.688 8 117454739.456 8     -4136.254          50.000    21980066.125 7  91353684.107 7     -3217.086          44.000
R16  19388845.875 7 103571722.322 7      -824.504          47.000    19388848.938 7  80555800.018 7      -641.284          43.000
R18  19400738.383 7 103562579.093 7      -976.922          44.000    19400742.680 7  80548646.511 7      -759.828          42.000
C05  39629144.195 5 206359352.299 5        13.672          35.000    39629144.789 6 159570143.218 6        10.599          36.000
C27  23534408.992 4 122549768.160 4     -2383.906          28.000
C29  24179282.969 6 125907868.314 6      2425.219          36.000
C30  21510935.125 8 112013197.677 8        87.715          51.000
E02  27143283.281 5 142638917.344 5     -2964.906          33.000    27143285.703 6 109294736.372 6     -2271.742          39.000
E15  23778682.328 8 124957814.309 8      1558.234          51.000    23778685.352 8  95746974.186 8      1193.975          51.000
E30  22504052.172 8 118259585.501 8     -1346.406          51.000    22504054.688 8  90614490.215 8     -1031.671          51.000
> 2020 05 16 13 03  0.0000000  0 18        .000000000000
G18  20307653.586 8 106717480.909 8       270.715          50.000    20307654.797 8  83156502.446 8       210.947          50.000
G20  23780456.094 6 124967141.707 6      3286.086          40.000    23780460.859 5  97377012.888 5      2560.589          33.000
G21  20649669.594 8 108514816.431 8       180.410          50.000    20649667.930 8  84557021.082 8       140.579          50.000
G25  24579921.773 6 129168337.543 6     -3534.457          39.000    24579924.609 6 100650664.420 6     -2754.128          39.000
G26  20498029.852 6 107717874.768 6      1122.898          37.000    20498031.016 6  83936024.903 6       874.986          36.000
G29  22213816.648 6 116734400.238 6     -2460.363          36.000    22213818.656 6  90961848.893 6     -1917.169          36.000
G31  22560772.211 8 118557647.841 8     -2752.941          50.000    22560771.398 8  92382575.664 8     -2145.149          51.000
R15  22003311.023 8 117578968.524 8     -4146.074          50.000    22003313.945 6  91450306.687 6     -3224.724          40.000
R16  19393546.250 8 103596831.051 8      -849.898          48.000    19393548.781 7  80575329.008 7      -661.032          42.000
R18  19406271.172 7 103592111.970 7      -992.473          44.000    19406275.586 6  80571616.542 6      -771.923          41.000
R19  20659882.453 4 110516426.726 4      2311.887          29.000    20659881.938 5  85957222.006 5      1798.137          34.000
C05  39629061.797 5 206358923.282 5        13.930          35.000    39629062.477 6 159569811.463 6        11.182          36.000
C27  23548148.992 5 122621386.986 5     -2387.105          32.000
C29  24165324.039 7 125835182.091 7      2420.121          42.000
C30  21510455.984 8 112010702.605 8        78.297          51.000
E02                                                                  27160221.836 6 109362923.478 6     -2274.317          39.000
E15  23769812.422 8 124911202.111 8      1548.945          51.000    23769815.789 8  95711258.352 8      1186.875          51.000
E30  22511769.984 8 118300140.891 8     -1357.613          51.000    22511771.883 8  90645565.100 8     -1040.222          51.000
> 2020 05 16 13 03 30.0000000  0 19        .000000000000
G18  20306157.922 8 106709621.368 8       253.773          50.000    20306159.227 8  83150378.130 8       197.749          50.000
G20  23761700.891 6 124868583.699 6      3284.922          39.000    23761705.320 4  97300214.522 4      2559.682          28.000
G21  20648681.461 8 108509623.678 8       166.387          50.000    20648679.695 8  84552974.770 8       129.649          50.000
G25  24600107.914 6 129274411.437 6     -3536.141          41.000    24600109.305 6 100733319.300 6     -2755.437          41.000
G26  20491657.992 6 107684385.851 6      1110.062          38.000    20491659.117 6  83909929.631 6       864.981          38.000
G29  22227872.234 5 116808262.458 5     -2463.930          31.000    22227871.781 4  91019403.864 4     -1919.948          27.000
G31  22576514.578 8 118640375.561 8     -2761.508          50.000    22576513.602 8  92447038.749 8     -2151.824          50.000
R15  22026612.258 7 117703482.418 7     -4154.098          47.000    22026615.195 5  91547150.819 5     -3230.968          34.000
R16  19398388.898 8 103622697.596 8      -873.891          48.000    19398390.672 7  80595447.401 7      -679.696          43.000
R17  22040116.984 5 117941060.762 5     -3463.059          35.000
R18  19411888.672 7 103622096.843 7     -1006.016          44.000    19411892.422 6  80594938.102 6      -782.457          41.000
R19  20646957.680 5 110447277.578 5      2299.000          31.000    20646955.422 5  85903439.351 5      1788.111          34.000
C05                                                                  39628976.477 6 159569464.827 6        12.396          36.000
C27  23561910.766 5 122693025.561 5     -2389.020          32.000
C29  24151395.773 7 125762646.502 7      2416.293          44.000
C30  21510029.164 8 112008479.986 8        70.449          51.000
E02                                                                  27177175.891 6 109431181.740 6     -2275.711          40.000
E15  23760993.805 8 124864860.165 8      1541.266          51.000    23760997.578 8  95675749.610 8      1180.817          51.000
E30  22519549.617 8 118341022.665 8     -1367.137          51.000    22519551.234 8  90676890.088 8     -1047.555          51.000
> 2020 05 16 13 04  0.0000000  0 19        .000000000000
G18  20304768.305 8 106702318.936 8       233.172          51.000    20304769.398 8  83144687.907 8       181.692          50.000
G20  23742961.391 6 124770108.080 6      3280.395          40.000    23742964.977 4  97223480.406 4      2556.161          25.000
G21  20647782.773 8 108504901.128 8       148.660          50.000    20647780.898 8  84549294.852 8       115.839          49.000
G25  24620312.406 7 129380583.053 7     -3541.621          42.000    24620313.289 6 100816050.353 6     -2759.705          41.000
G26  20485368.844 6 107651330.013 6      1093.996          40.000    20485369.227 6  83884171.827 6       852.468          39.000
G29  22241956.266 5 116882292.870 5     -2470.281          34.000    22241955.898 5  91077090.182 5     -1924.894          33.000
G31  22592315.844 8 118723412.862 8     -2773.863          50.000    22592314.727 8  92511743.085 8     -2161.452          50.000
R15  22049967.836 7 117828288.749 7     -4165.809          46.000
R16  19403375.414 8 103649332.336 8      -901.465          49.000    19403376.898 7  80616163.267 7      -701.139          43.000
R17  22059546.930 6 118045019.668 6     -3467.629          36.000
R18  19417592.672 7 103652542.462 7     -1023.430          45.000    19417595.297 6  80618618.048 6      -795.998          41.000
R19  20634111.320 5 110378559.811 5      2282.918          30.000    20634110.625 6  85849992.144 6      1775.600          36.000
C05  39628888.078 5 206358018.187 5        14.602          35.000    39628888.648 6 159569111.586 6        11.354          36.000
C27  23575653.719 4 122764614.971 4     -2395.430          27.000
C29  24137498.570 7 125690272.508 7      2408.848          45.000
C30  21509656.789 8 112006539.905 8        59.055          51.000
E02                                                                  27194148.359 6 109499518.594 6     -2279.698          38.000
E15  23752228.750 8 124818799.438 8      1529.785          51.000    23752232.641 8  95640456.321 8      1172.218          51.000
E30  22527393.047 8 118382241.337 8     -1380.457          51.000    22527394.812 8  90708473.208 8     -1057.759          51.000
> 2020 05 16 13 04 30.0000000  0 19        .000000000000
G18  20303497.828 8 106695642.858 8       213.582          50.000    20303498.695 8  83139485.752 8       166.428          50.000
G20  23724251.516 6 124671787.072 6      3276.461          39.000    23724253.859 4  97146866.672 4      2553.080          28.000
G21  20646986.695 8 108500717.627 8       131.957          50.000    20646984.836 8  84546034.992 8       102.824          50.000
G25  24640547.695 6 129486920.589 6     -3545.902          41.000    24640549.344 6 100898910.699 6     -2763.044          41.000
G26  20479175.156 6 107618778.404 6      1078.371          40.000    20479174.891 6  83858806.969 6       840.289          38.000
G29  22256076.930 6 116956510.255 6     -2476.016          37.000    22256097.859 4  91134954.770 4     -1929.375          26.000
G31  22608188.688 8 118806826.448 8     -2785.055          49.000    22608187.867 8  92576740.674 8     -2170.172          49.000
R15  22073390.805 7 117953454.833 7     -4176.594          44.000    22073397.617 6  91741644.212 6     -3248.462          36.000
R16  19408518.992 8 103676805.715 8      -928.195          48.000    19408520.188 7  80637531.439 7      -721.933          43.000
R17  22079003.781 5 118149128.288 5     -3471.449          35.000    22079017.383 4  91893851.664 4     -2700.022          28.000
R18  19423395.422 7 103683517.401 7     -1039.695          44.000    19423397.828 6  80642709.684 6      -808.652          40.000
R19  20621360.672 5 110310344.512 5      2267.355          32.000    20621359.734 6  85796935.813 6      1763.502          36.000
C05  39628811.977 6 206357623.304 6        13.707          36.000    39628812.531 6 159568805.080 6        10.475          36.000
C27  23589463.734 4 122836527.832 4     -2397.781          28.000
C29  24123645.773 7 125618129.488 7      2402.488          45.000
C30  21509351.773 8 112004950.726 8        48.691          51.000
E02                                                                  27211151.758 6 109567986.542 6     -2283.026          39.000
E15  23743530.453 8 124773089.648 8      1519.449          51.000    23743534.016 8  95605431.971 8      1164.229          51.000
E30  22535313.852 8 118423866.216 8     -1392.633          51.000    22535315.648 8  90740367.579 8     -1067.067          51.000
> 2020 05 16 13 05  0.0000000  0 17        .000000000000
G18  20302329.977 8 106689505.897 8       189.586          51.000    20302330.664 8  83134703.701 8       147.729          51.000
G20  23705554.961 6 124573536.918 6      3267.824          41.000    23705557.156 4  97070308.268 4      2546.360          27.000
G21  20646276.500 8 108496985.482 8       110.910          50.000    20646274.750 8  84543126.833 8        86.423          50.000
G25  24660797.258 6 129593335.804 6     -3554.383          40.000    24660800.148 6 100981831.566 6     -2769.652          41.000
G26  20473060.734 6 107586645.735 6      1057.926          39.000    20473060.562 6  83833768.548 6       824.358          39.000
G31  22624116.281 8 118890526.724 8     -2800.793          50.000    22624115.859 8  92641961.654 8     -2182.436          50.000
R15  22096862.633 6 118078888.753 6     -4191.625          40.000    22096870.398 6  91839203.891 6     -3260.156          39.000
R16  19413802.477 7 103705028.611 7      -959.305          46.000    19413803.953 7  80659482.558 7      -746.126          45.000
R18  19429280.602 7 103714931.487 7     -1060.559          43.000    19429282.750 6  80667142.836 6      -824.882          41.000
R19  20608686.422 4 110242574.772 4      2247.129          28.000    20608684.664 5  85744201.980 5      1747.767          35.000
C05  39628730.977 6 206357200.718 6         9.035          36.000    39628731.438 6 159568478.716 6         6.458          36.000
C27  23603286.492 5 122908504.429 5     -2407.066          31.000
C29  24109820.531 7 125546131.643 7      2391.531          46.000
C30  21509097.547 8 112003625.791 8        33.840          51.000
E02                                                                  27228171.016 6 109636518.097 6     -2289.896          41.000
E15  23734882.367 8 124727644.074 8      1504.508          51.000    23734885.484 8  95570610.066 8      1152.802          51.000
E30  22543295.586 8 118465810.115 8     -1409.344          51.000    22543297.320 8  90772506.395 8     -1079.905          51.000
> 2020 05 16 13 05 30.0000000  0 16        .000000000000
G18  20301277.555 8 106683975.222 8       177.262          50.000    20301278.008 8  83130394.088 8       138.126          50.000
G20  23686885.547 6 124475428.059 6      3271.184          41.000    23686886.953 5  96993859.840 5      2548.977          34.000
G21  20645664.789 8 108493771.854 8       101.641          49.000    20645663.312 8  84540622.722 8        79.200          49.000
G25  24681074.703 6 129699894.873 6     -3551.355          41.000    24681077.484 6 101064864.546 6     -2767.293          41.000
G26  20467038.328 6 107555000.976 6      1050.113          38.000    20467039.508 6  83809110.290 6       818.273          38.000
G31  22640111.008 8 118974578.861 8     -2804.387          50.000    22640110.875 8  92707456.795 8     -2185.236          50.000
R15  22120395.570 5 118204656.084 5     -4194.898          33.000    22120405.133 6  91937022.920 6     -3262.699          40.000
R16  19419238.688 7 103734069.272 7      -978.422          45.000    19419240.750 7  80682069.743 7      -760.995          45.000
R18  19435260.219 7 103746850.811 7     -1069.090          42.000    19435262.586 6  80691969.013 6      -831.514          41.000
C05  39628657.984 5 206356819.965 5        15.133          35.000    39628658.453 6 159568184.229 6        11.735          36.000
C27  23617147.164 6 122980663.183 6     -2404.934          37.000
C29  24096036.141 7 125474346.210 7      2392.367          44.000
C30  21508906.641 8 112002631.379 8        30.855          51.000
E02                                                                  27245219.320 7 109705164.123 7     -2287.507          43.000
E15  23726297.375 8 124682530.359 8      1501.465          51.000    23726300.555 8  95536042.448 8      1150.482          51.000
E30  22551350.922 8 118508140.270 8     -1414.211          51.000    22551352.461 8  90804941.165 8     -1083.613          51.000
> 2020 05 16 13 06  0.0000000  0 17        .000000000000
G18  20300313.805 8 106678910.943 8       156.727          51.000    20300313.867 8  83126447.897 8       122.125          51.000
G20  23668217.344 7 124377323.975 7      3265.727          42.000    23668218.078 6  96917415.139 6      2544.722          36.000
G21  20645125.172 8 108490936.621 8        83.957          49.000    20645123.883 8  84538413.450 8        65.421          49.000
G25  24701353.203 7 129806456.977 7     -3556.500          42.000    24701354.703 7 101147899.815 7     -2771.305          42.000
G26  20461082.117 6 107523706.244 6      1033.145          36.000    20461085.023 5  83784724.729 5       805.048          35.000
G31  22656145.805 8 119058840.642 8     -2816.449          50.000    22656145.422 8  92773115.299 8     -2194.636          50.000
R16  19424801.445 7 103763785.243 7     -1006.145          45.000    19424803.648 7  80705182.167 7      -782.557          45.000
R17  22137448.820 5 118461930.585 5     -3480.070          35.000
R18  19441307.086 6 103779131.515 6     -1086.297          40.000    19441309.523 6  80717076.201 6      -844.895          40.000
R19  20583579.148 5 110108256.218 5      2222.535          30.000    20583577.852 5  85639757.717 5      1728.635          33.000
C05  39628566.242 6 206356343.302 6        13.195          36.000    39628566.648 6 159567814.851 6        10.460          36.000
C27  23631010.547 5 123052835.459 5     -2409.879          33.000
C29  24082265.375 6 125402635.300 6      2384.863          40.000
C30  21508752.188 8 112001828.723 8        19.293          51.000
E02  27262265.867 5 143264178.720 5     -2990.969          33.000    27262269.484 7 109773816.977 7     -2291.850          44.000
E15  23717749.133 8 124637609.202 8      1489.875          51.000    23717752.766 8  95501622.351 8      1141.602          51.000
E30  22559453.195 8 118550716.912 8     -1427.605          51.000    22559454.305 8  90837564.796 8     -1093.862          51.000
> 2020 05 16 13 06 30.0000000  0 17        .000000000000
G18  20299474.031 8 106674497.326 8       137.797          51.000    20299473.703 8  83123008.699 8       107.374          50.000
G20  23649586.062 7 124279412.200 7      3261.934          43.000    23649585.320 6  96841120.316 6      2541.769          37.000
G21  20644692.492 8 108488663.418 8        67.945          49.000    20644691.469 8  84536642.133 8        52.944          49.000
G25  24721667.531 7 129913205.392 7     -3559.730          45.000    24721668.102 7 101231080.245 7     -2773.819          43.000
G26  20455228.297 6 107492947.624 6      1017.613          38.000    20455231.883 6  83760756.959 6       792.945          38.000
G31  22672254.789 8 119143493.526 8     -2826.680          49.000    22672253.805 8  92839078.547 8     -2202.608          49.000
R15  22167610.859 5 118456956.145 5     -4215.402          34.000    22167617.273 6  92133230.318 6     -3278.646          41.000
R16  19430525.539 7 103794363.556 7     -1032.129          44.000    19430527.641 7  80728965.294 7      -802.767          46.000
R17  22156963.383 6 118566372.916 6     -3482.535          36.000
R18  19447456.305 7 103811959.108 7     -1101.848          42.000    19447459.539 6  80742608.787 6      -856.993          40.000
R19  20571158.906 5 110041812.941 5      2207.668          31.000    20571158.883 5  85588079.671 5      1717.081          35.000
C05  39628490.977 5 206355950.695 5        13.480          35.000    39628491.453 5 159567512.070 5        10.028          35.000
C29  24068539.125 5 125331182.301 5      2378.793          32.000
C30  21508669.609 8 112001400.210 8         9.566          51.000
E02  27279354.227 6 143353969.009 6     -2994.719          40.000    27279356.344 7 109842617.266 7     -2294.604          44.000
E15  23709272.898 8 124593065.356 8      1480.051          51.000    23709276.523 8  95467491.354 8      1134.059          51.000
E30  22567637.508 8 118593724.371 8     -1439.215          51.000    22567638.141 8  90870518.534 8     -1102.778          51.000
> 2020 05 16 13 07  0.0000000  0 17        .000000000000
G18  20298741.219 8 106670646.086 8       119.887          51.000    20298740.734 8  83120007.760 8        93.421          50.000
G20  23630975.234 6 124181607.725 6      3259.188          41.000    23630973.828 6  96764909.087 6      2539.630          40.000
G21  20644349.922 8 108486863.853 8        52.992          49.000    20644349.172 8  84535239.889 8        41.293          49.000
G25  24742000.445 7 130020050.958 7     -3562.383          44.000    24742001.188 7 101314336.434 7     -2775.886          44.000
G26  20449460.477 6 107462638.829 6      1003.477          39.000    20449463.422 6  83737139.734 6       781.933          39.000
G31  22688420.578 8 119228446.889 8     -2835.922          48.000    22688419.188 8  92905275.930 8     -2209.809          48.000
R15  22191301.391 6 118583563.902 6     -4223.945          41.000    22191310.266 6  92231702.970 6     -3285.291          40.000
R16  19436393.867 7 103825714.087 7     -1056.961          44.000    19436396.594 7  80753349.017 7      -822.081          46.000
R17  22176492.289 5 118670891.174 5     -3484.102          32.000
R18  19453691.008 6 103845242.167 6     -1116.215          41.000    19453694.914 6  80768495.629 6      -868.164          40.000
R19  20558821.211 5 109975811.503 5      2193.938          30.000    20558822.648 6  85536745.244 6      1706.396          37.000
C05  39628415.578 6 206355558.254 6        14.082          36.000    39628416.008 5 159567208.574 5        10.829          35.000
C29  24054844.867 6 125259900.716 6      2373.730          36.000
C30  21508642.156 8 112001258.258 8          .820          51.000
E02  27296461.188 6 143443862.872 6     -2997.160          41.000    27296462.938 7 109911496.891 7     -2296.594          44.000
E15  23700851.828 8 124548811.160 8      1471.199          51.000    23700854.859 8  95433582.281 8      1127.300          51.000
E30  22575887.000 8 118637074.498 8     -1449.828          51.000    22575887.398 8  90903734.849 8     -1110.943          51.000
> 2020 05 16 13 07 30.0000000  0 18        .000000000000
G18  20298108.758 8 106667321.601 8       105.598          51.000    20298107.859 8  83117417.265 8        82.284          50.000
G20  23612378.453 6 124083878.509 6      3260.199          38.000    23612376.742 6  96688756.521 6      2540.412          38.000
G21  20644090.742 8 108485501.860 8        41.645          49.000    20644089.875 8  84534178.601 8        32.450          49.000
G25  24762344.750 7 130126957.111 7     -3560.918          44.000    24762346.477 7 101397639.822 7     -2774.744          43.000
G26  20443771.930 6 107432746.199 6       993.352          36.000    20443774.641 6  83713846.772 6       774.037          37.000
G29  22341407.422 5 117404868.965 5     -2500.855          33.000
G31  22704636.516 8 119313663.347 8     -2841.246          49.000    22704635.086 8  92971678.311 8     -2213.961          50.000
R15  22215039.477 7 118710412.353 7     -4228.602          43.000    22215047.922 6  92330362.816 6     -3288.915          38.000
R16  19442399.867 7 103857800.337 7     -1078.195          44.000    19442402.945 7  80778304.995 7      -838.596          44.000
R17  22196030.688 5 118775447.408 5     -3481.895          34.000    22196034.875 4  92380905.586 4     -2708.134          25.000
R18  19460003.977 6 103878942.863 6     -1126.633          39.000    19460008.062 6  80794707.263 6      -876.270          39.000
C05  39628333.359 5 206355130.027 5        18.477          35.000    39628333.734 5 159566877.453 5        14.269          35.000
C27  23672782.078 5 123270399.152 5     -2415.227          31.000
C29  24041182.047 6 125188755.489 6      2372.816          40.000
C30  21508663.039 8 112001367.341 8        -4.215          51.000
E02  27313579.938 6 143533824.019 6     -2996.344          41.000    27313582.250 7 109980428.053 7     -2295.735          44.000
E15  23692479.164 8 124504811.512 8      1465.977          51.000    23692481.547 8  95399868.255 8      1123.317          51.000
E30  22584194.711 8 118680731.783 8     -1456.738          51.000    22584195.281 8  90937186.508 8     -1116.196          51.000
> 2020 05 16 13 08  0.0000000  0 17        .000000000000
G18  20297592.891 8 106664609.808 8        81.211          51.000    20297591.641 8  83115304.187 8        63.281          50.000
G20  23593812.367 5 123986313.793 5      3250.352          33.000    23593810.906 5  96612732.118 5      2532.738          34.000
G21  20643931.211 8 108484663.102 8        20.387          49.000    20643930.172 8  84533525.023 8        15.886          49.000
G25  24782716.352 7 130234008.885 7     -3569.500          42.000    24782719.258 7 101481056.717 7     -2781.432          42.000
G26  20438179.531 6 107403357.636 6       972.402          38.000    20438182.594 6  83690946.549 6       757.713          37.000
G31  22720918.555 8 119399226.363 8     -2856.793          50.000    22720917.773 8  93038350.731 8     -2226.072          50.000
R15  22238839.133 7 118837585.735 7     -4243.391          45.000    22238846.125 6  92429275.376 6     -3300.418          37.000
R16  19448559.906 7 103890709.350 7     -1109.543          44.000    19448563.258 7  80803900.884 7      -862.978          44.000
R17  22215591.750 5 118880127.719 5     -3490.027          33.000    22215595.719 4  92462323.524 4     -2714.469          25.000
R18  19466410.445 6 103913146.656 6     -1147.355          39.000    19466414.438 6  80821310.209 6      -892.388          40.000
C05  39628260.695 5 206354751.845 5        12.543          35.000    39628261.062 5 159566584.992 5         9.829          35.000
C27  23686743.516 4 123343102.345 4     -2424.219          29.000
C29  24027563.547 7 125117832.849 7      2361.375          42.000
C30  21508748.609 8 112001812.550 8       -19.434          51.000
E02  27330727.867 6 143623937.714 6     -3005.109          41.000    27330730.477 7 110049476.113 7     -2302.694          44.000
E15  23684171.305 8 124461152.939 8      1450.652          51.000    23684173.508 8  95366415.583 8      1111.563          51.000
E30  22592577.102 8 118724782.300 8     -1473.824          51.000    22592578.133 8  90970939.466 8     -1129.249          51.000
> 2020 05 16 13 08 30.0000000  0 17        .000000000000
G18  20297177.547 8 106662426.582 8        63.570          51.000    20297176.320 8  83113602.990 8        49.535          50.000
G20  23575260.891 5 123888832.908 5      3247.344          33.000    23575260.492 5  96536772.939 5      2530.395          33.000
G21  20643855.086 8 108484262.803 8         5.762          49.000    20643854.008 8  84533213.100 8         4.490          49.000
G25  24803099.055 7 130341121.342 7     -3571.867          42.000    24803102.867 7 101564520.877 7     -2783.276          42.000
G26  20432667.695 6 107374390.911 6       958.047          40.000    20432670.727 6  83668375.061 6       746.527          40.000
G31  22737250.242 8 119485049.493 8     -2865.398          51.000    22737250.531 8  93105225.842 8     -2232.781          51.000
R15  22262683.203 7 118964995.882 7     -4251.188          45.000    22262689.844 6  92528372.049 6     -3306.485          37.000
R16  19454858.664 7 103924355.639 7     -1134.266          46.000    19454861.711 7  80830070.197 7      -882.210          44.000
R17  22235159.562 5 118984844.899 5     -3491.242          32.000
R18  19472895.938 6 103947766.591 6     -1161.344          39.000    19472900.828 6  80848236.779 6      -903.267          39.000
C05  39628181.773 5 206354340.692 5        13.770          35.000    39628182.195 5 159566267.049 5        10.808          35.000
C27  23700721.148 5 123415869.077 5     -2427.184          35.000
C29  24013972.375 7 125047050.282 7      2356.797          43.000
C30  21508882.547 8 112002510.376 8       -27.938          51.000
E02  27347888.938 6 143714119.319 6     -3007.547          41.000    27347891.656 7 110118576.179 7     -2304.484          44.000
E15  23675912.250 8 124417751.940 8      1442.004          51.000    23675914.891 8  95333160.285 8      1104.858          51.000
E30  22601018.219 8 118769142.073 8     -1484.320          51.000    22601019.789 8  91004929.389 8     -1137.303          51.000
> 2020 05 16 13 09  0.0000000  0 18        .000000000000
G18  20296869.469 8 106660806.332 8        44.344          51.000    20296868.164 8  83112340.464 8        34.554          50.000
G20  23556732.656 6 123791473.299 6      3242.762          39.000    23556733.406 6  96460908.349 6      2526.827          39.000
G21  20643868.938 8 108484335.154 8       -10.586          50.000    20643867.531 8  84533269.468 8        -8.252          50.000
G25  24823499.516 6 130448328.012 6     -3575.320          41.000    24823503.688 6 101648058.456 6     -2785.964          41.000
G26  20427243.188 6 107345882.421 6       942.301          41.000    20427246.438 6  83646160.653 6       734.260          40.000
G29  22384446.211 5 117631058.585 5     -2519.746          35.000
G31  22753637.641 8 119571164.968 8     -2875.586          50.000    22753638.930 8  93172328.755 8     -2240.719          50.000
R15  22286577.758 7 119092674.752 7     -4260.699          45.000    22286583.500 5  92627677.751 5     -3313.880          34.000
R16  19461302.234 8 103958773.685 8     -1160.477          48.000    19461304.586 7  80856839.766 7      -902.593          44.000
R17  22254741.852 5 119089632.179 5     -3494.527          32.000
R18  19479465.953 6 103982835.706 6     -1176.707          40.000    19479470.750 6  80875512.708 6      -915.220          38.000
C05  39628103.180 5 206353931.299 5        13.352          35.000    39628103.539 5 159565950.471 5        10.732          35.000
C27  23714718.836 6 123488750.565 6     -2431.707          37.000
C29  24000414.945 7 124976442.725 7      2350.480          43.000
C30  21509071.789 8 112003494.854 8       -37.855          51.000
E02  27365069.406 7 143804402.501 7     -3011.395          42.000    27365072.117 7 110187754.104 7     -2307.265          42.000
E15  23667708.828 8 124374643.483 8      1431.871          51.000    23667711.758 8  95300129.136 8      1097.199          51.000
E30  22609524.594 8 118813845.649 8     -1495.977          51.000    22609526.781 8  91039182.762 8     -1146.196          51.000
> 2020 05 16 13 09 30.0000000  0 17        .000000000000
G18  20296672.109 8 106659768.255 8        25.445          51.000    20296670.773 8  83111531.568 8        19.828          50.000
G20  23538232.289 6 123694257.948 6      3238.598          41.000    23538234.047 6  96385156.161 6      2523.586          40.000
G21  20643976.531 8 108484899.311 8       -26.309          50.000    20643974.656 8  84533709.069 8       -20.500          50.000
G25  24843921.000 6 130555647.111 6     -3578.699          40.000    24843925.406 6 101731683.622 6     -2788.600          40.000
G26  20421909.812 7 107317853.352 7       926.863          42.000    20421913.125 7  83624319.836 7       722.231          43.000
G31  22770083.930 8 119657589.548 8     -2885.328          50.000    22770085.828 8  93239672.540 8     -2248.308          50.000
R15  22310525.883 7 119220639.039 7     -4269.547          45.000    22310531.180 5  92727205.486 5     -3320.759          34.000
R16  19467894.188 8 103993982.776 8     -1186.281          49.000    19467895.789 7  80884224.615 7      -922.663          44.000
R17  22274339.461 5 119194507.659 5     -3496.641          30.000
R18  19486123.461 6 104018371.826 6     -1191.820          38.000    19486128.031 6  80903151.949 6      -926.968          37.000
C05  39628028.680 5 206353543.229 5        13.363          35.000    39628029.109 6 159565650.410 6        10.161          36.000
C27  23728740.172 4 123561756.613 4     -2435.535          28.000
C29  23986894.734 7 124906030.036 7      2344.328          42.000
C30  21509319.594 8 112004784.938 8       -47.570          51.000
E02  27382272.898 7 143894805.941 7     -3014.938          43.000    27382275.320 6 110257024.186 6     -2309.943          41.000
E15  23659565.039 8 124331847.437 8      1421.902          51.000    23659567.945 8  95267337.342 8      1089.495          51.000
E30  22618099.930 8 118858912.415 8     -1507.699          51.000    22618102.805 8  91073714.426 8     -1155.235          51.000
> 2020 05 16 13 10  0.0000000  0 17        .000000000000
G18  20296580.766 8 106659287.558 8        14.898          51.000    20296579.672 8  83111157.009 8        11.609          51.000
G20  23519755.156 6 123597165.453 6      3242.527          41.000    23519758.016 6  96309499.704 6      2526.642          40.000
G21  20644172.812 8 108485930.166 8       -34.020          51.000    20644170.633 8  84534512.340 8       -26.509          50.000
G25  24864358.844 6 130663053.128 6     -3573.547          39.000    24864363.172 6 101815376.531 6     -2784.585          38.000
G26  20416663.133 7 107290280.964 7       919.492          43.000    20416666.453 7  83602834.856 7       716.487          43.000
G29  22413285.297 6 117782578.178 6     -2522.348          36.000
G31  22786584.031 8 119744296.458 8     -2886.773          50.000    22786585.977 8  93307236.350 8     -2249.434          50.000
R15  22334521.797 7 119348860.736 7     -4270.035          44.000    22334527.695 5  92826933.357 5     -3321.141          32.000
R16  19474629.305 8 104029957.068 8     -1203.590          50.000    19474630.414 7  80912204.602 7      -936.125          44.000
R17  22293956.688 5 119299455.942 5     -3490.750          30.000
R18  19492863.539 6 104054348.240 6     -1198.215          39.000    19492867.898 6  80931133.597 6      -931.945          37.000
C05  39627953.641 6 206353152.519 6        21.020          36.000    39627954.070 5 159565348.294 5        16.021          35.000
C29  23973406.359 6 124835788.513 6      2346.457          39.000
C30  21509621.062 8 112006355.980 8       -48.949          51.000
E02  27399494.141 7 143985304.267 7     -3010.031          42.000    27399496.516 6 110326367.045 6     -2306.708          38.000
E15  23651476.086 8 124289339.622 8      1420.219          51.000    23651478.945 8  95234766.427 8      1088.232          51.000
E30  22626739.492 8 118904317.715 8     -1511.008          51.000    22626743.281 8  91108505.494 8     -1157.830          51.000
> 2020 05 16 13 10 30.0000000  0 17        .000000000000
G18  20296601.844 8 106659397.859 8       -13.020          51.000    20296601.016 8  83111242.960 8       -10.145          51.000
G20  23501308.820 7 123500233.093 7      3228.812          43.000    23501311.969 6  96233968.067 6      2515.961          38.000
G21  20644464.258 8 108487460.725 8       -58.949          51.000    20644461.805 8  84535704.986 8       -45.934          51.000
G25  24884819.359 6 130770578.777 6     -3585.961          38.000    24884824.680 6 101899162.659 6     -2794.255          38.000
G26  20411509.805 7 107263200.834 7       894.852          42.000    20411513.430 7  83581733.437 7       697.287          42.000
G29  22427751.617 6 117858580.562 6     -2535.613          38.000    22427736.344 5  91837898.435 5     -1975.809          35.000
G31  22803143.875 8 119831316.928 8     -2905.449          49.000    22803145.414 8  93375044.500 8     -2263.986          49.000
R15  22358571.516 7 119477371.076 7     -4287.875          43.000    22358577.180 3  92926910.233 3     -3335.017          23.000
R16  19481513.977 8 104066730.236 8     -1238.465          50.000    19481514.992 7  80940805.933 7      -963.250          44.000
R18  19499691.398 6 104090797.517 6     -1222.668          37.000    19499696.133 6  80959483.026 6      -950.967          36.000
C05  39627884.633 6 206352792.935 6        12.223          36.000    39627885.086 6 159565070.237 6         9.183          36.000
C27  23756816.664 5 123707976.473 5     -2442.719          32.000
C29  23959955.617 6 124765752.352 6      2331.699          36.000
C30  21509983.234 8 112008241.291 8       -67.559          51.000
E02  27416739.164 6 144075930.517 6     -3022.285          39.000    27416742.719 6 110395807.922 6     -2315.711          36.000
E15  23643448.516 8 124247154.311 8      1401.375          51.000    23643451.211 8  95202442.633 8      1073.787          51.000
E30  22635450.023 8 118950095.373 8     -1531.543          51.000    22635454.719 8  91143581.856 8     -1173.499          51.000
> 2020 05 16 13 11  0.0000000  0 16        .000000000000
G18  20296713.961 8 106659987.373 8       -25.395          51.000    20296713.188 8  83111702.317 8       -19.788          51.000
G20  23482872.883 7 123403352.491 7      3230.602          45.000    23482875.117 6  96158476.751 6      2517.355          37.000
G21  20644829.312 8 108489379.242 8       -68.043          50.000    20644826.898 8  84537199.948 8       -53.017          50.000
G26  20406429.234 7 107236503.232 7       885.742          43.000    20406433.219 7  83560930.084 7       690.189          43.000
G31  22819741.695 8 119918537.056 8     -2908.402          49.000    22819742.695 8  93443008.216 8     -2266.288          49.000
R15  22382652.891 6 119606053.760 6     -4290.113          40.000
R16  19488526.398 8 104104188.626 8     -1257.727          48.000    19488527.727 7  80969940.213 7      -978.235          43.000
R17  22333216.742 5 119509504.774 5     -3497.938          35.000
R18  19506586.625 5 104127604.631 5     -1230.277          34.000    19506590.242 6  80988110.747 6      -956.879          36.000
C05  39627800.422 6 206352355.515 6        18.055          36.000    39627800.852 5 159564731.164 5        14.384          35.000
C27  23770888.258 5 123781235.813 5     -2440.254          35.000
C29  23946521.305 5 124695811.711 5      2332.160          35.000
C30  21510384.445 8 112010330.070 8       -70.812          51.000
E02  27433986.188 5 144166572.556 5     -3019.609          33.000    27433993.195 6 110465260.840 6     -2313.676          37.000
E15  23635461.250 8 124205180.388 8      1397.887          51.000    23635463.570 8  95170280.811 8      1071.198          51.000
E30  22644210.680 8 118996133.779 8     -1536.641          51.000    22644215.727 8  91178858.028 8     -1177.435          51.000
> 2020 05 16 13 11 30.0000000  0 15        .000000000000
G18  20296935.969 8 106661154.001 8       -48.180          51.000    20296935.375 8  83112611.372 8       -37.543          51.000
G20  23464466.547 7 123306625.098 7      3222.102          46.000    23464467.320 6  96083104.848 6      2510.732          37.000
G21  20645286.688 8 108491783.244 8       -88.023          50.000    20645284.281 8  84539073.196 8       -68.590          50.000
G26  20401440.516 7 107210288.028 7       866.121          43.000    20401444.469 7  83540502.649 7       674.900          43.000
G29  22456721.203 6 118010846.195 6     -2543.020          37.000    22456735.125 6  91956557.309 6     -1981.574          36.000
G31  22836395.648 8 120006052.800 8     -2921.840          49.000    22836396.055 8  93511202.272 8     -2276.758          49.000
R15  22406784.906 6 119735005.514 6     -4302.336          37.000    22406787.539 4  93127271.391 4     -3346.270          26.000
R16  19495685.148 7 104142431.220 7     -1287.551          47.000    19495687.359 7  80999684.418 7     -1001.428          44.000
R18  19513566.539 6 104164867.066 6     -1249.246          40.000    19513571.055 5  81017092.645 5      -971.642          35.000
C05  39627719.789 6 206351935.301 6        13.848          36.000    39627720.336 5 159564406.635 5        10.901          35.000
C29  23933125.344 5 124626064.491 5      2321.285          35.000
C30  21510843.203 8 112012719.316 8       -84.340          51.000
E02                                                                  27451264.461 6 110534800.261 6     -2319.102          37.000
E15  23627532.859 8 124163516.427 8      1383.922          51.000    23627535.070 8  95138356.499 8      1060.432          51.000
E30  22653039.938 8 119042531.088 8     -1552.254          51.000    22653044.836 8  91214409.191 8     -1189.344          51.000
> 2020 05 16 13 12  0.0000000  0 15        .000000000000
G18  20297266.492 8 106662891.940 8       -79.004          51.000    20297266.445 8  83113965.628 8       -61.561          51.000
G20  23446089.094 7 123210048.729 7      3205.234          46.000    23446088.742 6  96007850.652 6      2497.591          36.000
G21  20645835.266 8 108494666.562 8      -115.543          50.000    20645832.930 8  84541319.952 8       -90.033          50.000
G26  20396542.938 7 107184551.479 7       838.574          44.000    20396546.406 7  83520448.197 7       653.434          43.000
G29  22471263.812 6 118087269.509 6     -2560.234          36.000    22471261.445 5  92016057.852 5     -1994.988          33.000
G31  22853104.094 8 120093855.778 8     -2943.125          49.000    22853103.711 8  93579620.149 8     -2293.344          49.000
R15  22430965.594 5 119864217.543 5     -4323.117          32.000    22430966.125 5  93227769.439 5     -3362.431          31.000
R16  19502989.102 7 104181451.401 7     -1325.371          45.000    19502992.508 7  81030033.434 7     -1030.847          44.000
R18  19520631.992 6 104202577.584 6     -1276.223          38.000    19520635.234 5  81046422.983 5      -992.618          35.000
C05  39627641.664 5 206351528.745 5         1.973          35.000    39627642.438 5 159564093.676 5         1.359          35.000
C29  23919767.539 6 124556505.801 6      2304.152          36.000
C30  21511358.938 8 112015403.362 8      -105.852          51.000
E02                                                                  27468555.164 5 110604421.499 5     -2330.958          35.000
E15  23619662.281 8 124122157.334 8      1361.988          51.000    23619664.930 8  95106665.782 8      1043.616          51.000
E30  22661936.688 8 119089281.716 8     -1575.797          51.000    22661941.117 8  91250231.069 8     -1207.459          51.000
> 2020 05 16 13 12 30.0000000  0 15        .000000000000
G18  20297724.406 8 106665299.559 8       -82.191          51.000    20297724.422 8  83115841.688 8       -64.045          51.000
G20  23427759.672 7 123113725.181 7      3215.793          45.000    23427758.211 6  95932793.462 6      2505.819          37.000
G21  20646493.664 8 108498127.324 8      -115.680          49.000    20646491.500 8  84544016.647 8       -90.140          49.000
G26  20391755.664 7 107159394.013 7       838.125          44.000    20391758.758 7  83500844.967 7       653.084          44.000
G31  22869885.430 8 120182042.476 8     -2936.738          49.000    22869883.820 8  93648337.010 8     -2288.371          49.000
R15  22455214.320 6 119993787.122 6     -4315.809          38.000    22455214.930 5  93328545.655 5     -3356.743          33.000
R16  19510457.273 7 104221349.161 7     -1334.898          44.000    19510461.477 7  81061065.002 7     -1038.254          43.000
R17  22392174.344 4 119825042.936 4     -3504.859          29.000
R18  19527798.500 6 104240834.010 6     -1274.953          37.000    19527803.148 5  81076178.103 5      -991.627          35.000
C05  39627585.055 6 206351234.443 6        17.555          36.000    39627586.031 6 159563866.111 6        13.115          36.000
C29  23906466.156 6 124487234.100 6      2313.469          38.000
C30  21511949.797 8 112018479.667 8       -99.902          51.000
E02                                                                  27485884.266 5 110674199.493 5     -2321.616          33.000
E15  23611868.617 8 124081202.144 8      1367.723          51.000    23611871.766 8  95075284.532 8      1048.031          51.000
E30  22670919.562 8 119136484.222 8     -1571.680          51.000    22670923.500 8  91286399.196 8     -1204.262          51.000
> 2020 05 16 13 13  0.0000000  0 16        .000000000000
G18  20298260.977 8 106668121.372 8      -105.480          51.000    20298261.422 8  83118040.489 8       -82.193          51.000
G20  23409430.242 7 123017402.628 7      3206.164          44.000    23409427.797 6  95857737.034 6      2498.313          37.000
G21  20647213.141 8 108501909.607 8      -135.984          48.000    20647211.273 8  84546963.883 8      -105.962          48.000
G26  20387030.383 7 107134562.200 7       817.602          45.000    20387033.367 7  83481495.488 7       637.089          44.000
G29  22500426.031 5 118240535.934 5     -2558.199          33.000
G31  22886690.508 7 120270355.335 7     -2950.422          47.000    22886687.445 7  93717152.168 7     -2299.033          47.000
R15  22479480.180 6 120123451.617 6     -4327.773          39.000    22479480.844 5  93429395.742 5     -3366.049          34.000
R16  19518041.578 7 104261863.914 7     -1365.480          45.000    19518045.430 7  81092576.455 7     -1062.040          42.000
R17  22411835.703 5 119930279.162 5     -3510.652          32.000
R18  19535019.586 6 104279376.151 6     -1293.801          38.000    19535021.727 5  81106155.185 5     -1006.296          31.000
C05  39627501.516 5 206350798.531 5        12.281          35.000    39627502.562 6 159563530.776 6         9.361          36.000
C27  23827413.211 5 124075596.027 5     -2458.836          33.000
C29  23893171.117 6 124417997.228 6      2302.918          38.000
C30  21512567.156 8 112021695.136 8      -113.980          51.000
E15  23604103.430 8 124040396.118 8      1353.219          51.000    23604106.906 8  95044017.580 8      1036.948          51.000
E30  22679939.734 8 119183883.411 8     -1587.688          51.000    22679943.242 8  91322718.035 8     -1216.561          51.000
> 2020 05 16 13 13 30.0000000  0 15        .000000000000
G18  20298901.695 8 106671490.861 8      -124.973          50.000    20298902.953 8  83120666.075 8       -97.381          51.000
G20  23391126.742 7 122921218.205 7      3200.188          43.000    23391123.008 6  95782788.199 6      2493.656          39.000
G21  20648019.266 8 108506146.759 8      -152.379          48.000    20648017.703 8  84550265.544 8      -118.737          49.000
G26  20382393.008 7 107110191.516 7       801.035          47.000    20382395.773 7  83462505.349 7       624.183          47.000
G31  22903544.250 7 120358925.717 7     -2960.195          45.000    22903540.109 7  93786167.970 7     -2306.649          45.000
R15  22503787.688 6 120253344.289 6     -4337.230          40.000    22503788.172 5  93530423.281 5     -3373.405          33.000
R16  19525767.125 7 104303131.290 7     -1391.793          45.000    19525770.547 7  81124673.267 7     -1082.506          42.000
R17  22431511.820 5 120035558.133 5     -3512.996          31.000    22431525.758 4  93361048.133 4     -2732.333          27.000
R18  19542318.805 5 104318337.481 5     -1308.875          30.000    19542322.172 5  81136458.456 5     -1018.008          35.000
C05  39627416.703 6 206350355.916 6        11.344          36.000    39627417.734 5 159563188.489 5         9.095          35.000
C27  23841575.828 5 124149336.947 5     -2463.059          34.000
C29  23879907.492 5 124348928.508 5      2295.930          34.000
C30  21513237.078 8 112025182.146 8      -124.262          51.000
