     3.02           OBSERVATION DATA    M (MIXED)           RINEX VERSION / TYPE
SAVERINEX           SC600               20200503 065931 LCL PGM / RUN BY / DATE
       G = GPS       R = GLONASS       C = COMPASS          COMMENT
       S = SBAS      J = QZSS          E = GALILEO          COMMENT
BEAN                                                        MARKER NAME
1                                                           MARKER NUMBER
GEODETIC                                                    MARKER TYPE
Unige DICCA         GTER                                    OBSERVER / AGENCY
SC60291900056       SC600               2.12(191226)        REC # / TYPE / VERS
                    HEMA45          NONE                    ANT # / TYPE
  4509407.8091   693652.4678  4442337.6214                  APPROX POSITION XYZ
        0.0000        0.0000        0.0000                  ANTENNA: DELTA H/E/N
G    8 C1C L1C D1C S1C C2Y L2Y D2Y S2Y                      SYS / # / OBS TYPES
R    8 C1C L1C D1C S1C C2P L2P D2P S2P                      SYS / # / OBS TYPES
C    8 C1I L1I D1I S1I C7I L7I D7I S7I                      SYS / # / OBS TYPES
E    8 C1C L1C D1C S1C C7Q L7Q D7Q S7Q                      SYS / # / OBS TYPES
DBHZ                                                        COMMENT
     30.000                                                 INTERVAL
  2020    05    03    04    00    0.0000000     GPS         TIME OF FIRST OBS
  2020    05    03    04    59   30.0000000     GPS         TIME OF LAST OBS
     0                                                      RCV CLOCK OFFS APPL
G L1C  0.00000                                              SYS / PHASE SHIFT
G L2Y  0.00000                                              SYS / PHASE SHIFT
R L1C  0.00000                                              SYS / PHASE SHIFT
R L2P  0.25000                                              SYS / PHASE SHIFT
C L1I  0.00000                                              SYS / PHASE SHIFT
C L7I  0.00000                                              SYS / PHASE SHIFT
E L1C  0.50000                                              SYS / PHASE SHIFT
E L7Q -0.25000                                              SYS / PHASE SHIFT
 12 R01  1 R02 -4 R03  5 R04  6 R10 -5 R12 -1 R13 -2 R14 -7 GLONASS SLOT / FRQ #
    R15  0 R17  4 R18 -3 R23  3                             GLONASS SLOT / FRQ #
 C1C   71.950 C2C   71.950 C2P   71.950                     GLONASS COD/PHS/BIS
    18                                                      LEAP SECONDS
*** Above antenna height is from mark to ANTENNA BOTTOM.    COMMENT
    17     4        0.0000        ANT MEASURE TYPE/HEIGT    COMMENT
    0.0000    0.0000    0.0458    0.0405    0.0000          COMMENT
                    BASE STATION                            COMMENT
                                                            END OF HEADER
> 2020 05 03 04 00  0.0000000  0 16        .000000000000
G05  20716146.352 8 108864078.205 8     -1029.508          51.000    20716145.328 8  84829145.216 8      -802.211          51.000
G28  21665970.023 8 113855501.382 8      2160.660          51.000    21665967.812 7  88718574.915 7      1683.631          45.000
G30  20617181.562 8 108344071.858 8     -1117.793          51.000    20617182.586 8  84423981.115 8      -871.004          51.000
R03  21336232.062 8 114214488.240 8     -3137.285          50.000    21336233.156 7  88833494.070 7     -2440.114          42.000
R04  19196680.867 8 102797353.316 8       259.230          51.000    19196682.570 7  79953507.847 7       201.621          46.000
R14  19152531.391 8 102093733.946 8       160.277          51.000    19152534.594 8  79406270.058 8       124.660          51.000
R15  21422721.836 8 114476648.262 8      3660.730          50.000    21422727.000 7  89037339.634 7      2847.235          45.000
C05  39782344.906 6 207157109.079 6         6.641          37.000    39782343.258 6 160186997.221 6         4.830          41.000
C14  21595310.234 8 112452460.636 8      -685.746          49.000    21595308.766 8  86955356.968 8      -530.281          51.000
C24  22023991.430 8 114684753.697 8      1078.375          51.000
C25  25535449.961 6 132969758.546 6      3132.988          40.000
C26  22391633.914 7 116599203.610 7     -1847.742          47.000
E04  25487521.508 7 133937935.664 7     -2037.086          46.000    25487524.086 7 102627714.973 7     -1560.815          44.000
E09  21449198.523 8 112716278.368 8       233.469          51.000    21449198.125 8  86367035.302 8       178.895          51.000
E24  24369038.133 5 128060159.389 5      2973.430          33.000    24369055.398 7  98124092.479 7      2278.582          45.000
E31  23791140.711 8 125023327.651 8       825.652          51.000    23791144.508 8  95797114.632 8       632.658          51.000
> 2020 05 03 04 00 30.0000000  0 16        .000000000000
G05  20722093.555 8 108895332.012 8     -1053.312          51.000    20722092.852 8  84853498.818 8      -820.763          51.000
G28  21653692.750 8 113790982.289 8      2141.344          51.000    21653689.844 7  88668300.317 7      1668.580          44.000
G30  20623614.203 8 108377875.962 8     -1134.875          51.000    20623615.258 8  84450321.981 8      -884.318          51.000
R03  21353867.359 8 114308889.564 8     -3155.375          50.000    21353867.789 7  88906917.202 7     -2454.184          43.000
R04  19195301.117 8 102789963.785 8       234.188          51.000    19195302.836 7  79947760.413 7       182.146          46.000
R14  19151712.602 8 102089370.792 8       131.316          51.000    19151716.031 8  79402876.481 8       102.135          51.000
R15  21402223.336 8 114367108.538 8      3642.711          51.000    21402226.922 7  88952142.076 7      2833.220          44.000
C05  39782323.273 6 207156996.095 6         2.016          37.000    39782321.586 6 160186909.786 6         1.818          41.000
C14  21599317.805 8 112473331.006 8      -704.785          48.000    21599316.211 8  86971495.262 8      -544.921          51.000
C24  22017834.023 8 114652689.978 8      1060.012          51.000
C25  25517428.891 6 132875920.514 6      3123.531          39.000
C26  22402323.547 8 116654866.276 8     -1862.422          48.000
E04  25499183.789 7 133999220.270 7     -2047.695          46.000    25499185.672 7 102674673.302 7     -1569.016          43.000
E09  21447905.141 8 112709481.844 8       220.461          51.000    21447904.828 8  86361827.570 8       168.922          51.000
E24                                                                  24352110.305 7  98055862.373 7      2270.877          44.000
E31  23786481.820 8 124998846.065 8       807.273          51.000    23786485.508 8  95778355.998 8       618.542          51.000
> 2020 05 03 04 01  0.0000000  0 16        .000000000000
G05  20728154.078 8 108927180.345 8     -1070.410          51.000    20728153.422 8  84878315.706 8      -834.086          51.000
G28  21641503.023 8 113726925.100 8      2128.684          50.000    21641498.688 7  88618385.638 7      1658.718          42.000
G30  20630121.961 8 108412074.542 8     -1145.488          51.000    20630122.648 8  84476970.229 8      -892.588          51.000
R03  21371581.648 8 114403714.629 8     -3166.719          50.000    21371582.336 7  88980669.893 7     -2463.007          45.000
R04  19194039.055 8 102783204.836 8       215.898          50.000    19194040.688 7  79942503.431 7       167.921          46.000
R14  19151034.547 8 102085757.365 8       109.223          50.000    19151038.203 8  79400066.032 8        84.951          51.000
R15  21381803.648 8 114257991.468 8      3631.293          51.000    21381805.367 7  88867273.265 7      2824.339          44.000
C05  39782305.312 6 207156902.179 6         4.035          37.000    39782303.633 6 160186837.152 6         3.129          41.000
C14  21603411.977 7 112494654.077 7      -717.238          47.000    21603411.047 8  86987983.599 8      -554.533          51.000
C24  22011759.484 8 114621058.353 8      1048.277          50.000
C25  25499439.047 6 132782244.724 6      3120.934          37.000
C26  22413075.531 8 116710854.121 8     -1870.520          49.000
E04  25510885.016 7 134060710.107 7     -2051.977          44.000    25510886.734 7 102721788.873 7     -1572.303          43.000
E09  21446663.773 8 112702959.277 8       213.961          51.000    21446663.664 8  86356829.751 8       164.004          51.000
E24                                                                  24335200.969 7  97987778.375 7      2267.902          44.000
E31  23781905.648 8 124974799.081 8       795.453          51.000    23781909.570 8  95759930.400 8       609.524          51.000
> 2020 05 03 04 01 30.0000000  0 16        .000000000000
G05  20734319.750 8 108959581.731 8     -1089.348          51.000    20734319.203 8  84903563.528 8      -848.842          51.000
G28  21629393.391 7 113663292.022 7      2113.941          47.000    21629388.172 7  88568801.468 7      1647.227          42.000
G30  20636696.914 8 108446626.195 8     -1157.723          51.000    20636697.461 8  84503893.589 8      -902.122          51.000
R03  21389366.727 8 114498921.021 8     -3179.961          48.000    21389368.383 7  89054719.308 7     -2473.300          47.000
R04  19192887.398 8 102777037.270 8       195.559          50.000    19192889.016 7  79937706.418 7       152.101          47.000
R14  19150489.172 8 102082852.109 8        84.934          50.000    19150493.320 8  79397806.389 8        66.059          50.000
R15  21361455.805 8 114149258.841 8      3617.773          51.000    21361456.016 7  88782703.481 7      2813.824          44.000
C05  39782283.320 6 207156787.614 6         4.285          37.000    39782281.742 6 160186748.550 6         3.039          41.000
C14  21607585.617 8 112516390.263 8      -731.543          48.000    21607585.438 8  87004791.379 8      -565.715          51.000
C24  22005760.172 8 114589819.157 8      1034.652          51.000
C25  25481473.789 5 132688692.723 5      3115.938          33.000
C26  22423881.609 8 116767125.693 8     -1880.516          48.000
E04  25522617.625 7 134122364.914 7     -2058.039          45.000    25522618.266 7 102769030.815 7     -1576.885          43.000
E09  21445466.938 8 112696671.343 8       205.477          51.000    21445467.211 8  86352011.706 8       157.473          51.000
E24  24318301.250 6 127793526.085 6      2954.023          37.000    24318320.484 7  97919810.915 7      2263.386          44.000
E31  23777404.602 8 124951146.875 8       781.625          51.000    23777408.797 8  95741807.316 8       598.910          51.000
> 2020 05 03 04 02  0.0000000  0 17        .000000000000
G05  20740592.500 8 108992546.468 8     -1108.043          51.000    20740592.320 8  84929250.310 8      -863.413          51.000
G07  22644665.164 5 118998517.657 5     -2510.496          32.000
G28  21617366.109 7 113600096.788 7      2099.312          43.000    21617361.789 7  88519558.418 7      1635.825          43.000
G30  20643340.922 8 108481541.084 8     -1169.633          51.000    20643341.758 8  84531100.009 8      -911.402          51.000
R03  21407223.430 7 114594518.795 7     -3192.762          44.000    21407227.844 8  89129073.180 8     -2483.256          48.000
R04  19191848.719 8 102771474.285 8       175.586          49.000    19191850.406 7  79933379.626 7       136.564          47.000
R14  19150078.688 8 102080665.860 8        61.109          49.000    19150083.250 8  79396105.939 8        47.530          50.000
R15  21341182.836 8 114040925.241 8      3604.672          51.000    21341182.734 7  88698444.041 7      2803.634          45.000
C05  39782259.562 6 207156663.909 6         4.445          37.000    39782258.023 6 160186652.859 6         3.422          41.000
C14  21611841.281 8 112538551.078 8      -745.500          50.000    21611841.141 8  87021927.533 8      -576.549          51.000
C24  21999839.188 8 114558983.999 8      1021.297          51.000
C25  25463538.164 5 132595277.084 5      3110.863          31.000
C26  22434744.320 8 116823690.763 8     -1890.168          49.000
E04  25534383.977 8 134184196.131 8     -2063.707          48.000    25534383.414 7 102816407.894 7     -1581.288          44.000
E09  21444317.156 8 112690630.279 8       197.406          51.000    21444317.789 8  86347382.829 8       151.310          51.000
E24  24301454.781 6 127704987.882 6      2948.770          41.000    24301471.430 7  97851969.929 7      2259.354          44.000
E31  23772981.172 8 124927901.200 8       768.309          51.000    23772984.906 8  95723995.687 8       588.692          51.000
> 2020 05 03 04 02 30.0000000  0 17        .000000000000
G05  20746975.062 8 109026087.304 8     -1127.547          51.000    20746974.992 8  84955386.001 8      -878.608          51.000
G07  22659019.023 5 119073948.315 5     -2516.727          33.000
G28  21605425.812 7 113537355.000 7      2083.824          47.000    21605423.305 7  88470668.675 7      1623.756          45.000
G30  20650056.328 8 108516831.321 8     -1182.523          51.000    20650057.375 8  84558598.895 8      -921.450          51.000
R03  21425155.633 7 114690520.449 7     -3206.543          43.000    21425162.367 8  89203741.152 8     -2493.978          49.000
R04  19190925.914 8 102766531.283 8       154.523          49.000    19190927.500 7  79929535.067 7       120.185          47.000
R14  19149805.641 8 102079211.312 8        36.414          49.000    19149810.609 8  79394974.639 8        28.322          50.000
R15  21320987.734 8 113933007.056 8      3590.344          51.000    21320988.328 7  88614507.684 7      2792.490          46.000
C05  39782236.695 6 207156545.428 6         3.621          37.000    39782235.039 6 160186560.433 6         3.057          41.000
C14  21616181.406 8 112561150.042 8      -760.492          50.000    21616180.500 8  87039402.490 8      -587.997          51.000
C24  21993998.703 8 114528566.289 8      1006.988          51.000
C25  25445630.453 5 132502012.314 5      3106.098          30.000
C26  22445665.703 8 116880561.000 8     -1900.652          49.000
E04  25546186.938 8 134246216.968 8     -2070.387          50.000    25546185.898 7 102863930.322 7     -1586.487          46.000
E09  21443217.289 8 112684850.374 8       188.434          51.000    21443217.930 8  86342954.057 8       144.384          51.000
E24  24284641.984 7 127616629.746 7      2942.500          43.000    24284656.438 7  97784266.924 7      2254.517          44.000
E31  23768637.523 8 124905075.730 8       753.891          51.000    23768640.953 8  95706506.035 8       577.749          51.000
> 2020 05 03 04 03  0.0000000  0 16        .000000000000
G05  20753467.680 8 109060207.072 8     -1147.629          50.000    20753467.461 8  84981972.812 8      -894.256          50.000
G28  21593574.258 8 113475072.448 8      2067.832          51.000    21593572.523 7  88422136.798 7      1611.298          45.000
G30  20656843.594 8 108552499.138 8     -1195.824          51.000    20656844.617 8  84586391.975 8      -931.811          51.000
R03  21443165.680 7 114786927.833 7     -3221.047          46.000    21443172.266 8  89278724.645 8     -2505.259          48.000
R04  19190119.672 8 102762213.498 8       132.785          48.000    19190120.984 7  79926176.769 7       103.274          47.000
R14  19149670.438 8 102078491.097 8        11.004          50.000    19149675.219 8  79394414.463 8         8.559          49.000
R15  21300871.453 8 113825510.313 8      3575.512          51.000    21300873.359 7  88530899.113 7      2780.954          47.000
C05  39782215.180 6 207156432.643 6         2.812          37.000    39782213.547 6 160186473.975 6         2.111          41.000
C14  21620606.383 8 112584190.816 8      -776.121          50.000    21620604.812 8  87057219.075 8      -600.083          51.000
C24  21988238.680 8 114498569.610 8       992.293          51.000
C25  25427750.266 5 132408903.355 5      3100.078          32.000
C26  22456646.062 8 116937738.259 8     -1911.684          50.000
E04  25558026.320 7 134308430.894 7     -2077.746          47.000    25558026.477 7 102911600.682 7     -1592.024          47.000
E09  21442167.992 8 112679335.943 8       178.770          51.000    21442168.469 8  86338728.707 8       136.958          51.000
E24  24267863.625 7 127528456.746 7      2935.375          43.000    24267877.094 7  97716705.745 7      2249.243          44.000
E31  23764374.070 8 124882674.199 8       738.906          49.000    23764378.031 8  95689341.236 8       566.223          51.000
> 2020 05 03 04 03 30.0000000  0 16        .000000000000
G05  20760073.500 8 109094921.967 8     -1166.906          50.000    20760073.078 8  85009023.368 8      -909.278          50.000
G28  21581814.195 8 113413267.922 8      2052.344          51.000    21581812.367 7  88373977.401 7      1599.229          46.000
G30  20663705.672 8 108588560.108 8     -1208.410          51.000    20663706.859 8  84614491.407 8      -941.618          51.000
R03  21461255.180 8 114883756.460 8     -3234.352          48.000    21461260.289 7  89354035.799 7     -2515.607          43.000
R04  19189434.156 8 102758539.580 8       111.859          49.000    19189434.914 7  79923319.292 7        87.005          47.000
R14  19149676.367 8 102078521.350 8       -13.320          51.000    19149681.055 8  79394437.990 8       -10.360          49.000
R15  21280837.539 8 113718455.043 8      3561.230          49.000    21280840.406 7  88447633.879 7      2769.846          47.000
C05  39782198.430 6 207156345.467 6         2.812          36.000    39782196.844 6 160186406.536 6         2.271          41.000
C14  21625119.664 8 112607690.187 8      -790.762          51.000    21625117.742 8  87075390.268 8      -611.410          51.000
C24  21982562.531 8 114469010.885 8       978.113          51.000
C25  25409898.484 5 132315968.130 5      3094.957          30.000
C26  22467688.406 8 116995237.616 8     -1921.832          50.000
E04  25569904.766 7 134370854.588 7     -2084.059          44.000    25569906.234 7 102959431.785 7     -1596.843          47.000
E09  21441172.539 8 112674104.691 8       169.895          51.000    21441172.688 8  86334720.340 8       130.179          51.000
E24  24251123.500 7 127440487.270 7      2929.020          45.000    24251136.875 7  97649300.517 7      2244.439          43.000
E31  23760194.625 8 124860713.719 8       724.840          48.000    23760199.008 8  95672514.360 8       555.460          51.000
> 2020 05 03 04 04  0.0000000  0 16        .000000000000
G05  20766787.898 8 109130205.930 8     -1185.164          51.000    20766787.141 8  85036517.357 8      -923.504          51.000
G28  21570140.734 8 113351919.052 8      2037.684          51.000    21570138.578 7  88326173.061 7      1587.805          47.000
G30  20670637.656 8 108624987.872 8     -1219.969          51.000    20670638.992 8  84642876.656 8      -950.625          51.000
R03  21479418.016 7 114980979.488 7     -3246.891          45.000    21479420.852 6  89429653.647 6     -2525.362          39.000
R04  19188863.852 7 102755485.776 7        91.840          47.000    19188864.789 8  79920944.123 8        71.431          48.000
R14  19149817.984 8 102079275.523 8       -36.840          50.000    19149822.453 8  79395024.584 8       -28.650          49.000
R15  21260881.492 8 113611818.383 8      3548.008          48.000    21260885.094 7  88364694.248 7      2759.562          46.000
C05  39782181.727 6 207156259.224 6         3.695          36.000    39782180.078 6 160186339.067 6         2.555          41.000
C14  21629716.352 8 112631623.563 8      -804.582          51.000    21629713.961 8  87093897.063 8      -622.118          51.000
C24  21976965.570 8 114439865.438 8       965.043          51.000
C25  25392074.297 5 132223203.086 5      3090.336          30.000
C26  22478787.312 8 117053032.633 8     -1930.961          49.000
E04  25581817.906 7 134433462.847 7     -2089.594          42.000    25581820.633 8 103007404.381 8     -1601.078          48.000
E09  21440226.273 8 112669132.388 8       161.922          51.000    21440226.250 8  86330910.392 8       124.040          51.000
E24  24234417.258 7 127352697.833 7      2923.750          46.000    24234431.031 7  97582033.250 7      2240.348          43.000
E31  23756094.766 8 124839169.485 8       711.727          48.000    23756098.883 8  95656006.399 8       545.283          51.000
> 2020 05 03 04 04 30.0000000  0 17        .000000000000
G05  20773607.039 8 109166039.294 8     -1203.996          51.000    20773605.953 8  85064439.463 8      -938.179          51.000
G07  22716763.070 5 119377394.647 5     -2539.344          34.000
G28  21558550.359 8 113291009.160 8      2022.605          51.000    21558548.367 8  88278710.819 8      1576.056          48.000
G30  20677635.812 8 108661762.747 8     -1231.934          51.000    20677637.070 8  84671532.399 8      -959.948          51.000
R03  21497650.828 7 115078576.470 7     -3259.859          46.000    21497651.391 6  89505562.270 6     -2535.449          41.000
R04  19188406.266 8 102753034.914 8        71.148          49.000    19188407.008 8  79919037.875 8        55.338          48.000
R14  19150092.000 8 102080734.127 8       -60.805          51.000    19150096.000 8  79396159.051 8       -47.293          49.000
R15  21241001.297 8 113505584.365 8      3533.891          50.000    21241004.055 7  88282067.826 7      2748.585          44.000
C05  39782161.438 6 207156153.716 6         3.797          36.000    39782159.797 6 160186257.440 6         2.722          41.000
C14  21634392.898 8 112655972.842 8      -819.047          51.000    21634389.898 8  87112725.464 8      -633.330          51.000
C24  21971444.211 8 114411115.136 8       951.344          51.000
C25  25374278.148 5 132130527.121 5      3085.562          31.000
C26  22489939.109 8 117111103.492 8     -1940.734          50.000
E04  25593761.469 6 134496237.160 6     -2095.816          40.000    25593766.711 7 103055504.242 7     -1605.721          47.000
E09  21439325.828 8 112664401.484 8       153.207          51.000    21439325.992 8  86327285.403 8       117.386          51.000
E24  24217741.953 7 127265071.571 7      2917.645          47.000    24217756.070 7  97514891.042 7      2235.720          42.000
E31  23752071.070 8 124818023.312 8       697.742          49.000    23752074.672 8  95639803.442 8       534.610          51.000
> 2020 05 03 04 05  0.0000000  0 17        .000000000000
G05  20780532.773 8 109202433.444 8     -1222.676          51.000    20780531.578 8  85092798.535 8      -952.734          51.000
G07  22731286.359 6 119453688.114 6     -2544.871          38.000    22731265.992 4  93080748.926 4     -1983.019          27.000
G28  21547045.680 8 113230552.281 8      2007.332          50.000    21547044.461 7  88231601.575 7      1564.155          47.000
G30  20684702.055 8 108698895.163 8     -1243.934          51.000    20684703.273 8  84700466.739 8      -969.299          51.000
R03  21515954.984 7 115176557.667 7     -3272.676          45.000    21515956.102 7  89581769.837 7     -2545.414          45.000
R04  19188064.117 8 102751200.479 8        50.602          49.000    19188064.195 7  79917611.117 7        39.357          47.000
R14  19150499.742 8 102082908.039 8       -84.602          51.000    19150503.953 8  79397849.873 8       -65.801          50.000
R15  21221199.633 8 113399767.505 8      3519.914          51.000    21221201.219 7  88199765.882 7      2737.714          45.000
C05  39782139.898 6 207156041.671 6         4.008          36.000    39782138.320 6 160186170.798 6         2.661          41.000
C14  21639151.500 8 112680749.698 8      -833.371          51.000    21639148.266 8  87131884.499 8      -644.361          51.000
C24  21966000.875 8 114382771.663 8       937.762          51.000
C25  25356512.562 5 132038021.124 5      3080.742          32.000
C26  22501145.938 8 117169460.153 8     -1950.207          50.000
E04  25605740.703 7 134559189.242 7     -2101.535          43.000    25605746.023 7 103103740.286 7     -1610.381          45.000
E09  21438473.664 8 112659924.486 8       144.637          51.000    21438474.375 8  86323854.960 8       110.861          51.000
E24  24201100.055 7 127177621.717 7      2911.750          47.000    24201113.586 6  97447884.031 6      2231.186          40.000
E31  23748125.641 8 124797287.034 8       684.098          51.000    23748128.820 8  95623914.620 8       524.158          51.000
> 2020 05 03 04 05 30.0000000  0 17        .000000000000
G05  20787563.531 8 109239379.556 8     -1240.906          51.000    20787562.133 8  85121587.717 8      -966.940          51.000
G07  22745826.570 6 119530082.671 6     -2549.047          36.000    22745793.555 4  93140277.111 4     -1986.273          29.000
G28  21535625.586 8 113170543.183 8      1992.711          48.000    21535625.516 7  88184841.217 7      1552.762          46.000
G30  20691834.664 8 108736376.409 8     -1255.348          51.000    20691835.953 8  84729672.901 8      -978.193          51.000
R03  21534328.547 7 115274914.260 7     -3284.934          45.000    21534331.109 7  89658269.401 7     -2554.948          47.000
R04  19187835.438 8 102749976.456 8        30.430          50.000    19187835.484 7  79916659.078 7        23.664          47.000
R14  19151040.383 8 102085788.627 8      -107.969          51.000    19151044.414 8  79400090.321 8       -83.976          49.000
R15  21201474.836 8 113294362.952 8      3506.465          50.000    21201476.664 7  88117784.584 7      2727.250          46.000
C05  39782115.875 6 207155914.971 6         4.000          37.000    39782114.219 6 160186073.540 6         3.338          41.000
C14  21643990.867 8 112705946.939 8      -846.965          51.000    21643987.703 8  87151368.590 8      -654.978          51.000
C24  21960634.141 8 114354827.830 8       924.719          51.000
C25  25338775.023 5 131945655.064 5      3076.164          32.000
C26  22512406.039 8 117228093.678 8     -1959.211          50.000
E04  25617753.516 7 134622311.604 7     -2107.125          45.000    25617756.648 7 103152106.734 7     -1614.550          42.000
E09  21437668.617 8 112655694.837 8       136.715          51.000    21437669.820 8  86320614.035 8       104.782          51.000
E24  24184490.453 7 127090342.445 7      2906.316          47.000    24184501.297 6  97381007.758 6      2226.942          39.000
E31  23744257.117 8 124776953.526 8       670.926          51.000    23744259.461 8  95608334.408 8       514.104          51.000
> 2020 05 03 04 06  0.0000000  0 17        .000000000000
G05  20794702.508 8 109276894.454 8     -1259.988          51.000    20794701.078 8  85150820.103 8      -981.809          51.000
G07  22760396.234 5 119606638.906 5     -2554.141          35.000    22760358.367 5  93199863.293 5     -1990.236          34.000
G28  21524294.484 8 113111001.042 8      1976.836          49.000    21524294.969 7  88138444.710 7      1540.392          45.000
G30  20699036.711 8 108774222.556 8     -1267.688          51.000    20699038.062 8  84759163.401 8      -987.808          51.000
R03  21552774.727 7 115373662.022 7     -3298.281          42.000    21552778.812 7  89735073.237 7     -2565.327          47.000
R04  19187724.672 8 102749382.051 8         9.199          51.000    19187724.383 7  79916196.755 7         7.155          47.000
R14  19151716.516 8 102089392.262 8      -132.281          51.000    19151720.375 8  79402893.148 8      -102.885          49.000
R15  21181829.672 7 113189391.002 7      3491.641          47.000    21181833.117 7  88036139.711 7      2715.720          46.000
C05  39782092.461 6 207155793.703 6         4.480          37.000    39782090.750 6 160185979.002 6         2.954          41.000
C14  21648914.008 8 112731581.809 8      -861.883          51.000    21648911.078 8  87171191.084 8      -666.469          51.000
C24  21955347.547 8 114327300.919 8       910.578          51.000
C25  25321067.305 5 131853447.340 5      3071.410          31.000
C26  22523722.148 8 117287019.650 8     -1969.191          49.000
E04  25629802.219 7 134685621.374 7     -2113.629          47.000    25629802.906 7 103200616.749 7     -1619.471          42.000
E09  21436914.188 8 112651730.687 8       127.625          51.000    21436915.609 8  86317576.556 8        97.791          51.000
E24  24167916.852 7 127003252.638 7      2899.680          46.000    24167924.547 6  97314276.641 6      2221.889          40.000
E31  23740468.422 8 124757040.313 8       656.707          51.000    23740469.820 8  95593076.232 8       503.143          51.000
> 2020 05 03 04 06 30.0000000  0 17        .000000000000
G05  20801950.000 8 109314980.098 8     -1279.152          51.000    20801948.445 8  85180497.220 8      -996.742          51.000
G07  22774992.977 6 119683345.968 6     -2560.051          37.000    22775000.234 5  93259815.834 5     -1994.845          32.000
G28  21513053.766 8 113051930.900 8      1960.922          50.000    21513053.812 7  88092416.042 7      1527.991          43.000
G30  20706308.430 8 108812434.972 8     -1279.891          51.000    20706309.656 8  84788939.290 8      -997.317          51.000
R03  21571293.852 7 115472802.232 7     -3311.258          44.000    21571299.047 7  89812182.283 7     -2575.420          45.000
R04  19187731.570 8 102749421.484 8       -12.098          51.000    19187731.633 7  79916227.411 7        -9.409          46.000
R14  19152528.523 8 102093720.494 8      -156.410          51.000    19152532.422 8  79406259.557 8      -121.649          49.000
R15  21162266.055 7 113084857.171 7      3477.035          46.000    21162270.867 7  87954835.568 7      2704.361          45.000
C05  39782070.242 6 207155677.814 6         4.023          37.000    39782068.539 6 160185889.359 6         2.722          41.000
C14  21653921.594 8 112757657.130 8      -876.668          51.000    21653918.742 8  87191354.174 8      -677.877          51.000
C24  21950141.430 8 114300193.660 8       896.434          51.000
C25  25303388.781 4 131761386.477 4      3066.176          29.000
C26  22535094.469 8 117346239.109 8     -1978.871          49.000
E04  25641886.922 8 134749121.134 8     -2120.027          48.000    25641884.648 6 103249272.295 6     -1624.323          41.000
E09  21436211.117 8 112648035.574 8       118.559          51.000    21436212.469 8  86314745.223 8        90.829          51.000
E24  24151380.078 7 126916356.539 7      2893.102          46.000    24151386.742 6  97247693.926 6      2216.906          41.000
E31  23736759.922 8 124737550.246 8       642.477          51.000    23736761.070 8  95578142.300 8       492.299          51.000
> 2020 05 03 04 07  0.0000000  0 17        .000000000000
G05  20809303.062 8 109353620.705 8     -1296.594          51.000    20809301.367 8  85210606.794 8     -1010.330          51.000
G07  22789620.672 6 119760212.029 6     -2564.395          37.000    22789594.469 5  93319603.953 5     -1998.233          31.000
G28  21501900.961 8 112993320.579 8      1946.574          51.000    21501900.047 7  88046745.681 7      1516.814          43.000
G30  20713646.727 8 108850997.911 8     -1290.645          51.000    20713647.812 8  84818988.327 8     -1005.697          51.000
R03  21589884.836 7 115572318.388 7     -3322.930          47.000    21589889.219 7  89889583.744 7     -2584.504          44.000
R04  19187854.602 8 102750081.422 8       -31.707          51.000    19187854.961 7  79916740.669 7       -24.664          46.000
R14  19153473.383 8 102098757.639 8      -179.090          51.000    19153477.398 8  79410177.355 8      -139.289          49.000
R15  21142783.375 7 112980749.214 7      3463.812          46.000    21142787.781 7  87873862.678 7      2694.073          45.000
C05  39782046.406 6 207155554.037 6         4.344          37.000    39782044.789 6 160185793.610 6         3.640          41.000
C14  21659010.844 8 112784158.602 8      -889.883          51.000    21659008.398 8  87211846.778 8      -688.114          51.000
C24  21945013.523 8 114273491.789 8       883.898          51.000
C25  25285740.680 5 131669489.847 5      3061.215          35.000
C26  22546520.461 8 117405736.146 8     -1987.176          50.000
E04  25654004.742 7 134812796.266 7     -2124.777          47.000    25653999.648 6 103298062.256 6     -1628.115          41.000
E09  21435556.625 8 112644595.843 8       110.980          51.000    21435557.945 8  86312109.567 8        85.064          51.000
E24  24134878.188 7 126829641.210 7      2887.969          47.000    24134885.352 7  97181249.701 7      2213.012          42.000
E31  23733129.203 8 124718469.023 8       629.781          51.000    23733130.461 8  95563521.648 8       482.569          51.000
> 2020 05 03 04 07 30.0000000  0 17        .000000000000
G05  20816759.242 8 109392804.558 8     -1315.363          51.000    20816758.117 8  85241139.651 8     -1024.958          50.000
G07  22804273.656 6 119837213.553 6     -2569.055          38.000    22804261.859 5  93379605.076 5     -2001.870          32.000
G28  21490834.148 8 112935161.136 8      1930.945          51.000    21490832.242 7  88001426.659 7      1504.633          43.000
G30  20721049.375 8 108889899.237 8     -1302.473          51.000    20721050.602 8  84849301.036 8     -1014.914          51.000
R03  21608544.555 8 115672198.076 8     -3335.430          50.000    21608546.328 6  89967267.876 6     -2594.226          41.000
R04  19188091.586 8 102751352.324 8       -52.648          51.000    19188092.062 7  79917729.100 7       -40.952          45.000
R14  19154548.945 8 102104491.440 8      -202.926          51.000    19154552.961 8  79414636.970 8      -157.831          49.000
R15  21123379.750 8 112877058.666 8      3449.227          48.000    21123383.383 7  87793214.482 7      2682.732          45.000
C05  39782019.078 6 207155411.712 6         5.117          36.000    39782017.461 6 160185683.541 6         3.758          41.000
C14  21664179.703 8 112811075.661 8      -904.285          50.000    21664178.008 8  87232660.720 8      -699.236          51.000
C24  21939961.516 8 114247184.689 8       870.188          51.000
C25  25268121.297 6 131577733.265 6      3056.090          39.000
C26  22557997.477 8 117465498.368 8     -1996.570          50.000
E04  25666153.617 7 134876635.837 7     -2130.855          47.000    25666148.234 7 103346978.209 7     -1632.712          43.000
E09  21434948.727 8 112641401.507 8       102.266          51.000    21434950.172 8  86309661.938 8        78.377          51.000
E24  24118409.492 7 126743097.299 7      2881.770          47.000    24118417.742 7  97114936.830 7      2208.205          44.000
E31  23729574.031 8 124699785.958 8       616.023          51.000    23729575.328 8  95549206.070 8       471.979          51.000
> 2020 05 03 04 08  0.0000000  0 16        .000000000000
G05  20824321.445 8 109432546.444 8     -1334.266          50.000    20824321.102 8  85272107.326 8     -1039.688          50.000
G28  21479856.375 8 112877470.666 8      1914.957          51.000    21479853.766 7  87956473.052 7      1492.171          43.000
G30  20728519.297 8 108929153.762 8     -1314.508          51.000    20728520.633 8  84879888.964 8     -1024.292          51.000
R03  21627274.852 8 115772455.866 8     -3348.434          51.000    21627274.203 6  90045245.997 6     -2604.343          41.000
R04  19188446.406 8 102753251.989 8       -74.012          51.000    19188446.305 7  79919206.599 7       -57.565          44.000
R14  19155757.930 8 102110936.892 8      -226.961          51.000    19155761.969 8  79419650.113 8      -176.522          49.000
R15  21104059.008 8 112773804.604 8      3434.316          50.000    21104060.461 7  87712905.779 7      2671.135          45.000
C05  39781991.328 6 207155266.984 6         4.941          36.000    39781989.734 6 160185571.613 6         3.564          41.000
C14  21669431.445 8 112838424.180 8      -918.996          50.000    21669430.281 8  87253808.304 8      -710.575          51.000
C24  21934988.172 8 114221288.328 8       856.125          51.000
C25  25250532.305 6 131486133.550 6      3050.535          41.000
C26  22569527.836 8 117525540.138 8     -2006.246          49.000
E04  25678335.859 7 134940655.823 7     -2137.188          45.000    25678331.664 7 103396032.425 7     -1637.510          43.000
E09  21434390.703 8 112638469.474 8        93.191          51.000    21434392.375 8  86307415.294 8        71.418          51.000
E24  24101977.141 8 126656742.458 8      2875.160          48.000    24101986.383 7  97048768.853 7      2203.012          45.000
E31  23726097.477 8 124681517.307 8       601.863          51.000    23726098.961 8  95535208.031 8       461.201          51.000
> 2020 05 03 04 08 30.0000000  0 16        .000000000000
G05  20831989.102 8 109472841.499 8     -1352.762          50.000    20831989.250 8  85303506.055 8     -1054.100          50.000
G28  21468967.172 8 112820247.433 8      1899.301          50.000    21468964.594 7  87911883.518 7      1479.975          44.000
G30  20736055.453 8 108968756.368 8     -1326.078          51.000    20736056.727 8  84910748.124 8     -1033.308          51.000
R03  21646074.609 8 115873086.317 8     -3360.836          51.000    21646073.086 6  90123513.987 6     -2613.987          41.000
R04  19188917.922 8 102755778.068 8       -94.949          51.000    19188917.742 7  79921171.299 7       -73.849          45.000
R14  19157099.664 8 102118089.125 8      -250.551          51.000    19157103.414 8  79425212.955 8      -194.873          48.000
R15  21084819.430 8 112670985.712 8      3419.676          51.000    21084819.461 7  87632935.554 7      2659.748          46.000
C05  39781962.328 6 207155116.225 6         4.590          36.000    39781960.789 6 160185454.987 6         3.646          41.000
C14  21674765.336 8 112866200.476 8      -933.289          49.000    21674764.203 8  87275286.705 8      -721.696          51.000
C24  21930093.430 8 114195799.015 8       842.555          51.000
C25  25232972.922 7 131394688.177 7      3045.195          42.000
C26  22581110.719 8 117585856.072 8     -2015.406          49.000
E04  25690551.422 7 135004852.239 7     -2143.188          44.000    25690549.219 7 103445221.834 7     -1642.144          46.000
E09  21433882.070 8 112635796.763 8        84.469          51.000    21433883.711 8  86305367.358 8        64.750          51.000
E24  24085580.352 8 126570574.418 8      2868.891          48.000    24085590.516 7  96982743.990 7      2198.280          46.000
E31  23722699.133 8 124663659.419 8       588.141          51.000    23722701.023 8  95521524.719 8       450.665          51.000
> 2020 05 03 04 09  0.0000000  0 17        .000000000000
G05  20839765.273 8 109513704.955 8     -1370.871          51.000    20839765.672 8  85335347.711 8     -1068.211          51.000
G07  22848404.234 6 120069140.425 6     -2583.203          36.000    22848418.148 5  93560443.109 5     -2012.895          33.000
G28  21458170.305 8 112763509.918 8      1883.828          50.000    21458167.945 7  87867672.455 7      1467.918          45.000
G30  20743660.625 8 109008722.176 8     -1337.516          51.000    20743661.844 8  84941890.321 8     -1042.220          51.000
R03  21664945.969 8 115974104.245 8     -3373.027          48.000    21664944.312 6  90202083.484 6     -2623.466          41.000
R04  19189510.141 8 102758948.575 8      -115.719          50.000    19189510.273 7  79923637.216 7       -90.003          46.000
R14  19158576.766 8 102125963.358 8      -273.781          51.000    19158580.508 8  79431337.370 8      -212.941          49.000
R15  21065663.891 8 112568621.201 8      3405.242          51.000    21065663.992 7  87553318.717 7      2648.522          47.000
C05  39781935.383 6 207154975.769 6         5.004          36.000    39781933.828 6 160185346.346 6         4.117          41.000
C14  21680184.414 8 112894420.919 8      -947.312          48.000    21680183.234 8  87297108.540 8      -732.586          51.000
C24  21925279.961 8 114170733.048 8       829.184          51.000
C25  25215446.352 7 131303414.701 7      3040.402          42.000
C26  22592749.156 8 117646460.892 8     -2024.184          48.000
E04  25702803.570 6 135069241.417 6     -2148.852          40.000    25702803.164 7 103494558.950 7     -1646.475          47.000
E09  21433426.133 8 112633400.626 8        76.000          51.000    21433427.531 8  86303531.349 8        58.243          51.000
E24  24069222.445 8 126484611.154 8      2862.750          49.000    24069233.648 7  96916876.041 7      2193.605          47.000
E31  23719382.016 8 124646228.884 8       574.609          51.000    23719384.219 8  95508168.861 8       440.255          51.000
> 2020 05 03 04 09 30.0000000  0 17        .000000000000
G05  20847645.273 8 109555113.824 8     -1389.734          50.000    20847645.766 8  85367614.343 8     -1082.913          50.000
G07  22863169.070 5 120146733.582 5     -2588.547          31.000    22863182.469 5  93620905.159 5     -2017.050          31.000
G28  21447462.117 8 112707237.615 8      1867.672          51.000    21447460.070 7  87823823.898 7      1455.329          46.000
G30  20751330.469 8 109049027.366 8     -1349.523          51.000    20751331.680 8  84973296.953 8     -1051.577          51.000
R03  21683883.664 7 116075485.225 7     -3385.641          46.000    21683882.844 6  90280935.405 6     -2633.273          40.000
R04  19190218.562 8 102762741.999 8      -137.199          49.000    19190219.141 7  79926587.626 7      -106.711          46.000
R14  19160185.094 8 102134535.611 8      -297.750          51.000    19160188.500 8  79438004.700 8      -231.583          49.000
R15  21046588.391 8 112466690.847 8      3389.996          50.000    21046589.836 8  87474039.530 8      2636.664          48.000
C05  39781906.141 6 207154823.365 6         5.031          36.000    39781904.609 6 160185228.482 6         4.057          41.000
C14  21685684.578 8 112923063.156 8      -962.141          49.000    21685683.648 8  87319256.505 8      -743.916          51.000
C24  21920543.719 8 114146068.064 8       815.117          51.000
C25  25197948.203 7 131212292.005 7      3034.461          42.000
C26  22604438.281 7 117707330.642 7     -2033.801          47.000
E04  25715087.859 6 135133800.564 6     -2154.883          41.000    25715089.516 8 103544026.365 8     -1651.195          48.000
E09  21433018.711 8 112631259.332 8        66.855          51.000    21433019.773 8  86301890.612 8        51.242          51.000
E24  24052899.523 8 126398831.612 8      2855.891          49.000    24052911.938 8  96851148.869 8      2188.373          48.000
E31  23716141.875 8 124629203.190 8       560.488          51.000    23716144.211 8  95495123.200 8       429.444          51.000
> 2020 05 03 04 10  0.0000000  0 17        .000000000000
G05  20855634.227 8 109597094.955 8     -1408.879          51.000    20855634.219 8  85400326.899 8     -1097.828          51.000
G07  22877966.367 4 120224524.852 4     -2594.598          28.000
G28  21436848.016 8 112651460.364 8      1850.969          50.000    21436846.633 8  87780361.106 8      1442.313          48.000
G30  20759070.016 8 109089698.631 8     -1361.680          51.000    20759071.305 8  85004988.832 8     -1061.049          51.000
R03  21702893.812 7 116177256.251 7     -3398.812          46.000    21702894.758 7  90360090.671 7     -2643.521          42.000
R04  19191049.039 8 102767188.277 8      -159.059          50.000    19191049.516 7  79930045.836 7      -123.709          46.000
R14  19161929.367 8 102143832.768 8      -321.863          50.000    19161932.336 8  79445235.821 8      -250.338          49.000
R15  21027599.766 8 112365225.465 8      3374.438          51.000    21027602.586 8  87395122.001 8      2624.562          48.000
C05  39781879.883 6 207154687.008 6         4.125          37.000    39781878.391 6 160185123.016 6         3.326          41.000
C14  21691271.359 8 112952154.903 8      -977.117          49.000    21691270.320 8  87341752.076 8      -755.575          51.000
C24  21915890.008 8 114121831.886 8       800.793          51.000
C25  25180482.938 6 131121349.061 6      3028.520          39.000
C26  22616183.312 7 117768491.424 7     -2043.547          46.000
E04  25727409.391 7 135198557.627 7     -2161.824          43.000    25727413.172 8 103593645.472 8     -1656.376          48.000
E09  21432665.250 8 112629401.741 8        57.281          51.000    21432666.289 8  86300467.251 8        43.918          51.000
E24  24036616.969 8 126313265.316 8      2848.789          49.000    24036630.586 8  96785585.086 8      2182.919          49.000
E31  23712984.141 8 124612610.472 8       545.977          51.000    23712986.766 8  95482409.299 8       418.352          51.000
> 2020 05 03 04 10 30.0000000  0 16        .000000000000
G05  20863731.406 8 109639643.648 8     -1428.160          51.000    20863730.438 8  85433481.713 8     -1112.852          51.000
G28  21426327.414 8 112596177.059 8      1834.145          48.000    21426326.977 8  87737283.241 8      1429.207          48.000
G30  20766878.312 8 109130731.236 8     -1374.141          51.000    20766879.477 8  85036962.279 8     -1070.759          51.000
R03  21721975.453 7 116279411.982 7     -3411.953          45.000    21721978.742 7  90439545.029 7     -2653.744          43.000
R04  19192000.797 8 102772285.030 8      -181.164          49.000    19192001.195 7  79934009.986 7      -140.905          46.000
R14  19163808.633 8 102153849.945 8      -346.297          50.000    19163811.555 8  79453026.952 8      -269.342          50.000
R15  21008698.258 8 112264224.221 8      3358.555          50.000    21008701.758 7  87316565.471 7      2612.209          47.000
C05  39781856.070 6 207154563.355 6         3.387          37.000    39781854.656 6 160185027.387 6         2.703          41.000
C14  21696943.828 8 112981692.845 8      -992.379          50.000    21696942.383 8  87364592.674 8      -767.410          51.000
C24  21911317.570 8 114098021.094 8       786.223          51.000
C25  25163047.383 5 131030583.864 5      3021.879          31.000
C26  22627983.680 7 117829938.306 7     -2053.484          47.000
E04  25739768.914 7 135263509.126 7     -2168.613          43.000    25739773.578 8 103643413.535 8     -1661.737          48.000
E09  21432365.305 8 112627825.208 8        47.477          51.000    21432366.430 8  86299259.254 8        36.384          51.000
E24  24020374.148 8 126227910.380 8      2841.121          48.000    24020388.500 8  96720183.259 8      2177.014          49.000
E31  23709908.156 8 124596447.420 8       531.277          51.000    23709911.094 8  95470024.607 8       407.068          51.000
> 2020 05 03 04 11  0.0000000  0 16        .000000000000
G05  20871933.680 8 109682744.636 8     -1445.207          51.000    20871931.727 8  85467066.884 8     -1126.135          51.000
G28  21415898.648 8 112541375.463 8      1819.316          49.000    21415898.688 7  87694580.682 7      1417.646          47.000
G30  20774752.406 8 109172109.647 8     -1384.398          51.000    20774753.273 8  85069205.192 8     -1078.752          51.000
R03  21741128.094 7 116381936.239 7     -3422.906          47.000    21741131.391 7  90519286.057 7     -2662.260          43.000
R04  19193071.727 8 102778019.229 8      -201.094          50.000    19193072.055 7  79938469.904 7      -156.406          47.000
R14  19165820.188 8 102164571.320 8      -368.469          49.000    19165823.016 8  79461365.771 8      -286.587          51.000
R15  20989881.164 8 112163675.166 8      3344.707          50.000    20989884.656 7  87238360.655 7      2601.439          46.000
C05  39781832.070 6 207154438.501 6         4.664          37.000    39781830.703 6 160184930.820 6         3.691          41.000
C14  21702699.281 8 113011662.849 8     -1005.574          50.000    21702697.391 8  87387767.365 8      -777.559          51.000
C24  21906823.953 8 114074621.622 8       773.793          51.000
C25  25145644.477 5 130939979.316 5      3017.852          33.000
C26  22639836.211 7 117891655.573 7     -2061.000          47.000
E04  25752163.305 7 135328640.711 7     -2173.449          43.000    25752167.734 8 103693319.515 8     -1665.412          48.000
E09  21432116.328 8 112626516.342 8        39.875          51.000    21432117.508 8  86298256.343 8        30.530          51.000
E24  24004168.695 7 126142754.090 7      2835.945          47.000    24004183.234 8  96654933.627 8      2173.021          49.000
E31  23706911.195 8 124580699.870 8       518.633          51.000    23706914.266 8  95457958.280 8       397.445          51.000
> 2020 05 03 04 11 30.0000000  0 17        .000000000000
G05  20880235.656 8 109726370.729 8     -1462.953          51.000    20880233.188 8  85501061.243 8     -1139.963          51.000
G28  21405557.234 8 112487031.584 8      1803.816          50.000    21405557.164 7  87652234.787 7      1405.571          46.000
G30  20782687.141 8 109213807.027 8     -1395.203          51.000    20782687.922 8  85101696.649 8     -1087.171          51.000
R03  21760344.383 8 116484801.221 8     -3434.457          48.000    21760347.734 7  90599292.144 7     -2671.247          44.000
R04  19194256.984 8 102784366.069 8      -221.754          50.000    19194257.547 7  79943406.337 7      -172.475          47.000
R14  19167958.820 8 102175969.700 8      -391.238          51.000    19167961.352 8  79470231.154 8      -304.299          51.000
R15  20971144.430 8 112063555.099 8      3330.145          49.000    20971147.617 7  87160489.518 7      2590.115          46.000
C05  39781803.102 6 207154287.190 6         5.285          37.000    39781801.633 6 160184813.799 6         4.066          41.000
C14  21708532.734 8 113042039.542 8     -1019.324          49.000    21708530.734 8  87411256.541 8      -788.257          51.000
C24  21902404.359 8 114051608.136 8       760.633          51.000
C25  25128271.438 6 130849519.216 6      3012.848          36.000
C26  22651735.422 7 117953616.298 7     -2069.355          46.000
E01  26024884.219 6 136761695.788 6     -2186.039          39.000
E04  25764587.422 7 135393926.559 7     -2178.977          45.000    25764591.203 8 103743343.678 8     -1669.513          48.000
E09  21431913.555 8 112625450.386 8        31.426          51.000    21431914.680 8  86297439.562 8        24.079          51.000
E24  23987996.062 7 126057772.412 7      2829.723          46.000    23988010.562 8  96589817.769 8      2168.331          48.000
E31  23703988.656 8 124565342.313 8       505.406          51.000    23703991.477 8  95446190.788 8       387.238          51.000
> 2020 05 03 04 12  0.0000000  0 17        .000000000000
G05  20888642.266 8 109770548.167 8     -1481.406          51.000    20888639.805 8  85535485.215 8     -1154.343          51.000
G28  21395308.641 8 112433174.668 8      1787.367          50.000    21395308.266 7  87610268.348 7      1392.754          45.000
G30  20790687.414 8 109255849.058 8     -1406.879          51.000    20790688.219 8  85134456.667 8     -1096.269          51.000
R03  21779629.633 8 116588032.699 8     -3447.016          49.000    21779632.797 7  90679583.265 7     -2681.012          44.000
R04  19195561.977 8 102791354.285 8      -243.336          50.000    19195562.430 7  79948841.606 7      -189.261          47.000
R14  19170228.992 8 102188070.934 8      -414.871          49.000    19170231.617 8  79479643.220 8      -322.674          51.000
R15  20952493.641 8 111963893.632 8      3314.727          49.000    20952497.398 7  87082975.072 7      2578.121          47.000
C05  39781774.195 6 207154136.327 6         5.441          37.000    39781772.719 6 160184697.099 6         4.141          41.000
C14  21714449.297 8 113072849.663 8     -1034.000          50.000    21714447.375 8  87435080.857 8      -799.449          51.000
C24  21898063.617 8 114029007.305 8       746.801          51.000
C25  25110932.453 6 130759227.680 6      3007.293          39.000
C26  22663685.992 7 118015845.698 7     -2078.496          46.000
E01  26037389.750 6 136827418.233 6     -2194.863          40.000
E04  25777046.086 7 135459393.488 7     -2184.922          46.000    25777049.141 7 103793506.628 7     -1674.176          46.000
E09  21431762.195 8 112624655.151 8        22.270          51.000    21431763.320 8  86296830.220 8        17.034          51.000
E24  23971862.414 7 125972993.818 7      2822.812          47.000    23971876.539 8  96524857.529 8      2162.946          49.000
E31  23701145.750 8 124550401.840 8       491.320          51.000    23701148.047 8  95434742.873 8       376.505          51.000
> 2020 05 03 04 12 30.0000000  0 17        .000000000000
G05  20897151.086 8 109815263.852 8     -1498.953          51.000    20897148.953 8  85570328.609 8     -1168.015          51.000
G28  21385150.953 8 112379794.857 8      1771.816          50.000    21385150.383 7  87568673.698 7      1380.639          45.000
G30  20798750.812 8 109298222.813 8     -1417.434          51.000    20798751.633 8  85167475.158 8     -1104.494          51.000
R03  21798980.703 8 116691617.223 8     -3458.203          48.000    21798983.625 7  90760149.039 7     -2689.714          45.000
R04  19196984.789 8 102798973.305 8      -264.020          50.000    19196985.461 8  79954767.492 8      -205.349          48.000
R14  19172628.953 8 102200861.809 8      -437.332          50.000    19172630.883 8  79489591.656 8      -340.147          50.000
R15  20933927.289 8 111864681.521 8      3299.957          49.000    20933931.750 8  87005810.079 8      2566.633          48.000
C05  39781743.258 6 207153974.495 6         6.715          36.000    39781741.672 6 160184571.962 6         4.549          41.000
C14  21720447.008 8 113104081.622 8     -1047.609          50.000    21720445.109 8  87459231.386 8      -810.054          51.000
C24  21893800.203 8 114006807.614 8       733.836          51.000
C25  25093625.141 6 130669094.496 6      3002.426          41.000
C26  22675685.406 7 118078330.592 7     -2086.609          45.000
E01  26049942.719 6 136893386.348 6     -2202.305          40.000
E04  25789536.062 7 135525029.772 7     -2190.070          44.000    25789539.164 7 103843799.343 7     -1678.276          44.000
E09  21431660.234 8 112624119.853 8        14.043          51.000    21431661.320 8  86296420.043 8        10.742          51.000
E24  23955766.234 8 125888408.184 8      2816.809          49.000    23955779.914 8  96460045.149 8      2158.268          49.000
E31  23698380.023 8 124535866.840 8       478.320          51.000    23698381.906 8  95423605.674 8       366.490          51.000
> 2020 05 03 04 13  0.0000000  0 17        .000000000000
G05  20905763.477 8 109860524.456 8     -1517.781          51.000    20905762.070 8  85605596.620 8     -1182.684          51.000
G28  21375085.945 8 112326902.124 8      1754.891          50.000    21375084.742 7  87527458.580 7      1367.447          44.000
G30  20806878.617 8 109340935.069 8     -1429.406          51.000    20806879.477 8  85200757.413 8     -1113.823          51.000
R03  21818398.609 8 116795561.065 8     -3470.957          48.000    21818401.539 7  90840994.257 7     -2699.636          44.000
R04  19198526.969 8 102807232.695 8      -286.078          50.000    19198527.859 7  79961191.450 7      -222.508          47.000
R14  19175158.953 8 102214349.080 8      -461.168          50.000    19175161.188 8  79500081.748 8      -358.686          50.000
R15  20915446.766 8 111765929.396 8      3284.004          49.000    20915452.148 8  86929002.836 8      2554.225          49.000
C05  39781711.547 6 207153809.861 6         6.109          37.000    39781710.070 6 160184444.641 6         4.180          41.000
C14  21726527.250 8 113135743.377 8     -1062.602          50.000    21726525.445 8  87483714.253 8      -821.583          51.000
C24  21889615.516 8 113985017.023 8       719.492          51.000
C25  25076350.695 6 130579128.799 6      2996.078          39.000
C26  22687735.039 7 118141077.392 7     -2095.984          44.000
E01  26062544.078 6 136959606.728 6     -2211.227          39.000
E04  25802058.414 6 135590843.328 6     -2196.805          41.000    25802062.578 6 103894227.884 6     -1683.260          40.000
E09  21431609.625 8 112623853.361 8         4.422          51.000    21431610.469 8  86296215.844 8         3.361          51.000
E24  23939709.156 8 125804025.098 8      2809.391          50.000    23939722.117 8  96395387.969 8      2152.677          49.000
E31  23695692.891 8 124521745.433 8       463.836          51.000    23695694.844 8  95412785.391 8       355.434          51.000
> 2020 05 03 04 13 30.0000000  0 17        .000000000000
G05  20914478.961 8 109906327.020 8     -1535.816          50.000    20914478.172 8  85641286.925 8     -1196.740          50.000
G28  21365113.281 8 112274495.824 8      1738.590          49.000    21365111.570 7  87486622.498 7      1354.745          44.000
G30  20815069.977 8 109383981.880 8     -1440.539          51.000    20815071.078 8  85234300.368 8     -1122.501          51.000
R03  21837882.656 8 116899860.001 8     -3482.699          48.000    21837884.766 6  90922115.615 6     -2708.769          41.000
R04  19200188.336 8 102816130.760 8      -307.410          49.000    19200189.344 7  79968112.157 7      -239.097          47.000
R14  19177818.984 8 102228528.346 8      -484.238          50.000    19177821.297 8  79511110.039 8      -376.630          50.000
R15  20897052.492 8 111667637.103 8      3268.613          48.000    20897058.305 8  86852553.267 8      2542.255          49.000
C05  39781678.789 6 207153640.058 6         5.547          36.000    39781677.477 6 160184313.285 6         4.205          41.000
C14  21732689.594 8 113167832.224 8     -1076.738          50.000    21732687.867 8  87508527.381 8      -832.678          51.000
C24  21885508.680 8 113963632.859 8       705.934          51.000
C25  25059109.234 6 130489329.088 6      2990.234          37.000
C26  22699834.414 7 118204081.962 7     -2104.582          44.000
E01  26075192.625 6 137026075.198 6     -2219.594          39.000
E04  25814614.508 7 135656831.386 7     -2202.527          42.000    25814617.711 6 103944790.137 6     -1687.765          39.000
E09  21431610.008 8 112623853.843 8        -4.562          51.000    21431610.508 8  86296216.215 8        -3.487          51.000
E24  23923690.562 8 125719843.441 8      2802.574          50.000    23923702.664 8  96330885.131 8      2147.424          50.000
E31  23693084.125 8 124508035.028 8       450.070          51.000    23693086.211 8  95402280.013 8       344.856          51.000
> 2020 05 03 04 14  0.0000000  0 17        .000000000000
G05  20923295.992 8 109952661.863 8     -1553.008          51.000    20923295.156 8  85677391.986 8     -1210.136          51.000
G28  21355231.727 8 112222569.533 8      1723.125          48.000    21355230.188 7  87446160.433 7      1342.695          45.000
G30  20823323.234 8 109427353.804 8     -1450.723          51.000    20823324.477 8  85268096.641 8     -1130.433          51.000
R03  21857431.586 8 117004503.711 8     -3493.477          49.000    21857429.680 5  91003505.019 5     -2717.155          34.000
R04  19201967.938 8 102825660.477 8      -327.852          50.000    19201969.117 7  79975524.131 7      -254.996          47.000
R14  19180606.531 8 102243389.796 8      -506.359          51.000    19180609.180 8  79522668.925 8      -393.835          50.000
R15  20878743.656 8 111569798.662 8      3254.086          49.000    20878749.273 8  86776456.717 8      2530.956          49.000
