     3.02           OBSERVATION DATA    M (MIXED)           RINEX VERSION / TYPE
SAVERINEX           SC600               20200510 065931 LCL PGM / RUN BY / DATE
       G = GPS       R = GLONASS       C = COMPASS          COMMENT
       S = SBAS      J = QZSS          E = GALILEO          COMMENT
BEAN                                                        MARKER NAME
1                                                           MARKER NUMBER
GEODETIC                                                    MARKER TYPE
Unige DICCA         GTER                                    OBSERVER / AGENCY
SC60291900056       SC600               2.12(191226)        REC # / TYPE / VERS
                    HEMA45          NONE                    ANT # / TYPE
  4509407.8091   693652.4678  4442337.6214                  APPROX POSITION XYZ
        0.0000        0.0000        0.0000                  ANTENNA: DELTA H/E/N
G    8 C1C L1C D1C S1C C2Y L2Y D2Y S2Y                      SYS / # / OBS TYPES
R    8 C1C L1C D1C S1C C2P L2P D2P S2P                      SYS / # / OBS TYPES
C    8 C1I L1I D1I S1I C7I L7I D7I S7I                      SYS / # / OBS TYPES
E    8 C1C L1C D1C S1C C7Q L7Q D7Q S7Q                      SYS / # / OBS TYPES
DBHZ                                                        COMMENT
     30.000                                                 INTERVAL
  2020    05    10    04    00    0.0000000     GPS         TIME OF FIRST OBS
  2020    05    10    04    59   30.0000000     GPS         TIME OF LAST OBS
     0                                                      RCV CLOCK OFFS APPL
G L1C  0.00000                                              SYS / PHASE SHIFT
G L2Y  0.00000                                              SYS / PHASE SHIFT
R L1C  0.00000                                              SYS / PHASE SHIFT
R L2P  0.25000                                              SYS / PHASE SHIFT
C L1I  0.00000                                              SYS / PHASE SHIFT
C L7I  0.00000                                              SYS / PHASE SHIFT
E L1C  0.50000                                              SYS / PHASE SHIFT
E L7Q -0.25000                                              SYS / PHASE SHIFT
 14 R01  1 R02 -4 R03  5 R04  6 R08  6 R10 -5 R11  0 R12 -1 GLONASS SLOT / FRQ #
    R13 -2 R14 -7 R15  0 R17  4 R22 -3 R23  3               GLONASS SLOT / FRQ #
 C1C   71.950 C2C   71.950 C2P   71.950                     GLONASS COD/PHS/BIS
    18                                                      LEAP SECONDS
*** Above antenna height is from mark to ANTENNA BOTTOM.    COMMENT
    17     4        0.0000        ANT MEASURE TYPE/HEIGT    COMMENT
    0.0000    0.0000    0.0458    0.0405    0.0000          COMMENT
                    BASE STATION                            COMMENT
                                                            END OF HEADER
> 2020 05 10 04 00  0.0000000  0 17        .000000000000
G05  21229342.656 8 111560953.344 8     -2066.668          51.000    21229342.656 8  86930578.441 8     -1610.391          51.000
G07  23448398.125 5 123222134.551 5     -2741.316          35.000    23448386.805 5  96017268.400 5     -2136.085          33.000
G28  21108298.609 8 110924930.728 8      1217.395          49.000    21108297.570 7  86435008.388 7       948.616          46.000
G30  21097807.180 8 110869747.272 8     -1759.883          48.000    21097807.953 7  86392025.109 7     -1371.337          47.000
R02  22294715.195 7 118968863.997 7     -3782.598          47.000    22294719.477 7  92531319.736 7     -2942.023          46.000
R03  19280766.875 8 103211441.268 8      -858.504          48.000    19280767.055 8  80275589.851 8      -667.725          48.000
R12  22721208.641 6 121372537.088 6     -3967.023          36.000    22721215.062 4  94400904.526 4     -3085.466          28.000
R13  19322429.156 6 103180703.228 6     -1170.652          41.000    19322431.914 7  80251637.750 7      -910.507          45.000
R14  20464644.141 8 109088107.051 8      2818.664          50.000    20464649.953 8  84846340.189 8      2192.297          49.000
C05  39793596.352 6 207215697.857 6         9.375          36.000    39793595.234 6 160232305.447 6         7.183          41.000
C24  21798052.000 8 113508202.212 8       307.418          51.000
C25  24569986.336 7 127942360.341 7      2807.328          42.000
C26  23074377.172 6 120154369.756 6     -2333.633          40.000
E01  23994338.016 8 126091113.662 8      -577.461          51.000    23994339.211 8  96615294.111 8      -442.431          51.000
E04  23663573.602 8 124352905.842 8      -851.828          51.000    23663574.180 8  95283380.537 8      -652.729          51.000
E19  27976769.383 5 147018915.562 5     -2624.477          33.000    27976773.320 6 112650862.083 6     -2010.948          36.000
E31  24644667.555 8 129508611.487 8      2215.477          51.000    24644671.383 8  99233882.594 8      1697.588          51.000
> 2020 05 10 04 00 30.0000000  0 17        .000000000000
G05  21241193.680 8 111623229.061 8     -2083.160          51.000    21241193.023 8  86979104.982 8     -1623.242          51.000
G07  23464063.117 5 123304448.077 5     -2744.109          35.000    23464053.219 5  96081408.808 5     -2138.261          34.000
G28  21101404.594 8 110888705.144 8      1199.582          48.000    21101403.781 7  86406780.606 7       934.739          45.000
G30  21107887.688 7 110922720.277 7     -1769.746          47.000    21107888.352 7  86433302.770 7     -1379.023          47.000
R02  22316013.469 7 119082518.247 7     -3792.641          47.000    22316018.984 7  92619717.492 7     -2949.832          47.000
R03  19285644.891 8 103237554.883 8      -880.590          48.000    19285645.797 8  80295900.465 8      -684.903          48.000
R12  22743502.664 5 121491631.213 5     -3971.023          35.000    22743510.266 4  94493533.278 4     -3088.571          26.000
R13  19329069.172 6 103216160.817 6     -1191.352          41.000    19329071.727 7  80279215.857 7      -926.607          45.000
R14  20448835.383 8 109003832.997 8      2801.348          51.000    20448839.828 7  84780793.726 7      2178.826          47.000
C05  39793547.938 5 207215445.788 5         9.594          35.000    39793546.867 6 160232110.516 6         7.153          41.000
C24  21796324.125 8 113499206.353 8       294.020          51.000
C25  24553836.141 7 127858260.243 7      2800.945          44.000
C26  23087845.531 6 120224504.797 6     -2340.426          39.000
E01  23997676.852 8 126108659.055 8      -590.410          51.000    23997678.133 8  96628737.984 8      -452.404          51.000
E04  23668468.672 8 124378629.895 8      -861.273          51.000    23668468.742 8  95303091.169 8      -659.949          51.000
E19  27991768.039 5 147097733.311 5     -2628.590          32.000    27991771.258 5 112711257.905 5     -2013.725          34.000
E31  24632053.969 8 129442322.920 8      2205.594          51.000    24632056.789 8  99183090.063 8      1689.982          50.000
> 2020 05 10 04 01  0.0000000  0 17        .000000000000
G05  21253113.359 8 111685865.406 8     -2098.391          51.000    21253111.742 8  87027912.518 8     -1635.110          51.000
G28  21094588.297 8 110852886.021 8      1182.637          50.000    21094587.297 7  86378869.627 7       921.535          43.000
G30  21117999.055 7 110975854.721 7     -1778.340          45.000    21117999.570 7  86474706.238 7     -1385.719          45.000
R02  22337342.586 7 119196336.838 7     -3801.152          47.000    22337349.297 8  92708243.035 8     -2956.452          48.000
R03  19290622.625 8 103264201.707 8      -901.734          49.000    19290623.867 8  80316625.792 8      -701.349          48.000
R12  22765794.055 6 121610714.474 6     -3973.699          36.000    22765803.531 4  94586204.596 4     -3090.658          27.000
R13  19335802.547 6 103252117.131 6     -1211.398          41.000    19335805.211 7  80307181.868 7      -942.202          45.000
R14  20433099.320 8 108919944.341 8      2785.215          51.000    20433101.852 8  84715547.030 8      2166.281          48.000
C05  39793474.602 6 207215064.714 6        10.590          36.000    39793473.523 6 160231815.055 6         8.035          41.000
C24  21794648.234 8 113490480.344 8       281.879          51.000
C25  24537700.500 7 127774232.801 7      2795.109          46.000
C26  23101329.195 6 120294719.277 6     -2345.891          38.000
E01  24001065.289 8 126126464.732 8      -602.406          51.000    24001066.352 8  96642381.275 8      -461.569          51.000
E04  23673392.883 8 124404507.308 8      -869.676          51.000    23673392.703 8  95322919.298 8      -666.348          51.000
E19                                                                  28006764.984 5 112771636.924 5     -2015.892          32.000
E21                                                                  27250777.844 5 109727590.384 5     -2068.412          34.000
E31  24619472.281 8 129376201.923 8      2196.781          51.000    24619473.766 8  99132425.965 8      1683.170          50.000
> 2020 05 10 04 01 30.0000000  0 17        .000000000000
G05  21265153.188 8 111749133.083 8     -2102.594          51.000    21265150.875 8  87077212.006 8     -1638.385          51.000
G07  23495428.242 5 123469290.985 5     -2737.566          35.000    23495423.281 5  96209831.621 5     -2133.166          33.000
G28  21087902.289 8 110817747.950 8      1176.688          51.000    21087899.688 6  86351489.331 6       916.899          40.000
G30  21128192.656 7 111029422.207 7     -1775.855          45.000    21128193.234 7  86516447.157 7     -1383.783          45.000
R02  22358754.430 7 119310594.726 7     -3798.812          47.000    22358761.391 7  92797110.297 7     -2954.632          47.000
R03  19295752.805 8 103291670.174 8      -911.652          51.000    19295753.812 8  80337971.369 8      -709.063          48.000
R12  22788135.508 6 121730061.499 6     -3965.730          36.000    22788145.656 4  94679030.004 4     -3084.460          27.000
R13  19342681.008 7 103288847.110 7     -1220.012          42.000    19342683.383 7  80335749.618 7      -948.898          45.000
R14  20417487.703 8 108836719.770 8      2780.133          51.000    20417489.148 8  84650816.853 8      2162.326          49.000
C05  39793428.312 6 207214823.197 6        22.312          36.000    39793427.156 6 160231628.258 6        17.187          41.000
C24  21793076.000 8 113482294.202 8       280.500          51.000
C25  24521631.312 7 127690549.490 7      2800.363          47.000
C26  23114880.688 6 120365282.106 6     -2341.020          36.000
E01  24004554.789 8 126144802.766 8      -603.371          51.000    24004555.797 8  96656432.498 8      -462.323          51.000
E04  23678398.320 8 124430811.365 8      -867.098          51.000    23678398.008 8  95343074.337 8      -664.388          51.000
E21                                                                  27266215.883 5 109789752.060 5     -2062.935          34.000
E31  24606974.336 8 129310522.540 8      2198.723          51.000    24606974.961 8  99082100.233 8      1684.754          50.000
> 2020 05 10 04 02  0.0000000  0 17        .000000000000
G05  21277292.125 8 111812922.693 8     -2140.969          51.000    21277289.734 8  87126918.198 8     -1668.287          51.000
G28  21081325.500 8 110783183.546 8      1136.676          51.000    21081321.469 7  86324556.074 7       885.724          42.000
G30  21138447.805 7 111083313.181 7     -1807.727          47.000    21138448.406 7  86558440.123 7     -1408.618          47.000
R02  22380227.773 8 119425180.327 8     -3830.945          48.000    22380234.156 7  92886232.447 7     -2979.624          43.000
R03  19301014.031 8 103319830.293 8      -956.480          51.000    19301014.305 7  80359873.651 7      -743.929          47.000
R12  22810505.500 6 121849559.132 6     -3992.152          36.000    22810514.031 4  94771972.575 4     -3105.010          28.000
R13  19349683.281 6 103326238.620 6     -1263.449          41.000    19349685.469 7  80364831.891 7      -982.686          45.000
R14  20401979.422 8 108754051.495 8      2740.320          49.000    20401981.180 8  84586519.308 8      2131.360          50.000
C05  39793388.312 6 207214615.001 6          .160          36.000    39793387.203 6 160231467.230 6          .381          41.000
C24  21791586.703 8 113474540.215 8       245.375          51.000
C25  24505607.555 7 127607104.007 7      2771.613          47.000
C26  23128478.281 6 120436084.514 6     -2369.898          37.000
E01  24008124.992 8 126163564.092 8      -638.301          51.000    24008126.148 8  96670808.050 8      -489.115          51.000
E04  23683464.391 8 124457434.181 8      -898.684          51.000    23683464.094 8  95363473.617 8      -688.563          51.000
E19  28036883.672 5 147334818.722 5     -2648.188          35.000
E21                                                                  27281687.125 5 109852047.582 5     -2083.446          35.000
E31  24594539.727 8 129245177.554 8      2166.680          51.000    24594540.117 8  99032030.716 8      1660.204          50.000
> 2020 05 10 04 02 30.0000000  0 17        .000000000000
G05  21289516.508 8 111877163.120 8     -2147.258          51.000    21289514.820 8  87176975.648 8     -1673.188          51.000
G28  21074844.844 8 110749125.015 8      1128.453          51.000    21074840.445 7  86298016.999 7       879.314          43.000
G30  21148751.203 7 111137457.454 7     -1807.480          46.000    21148751.758 7  86600630.438 7     -1408.426          47.000
R02  22401749.617 8 119540021.768 8     -3830.781          49.000    22401753.742 6  92975553.544 6     -2979.500          39.000
R03  19306392.711 8 103348622.368 8      -968.676          51.000    19306392.086 7  80382267.443 7      -753.418          46.000
R12  22832890.359 5 121969134.511 5     -3985.898          33.000    22832896.773 4  94864975.622 4     -3100.143          27.000
R13  19356795.844 6 103364219.158 6     -1274.074          41.000    19356797.992 7  80394372.312 7      -990.947          44.000
R14  20386560.711 8 108671871.430 8      2732.871          49.000    20386564.125 8  84522601.403 8      2125.563          49.000
C05  39793341.602 6 207214372.014 6         9.977          36.000    39793340.586 6 160231279.319 6         7.944          41.000
C24  21790166.953 8 113467149.734 8       241.793          51.000
C25  24489615.383 7 127523829.157 7      2774.441          46.000
C26  23142107.656 6 120507056.665 6     -2367.023          37.000
E01  24011762.508 8 126182679.037 8      -641.508          51.000    24011763.727 8  96685454.562 8      -491.548          51.000
E04  23688578.117 8 124484307.257 8      -898.441          51.000    23688577.742 8  95384064.666 8      -688.419          51.000
E19  28051968.766 5 147414090.773 5     -2642.246          34.000
E21                                                                  27297178.195 5 109914423.049 5     -2079.546          35.000
E31  24582155.625 8 129180099.226 8      2166.379          51.000    24582156.328 8  98982165.523 8      1659.899          51.000
> 2020 05 10 04 03  0.0000000  0 17        .000000000000
G05  21301827.141 8 111941857.706 8     -2165.824          51.000    21301826.328 8  87227386.983 8     -1687.655          51.000
G28  21068461.492 8 110715578.857 8      1107.984          51.000    21068457.359 7  86271877.166 7       863.364          45.000
G30  21159103.648 7 111191859.205 7     -1819.234          45.000    21159103.992 7  86643021.399 7     -1417.582          45.000
R02  22423320.109 8 119655121.740 8     -3842.570          50.000    22423319.453 6  93065075.554 6     -2988.672          37.000
R03  19311890.500 8 103378052.409 8      -993.352          51.000    19311889.625 7  80405157.434 7      -772.610          46.000
R12  22855289.914 5 122088790.479 5     -3991.414          32.000    22855295.273 4  94958041.306 4     -3104.436          29.000
R13  19364019.367 6 103402791.755 6     -1297.312          40.000    19364021.367 7  80424373.180 7     -1009.021          44.000
R14  20371236.547 8 108590186.736 8      2712.883          51.000    20371239.406 7  84459068.879 7      2110.020          47.000
C05  39793289.297 6 207214099.932 6         8.055          36.000    39793288.367 6 160231068.898 6         6.071          41.000
C24  21788818.375 8 113460127.750 8       226.309          51.000
C25  24473656.703 7 127440731.426 7      2765.160          45.000
C26  23155769.914 6 120578202.579 6     -2376.547          36.000
E01  24015468.148 8 126202152.292 8      -656.699          51.000    24015469.125 8  96700375.622 8      -503.212          51.000
E04  23693740.539 8 124511436.478 8      -910.305          51.000    23693740.469 8  95404851.975 8      -697.482          51.000
E19  28067068.727 5 147493442.193 5     -2648.395          33.000
E21                                                                  27312689.758 5 109976881.528 5     -2084.479          35.000
E31  24569823.414 8 129115294.113 8      2153.965          51.000    24569824.430 8  98932509.669 8      1650.459          51.000
> 2020 05 10 04 03 30.0000000  0 16        .000000000000
G05  21314225.781 8 112007013.405 8     -2182.672          51.000    21314225.266 8  87278157.639 8     -1700.783          51.000
G28  21062177.320 8 110682555.172 8      1088.891          51.000    21062173.664 7  86246144.412 7       848.483          47.000
G30  21169506.289 7 111246525.505 7     -1829.891          45.000    21169506.547 7  86685618.495 7     -1425.889          45.000
R02  22444940.656 8 119770486.954 8     -3853.078          51.000    22444938.070 6  93154803.964 6     -2996.842          40.000
R03  19317508.648 8 103408128.919 8     -1016.547          50.000    19317508.594 7  80428550.237 7      -790.648          47.000
R12  22877705.516 5 122208532.579 5     -3995.957          32.000    22877710.281 5  95051173.934 5     -3107.970          31.000
R13  19371354.680 6 103441962.551 6     -1318.812          40.000    19371356.906 7  80454839.364 7     -1025.743          44.000
R14  20356008.266 8 108509007.916 8      2694.297          51.000    20356009.836 7  84395929.854 7      2095.564          46.000
C05  39793233.133 5 207213807.003 5         7.766          35.000    39793232.148 6 160230842.401 6         5.422          41.000
C24  21787542.336 8 113453482.117 8       212.109          51.000
C25  24457734.367 7 127357820.052 7      2757.332          46.000
C26  23169467.320 6 120649528.975 6     -2383.734          38.000
E01  24019243.461 8 126221991.424 8      -670.578          51.000    24019244.258 8  96715577.017 8      -513.844          51.000
E04  23698953.305 8 124538830.577 8      -920.711          51.000    23698953.680 8  95425842.255 8      -705.525          51.000
E21                                                                  27328223.281 5 110039428.338 5     -2088.792          34.000
E31  24557545.023 8 129050771.679 8      2142.824          51.000    24557546.289 8  98883070.413 8      1641.934          51.000
> 2020 05 10 04 04  0.0000000  0 17        .000000000000
G05  21326721.859 8 112072680.392 8     -2196.992          51.000    21326721.289 8  87329326.712 8     -1711.942          51.000
G28  21056002.500 8 110650107.004 8      1072.395          51.000    21055999.570 8  86220860.115 8       835.632          48.000
G30  21179968.867 7 111301507.293 7     -1837.574          44.000    21179969.344 7  86728461.428 7     -1431.876          44.000
R02  22466620.188 8 119886168.378 8     -3860.926          50.000    22466617.758 7  93244778.387 7     -3002.942          42.000
R03  19323257.336 8 103438905.510 8     -1037.145          49.000    19323258.406 8  80452487.579 8      -806.668          48.000
R12  22900147.305 5 122328410.942 5     -3997.004          31.000    22900151.562 5  95144412.592 5     -3108.781          32.000
R13  19378811.656 6 103481781.764 6     -1337.848          41.000    19378813.383 7  80485809.825 7     -1040.551          43.000
R14  20340884.641 8 108428389.772 8      2678.352          51.000    20340886.531 8  84333226.885 8      2083.162          48.000
C05  39793182.906 5 207213545.368 5         8.848          35.000    39793181.922 6 160230640.032 6         6.609          41.000
C24  21786348.375 8 113447264.172 8       200.555          51.000
C25  24441858.484 8 127275147.820 8      2752.055          48.000
C26  23183209.891 6 120721086.163 6     -2388.848          39.000
E01  24023098.070 8 126242247.823 8      -681.781          51.000    24023099.008 8  96731098.155 8      -522.383          51.000
E04  23704226.531 8 124566542.193 8      -928.586          51.000    23704227.352 8  95447075.821 8      -711.496          51.000
E19  28097333.688 5 147652484.910 5     -2655.172          33.000
E21                                                                  27343788.359 5 110102102.330 5     -2090.780          33.000
E31  24545330.398 8 128986585.288 8      2134.379          51.000    24545332.156 8  98833888.635 8      1635.409          51.000
> 2020 05 10 04 04 30.0000000  0 18        .000000000000
G05  21339306.750 8 112138814.621 8     -2211.090          51.000    21339306.336 8  87380859.860 8     -1722.927          50.000
G15  22286944.805 6 117118673.085 6      2832.602          38.000
G28  21049929.266 8 110618193.053 8      1055.938          51.000    21049927.117 8  86195992.079 8       822.808          49.000
G30  21190483.070 7 111356761.020 7     -1845.285          42.000    21190484.133 7  86771516.255 7     -1437.885          42.000
R02  22488350.125 8 120002121.362 8     -3868.516          48.000    22488348.359 7  93334964.052 7     -3008.845          43.000
R03  19329128.547 7 103470339.539 7     -1057.734          47.000    19329130.891 8  80476936.288 8      -822.679          49.000
R12  22922605.812 5 122448443.939 5     -3999.426          32.000    22922610.227 5  95237721.771 5     -3110.668          32.000
R13  19386381.594 6 103522204.649 6     -1356.367          40.000    19386383.484 7  80517249.846 7     -1054.949          44.000
R14  20325857.578 8 108348291.266 8      2662.324          50.000    20325861.453 8  84270928.055 8      2070.697          49.000
C05  39793130.672 6 207213273.096 6         9.695          36.000    39793129.680 7 160230429.475 7         7.941          42.000
C24  21785228.703 8 113441431.611 8       188.984          51.000
C25  24426020.859 8 127192673.951 8      2746.867          48.000
C26  23196988.664 6 120792830.739 6     -2393.820          37.000
E01  24027023.828 8 126262878.440 8      -692.961          51.000    24027024.773 8  96746906.017 8      -530.985          51.000
E04  23709552.250 8 124594529.409 8      -936.484          51.000    23709553.195 8  95468520.565 8      -717.611          51.000
E19  28112500.188 5 147732180.469 5     -2656.762          34.000
E21                                                                  27359376.750 5 110164872.014 5     -2093.309          32.000
E31  24533171.797 8 128922693.720 8      2125.812          51.000    24533174.219 8  98784932.738 8      1628.890          51.000
> 2020 05 10 04 05  0.0000000  0 18        .000000000000
G05  21351973.031 8 112205376.381 8     -2225.133          50.000    21351972.828 8  87432726.156 8     -1733.870          50.000
G15  22270796.141 6 117033793.708 6      2827.188          36.000    22270825.797 5  91195268.095 5      2203.009          34.000
G28  21043950.820 8 110586777.101 8      1039.469          51.000    21043949.156 8  86171512.097 8       809.973          49.000
G30  21201041.617 7 111412247.964 7     -1852.652          43.000    21201043.414 7  86814752.857 7     -1443.625          43.000
R02  22510122.680 7 120118305.202 7     -3875.930          47.000    22510122.500 7  93425329.258 7     -3014.612          45.000
R03  19335116.219 8 103502392.998 8     -1078.023          49.000    19335119.164 8  80501866.779 8      -838.460          50.000
R12  22945073.836 5 122568462.504 5     -4001.824          31.000    22945078.406 5  95331069.518 5     -3112.530          32.000
R13  19394056.750 6 103563190.415 6     -1374.867          41.000    19394058.883 7  80549127.667 7     -1069.341          43.000
R14  20310921.906 8 108268676.235 8      2646.508          51.000    20310926.398 8  84209005.211 8      2058.392          50.000
C05  39793069.133 5 207212953.347 5        11.719          35.000    39793068.234 6 160230182.220 6         9.367          41.000
C24  21784175.711 8 113435946.877 8       177.691          51.000
C25  24410213.172 7 127110362.383 7      2741.727          46.000
C26  23210795.125 5 120864724.202 5     -2398.945          35.000
E01  24031013.539 8 126283845.005 8      -703.895          51.000    24031014.414 8  96762971.286 8      -539.294          51.000
E04  23714923.492 8 124622755.190 8      -944.227          51.000    23714924.516 8  95490148.113 8      -723.489          51.000
E19  28127677.953 5 147811938.644 5     -2658.781          35.000
E21                                                                  27374980.977 5 110227704.575 5     -2094.910          30.000
E31  24521062.539 8 128859060.642 8      2117.449          51.000    24521065.570 8  98736174.917 8      1622.479          51.000
> 2020 05 10 04 05 30.0000000  0 16        .000000000000
G05  21364735.391 8 112272442.236 8     -2244.086          51.000    21364735.062 8  87484985.274 8     -1748.638          51.000
G07  23621640.305 5 124132557.278 5     -2776.773          33.000
G15  22254691.773 6 116949160.038 6      2816.887          37.000    22254682.031 6  91129209.562 6      2194.977          36.000
G28  21038082.117 8 110555938.662 8      1018.164          51.000    21038080.945 8  86147482.138 8       793.375          48.000
G30  21211659.414 7 111468045.395 7     -1865.289          42.000    21211661.719 7  86858231.347 7     -1453.472          43.000
R02  22531952.844 7 120234797.587 7     -3888.277          46.000    22531954.102 7  93515934.435 7     -3024.216          45.000
R03  19341235.078 8 103535145.875 8     -1103.527          50.000    19341238.141 8  80527341.251 8      -858.299          49.000
R13  19401851.914 6 103604816.143 6     -1398.527          40.000    19401854.031 7  80581503.213 7     -1087.743          43.000
R14  20296092.844 8 108189625.799 8      2625.391          51.000    20296096.953 8  84147521.534 8      2041.970          50.000
C05  39793013.570 5 207212664.021 5         9.469          35.000    39793012.695 6 160229958.491 6         6.947          41.000
C24  21783204.258 8 113430887.261 8       161.352          51.000
C25  24394450.516 7 127028291.877 7      2731.500          46.000
E01  24035081.836 8 126305225.117 8      -719.629          51.000    24035083.102 8  96779353.442 8      -551.416          51.000
E04  23720355.242 8 124651298.354 8      -956.961          51.000    23720356.289 8  95512018.843 8      -733.229          51.000
E19  28142881.734 5 147891828.649 5     -2665.414          35.000
E31  24509017.977 8 128795765.538 8      2104.020          51.000    24509021.359 8  98687676.076 8      1612.222          51.000
> 2020 05 10 04 06  0.0000000  0 15        .000000000000
G05  21377589.312 8 112339988.897 8     -2260.930          51.000    21377588.711 8  87537619.028 8     -1761.763          51.000
G15  22238629.875 6 116864752.768 6      2808.094          36.000    22238618.133 6  91063437.889 6      2188.137          36.000
G28  21032319.508 8 110525657.670 8       998.820          50.000    21032318.625 8  86123886.534 8       778.302          48.000
G30  21222332.164 6 111524130.828 6     -1875.594          41.000    21222334.562 6  86901934.278 6     -1461.502          41.000
R02  22553835.867 7 120351574.734 7     -3898.785          47.000    22553838.586 7  93606761.031 7     -3032.391          44.000
R03  19347480.852 8 103568577.010 8     -1127.027          51.000    19347483.664 8  80553343.238 8      -876.577          49.000
R13  19409762.578 6 103647058.387 6     -1419.312          40.000    19409765.008 7  80614358.296 7     -1103.910          44.000
R14  20281366.172 8 108111120.433 8      2606.383          51.000    20281369.203 8  84086461.824 8      2027.187          49.000
C05  39792959.914 5 207212384.352 5         8.016          35.000    39792958.984 6 160229742.191 6         6.141          41.000
C24  21782310.500 8 113426231.361 8       147.207          51.000
C25  24378731.664 8 126946442.397 8      2723.301          48.000
E01  24039224.688 8 126326996.824 8      -733.605          51.000    24039226.383 8  96796035.651 8      -562.059          51.000
E04  23725843.352 8 124680138.140 8      -967.602          51.000    23725844.492 8  95534116.836 8      -741.388          51.000
E19  28158107.180 5 147971851.618 5     -2669.941          32.000
E31  24497034.305 8 128732788.390 8      2092.637          51.000    24497037.688 8  98639420.872 8      1603.416          51.000
> 2020 05 10 04 06 30.0000000  0 14        .000000000000
G05  21390539.727 8 112408042.628 8     -2281.648          51.000    21390538.414 8  87590647.861 8     -1777.911          51.000
G28  21026668.352 8 110495962.683 8       975.301          48.000    21026667.781 8  86100747.563 8       759.975          48.000
G30  21233064.766 6 111580530.771 6     -1889.781          38.000    21233066.977 6  86945882.275 6     -1472.557          38.000
R02  22575777.602 7 120468663.303 7     -3912.820          47.000    22575781.297 7  93697829.852 7     -3043.308          43.000
R03  19353858.664 8 103602714.766 8     -1154.516          51.000    19353860.945 8  80579894.809 8      -897.957          48.000
R13  19417793.320 6 103689942.332 6     -1444.941          38.000    19417795.906 7  80647712.453 7     -1123.843          44.000
R14  20266746.703 8 108033190.066 8      2583.270          51.000    20266749.133 8  84025849.352 8      2009.210          48.000
C05  39792913.383 6 207212141.968 6         2.703          36.000    39792912.469 6 160229554.745 6         2.003          41.000
C24  21781499.273 8 113422006.216 8       128.926          51.000
C25  24363061.906 8 126864842.523 8      2711.090          50.000
C26  23252464.039 5 121081685.938 5     -2427.422          32.000
E01  24043447.375 8 126349187.035 8      -751.328          51.000    24043448.953 8  96813038.522 8      -575.690          51.000
E04  23731393.328 8 124709302.673 8      -982.238          51.000    23731394.039 8  95556463.664 8      -752.612          51.000
E31  24485116.703 8 128670158.005 8      2077.227          51.000    24485120.203 8  98591431.360 8      1591.641          51.000
> 2020 05 10 04 07  0.0000000  0 15        .000000000000
G05  21403581.828 8 112476578.010 8     -2288.883          51.000    21403579.375 8  87644052.021 8     -1783.548          51.000
G13  20569875.117 4 108095422.766 4      1329.957          28.000
G28  21021124.508 8 110466831.661 8       965.258          48.000    21021124.422 8  86078048.044 8       752.149          48.000
G30  21243852.672 6 111637220.693 6     -1890.410          36.000    21243854.359 6  86990056.242 6     -1473.047          37.000
R02  22597773.445 7 120586037.173 7     -3913.492          46.000    22597776.930 7  93789120.627 7     -3043.827          42.000
R03  19360363.828 8 103637535.547 8     -1168.480          51.000    19360365.742 7  80606977.614 7      -908.818          46.000
R13  19425939.094 6 103733441.940 6     -1456.547          39.000    19425941.898 7  80681545.481 7     -1132.870          44.000
R14  20252229.883 8 107955812.690 8      2573.648          50.000    20252233.055 8  83965666.951 8      2001.724          48.000
C05  39792869.664 6 207211913.957 6        11.188          36.000    39792868.688 6 160229378.424 6         8.491          41.000
C24  21780766.305 8 113418188.271 8       124.043          51.000
C25  24347436.008 8 126783470.138 8      2712.168          51.000
C26  23266433.602 5 121154428.182 5     -2424.805          33.000
E01  24047745.141 8 126371771.592 8      -755.762          51.000    24047746.602 8  96830343.558 8      -579.099          51.000
E04  23737000.938 8 124738769.040 8      -983.621          51.000    23737000.688 8  95579041.766 8      -753.678          51.000
E31  24473260.734 8 128607852.110 8      2075.098          51.000    24473264.383 8  98543690.478 8      1590.001          51.000
> 2020 05 10 04 07 30.0000000  0 15        .000000000000
G05  21416695.695 8 112545491.701 8     -2307.465          51.000    21416692.516 8  87697750.993 8     -1798.025          51.000
G28  21015669.195 8 110438164.224 8       943.789          48.000    21015669.328 8  86055709.753 8       735.417          48.000
G30  21254676.336 6 111694098.063 6     -1903.293          38.000    21254677.555 6  87034376.251 6     -1483.085          39.000
R02  22619802.312 7 120703591.080 7     -3925.414          42.000    22619806.039 6  93880551.377 6     -3053.103          41.000
R03  19366977.086 8 103672936.309 8     -1193.777          51.000    19366978.531 7  80634511.487 7      -928.493          45.000
R13  19434180.656 6 103777451.380 6     -1479.645          38.000    19434183.367 7  80715775.033 7     -1150.835          43.000
R14  20237798.336 8 107878887.358 8      2552.559          51.000    20237801.922 7  83905836.110 7      1985.323          47.000
C05  39792809.266 5 207211600.110 5         8.371          35.000    39792808.445 6 160229135.717 6         6.023          41.000
C14  22084554.648 8 115000069.365 8     -1707.270          51.000    22084550.547 8  88925333.352 8     -1320.115          51.000
C24  21780092.023 8 113414676.628 8       107.914          51.000
C25  24331834.523 8 126702225.886 8      2702.098          50.000
C26  23280424.031 5 121227277.817 5     -2433.652          33.000
E01  24052098.555 8 126394648.321 8      -771.402          51.000    24052100.148 8  96847872.469 8      -591.110          51.000
E04  23742646.602 8 124768436.253 8      -996.273          51.000    23742646.023 8  95601773.749 8      -763.363          51.000
E31  24461447.078 8 128545770.463 8      2061.691          51.000    24461450.781 8  98496121.408 8      1579.705          51.000
> 2020 05 10 04 08  0.0000000  0 16        .000000000000
G05  21429900.859 8 112614887.469 8     -2320.875          51.000    21429897.922 8  87751825.602 8     -1808.474          51.000
G15  22174796.609 5 116529342.124 5      2781.539          31.000
G28  21010322.805 8 110410067.253 8       927.379          50.000    21010322.781 8  86033816.005 8       722.633          48.000
G30  21265555.273 6 111751267.499 6     -1910.285          38.000    21265556.609 6  87078923.818 6     -1488.537          39.000
R02  22641882.969 6 120821430.790 6     -3932.328          39.000    22641888.609 6  93972204.526 6     -3058.474          40.000
R03  19373718.695 8 103709024.933 8     -1214.062          50.000    19373719.750 7  80662580.384 7      -944.271          46.000
R13  19442537.531 6 103822076.058 6     -1497.227          39.000    19442540.211 7  80750483.116 7     -1164.510          43.000
R14  20223473.281 8 107802522.994 8      2536.371          51.000    20223476.273 8  83846441.625 8      1972.733          48.000
C05  39792752.703 5 207211305.628 5         9.723          35.000    39792751.914 6 160228907.969 6         7.346          41.000
C14  22094418.758 8 115051434.791 8     -1718.988          51.000    22094415.117 8  88965052.334 8     -1329.333          51.000
C24  21779496.375 8 113411575.775 8        96.816          51.000
C25  24316277.438 8 126621215.795 8      2696.785          50.000
C26  23294455.539 5 121300340.305 5     -2438.223          34.000
E01  24056527.641 8 126417922.304 8      -782.164          51.000    24056529.172 8  96865705.768 8      -599.356          51.000
E04  23748350.812 8 124798410.608 8     -1004.031          51.000    23748350.047 8  95624741.083 8      -769.305          51.000
E31  24449695.797 8 128484020.048 8      2053.043          51.000    24449699.680 8  98448806.129 8      1573.108          51.000
> 2020 05 10 04 08 30.0000000  0 16        .000000000000
G05  21443194.008 8 112684746.872 8     -2334.109          51.000    21443191.391 8  87806261.478 8     -1818.787          51.000
G28  21005082.148 8 110382525.055 8       911.043          51.000    21005081.594 8  86012354.556 8       709.904          48.000
G30  21276486.203 5 111808711.182 5     -1917.172          34.000    21276487.859 5  87123685.133 5     -1493.900          34.000
R02  22664014.883 6 120939536.795 6     -3938.992          41.000    22664021.641 6  94064064.796 6     -3063.661          41.000
R03  19380585.570 8 103745784.582 8     -1234.246          51.000    19380586.539 7  80691171.161 7      -959.969          47.000
R12  23102867.375 5 123411369.301 5     -4020.551          32.000
R13  19451006.062 6 103867296.447 6     -1514.887          38.000    19451008.453 7  80785654.528 7     -1178.242          42.000
R14  20209250.664 8 107726704.657 8      2520.375          51.000    20209253.164 8  83787471.801 8      1960.292          49.000
C05  39792696.711 5 207211013.218 5        11.707          35.000    39792695.984 6 160228682.610 6         9.155          41.000
C14  22104361.797 8 115103211.176 8     -1730.508          51.000    22104358.500 8  89005089.080 8     -1338.160          51.000
C24  21778976.500 8 113408868.888 8        85.805          51.000
C25  24300761.938 8 126540424.448 8      2691.516          50.000
C26  23308523.391 5 121373591.016 5     -2442.594          33.000
E01  24061029.031 8 126441576.142 8      -792.504          51.000    24061030.344 8  96883830.126 8      -607.255          51.000
E04  23754110.312 8 124828675.925 8     -1011.441          51.000    23754109.656 8  95647931.361 8      -774.986          51.000
E31  24438004.180 8 128422585.365 8      2044.832          50.000    24438008.609 8  98401732.783 8      1566.780          51.000
> 2020 05 10 04 09  0.0000000  0 17        .000000000000
G05  21456562.695 8 112755002.129 8     -2351.000          50.000    21456560.305 8  87861005.822 8     -1831.948          50.000
G07  23732972.578 6 124717589.215 6     -2794.609          36.000    23732963.906 6  97182549.093 6     -2177.618          36.000
G28  20999934.617 8 110355472.833 8       890.969          51.000    20999933.758 8  85991274.905 8       694.261          48.000
G30  21287456.531 5 111866362.342 5     -1928.309          34.000    21287458.602 5  87168608.133 5     -1502.581          33.000
R02  22686185.977 7 121057840.890 7     -3949.391          44.000    22686192.430 6  94156079.068 6     -3071.748          41.000
R03  19387565.547 8 103783148.621 8     -1258.215          51.000    19387566.266 8  80720232.079 8      -978.612          48.000
R12  23125467.484 5 123532035.202 5     -4025.289          32.000
R13  19459572.875 6 103913043.572 6     -1536.363          38.000    19459575.375 7  80821235.635 7     -1194.949          42.000
R14  20195117.539 8 107651367.140 8      2500.543          51.000    20195120.234 8  83728875.947 8      1944.867          50.000
C05  39792629.047 6 207210661.061 6        10.316          36.000    39792628.242 6 160228409.488 6         8.065          41.000
C14  22114371.023 8 115155332.791 8     -1745.672          51.000    22114368.000 8  89045392.801 8     -1349.888          51.000
C24  21778519.664 8 113406490.352 8        71.266          51.000
C25  24285276.250 8 126459787.724 8      2682.750          49.000
C26  23322614.852 5 121446963.281 5     -2449.418          32.000
E01  24065590.039 8 126465543.309 8      -806.680          51.000    24065591.266 8  96902194.567 8      -618.156          51.000
E04  23759912.414 8 124859166.896 8     -1022.742          51.000    23759912.125 8  95671294.537 8      -783.666          51.000
E31  24426360.547 8 128361401.791 8      2032.625          50.000    24426365.539 8  98354851.837 8      1557.466          51.000
> 2020 05 10 04 09 30.0000000  0 15        .000000000000
G05  21470021.477 8 112825729.515 8     -2371.004          50.000    21470019.648 8  87916118.077 8     -1847.532          50.000
G28  20994895.211 8 110328989.676 8       867.578          51.000    20994894.484 8  85970638.697 8       676.035          48.000
G30  21298481.391 6 111924297.620 6     -1941.715          38.000    21298483.445 6  87213752.501 6     -1513.028          38.000
R02  22708408.648 7 121176419.822 7     -3963.062          43.000    22708415.203 6  94248307.090 6     -3082.382          40.000
R03  19394673.117 8 103821196.221 8     -1285.480          50.000    19394674.086 8  80749824.644 8      -999.821          49.000
R12  23148071.000 4 123652789.452 4     -4032.918          29.000
R13  19468252.852 6 103959393.508 6     -1560.957          37.000    19468255.211 7  80857285.579 7     -1214.078          42.000
R14  20181089.398 8 107576591.487 8      2477.418          51.000    20181092.555 8  83670717.089 8      1926.881          49.000
C05  39792564.328 6 207210324.529 6         5.449          36.000    39792563.430 6 160228148.501 6         4.114          41.000
C14  22124461.297 8 115207876.276 8     -1764.105          51.000    22124458.547 8  89086022.749 8     -1364.170          51.000
C24  21778140.523 8 113404516.959 8        53.391          51.000
C25  24269835.227 8 126379383.928 8      2670.547          48.000
E01  24070225.219 8 126489900.889 8      -824.117          51.000    24070226.602 8  96920858.146 8      -631.428          51.000
E04  23765772.297 8 124889961.850 8     -1037.309          50.000    23765772.344 8  95694890.637 8      -794.782          51.000
E31  24414780.375 8 128300548.308 8      2017.227          51.000    24414785.352 8  98308223.836 8      1545.694          51.000
> 2020 05 10 04 10  0.0000000  0 16        .000000000000
G05  21483583.031 8 112896995.604 8     -2380.254          50.000    21483581.930 8  87971650.082 8     -1854.743          50.000
G28  20989977.359 8 110303145.509 8       854.977          51.000    20989976.445 7  85950500.377 7       666.216          47.000
G30  21309573.273 6 111982585.108 6     -1944.242          38.000    21309575.188 6  87259171.327 6     -1514.994          38.000
R02  22730695.234 7 121295341.626 7     -3965.520          44.000    22730701.344 6  94340801.785 6     -3084.293          37.000
R03  19401921.766 8 103859997.907 8     -1301.648          50.000    19401922.852 8  80780003.723 8     -1012.393          48.000
R12  23170703.992 5 123773745.627 5     -4028.152          32.000
R13  19477058.250 6 104006414.321 6     -1573.906          36.000    19477060.695 6  80893857.311 6     -1224.149          41.000
R14  20167180.227 8 107502449.382 8      2465.109          51.000    20167183.609 8  83613050.988 8      1917.307          48.000
C05  39792515.734 5 207210071.547 5        11.863          35.000    39792514.859 6 160227952.858 6         8.714          41.000
C14  22134645.547 8 115260909.571 8     -1771.754          49.000    22134643.211 8  89127031.445 8     -1370.057          51.000
C24  21777852.227 8 113403016.843 8        46.273          51.000
C25  24254452.352 8 126299282.754 8      2669.148          49.000
E01  24074947.648 8 126514717.286 8      -830.617          51.000    24074949.203 8  96939873.299 8      -636.471          51.000
E04  23771703.414 8 124921130.361 8     -1040.953          50.000    23771703.531 8  95718773.032 8      -797.697          51.000
E19  28280610.719 5 148615610.360 5     -2694.656          35.000
E31  24403276.953 8 128240095.224 8      2012.648          51.000    24403281.258 8  98261902.653 8      1542.096          51.000
> 2020 05 10 04 10 30.0000000  0 17        .000000000000
G05  21497216.336 8 112968637.379 8     -2395.727          51.000    21497215.906 8  88027474.820 8     -1866.800          51.000
G07  23780890.203 5 124969421.433 5     -2802.516          34.000
G28  20985150.375 8 110277779.825 8       836.074          51.000    20985149.367 7  85930734.917 7       651.486          47.000
G30  21320701.141 5 112041062.127 5     -1954.402          35.000    21320703.086 5  87304737.869 5     -1522.911          35.000
R02  22753014.922 7 121414440.326 7     -3974.422          43.000    22753019.961 6  94433434.096 6     -3091.217          36.000
R03  19409280.562 8 103899388.923 8     -1324.414          51.000    19409281.281 8  80810641.192 8     -1030.100          48.000
R12  23193336.727 5 123894645.292 5     -4031.652          31.000
R13  19485958.250 6 104053939.175 6     -1594.074          37.000    19485960.445 7  80930821.066 7     -1239.836          42.000
R14  20153360.125 8 107428778.647 8      2446.316          51.000    20153363.383 8  83555751.538 8      1902.694          49.000
C05  39792452.688 6 207209743.327 6        10.383          36.000    39792451.930 6 160227699.018 6         8.234          41.000
C14  22144892.742 8 115314272.025 8     -1785.656          48.000    22144891.062 8  89168294.654 8     -1380.828          51.000
C24  21777623.953 8 113401829.488 8        32.863          51.000
C25  24239097.148 8 126219325.117 8      2661.457          49.000
E01  24079726.484 8 126539830.153 8      -843.457          51.000    24079727.977 8  96959115.616 8      -646.336          51.000
E04  23777674.398 8 124952511.352 8     -1051.047          48.000    23777675.242 8  95742818.233 8      -805.333          51.000
E19  28296005.727 5 148696508.157 5     -2698.324          35.000    28296007.930 5 113936299.727 5     -2067.619          33.000
E31  24391819.484 8 128179882.094 8      2001.617          51.000    24391822.758 8  98215765.339 8      1533.698          51.000
> 2020 05 10 04 11  0.0000000  0 16        .000000000000
G05  21510940.008 8 113040753.755 8     -2412.371          51.000    21510939.953 8  88083669.391 8     -1879.770          51.000
G28  20980433.852 8 110252994.509 8       815.836          51.000    20980432.547 7  85911421.696 7       635.716          47.000
G30  21331884.008 6 112099828.375 6     -1964.207          36.000    21331886.062 5  87350529.797 5     -1530.554          35.000
R02  22775387.523 7 121533815.917 7     -3984.449          45.000    22775390.797 6  94526281.737 6     -3099.016          37.000
R03  19416768.742 8 103939472.423 8     -1348.316          51.000    19416769.422 8  80841817.236 8     -1048.691          48.000
R12  23215986.086 4 124015634.068 4     -4034.473          29.000
R13  19494971.422 6 104102068.147 6     -1614.742          36.000    19494973.688 6  80968254.707 6     -1255.914          41.000
R14  20139647.883 8 107355683.275 8      2426.273          51.000    20139651.141 8  83498899.618 8      1887.105          49.000
C05  39792394.398 5 207209439.948 5         8.930          35.000    39792393.633 6 160227464.394 6         7.047          41.000
C14  22155222.297 8 115368062.901 8     -1800.750          49.000    22155220.844 8  89209889.151 8     -1392.493          51.000
C24  21777474.672 8 113401054.404 8        18.391          51.000
C25  24223788.969 8 126139612.003 8      2652.418          49.000
E01  24084580.734 8 126565339.489 8      -857.535          51.000    24084582.219 8  96978661.723 8      -657.054          51.000
E04  23783705.055 8 124984206.103 8     -1062.285          49.000    23783707.023 8  95767103.823 8      -813.998          51.000
E19  28311424.969 5 148777532.413 5     -2703.793          35.000    28311426.297 5 113998381.217 5     -2071.836          34.000
E31  24380427.211 8 128120010.856 8      1989.344          51.000    24380429.359 8  98169889.995 8      1524.314          51.000
> 2020 05 10 04 11 30.0000000  0 17        .000000000000
G05  21524746.031 8 113113303.690 8     -2425.879          51.000    21524745.945 8  88140201.811 8     -1890.295          51.000
G28  20975820.664 8 110228751.691 8       798.629          51.000    20975818.906 7  85892531.178 7       622.308          47.000
G30  21343114.352 6 112158843.986 6     -1971.949          37.000    21343116.281 6  87396515.969 6     -1536.584          37.000
R02  22797804.695 8 121653427.582 8     -3991.320          48.000    22797806.211 6  94619312.973 6     -3104.363          37.000
R03  19424378.500 8 103980208.858 8     -1369.180          51.000    19424379.484 7  80873501.086 7     -1064.921          47.000
R12  23238643.617 5 124136670.456 5     -4035.520          32.000
R13  19504089.562 6 104150759.409 6     -1633.020          37.000    19504091.648 6  81006125.682 6     -1270.126          40.000
R14  20126036.570 8 107283125.409 8      2409.082          51.000    20126039.539 8  83442465.749 8      1873.730          49.000
C05  39792333.453 5 207209122.257 5        10.730          35.000    39792332.812 6 160227219.506 6         8.014          41.000
C14  22165627.000 8 115422243.137 8     -1812.977          50.000    22165625.039 8  89251784.733 8     -1401.827          51.000
C24  21777397.219 8 113400652.644 8         6.719          51.000
C25  24208521.008 8 126060106.054 8      2646.285          49.000
C26  23393665.852 5 121816980.227 5     -2479.117          33.000
E01  24089502.867 8 126591205.700 8      -868.504          51.000    24089504.508 8  96998481.277 8      -665.474          51.000
E04  23789788.500 8 125016176.238 8     -1070.699          51.000    23789791.117 8  95791600.386 8      -820.376          51.000
E19  28326860.672 5 148858657.133 5     -2706.031          33.000    28326861.039 5 114060531.621 5     -2072.947          33.000
E31  24369092.578 8 128060443.764 8      1980.129          51.000    24369093.852 8  98124247.692 8      1517.260          51.000
> 2020 05 10 04 12  0.0000000  0 18        .000000000000
G05  21538636.648 8 113186299.327 8     -2440.477          51.000    21538636.398 8  88197081.525 8     -1901.670          51.000
G07  23828961.852 5 125222044.087 5     -2809.844          34.000
G28  20971313.344 8 110205066.307 8       780.324          50.000    20971311.969 8  85874075.041 8       608.045          48.000
G30  21354394.766 6 112218122.136 6     -1980.371          40.000    21354396.234 6  87442706.711 6     -1543.146          40.000
R02  22820267.172 7 121773286.945 7     -3999.301          46.000    22820268.016 6  94712536.870 6     -3110.570          37.000
R03  19432112.852 8 104021612.571 8     -1391.223          50.000    19432113.797 7  80905703.952 7     -1082.062          47.000
R12  23261313.023 5 124257766.316 5     -4036.906          30.000    23261318.188 4  96644940.567 4     -3139.816          26.000
R13  19513315.828 6 104200025.210 6     -1651.906          36.000    19513317.820 6  81044443.507 6     -1284.816          40.000
R14  20112528.594 8 107211121.397 8      2390.906          51.000    20112531.516 8  83386462.609 8      1859.594          49.000
C05  39792272.961 6 207208806.871 6        10.316          36.000    39792272.211 6 160226975.581 6         8.168          41.000
C14  22176109.164 8 115476826.320 8     -1826.121          50.000    22176106.758 8  89293991.889 8     -1412.009          51.000
C24  21777394.430 8 113400638.037 8        -5.887          51.000
C25  24193295.734 8 125980822.554 8      2639.207          48.000
C26  23407964.086 5 121891412.742 5     -2486.105          30.000
E01  24094495.430 8 126617442.352 8      -880.633          51.000    24094496.883 8  97018584.674 8      -674.771          51.000
E04  23795927.742 8 125048436.549 8     -1080.090          51.000    23795930.055 8  95816319.302 8      -827.607          51.000
E19  28342315.555 5 148939869.981 5     -2708.711          34.000    28342314.664 5 114122759.604 5     -2075.548          33.000
E31  24357818.359 8 128001196.321 8      1969.699          51.000    24357819.164 8  98078850.310 8      1509.283          51.000
> 2020 05 10 04 12 30.0000000  0 17        .000000000000
G05  21552611.078 8 113259735.571 8     -2455.152          51.000    21552610.500 8  88254304.578 8     -1913.106          51.000
G28  20966911.477 8 110181935.458 8       761.883          50.000    20966910.344 8  85856050.992 8       593.672          48.000
G30  21365724.250 6 112277658.028 6     -1989.148          40.000    21365724.930 6  87489098.264 6     -1549.986          40.000
R02  22842773.883 7 121893388.704 7     -4007.465          44.000    22842774.625 5  94805949.279 5     -3116.917          35.000
R03  19439970.898 8 104063679.685 8     -1413.363          48.000    19439972.602 7  80938422.784 7     -1099.283          47.000
R12  23283992.750 5 124378915.341 5     -4039.312          31.000    23283997.008 4  96739172.490 4     -3141.691          26.000
R13  19522647.938 6 104249858.693 6     -1670.582          36.000    19522649.742 6  81083202.887 6     -1299.342          39.000
R14  20099123.898 8 107139669.024 8      2372.562          51.000    20099127.078 8  83330888.534 8      1845.326          48.000
C05  39792212.000 6 207208489.305 6        10.453          36.000    39792211.242 6 160226729.977 6         8.349          41.000
C14  22186667.711 8 115531808.118 8     -1839.223          49.000    22186665.297 8  89336507.273 8     -1422.285          51.000
C24  21777465.055 8 113401006.418 8       -18.656          51.000
C25  24178112.297 7 125901758.906 7      2631.805          46.000
C26  23422294.617 5 121966059.301 5     -2491.113          31.000
E01  24099557.641 8 126644044.843 8      -892.734          51.000    24099558.609 8  97038968.393 8      -684.058          51.000
E04  23802121.844 8 125080983.680 8     -1089.676          51.000    23802123.320 8  95841257.996 8      -834.925          51.000
E19  28357788.641 5 149021184.188 5     -2712.559          32.000    28357787.242 5 114185062.096 5     -2077.807          34.000
E31  24346604.016 8 127942265.812 8      1959.137          51.000    24346605.000 8  98033695.778 8      1501.127          51.000
> 2020 05 10 04 13  0.0000000  0 16        .000000000000
G05  21566678.953 8 113333663.005 8     -2470.398          51.000    21566677.688 8  88311910.344 8     -1924.986          51.000
G28  20962625.594 8 110159413.446 8       742.641          50.000    20962624.500 8  85838501.327 8       578.681          48.000
G30  21377112.547 6 112337503.527 6     -1997.891          39.000    21377112.664 6  87535731.060 6     -1556.804          40.000
R02  22865334.891 6 122013784.320 6     -4015.992          41.000    22865335.477 5  94899590.286 5     -3123.549          34.000
R03  19447962.844 8 104106464.338 8     -1435.945          48.000    19447965.578 7  80971699.720 7     -1116.843          47.000
R12  23306684.516 5 124500124.076 5     -4041.055          30.000
R13  19532096.117 6 104300311.143 6     -1690.398          36.000    19532098.117 6  81122443.673 6     -1314.754          39.000
R14  20085833.203 8 107068823.608 8      2353.418          51.000    20085836.406 7  83275786.559 7      1830.436          47.000
C05  39792160.719 6 207208222.402 6        10.074          36.000    39792159.961 6 160226523.587 6         7.823          41.000
C14  22197312.570 8 115587240.487 8     -1853.188          49.000    22197310.562 8  89379371.076 8     -1433.017          51.000
C24  21777619.500 8 113401809.928 8       -32.020          51.000
C25  24162980.641 7 125822968.749 7      2623.852          46.000
E01  24104699.555 8 126671065.473 8      -905.676          51.000    24104700.430 8  97059672.504 8      -693.879          51.000
E04  23808380.578 8 125113871.137 8     -1099.953          51.000    23808381.469 8  95866457.458 8      -842.755          51.000
E19                                                                  28373287.727 5 114247473.650 5     -2080.854          31.000
E31  24335460.258 8 127883706.437 8      1947.785          51.000    24335461.555 8  97988825.602 8      1492.531          51.000
> 2020 05 10 04 13 30.0000000  0 17        .000000000000
G05  21580808.250 8 113407914.462 8     -2480.414          49.000    21580806.406 8  88369768.609 8     -1932.790          48.000
G07  23877139.094 5 125475212.674 5     -2813.219          31.000
G15  22002811.789 5 115625542.019 5      2699.543          31.000
G28  20958424.289 8 110137336.311 8       728.594          50.000    20958423.797 8  85821298.360 8       567.735          48.000
G30  21388528.062 6 112397492.857 6     -2002.254          37.000    21388528.766 6  87582475.928 6     -1560.201          38.000
R02  22887918.891 6 122134304.151 6     -4019.102          38.000    22887920.070 5  94993327.892 5     -3125.971          34.000
R03  19456057.938 8 104149798.430 8     -1453.527          49.000    19456060.438 7  81005404.022 7     -1130.521          47.000
R12  23329370.984 5 124621311.133 5     -4038.031          30.000
R13  19541628.320 6 104351212.297 6     -1703.863          37.000    19541629.805 6  81162033.443 6     -1325.227          38.000
R14  20072625.188 8 106998419.490 8      2339.520          51.000    20072627.898 7  83221027.795 7      1819.626          46.000
C05  39792087.820 6 207207843.218 6        14.527          36.000    39792087.156 6 160226230.350 6        11.451          41.000
C14  22208012.312 8 115642959.410 8     -1861.945          48.000    22208011.266 8  89422456.446 8     -1439.762          51.000
C24  21777826.180 8 113402884.760 8       -40.297          51.000
C25  24147870.945 7 125744289.809 7      2620.656          47.000
E01  24109889.398 8 126698338.550 8      -913.172          51.000    24109890.445 8  97080570.065 8      -699.664          51.000
E04  23814672.578 8 125146934.501 8     -1104.918          51.000    23814673.570 8  95891791.685 8      -846.610          51.000
E31  24324356.297 8 127825354.431 8      1941.664          51.000    24324357.719 8  97944114.316 8      1487.816          51.000
> 2020 05 10 04 14  0.0000000  0 14        .000000000000
G05  21595043.250 8 113482723.033 8     -2498.379          48.000    21595041.633 8  88428060.984 8     -1946.789          48.000
G28  20954352.688 8 110115939.161 8       706.422          51.000    20954352.109 7  85804625.248 7       550.456          47.000
G30  21400015.273 6 112457859.222 6     -2014.125          36.000    21400016.852 6  87629514.641 6     -1569.448          36.000
R02  22910570.672 6 122255184.475 6     -4030.789          39.000    22910573.070 5  95087345.796 5     -3135.064          34.000
R03  19464300.727 8 104193920.529 8     -1479.289          51.000    19464302.758 8  81039721.192 8     -1150.558          48.000
R13  19551289.109 6 104402798.362 6     -1726.836          36.000    19551291.070 6  81202155.946 6     -1343.095          38.000
R14  20059544.758 8 106928696.326 8      2317.273          50.000    20059547.609 7  83166798.675 7      1802.324          47.000
C05  39792038.086 5 207207584.408 5        11.004          35.000    39792037.500 6 160226030.218 6         8.593          41.000
C14  22218812.031 8 115699196.537 8     -1878.762          49.000    22218811.641 8  89465942.552 8     -1452.829          51.000
C24  21778129.289 8 113404462.863 8       -56.605          51.000
C25  24132827.820 7 125665955.503 7      2609.770          47.000
E01  24115171.844 8 126726097.785 8      -928.953          51.000    24115172.594 8  97101840.126 8      -711.795          51.000
E04  23821042.734 8 125180408.679 8     -1118.230          51.000    23821043.648 8  95917440.707 8      -856.844          51.000
E31  24313336.727 8 127767445.336 8      1927.406          51.000    24313338.320 8  97899742.404 8      1476.790          51.000
> 2020 05 10 04 14 30.0000000  0 16        .000000000000
G05  21609325.680 8 113557778.382 8     -2510.355          49.000    21609324.523 8  88486545.667 8     -1956.121          49.000
G15  21972123.758 6 115464249.803 6      2681.305          38.000    21972114.344 4  89972113.802 4      2089.325          29.000
