     3.04           OBSERVATION DATA    M (MIXED)           RINEX VERSION / TYPE
Convert 2.6.2       NovAtel             20200515 160045 UTC PGM / RUN BY / DATE 
Rinex Version 3.04 Observation File                         COMMENT             
                                                            MARKER NAME         
                                                            MARKER NUMBER       
                                                            MARKER TYPE         
                                                            OBSERVER / AGENCY   
                    NovAtel GPSCard                         REC # / TYPE / VERS 
                                                            ANT # / TYPE        
        0.0000        0.0000        0.0000                  APPROX POSITION XYZ 
        0.0000        0.0000        0.0000                  ANTENNA: DELTA H/E/N
G    8 C1C L1C D1C S1C C2W L2W D2W S2W                      SYS / # / OBS TYPES 
R    8 C1C L1C D1C S1C C2P L2P D2P S2P                      SYS / # / OBS TYPES 
E    8 C1C L1C D1C S1C C7Q L7Q D7Q S7Q                      SYS / # / OBS TYPES 
C    8 C2I L2I D2I S2I C7I L7I D7I S7I                      SYS / # / OBS TYPES 
DBHZ                                                        SIGNAL STRENGTH UNIT
    30.000                                                  INTERVAL            
  2020    05    10    06    00    0.0000000     GPS         TIME OF FIRST OBS   
  2020    05    10    06    59   30.0000000     GPS         TIME OF LAST OBS    
G L1C  0.00000  08 G15 G17 G13 G28 G19 G24 G12 G20          SYS / PHASE SHIFT   
G L2W  0.00000  07 G15 G17 G13 G28 G19 G24 G12              SYS / PHASE SHIFT   
R L1C  0.00000  07 R03 R15 R04 R14 R23 R05 R17              SYS / PHASE SHIFT   
R L2P  0.25000  07 R03 R15 R04 R14 R23 R05 R17              SYS / PHASE SHIFT   
E L1C  0.50000  05 E31 E04 E24 E01 E09                      SYS / PHASE SHIFT   
E L7Q -0.25000  05 E31 E04 E24 E09 E01                      SYS / PHASE SHIFT   
C L2I  0.00000  04 C25 C23 C24 C11                          SYS / PHASE SHIFT   
C L7I  0.00000  03 C05 C14 C11                              SYS / PHASE SHIFT   
  7 R03  5 R15  0 R04  6 R14 -7 R23  3 R05  1 R17  4        GLONASS SLOT / FRQ #
 C1C  -71.950 C2C  -71.950 C2P  -71.950                     GLONASS COD/PHS/BIS 
     0     0     0     0GPS                                 LEAP SECONDS        
                                                            END OF HEADER       
> 2020 05 10 06 00  0.0000000  0 19      -0.000000000000
G15  20331539.609 8 106842951.935 8      -332.902          51.000    20331539.352 8  83254255.335 8      -259.405          51.000  
G17  22743042.414 5 119515507.925 5      1457.367          31.000    22743039.367 5  93128964.051 5      1135.605          31.000  
G13  20761375.500 8 109101762.881 8     -1797.016          51.000    20761374.711 8  85014337.747 8     -1400.275          48.000  
G28  22293545.523 6 117153355.929 6     -2549.980          38.000    22293546.789 5  91288341.492 5     -1986.977          32.000  
G19  23351560.289 8 122713279.092 8      3087.426          50.000    23351556.820 6  95620716.869 6      2405.787          40.000  
R03  23461548.727 4 125591098.87324     -4559.355          28.000    23461540.805 4  97681950.24024     -3546.166          26.000  
R15  20434685.180 6 109196363.138 6      1951.902          38.000    20434697.125 4  84930531.724 4      1518.144          27.000  
R04  19935198.711 8 106751705.710 8     -2459.227          50.000    19935198.961 7  83029091.747 7     -1912.732          45.000  
R14  19655310.109 6 104773454.299 6     -1401.844          41.000    19655311.367 5  81490481.768 5     -1090.323          35.000  
R23  22851852.828 5 122241578.72425      1828.391          31.000                                                                  
E31  23426729.828 8 123108298.892 8      -409.020          51.000    23426733.289 8  94329747.194 8      -313.420          51.000  
E04  26324407.078 8 138335656.100 8     -2863.297          49.000    26324407.664 7 105997431.610 7     -2193.932          46.000  
E24  23263421.711 8 122250136.254 8      2002.969          51.000    23263435.227 8  93672174.012 8      1534.785          51.000  
E01  26375912.250 6 138606353.533 6     -2456.605          38.000                                                                  
E09  21705315.398 8 114062208.460 8      -762.645          51.000    21705317.672 8  87398305.919 8      -584.403          51.000  
C25  22043557.750 7 114786568.779 7       769.668          42.000                                                                  
C05                                                                  39769577.375 6 160135606.858 6        20.416          36.000  
C14                                                                  25762448.562 5 103734716.463 5     -2679.083          35.000  
C23  25365534.781 6 132084957.582 6      2575.559          36.000                                                                  
> 2020 05 10 06 00 30.0000000  0 19      -0.000000000000
G15  20333501.188 8 106853260.295 8      -353.098          51.000    20333500.734 8  83262287.823 8      -275.141          51.000  
G17  22734774.359 5 119472045.45725      1440.770          35.000                                                                  
G13  20771685.539 8 109155940.396 8     -1813.605          51.000    20771684.242 8  85056553.982 8     -1413.199          48.000  
G28  22308138.070 5 117230037.668 5     -2560.410          31.000    22308138.023 5  91348095.372 5     -1995.110          31.000  
G19  23333969.875 8 122620837.735 8      3076.547          50.000    23333964.500 6  95548684.684 6      2397.313          39.000  
R03  23487104.281 5 125727927.851 5     -4563.980          31.000    23487109.508 4  97788403.039 4     -3549.763          26.000  
R15  20423775.242 6 109138058.646 6      1936.406          38.000                                                                  
R04  19949047.867 8 106825871.719 8     -2483.977          48.000    19949049.234 7  83086776.400 7     -1931.982          44.000  
R14  19663241.633 6 104815739.386 6     -1415.984          40.000    19663244.703 5  81523370.145 5     -1101.324          35.000  
E31  23429100.328 8 123120756.057 8      -420.070          51.000    23429103.836 8  94339292.298 8      -321.860          51.000  
E04  26340776.547 8 138421679.527 8     -2870.262          49.000    26340775.078 7 106063345.621 7     -2199.299          44.000  
E24  23252017.195 8 122190206.023 8      1993.695          51.000    23252031.812 8  93626253.459 8      1527.656          51.000  
E01  26389952.172 6 138680128.319 6     -2460.785          38.000                                                                  
E09  21709715.273 8 114085327.970 8      -777.254          51.000    21709717.359 8  87416020.869 8      -595.553          51.000  
C24  23187483.398 5 120743320.489 5     -1963.465          32.000                                                                  
C25  22039157.719 7 114763657.600 7       758.988          42.000                                                                  
C05                                                                  39769434.039 6 160135030.296 6        19.199          36.000  
C14                                                                  25782419.422 5 103815127.733 5     -2680.657          35.000  
C23  25350715.305 6 132007797.738 6      2569.551          36.000                                                                  
> 2020 05 10 06 01  0.0000000  0 17      -0.000000000000
G15  20335561.938 8 106864089.661 8      -374.926          51.000    20335561.180 8  83270726.286 8      -292.150          51.000  
G13  20782073.484 8 109210527.808 8     -1831.645          51.000    20782072.234 8  85099089.566 8     -1427.256          48.000  
G28  22322774.438 5 117306953.670 5     -2573.766          34.000    22322773.344 4  91408030.084 4     -2005.517          29.000  
G19  23316425.055 8 122528637.486 8      3063.906          49.000    23316419.062 6  95476840.374 6      2387.460          41.000  
R15  20412934.578 5 109080121.333 5      1919.258          32.000                                                                  
R04  19963018.609 8 106900687.486 8     -2510.109          49.000    19963020.812 7  83144966.456 7     -1952.308          44.000  
R14  19671238.477 6 104858368.835 6     -1432.129          40.000    19671242.203 5  81556526.351 5     -1113.878          35.000  
E31  23431518.477 8 123133463.425 8      -432.945          51.000    23431522.109 8  94349029.122 8      -331.746          51.000  
E04  26357170.211 8 138507830.422 8     -2879.031          48.000    26357166.812 7 106129357.269 7     -2205.881          44.000  
E24  23240650.281 8 122130474.572 8      1982.555          50.000    23240665.727 8  93580485.205 8      1519.080          51.000  
E01  26403999.406 6 138753951.727 6     -2466.555          38.000                                                                  
E09  21714182.875 8 114108804.159 8      -793.754          51.000    21714184.891 8  87434009.129 8      -608.198          51.000  
C24  23198802.266 5 120802260.946 5     -1972.102          33.000                                                                  
C25  22034802.523 6 114740979.710 6       746.930          41.000                                                                  
C05                                                                  39769284.828 6 160134430.22026        16.583          36.000  
C14                                                                  25802387.406 6 103895527.799 6     -2683.847          36.000  
C23  25335912.695 5 131930726.359 5      2562.445          34.000                                                                  
> 2020 05 10 06 01 30.0000000  0 17      -0.000000000000
G15  20337738.484 8 106875527.918 8      -388.691          51.000    20337737.586 8  83279639.212 8      -302.877          51.000  
G13  20792555.898 8 109265612.257 8     -1841.637          51.000    20792554.430 7  85142012.450 7     -1435.045          47.000  
G28  22337471.945 5 117384189.797 5     -2577.375          33.000                                                                  
G19  23298942.766 8 122436769.056 8      3059.523          49.000    23298937.508 7  95405254.637 7      2384.048          43.000  
R15  20402170.328 5 109022648.522 5      1911.520          32.000                                                                  
R04  19977127.742 8 106976239.725 8     -2527.824          51.000    19977130.086 7  83203729.310 7     -1966.086          45.000  
R14  19679316.828 6 104901429.826 6     -1439.852          40.000    19679321.039 5  81590018.197 5     -1119.888          34.000  
E31  23434000.805 8 123146507.819 8      -437.730          51.000    23434004.359 8  94359024.197 8      -335.416          51.000  
E04  26373604.570 8 138594195.336 8     -2879.801          48.000    26373601.031 7 106195532.912 7     -2206.554          44.000  
E24  23229338.414 8 122071029.919 8      1979.348          51.000    23229353.336 8  93534936.694 8      1516.611          51.000  
E01  26418070.109 6 138827891.469 6     -2464.738          36.000    26418071.047 5 106374617.408 5     -1888.522          34.000  
E09  21718734.438 8 114132724.752 8      -802.156          50.000    21718736.914 8  87452337.877 8      -614.628          51.000  
C24  23210161.555 5 120861413.263 5     -1972.715          35.000                                                                  
C25  22030508.930 6 114718621.871 6       742.430          41.000                                                                  
C05                                                                  39769146.328 6 160133871.382 6        20.014          36.000  
C14                                                                  25822368.961 6 103975982.332 6     -2680.690          36.000  
C23  25321144.070 5 131853830.740 5      2562.887          35.000                                                                  
> 2020 05 10 06 02  0.0000000  0 16      -0.000000000000
G15  20340012.383 8 106887477.714 8      -407.055          51.000    20340011.258 8  83288950.736 8      -317.186          51.000  
G13  20803114.055 8 109321095.643 8     -1856.277          51.000    20803112.328 7  85185246.201 7     -1446.450          47.000  
G28  22352210.602 4 117461659.50424     -2586.031          28.000                                                                  
G19  23281505.406 7 122345138.847 7      3050.160          47.000    23281501.633 7  95333854.494 7      2376.749          45.000  
R15  20391488.062 6 108965525.390 6      1897.738          38.000    20391503.602 4  84751045.35124      1476.010          25.000  
R04  19991356.000 8 107052426.727 8     -2550.336          51.000    19991357.992 7  83262985.818 7     -1983.598          46.000  
R14  19687457.320 6 104944820.927 6     -1451.723          36.000    19687460.359 5  81623766.816 5     -1129.115          33.000  
E31  23436528.695 8 123159791.035 8      -446.898          51.000    23436531.961 8  94369202.251 8      -342.471          51.000  
E04  26390060.969 7 138680675.664 7     -2884.891          47.000    26390058.719 7 106261796.999 7     -2210.448          45.000  
E24  23218062.992 8 122011774.929 8      1971.789          51.000    23218076.414 8  93489533.528 8      1510.879          51.000  
E09  21723352.148 8 114156992.285 8      -814.855          50.000    21723354.742 8  87470932.475 8      -624.370          51.000  
C24  23221542.688 6 120920680.086 6     -1977.734          36.000                                                                  
C25  22026258.492 6 114696487.365 6       733.859          41.000                                                                  
C05                                                                  39769000.125 5 160133282.675 5        20.078          35.000  
C14                                                                  25842345.508 5 104056415.096 5     -2680.917          34.000  
C23  25306392.266 6 131777014.791 6      2558.949          36.000                                                                  
> 2020 05 10 06 02 30.0000000  0 17      -0.000000000000
G15  20342391.375 8 106899980.160 8      -424.930          51.000    20342390.234 8  83298692.899 8      -331.114          51.000  
G13  20813755.430 8 109377018.488 8     -1870.391          50.000    20813754.164 7  85228822.430 7     -1457.448          47.000  
G28  22366998.031 5 117539356.215 5     -2594.230          34.000                                                                  
G19  23264121.484 7 122253791.295 7      3041.168          47.000    23264119.523 7  95262674.603 7      2369.742          45.000  
R15  20380881.602 6 108908801.613 6      1885.539          37.000    20380883.789 4  84706905.65124      1466.522          28.000  
R04  20005709.914 8 107129287.099 8     -2572.121          51.000    20005711.375 7  83322766.081 7     -2000.539          47.000  
R14  19695667.836 6 104988582.286 6     -1463.961          38.000    19695670.492 6  81657803.465 6     -1138.633          36.000  
R23  22802173.148 5 121975828.51725      1717.652          32.000                                                                  
E31  23439109.375 8 123173353.086 8      -455.668          51.000    23439112.766 8  94379593.957 8      -349.106          51.000  
E04  26406546.734 7 138767311.061 7     -2889.309          46.000    26406546.484 7 106328179.930 7     -2213.956          46.000  
E24  23206831.500 8 121952750.869 8      1964.691          51.000    23206843.781 8  93444307.314 8      1505.390          51.000  
E09  21728044.211 8 114181647.649 8      -827.285          51.000    21728046.109 8  87489824.239 8      -633.858          51.000  
C24  23232954.219 6 120980101.142 6     -1982.359          39.000                                                                  
C25  22022057.773 6 114674616.583 6       725.633          40.000                                                                  
C05                                                                  39768853.938 6 160132694.015 6        20.603          36.000  
C14                                                                  25862324.070 5 104136855.984 5     -2680.138          31.000  
C23  25291664.164 6 131700319.278 6      2555.383          39.000                                                                  
> 2020 05 10 06 03  0.0000000  0 18      -0.000000000000
G24  21660133.398 5 113824776.091 5      2268.164          34.000    21660126.961 5  88694598.509 5      1767.401          32.000  
G15  20344861.852 8 106912963.664 8      -445.391          51.000    20344860.898 8  83308809.899 8      -347.058          51.000  
G17  22694764.781 5 119261787.659 5      1360.332          35.000    22694767.367 5  92931262.837 5      1059.996          34.000  
G13  20824466.031 8 109433307.988 8     -1887.027          48.000    20824465.914 8  85272684.404 8     -1470.411          48.000  
G28  22381823.484 5 117617256.714 5     -2604.012          34.000                                                                  
G19  23246778.781 7 122162657.795 7      3029.613          47.000    23246778.031 7  95191661.466 7      2360.738          46.000  
R04  20020174.844 8 107206745.225 8     -2596.547          51.000    20020175.859 7  83383011.291 7     -2019.537          46.000  
R14  19703932.508 5 105032639.095 5     -1478.164          35.000    19703937.211 6  81692069.887 6     -1149.680          36.000  
R23  22792599.906 5 121924603.815 5      1692.594          31.000                                                                  
E31  23441729.344 8 123187121.510 8      -467.000          51.000    23441732.930 8  94390143.788 8      -357.873          51.000  
E04  26423047.469 7 138854028.735 7     -2896.645          44.000    26423049.484 7 106394625.930 7     -2219.514          46.000  
E24  23195630.023 8 121893886.430 8      1954.855          51.000    23195642.188 8  93399203.381 8      1497.823          51.000  
E09  21732796.617 8 114206619.154 8      -842.301          51.000    21732797.617 8  87508958.252 8      -645.421          51.000  
C24  23244382.273 6 121039604.603 6     -1989.211          41.000                                                                  
C25  22017893.594 6 114652938.312 6       714.875          40.000                                                                  
C05                                                                  39768694.242 6 160132050.528 6        18.528          36.000  
C14                                                                  25882289.602 5 104217248.573 5     -2682.433          32.000  
C23  25276946.172 6 131623673.568 6      2549.801          39.000                                                                  
> 2020 05 10 06 03 30.0000000  0 17      -0.000000000000
G15  20347450.391 8 106926566.657 8      -460.930          51.000    20347449.445 8  83319409.634 8      -359.166          51.000  
G17  22687034.586 6 119221183.706 6      1346.922          37.000    22687038.797 6  92899623.557 6      1049.550          37.000  
G13  20835273.234 8 109490102.079 8     -1898.770          51.000    20835273.633 8  85316939.569 8     -1479.558          49.000  
G19  23229504.211 7 122071879.980 7      3022.891          47.000    23229504.148 7  95120925.508 7      2355.500          47.000  
R15  20359872.484 5 108796599.81225      1858.953          32.000                                                                  
R04  20034776.703 8 107284938.874 8     -2615.777          51.000    20034777.109 7  83443828.573 7     -2034.491          45.000  
R14  19712279.195 6 105077129.455 6     -1487.559          40.000    19712283.523 5  81726673.650 5     -1156.993          34.000  
R23  22783162.766 4 121874124.554 4      1673.582          28.000    22783161.469 4  94791013.470 4      1301.678          25.000  
E31  23444414.914 8 123201233.433 8      -473.355          51.000    23444418.344 8  94400956.810 8      -362.701          51.000  
E04  26439589.594 7 138940965.466 7     -2898.758          43.000    26439593.539 7 106461239.777 7     -2221.139          47.000  
E24  23184485.031 8 121835319.906 8      1950.074          51.000    23184497.672 8  93354327.708 8      1494.181          51.000  
E09  21737635.328 8 114232044.753 8      -852.297          51.000    21737635.797 8  87528440.188 8      -653.065          51.000  
C24  23255852.438 6 121099326.498 6     -1991.484          38.000                                                                  
C25  22013793.625 6 114631589.241 6       708.754          40.000                                                                  
C05                                                                  39768547.008 6 160131458.050 6        21.035          36.000  
C14                                                                  25902268.852 5 104297696.881 5     -2680.823          33.000  
C23  25262263.984 6 131547214.777 6      2548.527          39.000                                                                  
> 2020 05 10 06 04  0.0000000  0 17      -0.000000000000
G24  21634301.906 5 113689018.097 5      2258.789          33.000    21634310.727 5  88588865.729 5      1760.093          33.000  
G15  20350141.148 8 106940708.229 8      -475.680          49.000    20350140.227 8  83330429.051 8      -370.660          49.000  
G17  22679396.750 6 119181051.714 6      1334.445          36.000    22679399.758 6  92868351.779 6      1039.825          36.000  
G13  20846161.664 8 109547318.528 8     -1909.707          51.000    20846161.547 8  85361523.831 8     -1488.084          49.000  
G19  23212282.922 8 121981379.958 8      3016.383          48.000    23212282.961 7  95050405.997 7      2350.429          46.000  
R04  20049499.758 8 107363782.759 8     -2634.262          51.000    20049500.117 7  83505151.591 7     -2048.874          45.000  
R14  19720691.539 6 105121969.540 6     -1496.082          41.000    19720694.477 5  81761549.140 5     -1163.623          34.000  
E31  23447150.156 8 123215606.925 8      -478.922          51.000    23447153.438 8  94411970.277 8      -366.972          51.000  
E04  26456158.961 7 139028039.046 7     -2900.211          45.000    26456163.188 7 106527958.492 7     -2222.166          47.000  
E24  23173381.523 8 121776970.553 8      1945.883          51.000    23173394.648 8  93309618.457 8      1490.996          51.000  
E01  26488580.648 5 139198400.347 5     -2471.188          33.000                                                                  
E09  21742544.828 8 114257843.356 8      -861.613          51.000    21742545.320 8  87548207.934 8      -660.227          51.000  
C24  23267347.656 6 121159185.660 6     -1992.988          36.000                                                                  
C25  22009741.406 6 114610488.813 6       703.828          40.000                                                                  
C05                                                                  39768396.938 6 160130854.500 6        23.702          36.000  
C14                                                                  25922246.672 5 104378137.335 5     -2677.803          35.000  
C23  25247602.406 6 131470862.991 6      2547.812          39.000                                                                  
> 2020 05 10 06 04 30.0000000  0 19      -0.000000000000
G24  21621463.516 5 113621557.11325      2246.051          33.000                                                                  
G15  20352948.070 8 106955460.364 8      -499.875          49.000    20352946.992 8  83341924.208 8      -389.513          49.000  
G13  20857144.406 8 109605029.479 8     -1929.801          51.000    20857143.609 8  85406493.376 8     -1503.741          49.000  
G28  22426629.727 5 117852742.118 5     -2628.988          32.000                                                                  
G19  23195129.000 8 121891233.860 8      3001.254          49.000    23195128.906 7  94980162.297 7      2338.640          46.000  
G12  24196414.828 5 127153028.654 5      3826.781          35.000    24196423.219 6  99080299.961 6      2981.899          36.000  
R15  20339152.188 5 108685860.888 5      1830.453          33.000                                                                  
R04  20064357.594 8 107443347.796 8     -2661.945          51.000    20064358.680 7  83567035.466 7     -2070.405          46.000  
R14  19729181.086 6 105167230.603 6     -1513.246          36.000    19729185.539 5  81796752.128 5     -1176.966          35.000  
E31  23449948.891 8 123230313.675 8      -493.684          51.000    23449952.047 8  94423239.087 8      -378.271          51.000  
E04  26472769.312 7 139115320.807 7     -2910.852          47.000    26472772.703 8 106594836.709 8     -2230.349          48.000  
E24  23162333.125 8 121718911.125 8      1932.613          51.000    23162346.414 8  93265131.387 8      1480.804          51.000  
E01  26502733.414 6 139272796.954 6     -2478.855          38.000                                                                  
E09  21747539.016 8 114284087.345 8      -880.121          51.000    21747539.938 8  87568316.954 8      -674.394          51.000  
C24  23278881.555 6 121219253.168 6     -2003.273          36.000                                                                  
C25  22005750.375 6 114589708.782 6       689.480          39.000                                                                  
C05                                                                  39768258.008 6 160130295.477 6        19.658          36.000  
C14                                                                  25942236.289 5 104458624.053 5     -2682.083          35.000  
C23  25232974.828 6 131394690.402 6      2538.219          38.000                                                                  
> 2020 05 10 06 05  0.0000000  0 19      -0.000000000000
G15  20355844.195 8 106970679.041 8      -519.016          51.000    20355842.617 8  83353782.912 8      -404.428          51.000  
G13  20868193.492 8 109663089.535 8     -1945.094          51.000    20868192.102 8  85451734.932 8     -1515.661          49.000  
G28  22441649.234 5 117931671.370 5     -2637.324          34.000    22441652.289 5  91894814.038 5     -2055.058          34.000  
G19  23178015.461 8 121801300.779 8      2990.113          49.000    23178015.172 7  94910084.609 7      2329.959          45.000  
G12  24174568.125 4 127038236.518 4      3821.438          29.000    24174577.500 4  98990851.495 4      2977.741          29.000  
R15  20328902.461 6 108631086.269 6      1816.281          38.000                                                                  
R04  20079322.836 8 107523484.056 8     -2684.758          51.000    20079324.273 7  83629363.642 7     -2088.145          47.000  
R14  19737723.172 6 105212764.257 6     -1526.375          41.000    19737728.398 5  81832167.265 5     -1187.181          35.000  
R23  22755613.820 5 121726800.297 5      1601.812          30.000    22755619.773 5  94676395.274 5      1245.854          30.000  
E31  23452783.523 8 123245208.424 8      -503.480          51.000    23452786.586 8  94434651.941 8      -385.808          51.000  
E04  26489392.289 8 139202665.167 8     -2916.363          49.000    26489394.531 8 106661762.882 8     -2234.683          48.000  
E24  23151312.234 8 121660997.617 8      1924.156          51.000    23151325.828 8  93220756.115 8      1474.375          51.000  
E01  26516880.891 6 139347148.560 6     -2481.934          39.000                                                                  
E09  21752590.336 8 114310632.286 8      -893.707          51.000    21752591.961 8  87588656.571 8      -684.795          51.000  
C24  23290428.977 6 121279385.091 6     -2009.211          36.000                                                                  
C25  22001792.812 6 114569105.913 6       679.918          38.000                                                                  
C05                                                                  39768102.766 6 160129669.414 6        19.162          36.000  
C14                                                                  25962209.453 5 104539044.761 5     -2682.201          31.000  
C23  25218352.570 5 131318554.334 5      2533.027          34.000                                                                  
> 2020 05 10 06 05 30.0000000  0 16      -0.000000000000
G15  20358857.391 8 106986512.604 8      -537.539          51.000    20358855.547 8  83366120.770 8      -418.862          51.000  
G17  22657056.562 5 119063632.88325      1279.254          34.000                                                                  
G13  20879336.891 8 109721646.373 8     -1959.633          51.000    20879334.992 8  85497363.590 8     -1526.990          48.000  
G28  22456727.609 5 118010908.396 5     -2645.449          34.000                                                                  
G19  23160971.125 7 121711732.395 7      2980.055          47.000    23160970.555 7  94840291.081 7      2322.121          45.000  
R15  20318739.766 5 108576774.370 5      1803.562          35.000                                                                  
R04  20094422.227 8 107604339.572 8     -2706.555          51.000    20094423.859 7  83692251.245 7     -2105.102          47.000  
R14  19746344.797 6 105258719.142 6     -1538.355          40.000    19746348.844 5  81867909.907 5     -1196.499          34.000  
E31  23455681.750 8 123260438.600 8      -512.660          51.000    23455684.883 8  94446321.820 8      -392.833          51.000  
E04  26506055.188 8 139290219.216 8     -2921.297          50.000    26506056.570 8 106728849.712 8     -2238.413          49.000  
E24  23140347.156 8 121603378.578 8      1916.316          51.000    23140361.297 8  93176606.475 8      1468.344          51.000  
E09  21757726.805 8 114337626.370 8      -906.727          51.000    21757729.398 8  87609340.331 8      -694.741          51.000  
C24  23302016.922 5 121339727.573 5     -2014.445          35.000                                                                  
C25  21997897.867 6 114548826.873 6       671.047          37.000                                                                  
C05                                                                  39767959.359 5 160129091.968 5        19.020          35.000  
C23  25203764.422 5 131242601.985 5      2528.660          33.000                                                                  
> 2020 05 10 06 06  0.0000000  0 15      -0.000000000000
G15  20361969.828 8 107002868.481 8      -554.766          50.000    20361968.078 8  83378865.597 8      -432.285          50.000  
G17  22649794.719 6 119025463.459 6      1263.668          38.000    22649788.750 6  92747099.178 6       984.671          36.000  
G13  20890556.750 8 109780606.677 8     -1972.871          51.000    20890554.844 7  85543306.641 7     -1537.306          47.000  
G28  22471846.727 5 118090358.662 5     -2652.090          35.000                                                                  
G19  23143978.914 7 121622439.374 7      2971.109          47.000    23143978.047 7  94770712.139 7      2315.154          44.000  
R04  20109637.625 8 107685817.243 8     -2727.074          51.000    20109639.258 7  83755622.742 7     -2121.058          46.000  
R14  19755027.133 6 105304999.390 6     -1548.973          40.000    19755030.109 5  81903905.653 5     -1204.757          35.000  
E31  23458626.031 8 123275910.661 8      -520.555          51.000    23458628.938 8  94458177.033 8      -398.858          51.000  
E04  26522739.680 8 139377889.075 8     -2925.031          50.000    26522740.383 8 106796025.276 8     -2241.256          48.000  
E24  23129421.109 8 121545961.627 8      1909.789          51.000    23129435.531 8  93132611.688 8      1463.253          51.000  
E09  21762931.023 8 114364976.825 8      -918.387          51.000    21762934.430 8  87630297.160 8      -703.705          51.000  
C24  23313626.703 5 121400188.179 5     -2018.254          35.000                                                                  
C25  21994048.664 6 114528779.767 6       663.531          41.000                                                                  
C05                                                                  39767810.086 5 160128491.211 5        19.770          35.000  
C23  25189194.789 5 131166741.866 5      2526.895          30.000                                                                  
> 2020 05 10 06 06 30.0000000  0 14      -0.000000000000
G15  20365191.188 8 107019796.310 8      -572.660          51.000    20365189.453 8  83392056.101 8      -446.229          51.000  
G13  20901862.281 8 109840018.995 8     -1986.930          51.000    20901861.031 7  85589601.937 7     -1548.254          47.000  
G28  22487015.477 5 118170069.708 5     -2660.281          35.000                                                                  
G19  23127049.180 7 121533474.992 7      2961.031          46.000    23127047.797 7  94701389.262 7      2307.301          43.000  
R04  20124977.586 8 107767964.916 8     -2748.375          49.000    20124979.195 7  83819515.363 7     -2137.628          46.000  
R14  19763779.672 6 105351653.722 6     -1560.109          39.000    19763782.406 5  81940192.368 5     -1213.419          35.000  
E31  23461625.664 8 123291673.666 8      -529.242          51.000    23461628.203 8  94470255.180 8      -405.547          51.000  
E04  26539455.062 8 139465723.450 8     -2929.523          50.000    26539455.391 8 106863326.921 8     -2244.680          48.000  
E24  23118543.344 8 121488796.927 8      1902.340          51.000    23118558.008 8  93088810.177 8      1457.608          51.000  
E09  21768212.797 8 114392733.440 8      -930.973          51.000    21768216.508 8  87651565.210 8      -713.331          51.000  
C24  23325268.961 5 121460815.364 5     -2022.387          34.000                                                                  
C25  21990253.922 6 114509013.871 6       655.324          41.000                                                                  
C05                                                                  39767664.562 5 160127905.451 5        20.014          35.000  
C23  25174653.273 4 131091023.895 4      2522.422          29.000                                                                  
> 2020 05 10 06 07  0.0000000  0 14      -0.000000000000
G15  20368506.883 8 107037219.342 8      -590.027          51.000    20368505.258 8  83405632.481 8      -459.759          51.000  
G17  22635548.562 5 118950592.382 5      1232.117          34.000    22635558.516 5  92688840.998 5       960.089          33.000  
G13  20913239.055 8 109899806.570 8     -2000.195          51.000    20913238.414 7  85636189.656 7     -1558.591          47.000  
G19  23110168.016 7 121444765.883 7      2951.688          46.000    23110166.352 7  94632265.311 7      2300.020          43.000  
R04  20140426.742 8 107850701.281 8     -2768.770          48.000    20140429.523 7  83883865.857 7     -2153.488          46.000  
R14  19772587.258 6 105398602.067 6     -1570.965          36.000    19772590.609 5  81976707.740 5     -1221.859          35.000  
E31  23464665.578 8 123307649.907 8      -537.094          51.000    23464668.102 8  94482496.726 8      -411.585          51.000  
E04  26556186.570 8 139553644.304 8     -2933.152          50.000    26556186.914 7 106930694.815 7     -2247.446          47.000  
E24  23107698.750 8 121431807.941 8      1895.641          51.000    23107713.750 8  93045143.299 8      1452.544          51.000  
E09  21773557.219 8 114420819.244 8      -942.680          51.000    21773561.023 8  87673085.497 8      -722.304          51.000  
C24  23336928.555 6 121521532.438 6     -2026.453          37.000                                                                  
C25  21986497.859 7 114489452.884 7       647.723          42.000                                                                  
C05                                                                  39767508.102 5 160127274.834 5        21.014          35.000  
C23  25160123.633 4 131015372.176 4      2519.875          29.000                                                                  
> 2020 05 10 06 07 30.0000000  0 16      -0.000000000000
G15  20371937.453 8 107055245.664 8      -612.309          51.000    20371935.828 8  83419678.968 8      -477.124          51.000  
G17  22628561.805 5 118913901.82725      1211.023          30.000    22628562.914 5  92660188.38525       943.655          30.000  
G13  20924707.773 8 109960076.325 8     -2018.414          51.000    20924707.328 8  85683153.118 8     -1572.791          48.000  
G19  23093356.656 7 121356423.641 7      2937.316          43.000    23093355.242 7  94563427.220 7      2288.822          43.000  
R15  20278811.820 5 108363434.912 5      1748.719          33.000                                                                  
R04  20156006.680 8 107934133.333 8     -2794.035          50.000    20156009.891 7  83948757.448 7     -2173.139          45.000  
R14  19781469.102 6 105445952.378 6     -1586.738          38.000    19781474.953 5  82013535.701 5     -1234.127          35.000  
R23  22712281.508 5 121494958.670 5      1484.281          30.000    22712289.586 4  94496133.664 4      1154.444          28.000  
E31  23467766.609 8 123323946.547 8      -549.926          51.000    23467769.164 8  94494983.758 8      -421.414          51.000  
E04  26572954.492 8 139641758.424 8     -2941.723          49.000    26572954.758 7 106998210.794 7     -2254.049          45.000  
E24  23096907.836 8 121375103.006 8      1884.008          51.000    23096923.203 8  93001694.061 8      1443.597          51.000  
E09  21778984.633 8 114449342.170 8      -959.516          51.000    21778988.617 8  87694940.711 8      -735.184          51.000  
C24  23348627.164 5 121582445.567 5     -2034.953          34.000                                                                  
C25  21982801.086 6 114470203.722 6       635.176          41.000                                                                  
C05                                                                  39767361.297 6 160126684.218 6        17.879          36.000  
C23  25145626.641 5 130939894.258 5      2512.250          30.000                                                                  
> 2020 05 10 06 08  0.0000000  0 14      -0.000000000000
G15  20375478.172 8 107073850.999 8      -619.043          51.000    20375476.625 8  83434176.619 8      -482.371          51.000  
G13  20936263.648 8 110020803.364 8     -2021.055          51.000    20936263.453 8  85730472.870 8     -1574.848          49.000  
G19  23076611.250 7 121268427.356 7      2938.230          45.000    23076610.242 7  94494858.713 7      2289.531          42.000  
R04  20171712.523 8 108018233.635 8     -2803.453          51.000    20171715.078 7  84014168.778 7     -2180.467          45.000  
R14  19790422.250 6 105493678.150 6     -1586.121          37.000    19790428.328 5  82050655.824 5     -1233.647          33.000  
R23  22704017.500 5 121450730.466 5      1473.238          34.000    22704026.062 4  94461755.59824      1145.852          29.000  
E31  23470924.047 8 123340538.668 8      -547.184          51.000    23470926.758 8  94507697.189 8      -419.232          51.000  
E04  26589753.984 7 139730040.528 7     -2934.641          46.000    26589754.078 7 107065855.496 7     -2248.685          42.000  
E24  23086166.297 8 121318658.298 8      1887.977          51.000    23086181.516 8  92958444.208 8      1446.623          51.000  
E09  21784490.727 8 114478277.946 8      -960.559          51.000    21784494.648 8  87717112.273 8      -736.016          51.000  
C24  23360358.547 6 121643530.102 6     -2028.676          38.000                                                                  
C25  21979159.906 7 114451242.348 7       637.926          42.000                                                                  
C05                                                                  39767219.781 5 160126114.177 5        27.258          35.000  
C23  25131160.188 4 130864545.51924      2519.199          27.000                                                                  
> 2020 05 10 06 08 30.0000000  0 16      -0.000000000000
G15  20379088.266 8 107092822.033 8      -638.117          51.000    20379086.977 8  83448959.234 8      -497.234          51.000  
G13  20947865.977 8 110081773.343 8     -2035.965          51.000    20947865.492 8  85777981.923 8     -1586.470          49.000  
G19  23059892.352 7 121180567.184 7      2926.793          47.000    23059890.641 6  94426396.209 6      2280.619          41.000  
R15  20259265.656 4 108259018.962 4      1732.773          28.000                                                                  
R04  20187502.172 8 108102781.755 8     -2825.297          50.000    20187503.492 7  84079928.374 7     -2197.457          45.000  
R14  19799405.453 6 105541561.210 6     -1598.133          37.000    19799410.312 5  82087898.207 5     -1242.992          33.000  
R23  22695848.172 5 121407024.719 5      1449.113          35.000    22695852.219 4  94427762.209 4      1127.085          28.000  
E31  23474096.820 8 123357211.948 8      -556.746          51.000    23474099.891 8  94520472.817 8      -426.568          51.000  
E04  26606543.961 7 139818275.956 7     -2940.035          44.000    26606542.148 5 107133464.371 5     -2252.364          35.000  
E24  23075434.070 8 121262260.631 8      1879.609          51.000    23075448.609 8  92915230.406 8      1440.212          51.000  
E01  26616278.242 6 139869480.534 6     -2486.277          36.000                                                                  
E09  21790035.062 8 114507413.022 8      -974.055          51.000    21790038.398 8  87739436.558 8      -746.345          51.000  
C24  23372082.422 6 121704573.870 6     -2033.906          37.000                                                                  
C25  21975533.703 7 114432357.087 7       628.660          42.000                                                                  
C05                                                                  39767042.711 6 160125401.324 6        26.436          36.000  
C23  25116697.273 5 130789223.831 5      2514.223          31.000                                                                  
> 2020 05 10 06 09  0.0000000  0 16      -0.000000000000
G15  20382819.320 8 107112428.737 8      -665.363          51.000    20382817.977 8  83464237.167 8      -518.465          51.000  
G13  20959565.969 8 110143255.869 8     -2059.227          51.000    20959564.852 8  85825890.379 8     -1604.593          49.000  
G19  23043251.648 8 121093116.717 8      2906.883          48.000    23043249.180 7  94358252.978 7      2265.104          42.000  
R15  20249606.961 6 108207409.624 6      1711.207          36.000    20249619.742 4  84161353.589 4      1330.933          26.000  
R04  20203426.305 8 108188049.879 8     -2855.559          51.000    20203426.844 7  84146248.006 7     -2220.990          47.000  
R14  19808469.406 6 105589873.805 6     -1618.711          40.000    19808474.359 5  82125474.685 5     -1258.995          33.000  
R23  22687829.820 6 121364113.317 6      1416.062          39.000    22687830.195 4  94394381.630 4      1101.382          24.000  
E31  23477336.461 8 123374235.879 8      -574.578          51.000    23477339.445 8  94533517.122 8      -440.234          51.000  
E04  26623375.227 7 139906733.862 7     -2953.645          43.000    26623366.633 5 107201268.687 5     -2263.429          32.000  
E24  23064762.617 8 121206180.619 8      1862.766          51.000    23064776.523 8  92872260.003 8      1427.354          51.000  
E01  26630515.422 6 139944291.057 6     -2497.680          36.000    26630518.422 5 107230055.566 5     -1913.820          32.000  
E09  21795668.695 8 114537017.598 8      -995.906          51.000    21795671.461 8  87762120.590 8      -763.094          51.000  
C24  23383849.992 5 121765843.979 5     -2047.625          33.000                                                                  
C25  21971973.328 7 114413815.666 7       611.148          43.000                                                                  
C05                                                                  39766881.648 5 160124752.782 5        19.480          35.000  
C23  25102259.570 5 130714042.307 5      2501.629          34.000                                                                  
> 2020 05 10 06 09 30.0000000  0 15      -0.000000000000
G15  20386666.750 8 107132646.591 8      -682.809          51.000    20386665.227 8  83479991.333 8      -532.059          51.000  
G13  20971358.531 8 110205225.457 8     -2072.473          51.000    20971357.031 8  85874178.349 8     -1614.914          48.000  
G19  23026684.898 7 121006054.928 7      2896.809          46.000    23026682.078 7  94290412.663 7      2257.257          42.000  
R04  20219479.195 8 108274010.100 8     -2875.523          51.000    20219479.883 7  84213105.941 7     -2236.519          47.000  
R14  19817609.445 6 105638589.089 6     -1629.145          41.000    19817612.695 5  82163364.363 5     -1267.116          32.000  
R23  22679950.734 5 121321973.766 5      1393.508          31.000                                                                  
E31  23480638.039 8 123391584.945 8      -582.449          51.000    23480640.680 8  94546810.559 8      -446.305          51.000  
E04  26640244.492 7 139995388.433 7     -2957.102          44.000    26640236.289 5 107269198.642 5     -2265.593          35.000  
E24  23054147.109 8 121150393.879 8      1855.953          51.000    23054160.289 8  92829514.335 8      1422.062          51.000  
E01  26644773.062 5 140019226.688 5     -2498.129          33.000    26644781.297 5 107287466.907 5     -1914.119          32.000  
E09  21801386.703 8 114567066.881 8     -1007.844          51.000    21801389.234 8  87785145.353 8      -772.217          51.000  
C24  23395655.273 6 121827315.328 6     -2050.996          36.000                                                                  
C25  21968474.070 7 114395593.537 7       603.402          44.000                                                                  
C05                                                                  39766731.773 5 160124148.796 5        20.310          35.000  
C23  25087853.992 5 130639043.954 5      2498.344          34.000                                                                  
> 2020 05 10 06 10  0.0000000  0 15      -0.000000000000
G15  20390624.281 8 107153443.276 8      -709.285          51.000    20390622.617 8  83496196.539 8      -552.690          51.000  
G13  20983237.359 8 110267649.312 8     -2094.691          51.000    20983235.492 8  85922820.305 8     -1632.228          48.000  
G19  23010186.414 7 120919353.098 7      2877.684          45.000    23010183.375 7  94222852.828 7      2242.352          44.000  
R04  20235653.945 8 108360626.514 8     -2904.641          51.000    20235654.875 7  84280474.242 7     -2259.165          47.000  
R14  19826817.406 6 105687672.817 6     -1648.980          39.000    19826820.234 5  82201540.588 5     -1282.541          32.000  
R23  22672212.734 5 121280576.026 5      1361.469          35.000                                                                  
E31  23483994.914 8 123409226.279 8      -599.332          50.000    23483997.867 8  94560327.936 8      -459.199          51.000  
E04  26657145.844 7 140084206.410 7     -2969.680          44.000    26657143.883 6 107337253.916 6     -2275.629          41.000  
E24  23043581.242 8 121094868.658 8      1840.070          51.000    23043593.789 8  92786969.061 8      1409.880          51.000  
E01  26659045.070 5 140094226.569 5     -2508.324          32.000    26659055.672 5 107344969.921 5     -1921.778          30.000  
E09  21807183.406 8 114597528.610 8     -1028.715          51.000    21807185.539 8  87808486.151 8      -788.201          51.000  
C24  23407492.172 6 121888955.552 6     -2063.469          36.000                                                                  
C25  21965030.414 7 114377658.830 7       586.852          45.000                                                                  
C05                                                                  39766587.156 5 160123566.832 5        14.447          35.000  
C23  25073474.609 4 130564197.579 4      2485.918          28.000                                                                  
> 2020 05 10 06 10 30.0000000  0 14      -0.000000000000
G15  20394683.523 8 107174775.538 8      -724.520          51.000    20394681.969 8  83512819.067 8      -564.564          51.000  
G17  22588664.984 5 118704235.609 5      1108.820          34.000    22588665.281 5  92496816.465 5       864.019          33.000  
G13  20995194.148 8 110330483.284 8     -2105.723          51.000    20995191.984 7  85971781.849 7     -1640.823          47.000  
G19  22993748.484 7 120832971.213 7      2869.508          44.000    22993745.828 7  94155542.304 7      2235.981          44.000  
G12  23936093.062 6 125785009.362 6      3765.594          39.000    23936090.812 4  98014299.142 4      2934.230          29.000  
R04  20251942.375 8 108447851.983 8     -2922.277          51.000    20251943.227 7  84348316.266 7     -2272.883          46.000  
R14  19836085.414 6 105737079.026 6     -1657.023          37.000    19836088.258 4  82239967.693 4     -1288.793          28.000  
E31  23487398.828 8 123427115.754 8      -604.973          50.000    23487402.445 8  94574035.446 8      -463.551          51.000  
E04  26674070.375 7 140173143.369 7     -2971.027          44.000    26674073.062 7 107405400.342 7     -2276.572          45.000  
E24  23033056.828 8 121039561.986 8      1835.449          51.000    23033068.422 8  92744591.222 8      1406.351          51.000  
E09  21813050.516 8 114628359.380 8     -1038.359          51.000    21813052.156 8  87832109.728 8      -795.603          51.000  
C24  23419352.836 6 121950720.804 6     -2065.426          36.000                                                                  
C25  21961633.977 7 114359968.557 7       581.156          44.000                                                                  
C05                                                                  39766439.539 5 160122972.834 5        16.797          35.000  
> 2020 05 10 06 11  0.0000000  0 17      -0.000000000000
G15  20398856.656 8 107196706.256 8      -739.277          51.000    20398855.414 8  83529907.929 8      -576.060          51.000  
G13  21007240.789 8 110393789.757 8     -2116.379          51.000    21007238.516 7  86021111.570 7     -1649.127          45.000  
G28  22625473.297 5 118897664.378 5     -2730.566          34.000                                                                  
G19  22977383.789 7 120746975.926 7      2861.672          44.000    22977382.109 7  94088533.001 7      2229.875          44.000  
G12  23914597.414 6 125672045.093 6      3763.582          40.000    23914588.594 4  97926275.218 4      2932.674          28.000  
R04  20268356.211 8 108535747.596 8     -2939.191          51.000    20268356.773 7  84416679.525 7     -2286.038          46.000  
R14  19845426.297 5 105786869.943 5     -1664.457          34.000    19845421.000 4  82278682.92524     -1294.578          26.000  
R23  22657131.359 5 121200000.601 5      1320.062          30.000                                                                  
E31  23490861.867 8 123445315.605 8      -610.043          50.000    23490865.719 8  94587980.769 8      -467.484          51.000  
E04  26691029.680 7 140262261.111 7     -2971.832          44.000    26691034.188 7 107473685.324 7     -2277.113          46.000  
E24  23022585.977 8 120984537.215 8      1831.129          51.000    23022597.242 8  92702429.388 8      1403.083          51.000  
E01  26687623.836 5 140244408.452 5     -2504.777          33.000                                                                  
E09  21818999.867 8 114659622.091 8     -1047.578          51.000    21819001.305 8  87856064.257 8      -802.720          51.000  
C24  23431249.516 5 122012673.107 5     -2066.641          34.000                                                                  
C25  21958295.961 7 114342584.979 7       576.102          45.000                                                                  
C05                                                                  39766301.109 5 160122415.264 5        19.594          35.000  
C23  25044799.602 5 130414846.718 5      2484.457          30.000                                                                  
> 2020 05 10 06 11 30.0000000  0 17      -0.000000000000
G15  20403119.484 8 107219107.687 8      -755.621          51.000    20403118.336 8  83547363.587 8      -588.796          51.000  
G13  21019353.109 8 110457440.220 8     -2128.473          51.000    21019350.625 7  86070709.321 7     -1658.551          44.000  
G28  22641069.742 5 118979623.53825     -2735.199          33.000                                                                  
G19  22961069.039 7 120661243.015 7      2852.371          45.000    22961068.305 7  94021728.117 7      2222.627          43.000  
G12  23893116.672 6 125559158.148 6      3760.383          41.000    23893104.891 4  97838311.368 4      2930.172          29.000  
R15  20202519.531 5 107955717.89625      1646.195          30.000                                                                  
R04  20284870.289 8 108624180.124 8     -2957.688          50.000    20284870.945 7  84485460.372 7     -2300.424          47.000  
R14  19854813.641 6 105836914.492 6     -1673.410          36.000    19854820.555 5  82317615.294 5     -1301.542          31.000  
E31  23494359.562 8 123463697.334 8      -616.809          50.000    23494363.141 8  94602065.452 8      -472.578          51.000  
E04  26707999.133 7 140351430.852 7     -2974.137          43.000    26708003.516 7 107542010.155 7     -2278.891          47.000  
E24  23012144.359 8 120929666.922 8      1825.410          51.000    23012156.258 8  92660385.948 8      1398.698          51.000  
E01  26701920.641 5 140319534.075 5     -2504.555          33.000                                                                  
E09  21825006.977 8 114691188.961 8     -1058.273          51.000    21825008.555 8  87880251.829 8      -810.915          51.000  
C24  23443157.773 5 122074685.297 5     -2069.184          32.000                                                                  
C25  21954992.203 7 114325381.587 7       569.430          45.000                                                                  
C05                                                                  39766147.328 5 160121796.379 5        20.461          35.000  
C23  25030488.078 5 130340327.960 5      2482.754          33.000                                                                  
> 2020 05 10 06 12  0.0000000  0 16      -0.000000000000
G15  20407476.211 8 107242002.404 8      -769.121          51.000    20407475.164 8  83565203.626 8      -599.315          51.000  
G13  21031535.195 8 110521456.700 8     -2137.719          51.000    21031532.391 7  86120592.247 7     -1665.758          43.000  
G19  22944809.648 7 120575798.709 7      2845.555          45.000    22944809.227 7  93955148.121 7      2217.316          43.000  
G12  23871655.141 6 125446373.930 6      3759.980          40.000    23871642.117 3  97750427.632 3      2929.859          22.000  
R04  20301489.133 8 108713169.756 8     -2973.340          51.000    20301489.445 7  84554674.501 7     -2312.598          47.000  
R14  19864253.516 6 105887233.604 6     -1679.777          37.000    19864262.141 5  82356752.466 5     -1306.494          33.000  
R23  22642569.219 6 121122088.318 6      1278.285          36.000                                                                  
E31  23497896.164 8 123482282.875 8      -620.656          51.000    23497899.656 8  94616306.316 8      -475.583          51.000  
E04  26724982.617 6 140440674.110 6     -2973.617          41.000    26724985.914 7 107610391.315 7     -2278.544          47.000  
E24  23001736.266 8 120874974.201 8      1822.395          51.000    23001749.680 8  92618478.546 8      1396.366          51.000  
E01  26716216.602 5 140394662.186 5     -2501.348          33.000                                                                  
E09  21831076.336 8 114723082.539 8     -1066.312          51.000    21831077.758 8  87904689.744 8      -817.042          51.000  
C24  23455081.695 6 122136779.074 6     -2068.539          37.000                                                                  
C25  21951727.648 7 114308380.826 7       565.641          47.000                                                                  
C05                                                                  39765982.828 5 160121133.662 5        24.596          34.000  
C23  25016192.078 5 130265878.239 5      2482.531          31.000                                                                  
> 2020 05 10 06 12 30.0000000  0 17      -0.000000000000
G15  20411945.398 8 107265488.620 8      -793.121          51.000    20411944.680 8  83583504.560 8      -618.017          51.000  
G17  22564002.141 5 118574655.151 5      1045.051          35.000    22564010.469 5  92395839.837 5       814.319          34.000  
G13  21043805.406 8 110585936.383 8     -2157.391          51.000    21043802.352 7  86170836.074 7     -1681.087          44.000  
G19  22928624.594 7 120490744.620 7      2828.152          45.000    22928623.961 7  93888872.242 7      2203.756          42.000  
G12  23850231.750 6 125333792.454 6      3749.375          38.000    23850222.180 4  97662670.952 4      2921.601          29.000  
R04  20318229.656 8 108802813.393 8     -2999.320          51.000    20318229.977 7  84624397.297 7     -2332.805          47.000  
R14  19873762.719 6 105937925.576 6     -1696.566          37.000    19873770.008 5  82396179.497 5     -1319.552          34.000  
R23  22635496.438 6 121084234.055 6      1248.777          37.000                                                                  
E31  23501490.305 8 123501169.768 8      -634.934          51.000    23501494.141 8  94630778.097 8      -486.484          51.000  
E04  26741998.367 6 140530088.133 6     -2983.516          41.000    26742000.523 8 107678903.325 8     -2286.114          48.000  
