     3.02           OBSERVATION DATA    M (MIXED)           RINEX VERSION / TYPE
SAVERINEX           SC600               20200511 165931 LCL PGM / RUN BY / DATE
       G = GPS       R = GLONASS       C = COMPASS          COMMENT
       S = SBAS      J = QZSS          E = GALILEO          COMMENT
BEAN                                                        MARKER NAME
1                                                           MARKER NUMBER
GEODETIC                                                    MARKER TYPE
Unige DICCA         GTER                                    OBSERVER / AGENCY
SC60291900056       SC600               2.12(191226)        REC # / TYPE / VERS
                    HEMA45          NONE                    ANT # / TYPE
  4509407.8091   693652.4678  4442337.6214                  APPROX POSITION XYZ
        0.0000        0.0000        0.0000                  ANTENNA: DELTA H/E/N
G    8 C1C L1C D1C S1C C2Y L2Y D2Y S2Y                      SYS / # / OBS TYPES
R    8 C1C L1C D1C S1C C2P L2P D2P S2P                      SYS / # / OBS TYPES
C    4 C1I L1I D1I S1I                                      SYS / # / OBS TYPES
E    8 C1C L1C D1C S1C C7Q L7Q D7Q S7Q                      SYS / # / OBS TYPES
DBHZ                                                        COMMENT
     30.000                                                 INTERVAL
  2020    05    11    14    00    0.0000000     GPS         TIME OF FIRST OBS
  2020    05    11    14    59   30.0000000     GPS         TIME OF LAST OBS
     0                                                      RCV CLOCK OFFS APPL
G L1C  0.00000                                              SYS / PHASE SHIFT
G L2Y  0.00000                                              SYS / PHASE SHIFT
R L1C  0.00000                                              SYS / PHASE SHIFT
R L2P  0.25000                                              SYS / PHASE SHIFT
C L1I  0.00000                                              SYS / PHASE SHIFT
E L1C  0.50000                                              SYS / PHASE SHIFT
E L7Q -0.25000                                              SYS / PHASE SHIFT
 13 R04  6 R05  1 R06 -4 R07  5 R09 -2 R10 -5 R11  0 R12 -1 GLONASS SLOT / FRQ #
    R16 -1 R19  3 R20  2 R21  4 R22 -3                      GLONASS SLOT / FRQ #
 C1C   71.950 C2C   71.950 C2P   71.950                     GLONASS COD/PHS/BIS
    18                                                      LEAP SECONDS
*** Above antenna height is from mark to ANTENNA BOTTOM.    COMMENT
    17     4        0.0000        ANT MEASURE TYPE/HEIGT    COMMENT
    0.0000    0.0000    0.0458    0.0405    0.0000          COMMENT
                    BASE STATION                            COMMENT
                                                            END OF HEADER
> 2020 05 11 14 00  0.0000000  0 17        .000000000000
G18  20521930.383 8 107843502.033 8     -1104.078          51.000    20521930.758 8  84033912.562 8      -860.321          50.000
G20  22493984.414 7 118206703.405 7      2815.750          45.000    22493986.219 7  92109113.714 7      2194.091          45.000
G21  20909709.359 8 109881293.416 8     -1098.340          50.000    20909708.664 8  85621785.828 8      -855.849          50.000
G26  20272602.219 8 106533235.053 8       -51.637          51.000    20272604.000 8  83012895.365 8       -40.236          51.000
G29  23292341.055 5 122402103.524 5     -2758.922          35.000    23292333.523 5  95378210.913 5     -2149.809          34.000
R11  19986648.109 8 106802575.352 8     -2494.699          51.000    19986651.133 8  83068674.343 8     -1940.325          49.000
R21  19853240.672 6 106238686.382 6     -1599.598          36.000    19853248.438 5  82630086.644 5     -1244.128          31.000
R22  20437792.398 4 109098309.526 4      1884.125          27.000
C05  39616876.664 5 206295472.253 5        12.816          34.000
C23  24935521.875 6 129845777.411 6     -3290.258          39.000
C27  24191379.883 5 125970874.659 5      2381.418          34.000
C28  21565141.875 8 112295498.855 8       173.164          48.000
E11  26238410.047 6 137883784.262 6      2581.957          37.000    26238410.570 7 105651218.295 7      1978.278          44.000
E12  21755843.250 8 114327772.323 8       811.547          48.000    21755844.492 8  87601750.481 8       621.769          51.000
E24  22136937.086 6 116330388.985 6       644.992          37.000    22136954.914 6  89136332.673 6       494.167          41.000
E31  24512091.914 8 128811935.947 8     -2114.691          50.000    24512095.914 8  98700044.835 8     -1620.339          51.000
E33  24430506.992 8 128383224.629 8     -1696.234          51.000    24430508.336 8  98371537.380 8     -1299.709          51.000
> 2020 05 11 14 00 30.0000000  0 17        .000000000000
G18  20528304.727 8 107876999.505 8     -1123.996          51.000    20528305.352 8  84060014.500 8      -875.841          51.000
G20  22477962.273 7 118122512.348 7      2801.883          43.000    22477965.086 7  92043510.273 7      2183.282          43.000
G21  20916040.992 8 109914566.225 8     -1114.730          50.000    20916040.227 8  85647712.680 8      -868.621          50.000
G26  20272972.172 8 106535179.611 8       -72.844          51.000    20272973.984 8  83014410.581 8       -56.764          51.000
G31  23845001.391 6 125306319.457 6     -3285.781          39.000    23844997.148 6  97641276.056 6     -2560.355          38.000
R05  22952525.484 6 122694412.645 6       702.820          36.000    22952533.109 5  95429004.379 5       546.638          34.000
R11  20000743.047 8 106877891.530 8     -2521.086          51.000    20000745.812 8  83127253.550 8     -1960.845          49.000
R21  19862267.016 6 106286983.969 6     -1614.793          36.000    19862279.836 5  82667651.538 5     -1255.944          32.000
C05  39616830.102 5 206295229.339 5         8.656          34.000
C23  24954514.430 6 129944682.994 6     -3298.594          37.000
C27  24177699.531 6 125899638.826 6      2372.582          36.000
C28  21564195.945 7 112290572.096 7       160.441          47.000
E11  26223707.789 6 137806524.559 6      2573.633          39.000    26223708.875 7 105592019.379 7      1972.016          44.000
E12  21751263.672 8 114303704.132 8       798.164          49.000    21751264.414 8  87583308.610 8       611.550          51.000
E24  22133317.055 6 116311363.086 6       628.250          39.000    22133334.031 6  89121754.384 6       481.581          41.000
E31  24524219.016 8 128875664.337 8     -2128.805          51.000    24524222.391 8  98748875.637 8     -1631.105          51.000
E33  24440232.469 8 128434332.417 8     -1705.938          51.000    24440234.164 8  98410697.876 8     -1307.147          51.000
> 2020 05 11 14 01  0.0000000  0 18        .000000000000
G18  20534769.242 8 107910970.897 8     -1142.891          51.000    20534769.961 8  84086485.711 8      -890.564          51.000
G20  22461996.195 6 118038612.864 6      2789.164          41.000    22461999.242 6  91978134.043 6      2173.375          41.000
G21  20922442.188 8 109948204.615 8     -1129.945          50.000    20922441.383 8  85673924.413 8      -880.477          50.000
G26  20273439.469 8 106537634.839 8       -92.965          51.000    20273441.133 8  83016323.746 8       -72.440          51.000
G31  23863775.000 6 125404965.834 6     -3292.594          40.000    23863767.266 6  97718143.236 6     -2565.664          36.000
R05  22948647.039 4 122673697.090 4       676.340          29.000    22948656.727 5  95412892.273 5       526.042          33.000
R11  20014960.742 8 106953868.833 8     -2546.160          51.000    20014964.297 8  83186346.998 8     -1980.347          49.000
R21  19871355.258 5 106335614.572 5     -1629.250          35.000    19871363.820 4  82705475.312 4     -1267.191          29.000
R22  20416831.125 5 108986405.093 5      1850.445          34.000    20416826.953 5  84767204.523 5      1439.235          31.000
C05  39616781.523 5 206294976.070 5         6.211          34.000
C23  24973530.391 6 130043707.820 6     -3305.387          37.000
C27  24164046.320 6 125828542.379 6      2365.230          37.000
C28  21563298.836 8 112285899.887 8       149.000          48.000
E11  26209028.398 6 137729384.864 6      2566.789          41.000    26209029.789 7 105532912.411 7      1966.820          44.000
E12  21746736.195 8 114279909.160 8       786.008          49.000    21746736.258 8  87565076.103 8       602.320          51.000
E24  22129768.180 6 116292711.700 6       612.789          39.000    22129784.562 6  89107463.069 6       469.641          41.000
E31  24536402.539 8 128939687.009 8     -2141.555          51.000    24536405.398 8  98797931.943 8     -1640.970          51.000
E33  24449989.484 8 128485605.693 8     -1714.426          51.000    24449991.055 8  98449985.172 8     -1313.636          51.000
> 2020 05 11 14 01 30.0000000  0 16        .000000000000
G18  20541340.516 8 107945502.826 8     -1157.668          51.000    20541341.156 8  84113393.707 8      -902.079          51.000
G20  22446103.711 6 117955096.058 6      2780.348          41.000    22446106.047 6  91913056.049 6      2166.505          41.000
G21  20928929.445 8 109982295.439 8     -1141.031          51.000    20928928.773 8  85700488.693 8      -889.115          50.000
G26  20274020.891 8 106540689.723 8      -109.043          51.000    20274022.438 8  83018704.163 8       -84.969          51.000
G31  23882583.094 6 125503799.426 6     -3294.621          39.000    23882574.938 5  97795156.287 5     -2567.234          32.000
R11  20029318.430 8 107030594.179 8     -2567.109          50.000    20029322.797 8  83246022.273 8     -1996.641          49.000
R21  19880522.586 5 106384666.146 5     -1639.473          34.000    19880523.875 5  82743626.450 5     -1275.145          30.000
C05  39616747.656 5 206294800.173 5         7.195          34.000
C23  24992586.602 5 130142937.344 5     -3308.027          34.000
C27  24150436.625 6 125757673.114 6      2361.281          37.000
C28  21562467.477 8 112281569.344 8       141.508          48.000
E11  26194388.992 6 137652453.990 6      2563.836          41.000    26194390.039 7 105473965.474 7      1964.441          44.000
E12  21742277.367 8 114256475.453 8       777.992          48.000    21742276.742 8  87547120.435 8       596.031          51.000
E24  22126307.367 6 116274524.030 6       601.457          39.000    22126323.648 6  89093527.071 6       460.659          41.000
E31  24548658.680 8 129004091.402 8     -2150.332          51.000    24548661.203 8  98847280.724 8     -1647.657          51.000
E33  24459794.547 8 128537131.591 8     -1718.906          51.000    24459795.727 8  98489466.032 8     -1317.066          51.000
> 2020 05 11 14 02  0.0000000  0 16        .000000000000
G18  20547995.367 8 107980473.522 8     -1174.102          51.000    20547996.086 8  84140643.604 8      -914.881          51.000
G20  22430262.188 7 117871844.357 7      2769.605          44.000    22430263.375 7  91848184.643 7      2158.137          44.000
G21  20935479.656 8 110016716.832 8     -1154.012          51.000    20935478.953 8  85727310.566 8      -899.230          51.000
G26  20274693.570 8 106544224.643 8      -127.000          51.000    20274695.297 8  83021458.646 8       -98.961          51.000
G31  23901402.828 6 125602697.215 6     -3298.465          38.000    23901396.352 5  97872221.287 5     -2570.220          30.000
R11  20043792.484 8 107107942.891 8     -2589.789          50.000    20043797.984 8  83306182.340 8     -2014.283          48.000
R21  19889744.961 5 106434014.330 5     -1650.254          30.000    19889745.516 4  82782008.381 4     -1283.525          28.000
C05  39616705.891 5 206294582.401 5         7.129          34.000
C23  25011659.625 5 130242250.278 5     -3312.562          35.000
C27  24136847.969 6 125686912.212 6      2355.922          36.000
C28  21561678.781 8 112277461.005 8       132.227          49.000
E11  26179766.922 6 137575612.334 6      2558.500          41.000    26179767.016 7 105415086.877 7      1960.481          45.000
E12  21737863.914 7 114233282.572 7       768.004          47.000    21737862.805 8  87529349.286 8       588.435          51.000
E24  22122912.242 6 116256681.031 6       587.895          40.000    22122927.188 7  89079855.126 7       450.483          42.000
E31  24560964.203 8 129068756.448 8     -2161.008          51.000    24560966.984 8  98896829.219 8     -1655.804          51.000
E33  24469624.617 8 128588788.864 8     -1725.246          51.000    24469625.523 8  98529047.558 8     -1321.927          51.000
> 2020 05 11 14 02 30.0000000  0 17        .000000000000
G18  20554741.430 8 108015923.598 8     -1185.480          51.000    20554741.992 8  84168267.052 8      -923.751          51.000
G20  22414479.633 7 117788902.946 7      2763.695          47.000    22414480.617 7  91783555.037 7      2153.532          45.000
G21  20942100.508 8 110051509.244 8     -1161.703          51.000    20942099.445 8  85754421.530 8      -905.223          50.000
G26  20275465.805 8 106548282.518 8      -139.809          51.000    20275467.562 8  83024620.607 8      -108.945          51.000
G29  23371468.594 5 122817889.362 5     -2776.367          33.000
G31  23920241.453 6 125701698.645 6     -3297.305          37.000
R11  20058391.445 8 107185954.970 8     -2607.152          51.000    20058396.961 8  83366858.347 8     -2027.788          48.000
R21  19899028.055 5 106483700.183 5     -1657.094          32.000    19899030.523 5  82820652.974 5     -1288.851          30.000
C05  39616664.008 5 206294364.952 5        11.277          34.000
C23  25030757.242 5 130341686.323 5     -3312.195          32.000
C27  24123287.898 5 125616301.950 5      2354.594          31.000
C28  21560940.531 8 112273616.372 8       127.836          49.000
E11  26165170.023 6 137498902.793 6      2558.738          41.000    26165169.102 7 105356309.523 7      1960.601          45.000
E12  21733503.922 7 114210372.463 7       763.188          47.000    21733502.688 8  87511794.779 8       584.756          51.000
E24  22119591.203 6 116239225.828 6       579.754          41.000    22119604.445 7  89066480.372 7       444.200          42.000
E31  24573326.961 8 129133723.446 8     -2166.359          51.000    24573330.367 8  98946609.079 8     -1659.917          51.000
E33  24479487.562 8 128640618.627 8     -1726.250          51.000    24479488.438 8  98568761.256 8     -1322.708          51.000
> 2020 05 11 14 03  0.0000000  0 16        .000000000000
G18  20561586.438 8 108051893.523 8     -1207.719          51.000    20561586.484 8  84196295.557 8      -941.080          49.000
G20  22398764.367 7 117706316.867 7      2746.809          47.000    22398765.656 7  91719202.288 7      2140.370          44.000
G21  20948799.625 8 110086713.309 8     -1180.441          51.000    20948798.422 8  85781853.269 8      -919.821          49.000
G26  20276345.742 8 106552905.856 8      -163.574          51.000    20276347.492 8  83028223.206 8      -127.460          51.000
G31  23939106.172 5 125800843.323 5     -3306.480          32.000
R11  20073122.375 8 107264670.022 8     -2635.680          51.000    20073127.125 8  83428081.148 8     -2049.976          49.000
R21  19908384.398 4 106533764.730 4     -1674.723          28.000    19908388.633 5  82859591.994 5     -1302.565          31.000
R22  20375824.688 5 108767548.091 5      1794.922          33.000
C23  25049884.383 5 130441319.982 5     -3322.316          32.000
C27  24109760.828 5 125545851.346 5      2342.941          31.000
C28  21560260.688 8 112270076.707 8       112.781          49.000
E11  26150605.875 6 137422367.866 6      2548.008          41.000    26150604.727 7 105297665.956 7      1952.415          42.000
E12  21729205.648 7 114187786.887 7       747.352          47.000    21729204.688 8  87494488.932 8       572.655          49.000
E24  22116351.914 6 116222201.494 6       560.242          41.000    22116364.859 6  89053435.745 6       429.202          39.000
E31  24585754.820 8 129199033.583 8     -2182.816          51.000    24585758.625 8  98996651.888 8     -1672.518          50.000
E33  24489391.078 8 128692661.688 8     -1738.371          51.000    24489392.078 8  98608638.400 8     -1332.002          51.000
> 2020 05 11 14 03 30.0000000  0 17        .000000000000
G18  20568526.070 8 108088361.237 8     -1221.062          51.000    20568526.148 8  84224711.962 8      -951.477          50.000
G20  22383113.047 8 117624068.716 8      2738.578          48.000    22383114.891 7  91655112.843 7      2133.957          45.000
G21  20955572.812 8 110122306.994 8     -1190.137          51.000    20955571.828 8  85809588.614 8      -927.379          50.000
G26  20277329.539 8 106558074.843 8      -178.652          51.000    20277331.359 8  83032250.982 8      -139.210          51.000
G31  23957986.016 5 125900059.742 5     -3308.238          32.000
R11  20087979.742 8 107344064.462 8     -2654.988          49.000    20087984.289 7  83489832.377 7     -2064.991          47.000
R21  19917801.195 5 106584183.928 5     -1683.590          30.000    19917810.836 4  82898820.242 4     -1309.459          28.000
R22  20365764.789 5 108713896.601 5      1784.137          32.000    20365774.086 5  84555235.790 5      1387.659          30.000
C05  39616600.758 5 206294035.796 5         7.387          35.000
C23  25069038.305 5 130541058.900 5     -3324.605          35.000
C27  24096271.195 6 125475606.169 6      2341.316          37.000
C28  21559635.477 8 112266821.472 8       106.547          49.000
E11  26136070.492 6 137345987.704 6      2546.352          40.000    26136070.312 7 105239140.970 7      1951.029          43.000
E12  21724965.211 7 114165505.052 7       740.426          47.000    21724964.594 8  87477415.846 8       567.375          50.000
E24  22113190.641 6 116205588.587 6       549.551          41.000    22113203.672 6  89040706.363 6       421.237          40.000
E31  24598243.789 8 129264665.507 8     -2190.336          51.000    24598248.070 8  99046941.261 8     -1678.285          51.000
E33  24499331.039 8 128744896.674 8     -1741.559          51.000    24499332.172 8  98648662.592 8     -1334.435          51.000
> 2020 05 11 14 04  0.0000000  0 17        .000000000000
G18  20575542.844 8 108125234.330 8     -1237.621          51.000    20575542.930 8  84253444.242 8      -964.380          49.000
G20  22367508.953 7 117542070.402 7      2727.527          47.000    22367511.461 7  91591218.074 7      2125.349          46.000
G21  20962402.570 8 110158197.898 8     -1202.969          51.000    20962401.523 8  85837555.540 8      -937.378          50.000
G26  20278399.875 8 106563699.273 8      -196.656          51.000    20278401.867 8  83036633.643 8      -153.239          51.000
G31  23976880.281 5 125999350.263 5     -3311.543          32.000
R11  20102946.055 8 107424043.251 8     -2677.223          49.000    20102950.188 7  83552038.110 7     -2082.284          44.000
R21  19927278.398 5 106634865.729 5     -1695.184          32.000
R22  20355776.609 4 108660579.969 4      1769.930          25.000    20355787.938 5  84513777.185 5      1376.612          30.000
C05  39616558.211 5 206293813.935 5         6.988          34.000
C23  25088202.250 6 130640846.059 6     -3328.609          36.000
C27  24082799.203 6 125405443.957 6      2336.129          38.000
C28  21559047.555 8 112263760.280 8        97.203          49.000
E11  26121547.383 6 137269672.139 6      2541.129          40.000    26121548.648 7 105180665.440 7      1947.153          43.000
E12  21720765.289 8 114143435.940 8       730.324          48.000    21720764.773 8  87460505.761 8       559.692          50.000
E24  22110090.828 7 116189297.274 7       535.793          42.000    22110102.984 6  89028223.395 6       410.920          40.000
E31  24610776.727 8 129330527.511 8     -2200.891          50.000    24610781.406 8  99097406.924 8     -1686.379          51.000
E33  24509290.016 8 128797231.593 8     -1747.758          51.000    24509291.078 8  98688763.358 8     -1339.200          51.000
> 2020 05 11 14 04 30.0000000  0 15        .000000000000
G18  20582652.867 8 108162597.840 8     -1253.699          51.000    20582652.820 8  84282558.667 8      -976.908          50.000
G20  22351969.406 7 117460411.416 7      2716.203          47.000    22351972.297 7  91527587.716 7      2116.522          46.000
G21  20969305.078 8 110194471.119 8     -1215.539          51.000    20969304.062 8  85865820.382 8      -947.173          50.000
G26  20279573.445 8 106569866.391 8      -214.773          51.000    20279575.812 8  83041439.183 8      -167.356          51.000
G31  23995795.859 5 126098758.250 5     -3315.227          34.000
R11  20118038.844 8 107504691.552 8     -2699.582          51.000    20118041.398 7  83614764.522 7     -2099.675          44.000
C05  39616519.055 5 206293610.102 5         6.766          34.000
C23  25107391.117 6 130740765.171 6     -3332.641          37.000
C27  24069360.352 6 125335451.117 6      2330.258          38.000
C28  21558512.984 8 112260978.732 8        87.984          49.000
E11  26107053.703 7 137193508.424 7      2536.215          42.000    26107055.867 7 105122306.309 7      1943.169          43.000
E12  21716622.320 7 114121665.978 7       720.512          47.000    21716621.672 8  87443824.895 8       552.098          51.000
E24  22107068.898 7 116173415.210 7       522.438          43.000    22107080.906 6  89016054.040 6       400.378          41.000
E31  24623370.047 8 129396705.401 8     -2211.336          51.000    24623374.820 8  99148114.651 8     -1694.373          51.000
E33  24519284.344 8 128849752.129 8     -1753.848          51.000    24519285.273 8  98729006.358 8     -1343.869          51.000
> 2020 05 11 14 05  0.0000000  0 16        .000000000000
G18  20589851.711 8 108200428.138 8     -1268.934          51.000    20589851.844 8  84312036.819 8      -988.779          50.000
G20  22336491.273 8 117379072.783 8      2705.676          49.000    22336493.523 7  91464206.974 7      2108.319          45.000
G21  20976275.844 8 110231102.706 8     -1227.109          51.000    20976274.867 8  85894364.478 8      -956.186          50.000
G26  20280846.188 8 106576554.722 8      -232.012          51.000    20280848.781 8  83046650.845 8      -180.788          51.000
G31  24014727.156 5 126198244.537 5     -3318.285          33.000
R11  20133252.242 8 107585984.123 8     -2720.723          51.000    20133253.734 7  83677992.001 7     -2116.121          45.000
R21  19946407.523 5 106737254.525 5     -1717.410          33.000
C05  39616479.219 5 206293402.536 5         6.879          34.000
C23  25126600.531 6 130840792.332 6     -3336.309          38.000
C27  24055950.141 6 125265606.070 6      2325.359          37.000
C28  21558027.789 8 112258454.647 8        79.555          50.000
E11  26092585.195 7 137117475.143 7      2531.809          46.000    26092587.359 7 105064047.128 7      1939.852          43.000
E12  21712532.023 7 114100172.875 7       711.547          47.000    21712531.453 8  87427356.161 8       545.229          51.000
E24  22104120.383 7 116157921.384 7       509.715          42.000    22104132.633 6  89004182.125 6       390.579          40.000
E31  24636019.203 8 129463176.335 8     -2220.777          51.000    24636024.133 8  99199046.903 8     -1701.662          51.000
E33  24529309.680 8 128902435.155 8     -1759.070          51.000    24529310.453 8  98769373.860 8     -1347.898          51.000
> 2020 05 11 14 05 30.0000000  0 16        .000000000000
G18  20597131.383 8 108238683.343 8     -1282.672          51.000    20597131.672 8  84341846.074 8      -999.485          50.000
G20  22321067.227 8 117298017.023 8      2696.773          50.000    22321068.391 7  91401046.653 7      2101.385          44.000
G21  20983306.930 8 110268051.266 8     -1237.199          51.000    20983305.664 8  85923155.567 8      -964.051          49.000
G26  20282210.617 8 106583724.504 8      -247.258          51.000    20282213.305 8  83052237.675 8      -192.668          51.000
R05  22920087.195 5 122520930.809 5       456.316          34.000    22920093.117 4  95294136.529 4       354.913          26.000
R11  20148578.023 8 107667876.814 8     -2740.043          51.000    20148579.180 7  83741686.289 7     -2131.145          46.000
R21  19956059.281 5 106788899.548 5     -1726.250          32.000    19956088.180 4  83058146.489 4     -1342.639          26.000
R22  20326275.031 5 108503040.211 5      1731.203          31.000    20326292.375 4  84391253.351 4      1346.494          27.000
C23  25145822.953 6 130940885.499 6     -3338.160          36.000
C27  24042559.508 6 125195869.377 6      2322.277          36.000
C28  21557584.648 8 112256147.786 8        72.957          50.000
E11  26078134.227 7 137041532.529 7      2529.582          47.000    26078135.562 7 105005857.399 7      1938.266          42.000
E12  21708486.781 8 114078916.093 8       704.398          48.000    21708486.414 8  87411068.512 8       539.698          51.000
E24  22101238.086 7 116142776.572 7       498.910          42.000    22101249.438 6  88992577.662 6       381.875          40.000
E31  24648716.117 8 129529899.074 8     -2228.527          51.000    24648721.383 8  99250172.071 8     -1707.558          51.000
E33  24539358.023 8 128955239.373 8     -1762.395          51.000    24539358.789 8  98809834.227 8     -1350.394          51.000
> 2020 05 11 14 06  0.0000000  0 16        .000000000000
G18  20604506.812 8 108277442.029 8     -1299.660          51.000    20604507.016 8  84372047.642 8     -1012.722          50.000
G20  22305713.031 8 117217327.457 8      2684.195          51.000    22305713.680 7  91338171.696 7      2091.581          44.000
G21  20990413.258 8 110305395.129 8     -1250.578          51.000    20990411.883 8  85952254.683 8      -974.476          50.000
G26  20283681.984 8 106591456.532 8      -266.410          51.000    20283684.734 8  83058262.618 8      -207.592          51.000
G29  23483053.828 5 123404269.928 5     -2802.680          33.000    23483061.055 5  96159210.426 5     -2183.915          32.000
R05  22917609.242 6 122507675.580 6       429.332          37.000    22917611.117 4  95283816.945 4       333.925          28.000
R11  20164030.836 8 107750448.505 8     -2762.969          51.000    20164032.250 7  83805908.681 7     -2148.976          47.000
R21  19965772.070 6 106840893.326 6     -1738.559          36.000    19965776.508 4  83098465.423 4     -1352.212          26.000
C23  25165072.828 6 131041122.081 6     -3342.867          37.000
C27  24029201.680 5 125126320.730 5      2315.102          31.000
C28  21557198.797 8 112254137.361 8        62.762          50.000
E11  26063716.000 7 136965761.481 7      2523.668          47.000    26063716.117 7 104947799.158 7      1933.645          42.000
E12  21704501.953 8 114057975.554 8       693.512          48.000    21704501.695 8  87395023.176 8       531.389          51.000
E24  22098438.164 7 116128061.898 7       484.051          43.000    22098448.477 6  88981302.772 6       370.896          41.000
E31  24661476.078 8 129596952.957 8     -2239.914          51.000    24661481.359 8  99301550.968 8     -1716.301          51.000
E33  24549444.453 8 129008243.914 8     -1769.480          51.000    24549445.398 8  98850448.084 8     -1355.809          51.000
> 2020 05 11 14 06 30.0000000  0 16        .000000000000
G18  20611984.070 8 108316735.526 8     -1317.168          51.000    20611984.414 8  84402665.939 8     -1026.365          50.000
G20  22290435.141 8 117137040.175 8      2670.938          48.000    22290435.586 7  91275610.247 7      2081.253          45.000
G21  20997600.875 8 110343166.346 8     -1264.629          51.000    20997599.562 8  85981686.816 8      -985.425          50.000
G26  20285266.531 8 106599784.201 8      -285.910          51.000    20285269.516 8  83064751.706 8      -222.787          51.000
G29  23499077.594 4 123488471.657 4     -2808.430          29.000
R05  22915281.688 5 122495240.151 5       402.387          35.000    22915284.617 4  95274145.018 4       312.967          28.000
R11  20179615.930 8 107833729.471 8     -2786.328          51.000    20179617.430 7  83870682.737 7     -2167.144          46.000
R21  19975561.172 6 106893279.169 6     -1751.031          40.000    19975576.188 4  83139209.990 4     -1361.910          29.000
C23  25184355.633 5 131141532.662 5     -3348.148          31.000
C27  24015886.680 4 125056993.176 4      2309.812          28.000
C28  21556876.047 8 112252455.669 8        52.180          50.000
E11  26049336.609 7 136890195.510 7      2517.195          46.000    26049335.914 7 104889898.015 7      1928.700          42.000
E12  21700583.711 8 114037383.969 8       682.199          48.000    21700583.477 8  87379245.217 8       522.706          51.000
E24  22095726.102 7 116113811.266 7       468.812          43.000    22095736.930 6  88970383.439 6       359.202          41.000
E31  24674305.508 8 129664370.045 8     -2251.672          51.000    24674310.367 8  99353208.162 8     -1725.328          51.000
E33  24559575.086 8 129061480.728 8     -1776.832          51.000    24559576.359 8  98891239.921 8     -1361.502          51.000
> 2020 05 11 14 07  0.0000000  0 15        .000000000000
G18  20619536.820 8 108356425.592 8     -1331.207          51.000    20619537.367 8  84433593.263 8     -1037.304          50.000
G20  22275207.531 7 117057020.901 7      2660.906          46.000    22275208.391 7  91213257.621 7      2073.433          44.000
G21  21004843.430 8 110381225.850 8     -1275.055          51.000    21004841.922 8  86011343.567 8      -993.549          49.000
G26  20286938.523 8 106608571.475 8      -302.059          51.000    20286941.734 8  83071598.922 8      -235.370          51.000
R05  22913082.258 6 122483486.878 6       378.789          38.000    22913085.102 5  95265003.481 5       294.611          30.000
R11  20195307.188 8 107917578.089 8     -2805.977          51.000    20195308.305 7  83935898.276 7     -2182.426          45.000
R21  19985397.984 6 106945916.105 6     -1760.461          40.000    19985405.203 4  83180149.789 4     -1369.250          26.000
C05  39616321.180 5 206292578.942 5         7.184          34.000
C23  25203645.125 5 131241979.808 5     -3350.824          31.000
C28  21556589.984 8 112250967.061 8        44.895          49.000
E11  26034969.797 7 136814698.656 7      2513.789          45.000    26034969.641 7 104832049.829 7      1926.177          43.000
E12  21696705.812 8 114017004.495 8       674.254          48.000    21696705.625 8  87363629.784 8       516.600          51.000
E24  22093076.836 7 116099889.089 7       457.055          44.000    22093087.414 6  88959715.785 6       350.130          41.000
E31  24687177.906 8 129732012.821 8     -2260.125          51.000    24687182.609 8  99405038.300 8     -1731.742          51.000
E33  24569723.734 8 129114812.169 8     -1780.844          51.000    24569725.375 8  98932104.260 8     -1364.555          51.000
> 2020 05 11 14 07 30.0000000  0 16        .000000000000
G18  20627182.375 8 108396602.781 8     -1347.105          51.000    20627182.867 8  84464900.152 8     -1049.696          49.000
G20  22260048.664 7 116977364.912 7      2649.391          45.000    22260050.172 7  91151188.075 7      2064.463          44.000
G21  21012158.109 8 110419664.628 8     -1287.316          51.000    21012156.602 8  86041295.875 8     -1003.101          49.000
G26  20288715.719 8 106617910.999 8      -320.266          51.000    20288719.023 8  83078876.472 8      -249.558          51.000
R05  22911029.062 6 122472510.720 6       352.711          36.000    22911031.992 5  95256466.486 5       274.334          35.000
R11  20211121.312 8 108002084.724 8     -2827.547          51.000    20211122.242 7  84001625.602 7     -2199.206          45.000
R21  19995298.250 6 106998895.953 6     -1771.539          37.000    19995303.477 4  83221371.327 4     -1377.861          25.000
R22  20288015.180 5 108298799.060 5      1674.773          31.000    20288024.133 4  84232406.492 4      1302.602          28.000
C05  39616285.148 5 206292391.793 5         6.289          34.000
C23  25222957.945 5 131342552.476 5     -3353.301          31.000
C28  21556358.656 8 112249762.589 8        35.590          50.000
E11  26020633.352 7 136739363.743 7      2508.348          45.000    26020635.031 7 104774325.732 7      1922.136          44.000
E12  21692885.688 8 113996929.038 8       664.215          49.000    21692885.406 8  87348247.279 8       509.067          51.000
E24  22090508.109 7 116086388.489 7       443.254          44.000    22090518.047 6  88949371.189 6       339.561          41.000
E31  24700110.367 8 129799972.556 8     -2270.375          51.000    24700115.531 8  99457111.318 8     -1739.614          51.000
E33  24579907.797 8 129168329.443 8     -1786.785          51.000    24579909.523 8  98973110.984 8     -1369.071          51.000
> 2020 05 11 14 08  0.0000000  0 17        .000000000000
G18  20634909.938 8 108437211.032 8     -1363.609          51.000    20634910.555 8  84496542.939 8     -1062.553          50.000
G20  22244949.234 7 116898020.542 7      2636.766          45.000    22244950.922 7  91089361.306 7      2054.623          43.000
G21  21019534.359 8 110458426.950 8     -1300.195          51.000    21019532.828 8  86071500.286 8     -1013.139          49.000
G26  20290587.891 8 106627748.882 8      -339.062          51.000    20290591.219 8  83086542.343 8      -264.205          51.000
R05  22909111.062 5 122462257.383 5       326.945          34.000    22909114.758 5  95248491.772 5       254.294          35.000
R11  20227046.695 8 108087191.359 8     -2849.734          50.000    20227048.789 7  84067819.617 7     -2216.460          46.000
R21  20005251.867 6 107052161.917 6     -1783.320          39.000    20005257.680 4  83262800.343 4     -1387.027          26.000
R22  20278633.562 6 108248721.938 6      1660.164          36.000    20278654.945 4  84193537.050 4      1291.242          25.000
C05  39616243.609 5 206292175.044 5         4.672          34.000
C23  25242285.062 4 131443201.724 4     -3358.816          29.000
C27  23976096.820 5 124849828.907 5      2293.129          31.000
C28  21556171.961 8 112248787.987 8        25.926          50.000
E11  26006317.547 7 136664136.842 7      2502.719          46.000    26006321.516 7 104716684.406 7      1917.730          45.000
E12  21689113.219 8 113977102.939 8       653.844          50.000    21689112.547 8  87333055.848 8       501.045          51.000
E24  22088009.086 7 116073256.084 7       428.766          44.000    22088019.867 7  88939308.687 7       328.430          42.000
E31  24713092.336 8 129868194.004 8     -2281.273          51.000    24713098.062 8  99509384.881 8     -1747.986          51.000
E33  24590116.602 8 129221977.091 8     -1793.215          51.000    24590118.195 8  99014217.614 8     -1374.082          51.000
> 2020 05 11 14 08 30.0000000  0 16        .000000000000
G18  20642737.047 8 108478342.631 8     -1378.059          51.000    20642737.672 8  84528593.549 8     -1073.812          50.000
G20  22229928.070 7 116819084.919 7      2626.355          47.000    22229929.938 7  91027853.020 7      2046.511          43.000
G21  21026989.633 8 110497604.846 8     -1311.203          51.000    21026987.922 8  86102028.522 8     -1021.717          48.000
G26  20292572.945 8 106638179.520 8      -355.863          51.000    20292576.078 8  83094670.100 8      -277.296          51.000
R05  22907347.227 6 122452823.968 6       302.566          39.000    22907350.070 5  95241154.680 5       235.329          33.000
R11  20243102.211 8 108172990.509 8     -2869.738          51.000    20243105.055 7  84134552.275 7     -2232.019          46.000
R21  20015277.727 6 107105807.591 6     -1792.711          37.000    20015283.203 4  83304527.786 4     -1394.331          26.000
C05  39616214.617 5 206292024.030 5         5.426          34.000
C23  25261644.297 5 131544004.949 5     -3361.656          34.000
C27  23962893.703 5 124781107.768 5      2288.777          33.000
C28  21556047.156 8 112248136.149 8        18.125          50.000
E11  25992040.508 7 136589112.548 7      2499.320          46.000    25992046.211 7 104659198.333 7      1914.977          45.000
E12  21685406.148 8 113957619.882 8       645.375          50.000    21685405.047 8  87318127.284 8       494.499          51.000
E24  22085598.070 7 116060586.750 7       416.199          44.000    22085609.930 7  88929600.992 7       318.903          43.000
E31  24726141.852 8 129936770.182 8     -2290.055          51.000    24726147.906 8  99561930.264 8     -1754.723          51.000
E33  24600367.797 8 129275848.097 8     -1797.695          51.000    24600369.203 8  99055495.380 8     -1377.452          51.000
> 2020 05 11 14 09  0.0000000  0 15        .000000000000
G18  20650642.555 8 108519886.116 8     -1388.363          51.000    20650643.055 8  84560965.092 8     -1081.842          50.000
G20  22214964.695 8 116740451.008 8      2619.387          49.000    22214966.188 7  90966579.849 7      2041.081          42.000
G21  21034502.734 8 110537087.082 8     -1317.875          50.000    21034501.258 8  86132793.915 8     -1026.916          49.000
G26  20294650.008 8 106649093.584 8      -368.652          51.000    20294652.867 8  83103174.554 8      -287.262          51.000
R05  22905716.406 5 122444099.599 5       282.836          31.000    22905716.938 4  95234368.939 4       219.971          26.000
R11  20259266.867 8 108259367.227 8     -2885.520          51.000    20259269.430 7  84201734.143 7     -2244.296          46.000
R21  20025351.820 5 107159719.175 5     -1798.062          35.000
R22  20260125.945 5 108149916.397 5      1638.613          33.000
C23  25281012.758 6 131644858.618 6     -3359.129          36.000
C28  21555963.148 8 112247697.928 8        14.285          50.000
E11  25977781.445 7 136514181.567 7      2499.539          45.000    25977787.609 7 104601783.764 7      1915.186          44.000
E12  21681743.273 8 113938369.846 8       640.984          49.000    21681741.875 8  87303377.266 8       491.162          51.000
E24  22083254.398 7 116048271.623 7       407.891          44.000    22083266.641 7  88920164.708 7       312.584          43.000
E31  24739237.875 8 130005590.350 8     -2294.781          50.000    24739243.727 8  99614662.606 8     -1758.360          51.000
E33  24610640.445 8 129329831.662 8     -1798.059          51.000    24610641.680 8  99096859.395 8     -1377.748          51.000
> 2020 05 11 14 09 30.0000000  0 17        .000000000000
G18  20658638.508 8 108561905.277 8     -1409.184          50.000    20658639.078 8  84593707.293 8     -1098.062          50.000
G20  22200072.000 8 116662187.160 8      2601.574          50.000    22200072.656 7  90905595.034 7      2027.201          43.000
G21  21042086.031 8 110576937.632 8     -1335.246          51.000    21042084.664 8  86163846.286 8     -1040.452          49.000
G26  20296831.625 8 106660556.803 8      -391.992          51.000    20296834.141 8  83112106.920 8      -305.448          51.000
G31  24185826.766 6 127097381.906 6     -3341.938          36.000    24185812.133 5  99036854.699 5     -2604.110          33.000
R11  20275551.875 8 108346385.056 8     -2912.113          51.000    20275553.617 7  84269414.617 7     -2264.980          46.000
R21  20035487.727 6 107213961.882 6     -1814.449          37.000
R22  20250972.273 6 108101060.609 6      1619.539          36.000
C05  39616143.789 5 206291656.135 5         4.742          35.000
C23  25300402.227 6 131745825.059 6     -3368.039          39.000
C27  23936574.703 5 124644031.405 5      2277.148          30.000
C28  21555932.453 8 112247537.845 8         -.141          50.000
E11  25963552.883 7 136439410.049 7      2488.938          45.000    25963557.398 7 104544491.380 7      1906.991          43.000
E12  21678136.672 8 113919417.827 8       626.094          48.000    21678135.438 8  87288855.605 8       479.692          51.000
E24  22080990.812 7 116036376.979 7       388.617          44.000    22081003.203 7  88911050.620 7       297.787          44.000
E31  24752392.383 8 130074719.022 8     -2310.164          49.000    24752397.844 8  99667631.316 8     -1770.123          51.000
E33  24620946.836 8 129383992.131 8     -1809.074          51.000    24620948.094 8  99138358.956 8     -1386.159          51.000
> 2020 05 11 14 10  0.0000000  0 17        .000000000000
G18  20666715.438 8 108604349.762 8     -1420.445          50.000    20666716.055 8  84626780.922 8     -1106.841          50.000
G20  22185241.070 8 116584247.537 8      2593.828          49.000    22185241.445 7  90844862.900 7      2021.165          44.000
G21  21049729.891 8 110617106.182 8     -1342.789          50.000    21049728.344 8  86195146.443 8     -1046.329          48.000
G26  20299108.578 8 106672521.117 8      -405.777          51.000    20299110.898 8  83121429.743 8      -316.190          51.000
G31  24204898.500 5 127197612.183 5     -3340.121          34.000    24204883.781 5  99114956.063 5     -2602.695          33.000
R05  22902881.500 5 122429000.114 5       229.281          32.000    22902881.984 4  95222579.399 4       178.333          28.000
R11  20291946.945 8 108433991.244 8     -2928.605          51.000    20291948.094 7  84337552.695 7     -2277.807          47.000
R21  20045678.133 5 107268484.033 5     -1820.453          35.000    20045680.758 5  83431014.772 5     -1415.908          31.000
C05  39616105.078 5 206291454.229 5         8.691          34.000
C23  25319803.477 6 131846854.038 6     -3367.242          39.000
C27  23923458.766 5 124575721.202 5      2277.105          31.000
C28  21555945.711 8 112247607.421 8        -4.848          50.000
E11  25949346.195 7 136364735.977 7      2487.945          45.000    25949343.969 7 104487255.391 7      1906.438          42.000
E12  21674577.359 8 113900715.079 8       620.645          48.000    21674576.477 8  87274524.926 8       475.544          51.000
E24  22078798.188 7 116024855.211 7       379.246          44.000    22078810.539 7  88902222.266 7       290.615          44.000
E31  24765595.922 8 130144106.667 8     -2315.871          49.000    24765601.359 8  99720798.437 8     -1774.472          51.000
E33  24631277.570 8 129438279.994 8     -1810.379          51.000    24631278.992 8  99179956.129 8     -1387.144          51.000
> 2020 05 11 14 10 30.0000000  0 15        .000000000000
G18  20674888.711 8 108647300.584 8     -1440.762          50.000    20674889.328 8  84660249.077 8     -1122.671          50.000
G20  22170487.953 8 116506717.733 8      2576.738          49.000    22170488.297 7  90784450.084 7      2007.848          46.000
G21  21057449.656 8 110657673.680 8     -1359.562          50.000    21057448.070 8  86226757.476 8     -1059.399          48.000
G26  20301496.508 8 106685069.480 8      -428.676          51.000    20301498.719 8  83131207.680 8      -334.033          51.000
G31  24223991.812 5 127297955.964 5     -3346.625          34.000    24223978.117 5  99193145.960 5     -2607.763          32.000
R11  20308467.078 8 108522266.751 8     -2954.285          51.000    20308468.141 8  84406211.378 8     -2297.777          48.000
R21  20055930.102 5 107323267.953 5     -1835.824          33.000    20055941.648 5  83473666.458 5     -1427.863          34.000
C05  39616077.125 5 206291308.469 5         3.469          34.000
C23  25339231.719 6 131948025.368 6     -3375.281          38.000
C28  21556018.484 8 112247988.316 8       -18.504          50.000
E11  25935175.758 7 136290269.453 7      2478.270          45.000    25935172.930 7 104430196.459 7      1898.901          42.000
E12  21671081.227 8 113882343.924 8       606.129          48.000    21671080.648 8  87260448.317 8       464.481          51.000
E24  22076692.203 7 116013789.895 7       360.559          43.000    22076704.141 7  88893743.667 7       276.167          44.000
E31  24778864.531 8 130213834.958 8     -2330.699          50.000    24778869.844 8  99774226.559 8     -1785.834          51.000
E33  24641648.031 8 129492776.846 8     -1820.730          51.000    24641649.672 8  99221713.446 8     -1395.120          51.000
> 2020 05 11 14 11  0.0000000  0 17        .000000000000
G18  20683142.555 8 108690675.421 8     -1451.059          50.000    20683143.133 8  84694047.653 8     -1130.695          49.000
G20  22155797.930 8 116429519.841 8      2569.348          49.000    22155798.062 7  90724295.898 7      2002.089          46.000
G21  21065229.727 8 110698557.959 8     -1366.250          50.000    21065228.055 8  86258615.352 8     -1064.610          49.000
G26  20303980.141 8 106698121.798 8      -441.715          51.000    20303982.359 8  83141378.297 8      -344.193          51.000
G31  24243090.633 5 127398307.548 5     -3344.758          33.000    24243078.992 5  99271359.769 5     -2606.326          32.000
R05  22900617.758 5 122416915.888 5       178.672          35.000    22900620.844 5  95213149.365 5       138.964          30.000
R11  20325095.586 8 108611126.350 8     -2969.922          50.000    20325097.562 8  84475324.382 8     -2309.939          48.000
R21  20066240.969 6 107378430.155 6     -1841.648          39.000    20066245.484 5  83516570.343 5     -1432.396          33.000
C05  39616044.688 5 206291140.184 5         7.004          34.000
C23  25358671.625 6 132049257.201 6     -3373.707          38.000
C27  23897330.070 5 124439640.319 5      2265.250          31.000
C28  21556135.695 8 112248600.378 8       -22.457          50.000
E11  25921027.258 7 136215918.563 7      2478.371          44.000    25921024.711 7 104373227.338 7      1899.125          43.000
E12  21667632.633 7 113864223.535 7       601.512          47.000    21667632.414 8  87246563.875 8       460.935          51.000
E24  22074658.156 7 116003101.373 7       351.633          44.000    22074669.961 7  88885553.749 7       269.523          44.000
E31  24792183.055 8 130283822.406 8     -2335.438          51.000    24792187.805 8  99827853.257 8     -1789.479          51.000
E33  24652042.633 8 129547401.164 8     -1821.188          51.000    24652044.406 8  99263568.421 8     -1395.425          51.000
> 2020 05 11 14 11 30.0000000  0 16        .000000000000
G18  20691476.641 8 108734471.543 8     -1471.453          50.000    20691477.086 8  84728174.480 8     -1146.590          49.000
G20  22141171.359 8 116352655.799 8      2552.082          50.000    22141171.312 7  90664401.864 7      1988.635          47.000
G21  21073069.508 8 110739756.328 8     -1382.883          50.000    21073067.812 8  86290717.973 8     -1077.571          48.000
G26  20306559.477 8 106711677.223 8      -464.750          51.000    20306561.711 8  83151940.968 8      -362.143          51.000
G29  23660181.086 5 124335090.620 5     -2841.867          30.000
R05  22899692.094 5 122411974.900 5       147.441          35.000    22899695.539 5  95209306.350 5       114.674          31.000
R11  20341831.594 8 108700566.037 8     -2995.648          49.000    20341835.219 8  84544888.596 8     -2329.946          48.000
R21  20076606.148 6 107433867.505 6     -1857.141          37.000    20076601.258 5  83559688.147 5     -1444.449          32.000
C05  39616007.078 5 206290943.379 5         2.633          34.000
C23  25378123.023 6 132150546.375 6     -3381.691          37.000
C28  21556297.141 8 112249442.231 8       -36.344          50.000
E11  25906899.758 7 136141678.745 7      2468.262          43.000    25906899.430 7 104316347.605 7      1891.337          44.000
E12  21664231.523 7 113846352.476 7       587.031          47.000    21664231.492 8  87232870.487 8       449.800          51.000
E24  22072695.617 7 115992789.392 7       333.059          44.000    22072707.789 7  88877652.367 7       255.126          45.000
E31  24805550.859 8 130354066.960 8     -2350.297          51.000    24805554.820 8  99881676.936 8     -1800.820          51.000
E33  24662461.062 8 129602150.841 8     -1831.543          51.000    24662462.742 8  99305519.461 8     -1403.396          50.000
> 2020 05 11 14 12  0.0000000  0 17        .000000000000
G18  20699901.453 8 108778744.691 8     -1480.062          48.000    20699901.984 8  84762673.036 8     -1153.295          48.000
G20  22126619.805 8 116276185.834 8      2546.160          51.000    22126619.008 7  90604814.880 7      1984.021          46.000
G21  21080979.664 8 110781324.526 8     -1388.047          50.000    21080977.828 8  86323108.769 8     -1081.595          48.000
G26  20309245.523 8 106725793.626 8      -476.090          51.000    20309248.133 8  83162940.759 8      -370.979          51.000
G29  23676407.305 5 124420341.590 5     -2837.488          35.000
R05  22898916.562 5 122407825.185 5       129.164          34.000    22898917.922 4  95206078.751 4       100.458          29.000
R11  20358686.852 8 108790640.869 8     -3009.207          49.000    20358691.344 8  84614946.805 8     -2340.494          48.000
R21  20087029.969 5 107489636.641 5     -1860.633          32.000    20087025.992 5  83603064.182 5     -1447.156          34.000
C05  39615975.484 5 206290779.289 5         8.375          34.000
C23  25397596.164 6 132251947.775 6     -3378.023          38.000
C27  23871308.133 5 124304162.640 5      2256.523          32.000
C28  21556513.562 8 112250570.534 8       -38.586          50.000
E11  25892806.016 7 136067614.137 7      2469.648          42.000    25892806.969 7 104259598.838 7      1892.382          46.000
E12  21660889.125 8 113828787.977 8       584.023          48.000    21660888.961 8  87219411.977 8       447.606          51.000
E24  22070815.930 7 115982912.394 7       325.719          45.000    22070828.062 7  88870084.272 7       249.523          45.000
E31  24818978.281 8 130424625.151 8     -2353.457          51.000    24818981.836 8  99935740.939 8     -1803.265          51.000
E33  24672914.188 8 129657082.438 8     -1830.301          51.000    24672915.617 8  99347609.897 8     -1402.465          50.000
> 2020 05 11 14 12 30.0000000  0 17        .000000000000
G18  20708408.570 8 108823450.278 8     -1498.449          49.000    20708409.094 7  84797508.563 7     -1167.623          47.000
G20  22112135.516 8 116200069.799 8      2530.172          51.000    22112134.898 7  90545503.736 7      1971.566          46.000
G21  21088951.836 8 110823218.618 8     -1402.840          49.000    21088949.891 8  86355753.516 8     -1093.122          48.000
G26  20312030.273 8 106740428.538 8      -497.441          51.000    20312033.484 8  83174344.574 8      -387.617          51.000
G29  23692630.141 5 124505596.881 5     -2844.016          31.000    23692635.086 5  97017391.819 5     -2216.107          31.000
R05  22898282.344 5 122404424.609 5        99.512          32.000    22898283.773 5  95203433.796 5        77.395          31.000
R11  20375653.391 8 108881304.289 8     -3032.922          51.000    20375657.492 7  84685462.782 7     -2358.939          47.000
R21  20097506.227 5 107545692.454 5     -1874.293          35.000    20097504.375 5  83646663.197 5     -1457.786          33.000
C05  39615941.953 5 206290604.525 5         5.414          34.000
C23  25417082.500 6 132353416.953 6     -3384.602          36.000
C27  23858342.375 5 124236650.971 5      2247.301          34.000
C28  21556776.766 8 112251942.589 8       -50.824          50.000
E11  25878737.258 6 135993679.459 6      2461.133          41.000    25878739.055 7 104202947.649 7      1885.905          46.000
E12  21657596.852 8 113811486.891 8       571.387          48.000    21657596.539 8  87206155.309 8       437.798          51.000
E24  22069011.375 7 115973428.333 7       308.730          45.000    22069023.570 7  88862817.291 7       236.479          46.000
E31  24832456.703 8 130495453.199 8     -2366.430          51.000    24832460.320 8  99990011.740 8     -1813.175          51.000
E33  24683393.695 8 129712152.133 8     -1838.934          50.000    24683394.945 8  99389806.139 8     -1409.020          50.000
> 2020 05 11 14 13  0.0000000  0 14        .000000000000
G18  20717004.328 8 108868621.080 8     -1512.828          48.000    20717004.570 7  84832706.564 7     -1178.830          47.000
G20  22097725.812 8 116124345.190 8      2518.148          50.000    22097725.273 7  90486497.579 7      1962.194          45.000
G21  21096992.188 8 110865471.305 8     -1413.887          49.000    21096990.438 8  86388677.697 8     -1101.730          48.000
G26  20314920.273 8 106755616.666 8      -514.922          51.000    20314923.703 8  83186179.463 8      -401.238          51.000
G29  23708878.109 5 124590991.264 5     -2846.691          33.000
R11  20392736.703 8 108972587.658 8     -3052.551          51.000    20392739.125 7  84756460.909 7     -2374.209          45.000
R22  20189052.828 4 107770531.231 4      1525.766          28.000    20189071.750 4  83821600.368 4      1186.707          28.000
C23  25436587.656 5 132454985.919 5     -3386.621          32.000
C28  21557093.609 8 112253592.165 8       -59.086          50.000
E11  25864700.000 6 135919909.633 6      2456.848          41.000    25864702.000 7 104146422.798 7      1882.373          46.000
E12  21654361.062 8 113794483.359 8       562.461          48.000    21654360.859 8  87193126.642 8       430.911          51.000
E24  22067287.953 7 115964372.573 7       295.480          44.000    22067300.734 7  88855878.442 7       226.165          46.000
E31  24845991.828 8 130566584.536 8     -2375.559          48.000    24845996.758 8 100044514.942 8     -1820.212          51.000
E33  24693905.836 8 129767393.417 8     -1843.711          50.000    24693907.188 8  99432133.867 8     -1412.687          50.000
> 2020 05 11 14 13 30.0000000  0 14        .000000000000
G18  20725682.188 8 108914223.588 8     -1530.656          48.000    20725682.422 8  84868240.996 8     -1192.716          48.000
G20  22083384.805 8 116048983.111 8      2502.684          50.000    22083384.742 7  90427773.919 7      1950.146          45.000
G21  21105094.289 8 110908048.783 8     -1427.812          49.000    21105092.703 8  86421854.929 8     -1112.584          48.000
G26  20317909.703 8 106771326.625 8      -535.801          51.000    20317913.000 8  83198420.990 8      -417.507          51.000
R11  20409929.125 8 109064455.575 8     -3075.383          51.000    20409930.281 7  84827913.656 7     -2391.967          46.000
R22  20180516.367 6 107724962.955 6      1509.734          37.000
C05  39615882.461 5 206290294.889 5         2.051          34.000
C23  25456106.258 5 132556621.249 5     -3393.188          31.000
C28  21557457.797 8 112255487.565 8       -70.500          51.000
E11  25850687.945 6 135846273.531 6      2449.234          41.000    25850689.938 7 104090000.395 7      1876.725          45.000
E12  21651176.000 8 113777745.440 8       550.199          49.000    21651176.023 8  87180301.493 8       421.605          51.000
E24  22065640.156 7 115955714.294 7       278.859          46.000    22065653.156 7  88849244.169 7       213.465          46.000
E31  24859577.367 7 130637986.429 7     -2387.902          46.000    24859584.523 8 100099225.500 8     -1829.718          51.000
E33  24704444.234 8 129822773.526 8     -1851.680          49.000    24704445.945 8  99474567.974 8     -1418.790          50.000
> 2020 05 11 14 14  0.0000000  0 15        .000000000000
G18  20734456.242 8 108960331.300 8     -1539.664          49.000    20734456.680 7  84904169.075 7     -1199.738          47.000
G20  22069127.469 8 115974061.619 8      2495.680          50.000    22069127.711 7  90369393.527 7      1944.685          44.000
G21  21113272.312 8 110951025.166 8     -1433.602          49.000    21113270.961 8  86455343.012 8     -1117.092          48.000
G26  20321012.758 8 106787633.824 8      -547.934          51.000    20321015.773 8  83211127.894 8      -426.964          51.000
R05  22897249.312 6 122398880.960 6        26.535          36.000    22897255.000 4  95199168.549 4        20.638          26.000
R11  20427243.602 8 109156981.401 8     -3089.324          50.000    20427245.617 8  84899878.147 8     -2402.808          48.000
R21  20129279.625 4 107715823.128 4     -1901.344          27.000
R22  20172064.852 6 107679844.581 6      1502.148          37.000
C05  39615864.938 5 206290203.347 5         7.422          35.000
C28  21557883.258 8 112257703.069 8       -73.559          50.000
E11  25836715.156 6 135772846.935 6      2449.918          40.000    25836717.148 7 104033738.526 7      1877.243          45.000
E12  21648055.781 8 113761347.913 8       546.738          49.000    21648055.898 8  87167737.160 8       418.893          51.000
E24  22064082.883 7 115947529.463 7       270.547          47.000    22064095.570 7  88842972.673 7       207.353          46.000
E31  24873228.430 7 130709733.167 7     -2391.469          44.000    24873237.641 8 100154200.297 8     -1832.493          51.000
E33  24715023.211 8 129878366.749 8     -1850.961          49.000    24715025.180 8  99517165.377 8     -1418.266          49.000
> 2020 05 11 14 14 30.0000000  0 16        .000000000000
G18  20743291.797 8 109006761.858 8     -1558.195          49.000    20743291.836 7  84940348.711 7     -1214.178          47.000
G20  22054920.055 8 115899402.740 8      2478.988          51.000    22054920.273 7  90311217.775 7      1931.679          44.000
G21  21121491.617 8 110994218.124 8     -1448.520          49.000    21121490.445 8  86488999.862 8     -1128.717          48.000
G26  20324195.141 8 106804357.915 8      -569.621          51.000    20324198.055 8  83224159.631 8      -443.864          51.000
R05  22897178.508 6 122398496.178 6        -2.648          36.000    22897180.680 4  95198869.394 4        -2.054          29.000
R11  20444646.273 8 109249977.997 8     -3112.902          51.000    20444649.672 8  84972208.840 8     -2421.146          50.000
R21  20139970.055 6 107773019.884 6     -1914.656          36.000
R22  20163666.516 5 107635012.630 5      1484.297          33.000
C05  39615826.023 5 206290001.149 5         3.371          34.000
C27  23806798.258 4 123968242.637 4      2224.809          26.000
C28  21558335.984 8 112260059.407 8       -86.055          51.000
E11  25822747.266 6 135699449.911 6      2440.602          39.000    25822749.352 7 103977499.269 7      1870.272          44.000
E12  21644965.703 8 113745109.943 8       533.480          48.000    21644965.758 8  87155295.073 8       408.741          51.000
E24  22062581.547 7 115939638.304 7       252.965          47.000    22062593.914 7  88836926.220 7       193.800          47.000
E31  24886911.805 7 130781643.121 7     -2404.844          47.000    24886921.742 8 100209300.147 8     -1842.750          51.000
E33  24725608.234 8 129933991.549 8     -1859.875          49.000    24725610.344 8  99559786.969 8     -1425.048          49.000
> 2020 05 11 14 15  0.0000000  0 13        .000000000000
G18  20752230.789 8 109053736.024 8     -1570.258          49.000    20752230.445 7  84976951.930 7     -1223.578          47.000
G20  22040805.711 8 115825231.845 8      2468.777          51.000    22040805.484 7  90253422.297 7      1923.723          43.000
G21  21129794.211 8 111037848.508 8     -1457.164          49.000    21129792.922 8  86522997.556 8     -1135.453          49.000
G26  20327499.320 8 106821721.697 8      -584.949          51.000    20327502.227 8  83237689.823 8      -455.805          51.000
G29  23774030.305 5 124933355.067 5     -2857.320          31.000
