     3.02           OBSERVATION DATA    M (MIXED)           RINEX VERSION / TYPE
SAVERINEX           SC600               20200515 125930 LCL PGM / RUN BY / DATE
       G = GPS       R = GLONASS       C = COMPASS          COMMENT
       S = SBAS      J = QZSS          E = GALILEO          COMMENT
BEAN                                                        MARKER NAME
1                                                           MARKER NUMBER
GEODETIC                                                    MARKER TYPE
Unige DICCA         GTER                                    OBSERVER / AGENCY
SC60291900056       SC600               2.12(191202)        REC # / TYPE / VERS
                    HEMA45          NONE                    ANT # / TYPE
  4509407.8091   693652.4678  4442337.6214                  APPROX POSITION XYZ
        0.0000        0.0000        0.0000                  ANTENNA: DELTA H/E/N
G    8 C1C L1C D1C S1C C2Y L2Y D2Y S2Y                      SYS / # / OBS TYPES
R    8 C1C L1C D1C S1C C2P L2P D2P S2P                      SYS / # / OBS TYPES
C    8 C1I L1I D1I S1I C7I L7I D7I S7I                      SYS / # / OBS TYPES
E    8 C1C L1C D1C S1C C7Q L7Q D7Q S7Q                      SYS / # / OBS TYPES
DBHZ                                                        COMMENT
     30.000                                                 INTERVAL
  2020    05    15    10    00    0.0000000     GPS         TIME OF FIRST OBS
  2020    05    15    10    59   30.0000000     GPS         TIME OF LAST OBS
     0                                                      RCV CLOCK OFFS APPL
G L1C  0.00000                                              SYS / PHASE SHIFT
G L2Y  0.00000                                              SYS / PHASE SHIFT
R L1C  0.00000                                              SYS / PHASE SHIFT
R L2P  0.25000                                              SYS / PHASE SHIFT
C L1I  0.00000                                              SYS / PHASE SHIFT
C L7I  0.00000                                              SYS / PHASE SHIFT
E L1C  0.50000                                              SYS / PHASE SHIFT
E L7Q -0.25000                                              SYS / PHASE SHIFT
 13 R01  1 R02 -4 R03  5 R08  6 R10 -5 R11  0 R12 -1 R13 -2 GLONASS SLOT / FRQ #
    R14 -7 R17  4 R21  4 R22 -3 R23  3                      GLONASS SLOT / FRQ #
 C1C   71.950 C2C   71.950 C2P   71.950                     GLONASS COD/PHS/BIS
    18                                                      LEAP SECONDS
*** Above antenna height is from mark to ANTENNA BOTTOM.    COMMENT
    17     4        0.0000        ANT MEASURE TYPE/HEIGT    COMMENT
    0.0000    0.0000    0.0458    0.0405    0.0000          COMMENT
                    BASE STATION                            COMMENT
                                                            END OF HEADER
> 2020 05 15 10 00  0.0000000  0 16        .000000000000
G02  22978358.164 5 120752087.272 5      -595.988          33.000
G06  24121394.945 6 126758793.243 6     -2025.297          36.000    24121395.281 5  98773078.216 5     -1578.156          35.000
G12  21076830.055 5 110759505.876 5     -1887.789          33.000    21076829.477 5  86306076.232 5     -1471.004          32.000
G24  23513274.742 7 123563073.405 7     -3507.676          43.000    23513282.172 7  96282912.066 7     -2733.257          42.000
G25  20152916.773 8 105904275.461 8      -133.457          51.000    20152918.109 8  82522854.387 8      -103.992          51.000
G29  20987295.594 8 110288983.245 8      2078.383          51.000    20987295.266 8  85939478.763 8      1619.522          51.000
G32  22621609.547 6 118877339.415 6     -1726.465          41.000    22621609.117 6  92631709.988 6     -1345.300          41.000
R13  19691272.156 6 105150298.252 6     -1059.746          41.000    19691275.336 7  81783561.675 7      -824.247          45.000
R23  19317456.430 8 103335375.024 8       136.918          51.000    19317459.992 7  80371982.322 7       106.492          42.000
R24  20509913.242 8 109675749.019 8      3258.711          51.000    20509915.641 7  85303333.389 7      2534.553          46.000
C05  39681399.125 5 206631457.504 5        33.559          35.000    39681396.203 6 159780538.893 6        26.436          37.000
C27  22881230.992 6 119148599.732 6     -1810.016          39.000
C30  21861613.570 8 113839217.845 8      1360.805          51.000
E13  24656601.633 8 129571298.423 8      2326.156          51.000    24656597.961 7  99281913.093 7      1782.323          47.000
E15  24421359.125 7 128335111.785 7      -452.145          42.000
E27  24148227.727 8 126899769.546 8     -1252.531          50.000    24148229.352 7  97234907.417 7      -959.666          45.000
> 2020 05 15 10 00 30.0000000  0 15        .000000000000
G06  24132977.609 6 126819669.601 6     -2023.598          36.000    24132981.195 5  98820514.261 5     -1576.829          35.000
G24  23533289.562 8 123668250.210 8     -3494.609          48.000    23533297.344 8  96364868.000 8     -2723.075          48.000
G25  20153685.797 8 105908316.737 8      -126.543          51.000    20153687.219 8  82526003.440 8       -98.605          51.000
G29  20975448.219 8 110226724.520 8      2081.738          51.000    20975447.609 8  85890965.516 8      1622.137          51.000
G32  22631483.336 6 118929231.443 6     -1723.871          39.000    22631484.227 6  92672145.286 6     -1343.279          40.000
R13  19697245.875 6 105182196.304 6     -1056.941          41.000    19697249.141 7  81808371.255 7      -822.066          44.000
R23  19316740.727 8 103331546.395 8       127.848          51.000    19316744.523 7  80369004.514 7        99.437          43.000
R24  20491657.266 8 109578127.160 8      3258.949          51.000    20491659.641 7  85227405.299 7      2534.738          47.000
C05  39681177.383 5 206630302.959 5        52.367          35.000    39681174.648 6 159779646.187 6        40.324          37.000
C13  38175970.469 4 198792297.442 4       443.895          28.000    38175955.016 4 153718750.794 4       343.057          29.000
C27  22891671.719 6 119202967.231 6     -1804.906          40.000
C30  21853791.320 8 113798485.708 8      1364.035          51.000
E13  24643325.836 8 129501533.798 8      2334.188          51.000    24643323.984 8  99228457.110 8      1788.584          49.000
E15  24423957.711 6 128348767.682 6      -448.695          41.000
E27  24155369.484 8 126937297.989 8     -1239.926          50.000    24155370.297 7  97263662.983 7      -950.154          46.000
> 2020 05 15 10 01  0.0000000  0 14        .000000000000
G06  24144684.242 6 126881194.273 6     -2077.555          36.000    24144689.461 6  98868455.510 6     -1618.871          37.000
G24  23553367.836 8 123773756.481 8     -3538.281          50.000    23553375.055 8  96447080.635 8     -2757.102          50.000
G25  20154551.773 8 105912867.631 8      -176.141          51.000    20154553.422 8  82529549.595 8      -137.252          51.000
G29  20963718.445 8 110165083.252 8      2028.430          51.000    20963717.398 8  85842933.357 8      1580.595          51.000
G32  22641476.352 6 118981753.844 6     -1777.242          37.000    22641477.328 6  92713071.829 6     -1384.861          37.000
R13  19703340.836 6 105214742.672 6     -1112.113          40.000    19703343.930 7  81833685.076 7      -864.977          44.000
R23  19316212.070 8 103328719.076 8        61.301          51.000    19316216.250 7  80366805.500 7        47.678          43.000
R24  20473537.234 8 109481231.584 8      3201.445          51.000    20473539.203 7  85152042.085 7      2490.013          46.000
C05  39680987.297 5 206629313.014 5        14.734          35.000    39680984.594 6 159778880.677 6        11.010          37.000
C27  22902217.188 6 119257882.395 6     -1855.734          38.000
C30  21846087.055 8 113758367.280 8      1311.207          51.000
E13  24630140.438 8 129432243.716 8      2285.711          50.000    24630140.492 8  99175364.750 8      1751.380          50.000
E15  24426672.703 6 128363032.319 6      -501.508          41.000
E27  24162575.922 8 126975167.227 8     -1284.000          48.000    24162577.094 7  97292679.644 7      -983.940          46.000
> 2020 05 15 10 01 30.0000000  0 15        .000000000000
G06  24156505.938 5 126943321.168 5     -2070.035          34.000    24156512.672 5  98916866.022 5     -1613.017          35.000
G24  23573500.047 8 123879546.565 8     -3520.102          50.000    23573506.352 8  96529514.394 8     -2742.936          50.000
G25  20155506.289 8 105917883.819 8      -164.102          51.000    20155508.133 8  82533458.315 8      -127.868          51.000
G29  20952097.781 8 110104015.983 8      2036.805          51.000    20952096.438 8  85795348.457 8      1587.121          51.000
G32  22651581.211 6 119034860.032 6     -1768.738          40.000    22651581.492 6  92754453.230 6     -1378.241          40.000
R13  19709548.664 6 105247892.316 6     -1104.059          40.000    19709551.672 7  81859468.120 7      -858.712          44.000
R22  22838201.234 5 121911837.516 5     -4031.832          32.000    22838202.586 5  94820322.159 5     -3135.872          31.000
R23  19315862.172 8 103326847.966 8        57.566          51.000    19315866.836 7  80365350.201 7        44.774          44.000
R24  20455545.266 8 109385020.681 8      3206.672          51.000    20455547.109 7  85077211.403 7      2494.078          46.000
C05                                                                  39680817.641 6 159778208.471 6        29.031          37.000
C27  22912859.352 6 119313299.475 6     -1844.699          39.000
C30  21838492.406 8 113718819.292 8      1319.617          51.000
E13  24617037.297 8 129363385.431 8      2298.914          51.000    24617038.922 8  99122603.237 8      1761.497          51.000
E15  24429494.016 6 128377860.805 6      -492.922          38.000    24429504.633 5  98367486.466 5      -377.334          35.000
E27  24169838.531 7 127013333.128 7     -1266.270          47.000    24169840.289 7  97321923.587 7      -970.279          47.000
> 2020 05 15 10 02  0.0000000  0 16        .000000000000
G06  24168384.133 5 127005744.110 5     -2091.340          35.000    24168392.164 5  98965507.283 5     -1629.615          35.000
G12  21120319.398 5 110988029.525 5     -1921.305          30.000    21120321.148 5  86484175.773 5     -1497.121          30.000
G24  23593627.664 8 123985313.442 8     -3530.812          51.000    23593631.250 8  96611930.001 8     -2751.289          49.000
G25  20156491.484 8 105923061.276 8      -180.973          51.000    20156493.352 8  82537492.693 8      -141.018          51.000
G29  20940528.852 8 110043220.116 8      2016.254          51.000    20940527.109 8  85747975.058 8      1571.107          51.000
G32  22661739.266 7 119088243.610 7     -1789.742          42.000    22661738.594 7  92796050.807 7     -1394.601          42.000
R13  19715811.695 6 105281337.043 6     -1125.410          41.000    19715814.641 7  81885480.660 7      -875.319          45.000
R22  22860905.844 5 122033035.283 5     -4048.293          30.000    22860906.867 5  94914587.034 5     -3148.672          30.000
R23  19315633.023 8 103325622.741 8        24.258          51.000    19315637.914 7  80364397.249 7        18.867          43.000
R24  20437623.477 8 109289188.479 8      3182.207          50.000    20437626.211 7  85002675.291 7      2475.050          46.000
C05  39680618.828 5 206627393.782 5        32.055          35.000    39680615.938 6 159777396.572 6        25.001          37.000
C27  22923540.508 6 119368915.471 6     -1862.902          40.000
C30  21830949.539 8 113679541.107 8      1299.051          51.000
E13  24603958.922 8 129294656.500 8      2283.035          51.000    24603961.508 8  99069940.837 8      1749.363          51.000
E15  24432365.047 6 128392948.492 6      -513.094          40.000    24432365.805 6  98379047.240 6      -393.192          36.000
E27  24177099.961 7 127051491.824 7     -1277.543          47.000    24177100.812 7  97351162.057 7      -978.861          47.000
> 2020 05 15 10 02 30.0000000  0 16        .000000000000
G06  24180365.406 5 127068707.384 5     -2106.387          34.000    24180373.430 5  99014569.579 5     -1641.337          35.000
G24  23613797.336 8 124091302.489 8     -3535.516          51.000    23613795.758 8  96694518.692 8     -2754.950          50.000
G25  20157554.219 8 105928646.234 8      -191.766          51.000    20157556.008 8  82541844.612 8      -149.428          51.000
G29  20929058.641 8 109982943.089 8      2001.812          51.000    20929056.570 8  85701005.973 8      1559.857          51.000
G32  22671996.828 7 119142148.381 7     -1804.223          42.000    22671997.055 7  92838054.483 7     -1405.891          42.000
R13  19722177.273 7 105315327.671 7     -1141.004          42.000    19722180.180 7  81911917.796 7      -887.447          45.000
R23  19315571.219 8 103325293.773 8        -2.750          51.000    19315576.414 7  80364141.394 7        -2.139          43.000
R24  20419819.641 8 109193988.963 8      3163.977          49.000    20419823.586 7  84928631.269 7      2460.871          45.000
C05                                                                  39680426.555 6 159776633.827 6        25.527          37.000
C27  22934306.578 6 119424972.658 6     -1874.875          41.000
C29  25134388.734 6 130881360.491 6      3341.539          36.000
C30  21823505.289 8 113640777.391 8      1284.715          51.000
E13  24590952.398 8 129226304.849 8      2273.234          51.000    24590955.391 8  99017567.517 8      1741.817          51.000
E15  24435332.898 6 128408541.250 6      -526.953          38.000    24435330.453 6  98390994.864 6      -403.760          37.000
E21  23891257.711 5 125549405.926 5      1011.883          32.000    23891258.836 5  96200198.646 5       775.872          31.000
E27  24184407.062 7 127089889.857 7     -1282.797          45.000    24184407.523 7  97380583.972 7      -982.898          47.000
> 2020 05 15 10 03  0.0000000  0 15        .000000000000
G24  23633998.211 8 124197457.071 8     -3539.414          50.000    23633995.656 8  96777236.447 8     -2757.988          50.000
G25  20158684.172 8 105934584.519 8      -202.051          51.000    20158685.945 8  82546471.842 8      -157.442          51.000
G29  20917676.688 8 109923131.060 8      1987.723          51.000    20917674.914 8  85654399.236 8      1548.875          51.000
G32  22682343.023 6 119196517.832 6     -1818.129          41.000    22682344.992 6  92880420.249 6     -1416.724          41.000
R13  19728634.523 7 105349809.432 7     -1155.961          42.000    19728637.523 7  81938736.928 7      -899.084          46.000
R23  19315666.258 8 103325804.994 8       -29.109          50.000    19315672.133 7  80364539.024 7       -22.641          43.000
R24  20402124.516 8 109099370.224 8      3146.051          50.000    20402129.117 7  84855038.941 7      2446.928          44.000
C05  39680241.711 5 206625430.797 5        34.277          35.000    39680239.023 6 159775878.653 6        26.572          37.000
C27  22945145.812 6 119481415.492 6     -1886.070          39.000
C29  25115156.445 6 130781205.509 6      3338.039          37.000
C30  21816149.711 8 113602475.030 8      1270.801          51.000
E13  24578007.523 8 129158277.771 8      2263.953          51.000    24578010.555 8  98965442.887 8      1734.690          51.000
E15                                                                  24438383.656 6  98403287.399 6      -414.027          38.000
E21  23885494.875 5 125519121.921 5      1008.121          33.000
E27  24191748.789 6 127128473.249 6     -1287.176          40.000    24191750.055 7  97410147.867 7      -986.457          47.000
> 2020 05 15 10 03 30.0000000  0 15        .000000000000
G24  23654219.117 8 124303717.288 8     -3545.266          50.000    23654218.000 8  96860036.530 8     -2762.548          50.000
G25  20159870.148 8 105940817.499 8      -213.984          51.000    20159872.023 8  82551328.701 8      -166.741          51.000
G29  20906372.273 8 109863726.738 8      1971.945          51.000    20906371.344 8  85608110.208 8      1536.584          51.000
G32  22692766.383 7 119251290.975 7     -1833.664          43.000    22692769.102 7  92923100.596 7     -1428.829          43.000
R13  19735172.664 6 105384723.104 6     -1172.328          41.000    19735175.547 7  81965891.997 7      -911.811          46.000
R23  19315907.141 8 103327096.498 8       -57.406          48.000    19315913.727 7  80365543.522 7       -44.649          43.000
R24  20384528.625 8 109005275.875 8      3126.273          51.000    20384532.539 7  84781854.476 7      2431.546          44.000
C05  39680044.953 5 206624406.029 5        33.340          35.000    39680042.234 6 159775086.224 6        25.747          37.000
C27  22956047.711 6 119538184.035 6     -1899.152          40.000
C29  25095940.570 6 130681134.117 6      3332.941          38.000
C30  21808871.898 8 113564576.591 8      1255.160          51.000
E13  24565113.453 8 129090518.240 8      2252.738          51.000    24565116.438 8  98913523.274 8      1726.079          51.000
E15  24441521.680 5 128441034.740 5      -555.844          34.000    24441510.844 6  98415879.500 6      -425.864          39.000
E21  23879753.508 5 125488951.305 5      1002.539          34.000
E27  24199114.734 7 127167183.642 7     -1293.797          43.000    24199116.734 8  97439809.081 8      -991.441          48.000
> 2020 05 15 10 04  0.0000000  0 16        .000000000000
G12  21164578.031 5 111220617.307 5     -1954.566          32.000    21164579.656 5  86665409.094 5     -1523.036          32.000
G24  23674472.461 8 124410147.514 8     -3550.473          50.000    23674472.727 8  96942969.128 8     -2766.602          50.000
G25  20161124.914 8 105947411.825 8      -225.875          51.000    20161126.906 8  82556467.131 8      -176.006          51.000
G29  20895158.195 8 109804797.584 8      1956.395          51.000    20895157.945 8  85562191.412 8      1524.466          51.000
G32  22703278.688 7 119306532.015 7     -1849.121          44.000    22703280.734 7  92966145.570 7     -1440.871          43.000
R13  19741804.398 6 105420137.462 6     -1188.746          41.000    19741807.742 7  81993436.474 7      -924.583          46.000
R23  19316306.047 8 103329235.017 8       -85.441          48.000    19316313.672 7  80367206.830 7       -66.454          43.000
R24  20367044.398 8 108911776.767 8      3106.617          51.000    20367047.578 7  84709133.011 7      2416.261          45.000
C05                                                                  39679848.820 6 159774307.636 6        25.774          37.000
C27  22967024.688 6 119595342.571 6     -1911.555          39.000
C29  25076752.648 6 130581213.997 6      3328.199          39.000
C30  21801684.227 8 113527148.627 8      1239.738          51.000
E13  24552282.930 8 129023094.403 8      2241.871          51.000    24552285.875 8  98861860.881 8      1717.794          51.000
E15                                                                  24444725.711 6  98428821.752 6      -437.190          40.000
E21  23874046.242 5 125458956.222 5       996.781          33.000
E27  24206518.484 7 127206087.796 7     -1299.938          45.000    24206520.453 8  97469618.799 8      -996.116          48.000
> 2020 05 15 10 04 30.0000000  0 17        .000000000000
G12  21175759.812 5 111279365.271 5     -1961.781          34.000    21175759.562 5  86711186.691 5     -1528.664          34.000
G24  23694753.266 7 124516723.413 7     -3555.027          47.000    23694754.586 7  97026015.275 7     -2770.151          47.000
G25  20162444.203 8 105954345.018 8      -236.840          51.000    20162446.336 8  82561869.611 8      -184.551          51.000
G29  20884030.281 8 109746322.223 8      1941.566          50.000    20884030.383 8  85516626.200 8      1512.909          50.000
G32  22713875.328 7 119362216.142 7     -1863.668          42.000    22713875.969 7  93009535.739 7     -1452.209          42.000
R13  19748525.609 6 105456029.438 6     -1204.602          39.000    19748529.195 7  82021352.462 7      -936.912          45.000
R23  19316859.430 8 103332196.994 8      -112.508          48.000    19316867.055 7  80369510.551 7       -87.506          42.000
R24  20349668.031 8 108818853.643 8      3087.691          51.000    20349670.359 7  84636859.522 7      2401.538          44.000
C05  39679657.547 5 206622388.917 5        34.047          35.000    39679654.664 6 159773525.710 6        26.080          37.000
C13  38157497.594 5 198696095.432 5       377.230          31.000
C27  22978070.547 5 119652866.865 5     -1922.902          35.000
C29  25057589.445 6 130481424.642 6      3323.816          40.000
C30  21794582.602 8 113490169.490 8      1225.020          51.000
E13  24539512.023 8 128955985.345 8      2231.672          51.000    24539515.289 8  98810439.690 8      1709.991          51.000
E15                                                                  24448024.875 6  98442096.434 6      -448.043          41.000
E21  23868368.289 5 125429121.081 5       991.652          32.000    23868373.242 5  96108047.631 5       760.116          30.000
E27  24213954.602 7 127245163.544 7     -1305.410          46.000    24213956.539 7  97499560.006 7     -1000.270          47.000
> 2020 05 15 10 05  0.0000000  0 18        .000000000000
G02  23017270.562 5 120956550.177 5      -763.500          35.000
G12  21186977.969 6 111338314.506 6     -1968.062          39.000    21186976.711 6  86757121.089 6     -1533.555          39.000
G24  23715053.531 7 124623404.228 7     -3557.730          45.000    23715056.148 7  97109143.156 7     -2772.258          45.000
G25  20163820.570 8 105961577.835 8      -246.004          51.000    20163822.828 8  82567505.570 8      -191.691          51.000
G29  20872981.875 8 109688262.395 8      1928.473          51.000    20872981.758 8  85471384.775 8      1502.706          51.000
G32  22724548.500 6 119418301.670 6     -1876.188          41.000    22724548.609 7  93053238.706 7     -1461.964          42.000
R13  19755328.781 6 105492359.603 6     -1218.289          40.000    19755332.422 7  82049609.254 7      -947.558          45.000
R22  22998279.281 5 122766324.574 5     -4098.332          34.000
R23  19317559.391 8 103335941.835 8      -137.934          48.000    19317566.961 7  80372423.218 7      -107.282          42.000
R24  20332391.914 8 108726469.650 8      3070.516          51.000    20332393.203 7  84565005.346 7      2388.179          43.000
C05  39679455.156 5 206621334.598 5        36.078          35.000    39679452.133 6 159772710.450 6        27.671          37.000
C13  38155327.266 5 198684812.360 5       374.230          33.000
C27  22989180.016 6 119710716.528 6     -1933.785          39.000
C29  25038443.336 6 130381728.915 6      3321.820          39.000
C30  21787559.961 8 113453600.856 8      1212.148          51.000
E13  24526794.109 8 128889153.441 8      2223.133          51.000    24526797.156 8  98759230.854 8      1703.496          51.000
E15                                                                  24451397.648 6  98455672.999 6      -457.223          40.000
E27  24221415.578 7 127284371.943 7     -1309.035          46.000    24221418.148 7  97529602.807 7     -1003.045          47.000
> 2020 05 15 10 05 30.0000000  0 17        .000000000000
G12  21198246.922 6 111397529.962 6     -1978.191          40.000    21198244.328 6  86803263.034 6     -1541.448          40.000
G24  23735386.242 7 124730254.687 7     -3564.324          45.000    23735389.586 7  97192403.242 7     -2777.395          45.000
G25  20165266.477 8 105969176.075 8      -259.184          51.000    20165268.719 8  82573426.273 8      -201.961          51.000
G29  20862025.703 8 109630684.919 8      1911.340          51.000    20862025.172 8  85426519.216 8      1489.356          51.000
G32  22735307.789 6 119474852.297 6     -1892.379          36.000
R13  19762226.805 6 105529195.221 6     -1236.426          40.000    19762230.797 7  82078259.157 7      -961.664          45.000
R22  23021349.234 5 122889457.795 5     -4108.863          35.000
R23  19318418.484 8 103340535.692 8      -167.113          49.000    19318426.055 7  80375996.219 7      -129.977          42.000
R24  20315228.836 8 108634694.937 8      3049.168          49.000    20315230.641 7  84493625.081 7      2371.578          45.000
C05  39679256.867 5 206620302.393 5        34.027          35.000    39679253.938 6 159771912.248 6        26.629          37.000
C13  38153197.594 5 198673730.583 5       366.355          34.000
C27  23000363.961 6 119768954.787 6     -1947.602          38.000
C29  25019326.641 6 130282193.589 6      3315.660          37.000
C30  21780628.883 8 113417508.507 8      1195.336          51.000
E13  24514142.250 8 128822666.026 8      2210.590          51.000    24514144.633 8  98708285.960 8      1693.811          51.000
E15                                                                  24454855.867 6  98469601.383 6      -469.968          40.000
E27  24228914.070 7 127323778.957 7     -1316.719          46.000    24228917.914 7  97559797.754 7     -1008.911          47.000
> 2020 05 15 10 06  0.0000000  0 17        .000000000000
G12  21209568.234 6 111457022.924 6     -1989.629          40.000    21209565.562 6  86849621.151 6     -1550.357          39.000
G24  23755753.102 7 124837283.722 7     -3572.594          45.000    23755756.492 7  97275802.455 7     -2783.842          45.000
G25  20166784.219 8 105977151.826 8      -273.969          51.000    20166786.406 8  82579641.135 8      -213.482          51.000
G29  20851163.664 8 109573602.540 8      1892.668          51.000    20851162.727 8  85382039.444 8      1474.806          51.000
G32  22746160.492 6 119531883.206 6     -1910.469          36.000
R13  19769222.352 6 105566549.823 6     -1255.523          41.000    19769226.000 7  82107312.729 7      -976.518          44.000
R22  23044472.484 5 123012883.936 5     -4120.723          33.000
R23  19319438.422 8 103345989.880 8      -197.934          50.000    19319445.148 7  80380238.380 7      -153.948          42.000
R24  20298182.586 8 108543545.302 8      3026.004          48.000    20298185.555 7  84422730.902 7      2353.559          46.000
C05  39679065.125 5 206619303.352 5        30.871          35.000    39679062.312 6 159771140.526 6        23.844          37.000
C13  38151110.945 5 198662861.763 5       356.871          34.000
C27  23011624.133 6 119827591.638 6     -1962.961          36.000
C29  25000243.391 6 130182832.493 6      3307.402          36.000
C30  21773791.602 8 113381904.880 8      1176.852          51.000
E13  24501558.578 8 128756536.688 8      2196.414          51.000    24501560.266 8  98657615.424 8      1682.976          51.000
E15                                                                  24458405.820 6  98483890.381 6      -483.682          41.000
E27  24236453.094 8 127363396.828 8     -1325.961          48.000    24236457.047 7  97590154.305 7     -1016.035          45.000
> 2020 05 15 10 06 30.0000000  0 17        .000000000000
G12  21220945.234 5 111516814.423 5     -1997.090          35.000    21220943.664 5  86896211.969 5     -1556.174          34.000
G24  23776157.570 7 124944511.253 7     -3576.840          44.000    23776161.016 7  97359356.317 7     -2787.148          44.000
G25  20168377.867 8 105985526.258 8      -285.199          51.000    20168380.062 8  82586166.657 8      -222.233          51.000
G29  20840399.594 8 109517037.808 8      1877.480          50.000    20840398.672 8  85337963.011 8      1462.972          50.000
G32  22757106.219 6 119589401.822 6     -1924.816          39.000    22757116.352 6  93186574.285 6     -1499.857          39.000
R13  19776319.031 6 105604444.320 6     -1271.500          41.000    19776322.625 7  82136786.206 7      -988.947          44.000
R22  23067654.414 5 123136658.087 5     -4128.957          31.000
R23  19320623.203 8 103352324.731 8      -225.254          50.000    19320629.531 7  80385165.502 7      -175.194          43.000
R24  20281258.273 8 108453045.225 8      3006.367          48.000    20281262.070 7  84352341.909 7      2338.286          47.000
C05  39678883.992 5 206618360.420 5        31.223          35.000    39678881.156 6 159770411.411 6        24.180          37.000
C13  38149071.344 5 198652226.921 5       350.523          31.000
C27  23022965.859 6 119886646.441 6     -1974.836          41.000
C29  24981197.555 5 130083668.151 5      3302.707          35.000
C30  21767052.125 8 113346811.488 8      1161.902          51.000
E13  24489047.438 8 128690788.109 8      2185.988          51.000    24489048.992 8  98607236.635 8      1674.972          51.000
E15  24462041.914 5 128548929.648 5      -645.551          35.000    24462049.633 6  98498555.680 6      -494.463          40.000
E27  24244036.359 8 127403246.945 8     -1331.539          48.000    24244040.102 7  97620688.822 7     -1020.204          43.000
> 2020 05 15 10 07  0.0000000  0 15        .000000000000
G06  24292190.938 5 127656311.281 5     -2246.391          31.000
G24  23796586.383 6 125051867.964 6     -3579.949          41.000    23796590.289 6  97443010.849 6     -2789.574          40.000
G25  20170034.672 8 105994232.333 8      -294.844          51.000    20170036.805 8  82592950.603 8      -229.748          51.000
G29  20829721.047 8 109460924.210 8      1863.895          50.000    20829720.492 8  85294238.122 8      1452.385          50.000
G32  22768131.875 6 119647342.958 6     -1937.789          38.000    22768140.867 6  93231723.228 6     -1509.966          37.000
R13  19783504.156 7 105642811.313 7     -1285.992          42.000    19783507.602 7  82166627.170 7     -1000.219          43.000
R23  19321959.586 8 103359471.652 8      -250.867          51.000    19321965.656 7  80390724.233 7      -195.119          42.000
R24  20264443.859 8 108363129.550 8      2988.383          50.000    20264447.648 7  84282407.511 7      2324.301          46.000
C05  39678700.812 5 206617406.408 5        33.121          35.000    39678697.914 6 159769673.714 6        25.430          37.000
C27  23034374.438 6 119946050.993 6     -1985.344          41.000
C29  24962177.766 5 129984635.878 5      3299.695          34.000
C30  21760398.086 8 113312162.430 8      1148.410          51.000
E13  24476596.016 8 128625354.784 8      2176.785          51.000    24476597.789 8  98557099.413 8      1667.950          51.000
E15  24465768.375 5 128568480.520 5      -658.523          30.000    24465772.344 6  98513545.396 6      -504.523          39.000
E27  24251650.781 7 127443262.595 7     -1335.652          46.000    24251655.367 6  97651350.094 6     -1023.407          40.000
> 2020 05 15 10 07 30.0000000  0 16        .000000000000
G12  21243823.562 6 111637046.424 6     -2008.625          38.000    21243823.891 6  86989902.214 6     -1565.162          39.000
G24  23817031.953 6 125159314.159 6     -3581.559          39.000    23817037.164 6  97526735.108 6     -2790.825          39.000
G25  20171747.305 8 106003231.769 8      -303.328          51.000    20171749.312 8  82599963.145 8      -236.360          51.000
G29  20819121.758 8 109405224.517 8      1851.262          51.000    20819121.266 8  85250835.779 8      1442.542          51.000
G32  22779229.734 6 119705666.739 6     -1949.074          37.000    22779238.336 6  93277170.398 6     -1518.756          38.000
R13  19790770.820 7 105681611.966 7     -1299.062          42.000    19790773.516 7  82196805.435 7     -1010.382          43.000
R23  19323440.258 8 103367390.406 8      -275.324          51.000    19323445.805 7  80396883.275 7      -214.141          42.000
R24  20247732.391 8 108273762.537 8      2971.199          51.000    20247735.703 7  84212899.885 7      2310.933          46.000
C05  39678508.305 5 206616404.313 5        36.070          35.000    39678505.281 6 159768898.075 6        27.532          37.000
C13  38145073.281 5 198631386.933 5       343.402          30.000
C27  23045840.961 5 120005765.366 5     -1993.949          34.000
C29  24943177.281 5 129885699.399 5      3297.879          34.000
C30  21753822.148 8 113277920.302 8      1136.141          51.000
E13  24464197.445 8 128560199.983 8      2168.672          51.000    24464199.672 8  98507175.624 8      1661.704          51.000
E15  24469560.273 5 128588419.751 5      -669.980          34.000    24469568.523 6  98528829.658 6      -513.281          39.000
E27  24259289.609 7 127483405.716 7     -1338.711          47.000    24259294.625 6  97682108.995 6     -1025.706          38.000
> 2020 05 15 10 08  0.0000000  0 16        .000000000000
G12  21255325.242 7 111697487.171 7     -2019.445          42.000    21255325.328 7  87036998.934 7     -1573.594          42.000
G24  23837501.836 6 125266884.499 6     -3588.980          41.000    23837508.055 6  97610556.122 6     -2796.608          41.000
G25  20173522.609 8 106012560.814 8      -317.379          51.000    20173524.492 8  82607232.523 8      -247.308          51.000
G29  20808608.469 8 109349975.688 8      1833.141          51.000    20808608.023 8  85207784.806 8      1428.424          51.000
G32  22790407.914 7 119764407.105 7     -1965.777          42.000    22790415.062 7  93322942.165 7     -1531.772          42.000
R13  19798125.328 7 105720883.240 7     -1317.996          43.000    19798127.625 7  82227349.725 7     -1025.111          44.000
R23  19325071.688 8 103376116.920 8      -305.336          51.000    19325077.195 7  80403670.583 7      -237.484          42.000
R24  20231130.977 8 108184984.114 8      2948.453          51.000    20231133.578 7  84143850.067 7      2293.244          44.000
C05  39678313.148 5 206615388.205 5        33.066          35.000    39678310.164 6 159768112.347 6        25.457          37.000
C13  38143114.383 5 198621214.376 5       334.801          33.000
C27  23057374.281 5 120065823.429 5     -2008.488          35.000
C29  24924203.672 5 129786896.385 5      3290.188          35.000
C30  21747331.086 8 113244121.438 8      1118.355          51.000
E13  24451858.844 8 128495361.346 8      2155.105          51.000    24451861.461 8  98457494.115 8      1651.297          51.000
E15                                                                  24473444.414 6  98544435.715 6      -526.355          38.000
E27  24266960.062 7 127523712.731 7     -1347.219          46.000    24266964.273 6  97712993.537 6     -1032.311          40.000
> 2020 05 15 10 08 30.0000000  0 16        .000000000000
G12  21266876.531 7 111758188.712 7     -2027.020          42.000    21266876.008 7  87084298.844 7     -1579.493          43.000
G24  23858002.180 7 125374611.053 7     -3593.125          42.000    23858008.742 6  97694498.866 6     -2799.841          41.000
G25  20175367.086 8 106022253.499 8      -328.711          51.000    20175368.852 8  82614785.268 8      -256.138          51.000
G29  20798187.562 8 109295212.735 8      1817.863          51.000    20798186.844 8  85165112.443 8      1416.517          51.000
G32  22801671.812 7 119823595.567 7     -1979.727          43.000    22801678.062 7  93369063.009 7     -1542.647          43.000
R13  19805574.492 7 105760660.899 7     -1333.891          43.000    19805576.531 7  82258287.866 7     -1037.474          44.000
R23  19326860.570 8 103385684.782 8      -332.422          51.000    19326865.695 7  80411112.251 7      -258.550          43.000
R24  20214646.078 8 108096832.035 8      2928.469          51.000    20214647.641 6  84075287.418 6      2277.701          41.000
C05  39678121.969 5 206614392.733 5        33.582          34.000    39678118.969 6 159767342.575 6        25.853          37.000
C13  38141195.500 5 198611240.691 5       329.133          32.000
C27  23068980.609 6 120126257.559 6     -2020.191          40.000
C29  24905263.906 6 129688262.162 6      3285.566          36.000
C30  21740931.570 8 113210800.029 8      1103.285          51.000
E13  24439587.078 8 128430874.471 8      2144.160          51.000    24439589.711 8  98408082.133 8      1642.931          51.000
E15                                                                  24477405.789 6  98560389.083 6      -537.396          37.000
E27  24274668.344 7 127564217.944 7     -1353.059          46.000    24274671.703 7  97744029.962 7     -1036.846          44.000
> 2020 05 15 10 09  0.0000000  0 16        .000000000000
G12  21278472.500 6 111819125.354 6     -2035.035          41.000    21278471.625 6  87131781.945 6     -1585.742          41.000
G24  23878527.172 7 125482467.030 7     -3597.375          43.000    23878533.812 7  97778542.437 7     -2803.149          43.000
G25  20177276.000 8 106032284.697 8      -340.148          51.000    20177277.641 8  82622601.782 8      -265.051          51.000
G29  20787854.703 8 109240911.407 8      1802.223          51.000    20787853.539 8  85122799.742 8      1404.332          51.000
G32  22813015.812 7 119883204.435 7     -1994.141          42.000    22813020.891 7  93415511.426 7     -1553.879          42.000
R13  19813113.531 7 105800919.057 7     -1349.945          43.000    19813115.414 7  82289599.730 7     -1049.957          44.000
R23  19328801.586 8 103396067.614 8      -359.723          51.000    19328806.516 7  80419187.804 7      -279.784          42.000
R24  20198274.031 8 108009284.014 8      2908.105          49.000    20198274.117 6  84007194.527 6      2261.860          41.000
C05  39677930.039 5 206613393.096 5        33.449          35.000    39677927.039 6 159766569.614 6        25.835          37.000
C13  38139311.477 4 198601440.951 4       322.691          29.000
C27  23080653.180 6 120187040.748 6     -2031.855          39.000
C29  24886352.758 6 129589773.653 6      3280.262          38.000
C30  21734619.297 8 113177931.661 8      1087.992          51.000
E13  24427377.859 8 128366715.732 8      2133.191          51.000    24427380.289 8  98358921.563 8      1634.493          51.000
E15                                                                  24481450.172 6  98576669.964 6      -547.854          37.000
E27  24282409.555 7 127604896.402 7     -1358.918          45.000    24282411.984 7  97775199.175 7     -1041.141          46.000
> 2020 05 15 10 09 30.0000000  0 15        .000000000000
G12  21290116.164 6 111880313.029 6     -2043.367          40.000    21290115.195 6  87179460.577 6     -1592.237          40.000
G24  23899079.555 7 125590466.597 7     -3601.918          43.000    23899085.438 7  97862697.903 7     -2806.692          43.000
G25  20179252.492 8 106042671.131 8      -351.883          51.000    20179254.047 8  82630695.109 8      -274.191          51.000
G29  20777612.844 8 109187089.354 8      1786.453          51.000    20777612.062 8  85080860.490 8      1392.044          51.000
G32  22824442.000 6 119943247.921 6     -2007.922          41.000    22824446.781 6  93462298.472 6     -1564.617          40.000
R13  19820745.648 7 105841674.937 7     -1366.379          42.000    19820747.664 7  82321298.724 7     -1062.739          45.000
R23  19330897.875 8 103407280.788 8      -387.227          51.000    19330902.602 7  80427909.174 7      -301.173          42.000
R24  20182017.906 7 107922360.109 7      2887.348          46.000    20182018.852 7  83939587.060 7      2245.718          44.000
C05  39677740.477 5 206612406.124 5        33.035          35.000    39677737.500 6 159765806.417 6        25.542          37.000
C27  23092395.203 6 120248187.741 6     -2043.906          37.000
C29  24867472.797 6 129491449.077 6      3274.965          38.000
C30  21728397.289 8 113145533.354 8      1072.449          51.000
E13  24415234.633 8 128302903.354 8      2121.664          51.000    24415236.977 8  98310026.397 8      1625.700          51.000
E15  24485568.055 5 128672526.899 5      -730.586          32.000    24485579.570 6  98593290.689 6      -559.294          37.000
E27  24290186.203 7 127645765.118 7     -1365.047          43.000    24290188.969 8  97806514.175 8     -1046.029          48.000
> 2020 05 15 10 10  0.0000000  0 15        .000000000000
G12  21301802.648 7 111941724.703 7     -2050.781          45.000    21301800.844 7  87227313.868 7     -1598.008          45.000
G24  23919653.664 7 125698581.698 7     -3605.559          42.000    23919658.344 7  97946943.383 7     -2809.529          42.000
G25  20181291.469 8 106053386.220 8      -362.574          51.000    20181293.047 8  82639044.531 8      -282.525          51.000
G29  20767457.039 8 109133720.674 8      1771.457          51.000    20767456.703 8  85039274.510 8      1380.356          51.000
G32  22835944.875 6 120003696.710 6     -2021.273          40.000    22835949.828 6  93509401.412 6     -1575.018          41.000
R13  19828465.938 6 105882902.172 6     -1382.125          41.000    19828468.359 7  82353364.322 7     -1074.986          46.000
R23  19333144.008 8 103419296.115 8      -413.805          51.000    19333148.516 7  80437254.432 7      -321.848          42.000
R24  20165873.984 8 107836036.108 8      2867.531          49.000    20165876.633 7  83872446.215 7      2230.302          46.000
C05  39677548.203 5 206611405.361 5        33.547          35.000    39677545.328 6 159765032.600 6        25.802          37.000
C27  23104202.367 6 120309670.326 6     -2054.934          38.000
C29  24848619.445 5 129393263.680 5      3270.434          35.000
C30  21722260.609 8 113113579.145 8      1057.773          51.000
E13  24403152.758 8 128239412.221 8      2110.953          51.000    24403154.961 8  98261377.379 8      1617.537          51.000
E15                                                                  24489786.469 5  98610230.281 5      -570.084          35.000
E27  24297994.469 7 127686797.733 7     -1370.469          45.000    24297997.805 8  97837954.772 8     -1050.099          48.000
> 2020 05 15 10 10 30.0000000  0 16        .000000000000
G02  23071238.156 5 121240168.564 5      -951.102          32.000
G12  21313535.250 7 112003379.060 7     -2058.605          42.000    21313533.531 7  87275356.260 7     -1604.108          42.000
G24  23940252.969 7 125806829.504 7     -3609.973          43.000    23940256.523 7  98031292.278 7     -2812.966          43.000
G25  20183396.547 8 106064448.916 8      -373.977          51.000    20183398.188 8  82647664.822 8      -291.410          51.000
G29  20757391.289 8 109080825.014 8      1755.844          51.000    20757390.742 8  84998057.106 8      1368.190          51.000
G32  22847527.844 6 120064567.359 6     -2035.297          41.000    22847533.117 6  93556833.070 6     -1585.946          40.000
R13  19836278.062 6 105924620.103 6     -1398.145          40.000    19836281.047 7  82385811.600 7     -1087.446          46.000
R23  19335543.523 8 103432131.853 8      -441.008          51.000    19335547.945 6  80447237.805 6      -343.006          41.000
R24  20149847.445 8 107750334.223 8      2846.871          51.000    20149850.680 8  83805789.220 8      2214.233          48.000
C05  39677357.117 5 206610408.847 5        33.309          35.000    39677354.180 6 159764262.773 6        25.886          37.000
C27  23116077.664 6 120371505.494 6     -2066.453          39.000
C29  24829796.836 5 129295237.985 5      3266.184          31.000
C30  21716213.305 8 113082088.284 8      1042.512          51.000
E13  24391136.219 8 128176262.727 8      2099.859          51.000    24391138.000 8  98212990.133 8      1608.968          51.000
E15                                                                  24494074.281 5  98627502.670 5      -581.051          35.000
E27  24305837.352 7 127728013.379 7     -1376.297          46.000    24305841.156 8  97869535.637 8     -1054.583          49.000
> 2020 05 15 10 11  0.0000000  0 16        .000000000000
G02  23076709.781 5 121268910.991 5      -967.836          33.000
G12  21325315.414 6 112065284.666 6     -2067.863          41.000    21325314.797 6  87323594.338 6     -1611.325          41.000
G24  23960879.461 7 125915218.808 7     -3615.383          44.000    23960882.070 7  98115751.425 7     -2817.181          44.000
G25  20185569.727 8 106075869.371 8      -386.727          51.000    20185571.461 8  82656563.872 8      -301.345          51.000
G29  20747417.562 8 109028413.427 8      1738.945          51.000    20747416.852 8  84957216.925 8      1355.022          51.000
G32  22859192.555 7 120125867.370 7     -2050.527          42.000    22859197.953 7  93604599.297 7     -1597.814          42.000
R13  19844183.992 6 105966839.511 6     -1415.891          38.000    19844187.578 7  82418648.926 7     -1101.245          46.000
R22  23278176.609 5 124260486.646 5     -4198.031          30.000
R23  19338097.836 8 103445796.842 8      -469.387          51.000    19338101.945 6  80457866.133 6      -365.079          41.000
R24  20133940.180 8 107665268.040 8      2824.832          51.000    20133943.422 8  83739626.661 8      2197.092          48.000
C05  39677168.805 5 206609429.485 5        31.820          34.000    39677165.867 6 159763504.712 6        24.850          37.000
C27  23128022.453 6 120433701.393 6     -2079.309          38.000
C30  21710257.109 8 113051071.208 8      1025.836          51.000
E13  24379186.789 8 128113466.518 8      2087.152          51.000    24379188.383 8  98164873.589 8      1599.274          51.000
E15                                                                  24498445.570 5  98645115.009 5      -592.739          33.000
E27  24313717.000 7 127769422.587 7     -1383.727          47.000    24313721.094 8  97901264.768 8     -1060.225          49.000
> 2020 05 15 10 11 30.0000000  0 16        .000000000000
G02  23082279.469 5 121298195.944 5      -984.121          34.000
G12  21337138.492 7 112127415.179 7     -2074.715          43.000    21337137.570 7  87372007.699 7     -1616.661          43.000
G24  23981527.453 7 126023721.050 7     -3618.621          44.000    23981529.922 7  98200298.544 7     -2819.708          44.000
G25  20187806.023 8 106087621.362 8      -397.113          51.000    20187807.859 8  82665721.263 8      -309.442          51.000
G29  20737530.930 8 108976460.497 8      1724.223          51.000    20737530.281 8  84916734.150 8      1343.550          51.000
G32  22870933.836 7 120187567.999 7     -2063.375          44.000    22870938.898 7  93652677.677 7     -1607.825          44.000
R13  19852179.062 6 106009533.984 6     -1430.844          38.000    19852183.055 7  82451855.787 7     -1112.878          46.000
R23  19340802.109 8 103460263.485 8      -495.469          51.000    19340806.586 6  80469117.991 6      -385.362          41.000
R24  20118147.578 8 107580813.745 8      2805.012          51.000    20118150.664 8  83673940.012 8      2181.676          49.000
C05  39676978.516 5 206608438.452 5        33.195          35.000    39676975.508 6 159762738.386 6        25.690          37.000
C13  38130418.492 5 198555086.186 5       293.777          30.000
C27  23140030.789 6 120496230.202 6     -2089.844          40.000
C30  21704386.625 8 113020502.287 8      1011.656          51.000
E13  24367299.555 8 128050998.792 8      2076.715          51.000    24367300.680 8  98117008.746 8      1591.240          51.000
E15                                                                  24502897.469 5  98663046.673 5      -602.903          33.000
E27  24321628.953 8 127810999.237 8     -1388.594          49.000    24321633.109 8  97933122.211 8     -1064.134          48.000
> 2020 05 15 10 12  0.0000000  0 16        .000000000000
G12  21349005.789 7 112189776.659 7     -2082.316          45.000    21349003.875 7  87420601.106 7     -1622.581          44.000
G24  24002197.219 7 126132340.367 7     -3622.422          43.000    24002200.289 7  98284936.879 7     -2822.669          42.000
G25  20190106.703 8 106099711.390 8      -408.410          51.000    20190108.562 8  82675142.074 8      -318.242          51.000
G29  20727732.984 8 108924973.679 8      1708.719          51.000    20727732.383 8  84876614.569 8      1331.469          51.000
G32  22882752.453 7 120249673.160 7     -2076.691          47.000    22882756.500 7  93701071.287 7     -1618.201          47.000
R13  19860264.648 6 106052710.419 6     -1446.859          40.000    19860268.719 7  82485437.478 7     -1125.335          45.000
R23  19343657.117 8 103475536.792 8      -522.309          51.000    19343661.750 6  80480997.233 6      -406.240          41.000
R24  20102471.008 8 107496981.026 8      2784.246          51.000    20102473.836 8  83608736.806 8      2165.525          48.000
C05  39676787.539 5 206607443.267 5        33.590          35.000    39676784.336 6 159761967.856 6        25.877          37.000
C13  38128743.508 4 198546372.160 4       288.688          28.000
C27  23152103.805 7 120559096.599 7     -2100.918          42.000
C30  21698603.578 8 112990388.380 8       996.477          51.000
E13  24355475.883 8 127988867.507 8      2065.711          51.000    24355477.000 8  98069401.709 8      1582.826          51.000
E15                                                                  24507432.320 5  98681302.087 5      -613.723          35.000
E21  23786925.391 5 125001136.490 5       909.754          32.000    23786931.148 5  95780107.718 5       697.159          34.000
E27  24329574.086 8 127852750.152 8     -1394.281          49.000    24329578.336 8  97965113.153 8     -1068.384          48.000
> 2020 05 15 10 12 30.0000000  0 16        .000000000000
G02  23093685.188 5 121358141.493 5     -1016.520          33.000
G12  21360918.883 7 112252378.839 7     -2090.781          42.000    21360916.953 7  87469382.034 7     -1629.183          42.000
G24  24022890.742 6 126241086.095 6     -3627.145          41.000    24022894.367 6  98369673.736 6     -2826.346          41.000
G25  20192473.672 8 106112149.658 8      -420.660          51.000    20192475.602 8  82684834.239 8      -327.787          51.000
G29  20718025.883 8 108873963.581 8      1692.223          51.000    20718025.305 8  84836866.447 8      1318.615          51.000
G32  22894649.469 8 120312190.467 8     -2090.781          48.000    22894652.742 8  93749786.020 8     -1629.183          48.000
R13  19868442.734 7 106096379.377 7     -1464.402          42.000    19868446.648 7  82519402.209 7     -1138.980          44.000
R23  19346664.664 8 103491625.792 8      -550.031          51.000    19346669.406 7  80493510.907 7      -427.802          42.000
R24  20086912.383 8 107413782.946 8      2762.402          51.000    20086914.938 7  83544027.199 7      2148.535          47.000
C05  39676597.703 5 206606455.314 5        32.668          35.000    39676594.406 6 159761203.117 6        25.415          37.000
C27  23164242.977 6 120622308.730 6     -2113.359          40.000
C30  21692909.930 8 112960739.939 8       980.340          51.000
E13  24343718.234 8 127927084.276 8      2053.562          51.000    24343719.703 8  98022061.375 8      1573.506          51.000
E15                                                                  24512048.570 5  98699888.393 5      -624.935          34.000
E21  23781752.484 6 124973938.020 6       903.504          37.000    23781756.141 5  95759266.536 5       692.080          34.000
E27  24337554.281 8 127894685.705 8     -1401.090          50.000    24337558.336 7  97997245.552 7     -1073.410          47.000
> 2020 05 15 10 13  0.0000000  0 15        .000000000000
G12  21372877.609 6 112315221.669 6     -2098.766          41.000    21372875.383 7  87518350.426 7     -1635.399          42.000
G24  24043607.867 6 126349956.628 6     -3631.141          40.000    24043611.992 6  98454507.865 6     -2829.460          40.000
G25  20194907.047 8 106124936.827 8      -432.125          51.000    20194908.992 8  82694798.261 8      -336.721          51.000
G29  20708410.250 8 108823431.798 8      1676.344          51.000    20708409.625 8  84797491.028 8      1306.242          51.000
G32  22906624.445 8 120375117.857 8     -2104.383          48.000    22906627.305 8  93798820.326 8     -1639.779          48.000
R13  19876713.203 7 106140541.495 7     -1480.340          43.000    19876716.391 7  82553750.497 7     -1151.375          43.000
R23  19349824.477 8 103508529.742 8      -577.035          51.000    19349829.734 6  80506658.440 6      -448.805          41.000
R24  20071472.711 8 107331223.327 8      2741.273          50.000    20071474.969 7  83479814.162 7      2132.102          46.000
C05  39676409.172 5 206605473.099 5        32.660          35.000    39676405.703 6 159760443.626 6        25.137          37.000
C27  23176447.484 6 120685865.272 6     -2124.281          37.000
C30  21687305.734 8 112931557.932 8       964.914          51.000
E13  24332027.141 8 127865651.205 8      2041.848          50.000    24332029.508 8  97974989.327 8      1564.542          51.000
E15  24516744.516 5 128836361.318 5      -829.984          34.000    24516745.008 5  98718805.462 5      -635.986          32.000
E21  23776610.320 5 124946930.620 5       898.062          34.000    23776614.977 5  95738560.274 5       687.847          33.000
E27  24345569.797 8 127936806.777 8     -1407.262          49.000    24345573.727 7  98029520.110 7     -1078.220          46.000
> 2020 05 15 10 13 30.0000000  0 15        .000000000000
G12  21384879.789 6 112378292.884 6     -2105.785          41.000    21384877.008 7  87567496.782 7     -1640.875          42.000
G24  24064346.156 6 126458938.217 6     -3634.609          38.000    24064350.359 6  98539428.540 6     -2832.163          39.000
G25  20197404.602 8 106138061.271 8      -442.957          51.000    20197406.562 8  82705025.100 8      -345.158          51.000
G29  20698883.633 8 108773367.696 8      1661.086          51.000    20698883.031 8  84758480.062 8      1294.353          51.000
G32  22918674.727 8 120438441.129 8     -2117.164          48.000    22918677.891 8  93848163.083 8     -1649.741          48.000
R13  19885073.836 7 106185185.017 7     -1495.969          43.000    19885076.398 6  82588473.171 6     -1163.531          41.000
R23  19353134.359 8 103526235.269 8      -603.402          51.000    19353139.633 7  80520429.390 7      -469.316          42.000
R24  20056150.633 8 107249292.940 8      2720.641          49.000    20056153.367 7  83416090.550 7      2116.054          47.000
C05  39676219.609 5 206604486.264 5        32.973          35.000    39676216.180 6 159759680.543 6        25.430          36.000
C27  23188716.133 6 120749752.974 6     -2134.949          39.000
C30  21681788.766 8 112902831.189 8       950.152          51.000
E13  24320400.930 8 127804558.103 8      2030.762          50.000    24320404.039 8  97928177.749 8      1556.098          51.000
E15  24521520.367 5 128861458.901 5      -844.055          33.000    24521522.070 5  98738043.747 5      -646.321          33.000
E21  23771498.750 5 124920069.547 5       892.418          34.000    23771505.164 5  95717980.772 5       683.795          33.000
E27  24353618.438 7 127979102.038 7     -1412.598          47.000    24353621.984 7  98061928.120 7     -1082.506          44.000
> 2020 05 15 10 14  0.0000000  0 15        .000000000000
G12  21396926.102 6 112441595.495 6     -2114.918          41.000    21396923.992 7  87616823.536 7     -1647.985          42.000
G24  24085105.984 6 126568033.177 6     -3639.562          39.000    24085109.805 6  98624437.532 6     -2836.026          38.000
G25  20199966.969 8 106151526.637 8      -455.715          51.000    20199969.164 8  82715517.598 8      -355.102          51.000
G29  20689446.680 8 108723775.360 8      1644.012          51.000    20689446.188 8  84719836.704 8      1281.048          51.000
G32  22930800.516 8 120502161.270 8     -2131.762          48.000    22930803.898 8  93897815.105 8     -1661.113          48.000
R13  19893525.180 7 106230314.343 7     -1513.598          42.000    19893527.320 7  82623573.699 7     -1177.246          42.000
R23  19356594.430 8 103544744.842 8      -631.613          49.000    19356600.070 7  80534825.733 7      -491.255          42.000
R24  20040947.742 8 107167998.513 8      2698.023          49.000    20040951.109 7  83352861.563 7      2098.463          46.000
C05  39676029.875 5 206603499.013 5        31.047          35.000    39676026.500 6 159758916.714 6        24.615          37.000
C27  23201049.359 6 120813973.709 6     -2147.418          41.000
C30  21676360.055 8 112874563.659 8       933.496          51.000
E13  24308840.508 8 127743810.036 8      2018.051          50.000    24308844.766 8  97881630.555 8      1546.317          51.000
E15  24526378.727 6 128886988.623 6      -858.965          38.000    24526381.383 5  98757605.523 5      -658.329          34.000
E21                                                                  23766425.195 5  95697531.246 5       678.766          34.000
E27  24361700.984 7 128021575.297 7     -1419.992          46.000    24361703.484 7  98094472.495 7     -1087.824          42.000
> 2020 05 15 10 14 30.0000000  0 17        .000000000000
G02  23117660.125 5 121484119.332 5     -1083.098          32.000
G12  21409010.984 6 112505101.065 6     -2121.410          38.000    21409009.391 6  87666308.375 6     -1653.050          37.000
G24  24105881.984 6 126677211.814 6     -3641.926          41.000    24105885.633 6  98709511.749 6     -2837.864          41.000
G25  20202588.820 8 106165304.927 8      -465.668          51.000    20202591.250 8  82726253.919 8      -362.858          51.000
G29  20680094.266 8 108674627.320 8      1629.660          51.000    20680093.852 8  84681539.520 8      1269.862          51.000
G32  22942995.828 7 120566247.731 7     -2143.520          47.000    22942999.109 7  93947752.601 7     -1670.278          47.000
R13  19902062.227 7 106275900.810 7     -1528.344          42.000    19902064.250 7  82659029.812 7     -1188.712          42.000
R22  23444205.711 5 125146761.656 5     -4242.562          31.000
R23  19360199.344 8 103564028.294 8      -656.840          49.000    19360204.875 7  80549823.949 7      -510.875          42.000
R24  20025859.445 8 107087314.405 8      2678.059          51.000    20025863.125 7  83290107.257 7      2082.934          46.000
C05  39675834.656 5 206602482.112 5        33.098          35.000    39675831.305 6 159758130.826 6        25.521          37.000
C27  23213440.539 6 120878497.709 6     -2157.152          40.000
C30  21671014.531 8 112846727.897 8       919.480          51.000
E13  24297341.055 8 127683380.420 8      2007.887          51.000    24297345.977 8  97835327.374 8      1538.466          51.000
E15  24531312.391 6 128912911.679 6      -872.047          36.000    24531314.875 5  98777468.562 5      -667.964          34.000
E21  23761367.500 5 124866832.214 5       881.684          32.000    23761371.938 5  95677190.899 5       675.145          35.000
E27  24369811.391 6 128064198.764 6     -1424.336          41.000    24369814.102 7  98127132.025 7     -1091.482          43.000
> 2020 05 15 10 15  0.0000000  0 17        .000000000000
G02  23123900.797 6 121516874.158 6     -1098.371          37.000
G12  21421151.875 6 112568903.302 6     -2128.902          39.000    21421149.844 6  87716024.410 6     -1658.888          39.000
G24  24126691.719 6 126786566.465 6     -3645.371          41.000    24126695.562 6  98794723.126 6     -2840.549          41.000
G25  20205288.133 8 106179490.400 8      -477.000          51.000    20205290.648 8  82737307.537 8      -371.688          51.000
G29  20670844.242 8 108626018.762 8      1613.953          51.000    20670844.031 8  84643662.732 8      1257.626          51.000
