     3.02           OBSERVATION DATA    M (MIXED)           RINEX VERSION / TYPE
SAVERINEX           SC600               20200504 075931 LCL PGM / RUN BY / DATE
       G = GPS       R = GLONASS       C = COMPASS          COMMENT
       S = SBAS      J = QZSS          E = GALILEO          COMMENT
BEAN                                                        MARKER NAME
1                                                           MARKER NUMBER
GEODETIC                                                    MARKER TYPE
Unige DICCA         GTER                                    OBSERVER / AGENCY
SC60291900056       SC600               2.12(191226)        REC # / TYPE / VERS
                    HEMA45          NONE                    ANT # / TYPE
  4509407.8091   693652.4678  4442337.6214                  APPROX POSITION XYZ
        0.0000        0.0000        0.0000                  ANTENNA: DELTA H/E/N
G    8 C1C L1C D1C S1C C2Y L2Y D2Y S2Y                      SYS / # / OBS TYPES
R    8 C1C L1C D1C S1C C2P L2P D2P S2P                      SYS / # / OBS TYPES
C    8 C1I L1I D1I S1I C7I L7I D7I S7I                      SYS / # / OBS TYPES
E    8 C1C L1C D1C S1C C7Q L7Q D7Q S7Q                      SYS / # / OBS TYPES
DBHZ                                                        COMMENT
     30.000                                                 INTERVAL
  2020    05    04    05    00    0.0000000     GPS         TIME OF FIRST OBS
  2020    05    04    05    59   30.0000000     GPS         TIME OF LAST OBS
     0                                                      RCV CLOCK OFFS APPL
G L1C  0.00000                                              SYS / PHASE SHIFT
G L2Y  0.00000                                              SYS / PHASE SHIFT
R L1C  0.00000                                              SYS / PHASE SHIFT
R L2P  0.25000                                              SYS / PHASE SHIFT
C L1I  0.00000                                              SYS / PHASE SHIFT
C L7I  0.00000                                              SYS / PHASE SHIFT
E L1C  0.50000                                              SYS / PHASE SHIFT
E L7Q -0.25000                                              SYS / PHASE SHIFT
 14 R02 -4 R03  5 R04  6 R05  1 R06 -4 R09 -2 R10 -5 R13 -2 GLONASS SLOT / FRQ #
    R14 -7 R15  0 R16 -1 R17  4 R18 -3 R19  3               GLONASS SLOT / FRQ #
 C1C   71.950 C2C   71.950 C2P   71.950                     GLONASS COD/PHS/BIS
    18                                                      LEAP SECONDS
*** Above antenna height is from mark to ANTENNA BOTTOM.    COMMENT
    17     4        0.0000        ANT MEASURE TYPE/HEIGT    COMMENT
    0.0000    0.0000    0.0458    0.0405    0.0000          COMMENT
                    BASE STATION                            COMMENT
                                                            END OF HEADER
> 2020 05 04 05 00  0.0000000  0 14        .000000000000
G05  22271213.188 8 117035999.143 8     -3031.660          51.000    22271209.828 8  91196876.187 8     -2362.336          51.000
G13  20244266.672 7 106384339.311 7       668.852          46.000    20244265.078 7  82896872.777 7       521.180          46.000
G28  20879285.062 8 109721455.690 8       -91.242          49.000    20879282.688 7  85497211.810 7       -71.095          46.000
G30  21928941.156 5 115237344.299 5     -2331.211          34.000    21928939.070 5  89795339.538 5     -1816.516          32.000
R05  20044318.664 8 107148356.127 8     -2565.395          51.000    20044321.320 8  83337608.533 8     -1995.307          48.000
R15  20082945.133 7 107317254.655 7     -2475.223          42.000    20082947.906 5  83468950.804 5     -1925.176          35.000
R16  19596973.781 7 104683545.044 7      1569.594          45.000    19596977.125 7  81420537.335 7      1220.795          45.000
C05  39777375.328 5 207131231.130 5        13.723          35.000    39777374.875 6 160166978.911 6        10.835          40.000
C21  24136080.984 8 125683015.019 8     -3066.590          48.000
C24  23938605.664 8 124654600.889 8      2451.762          51.000
C26  21334140.664 8 111092401.667 8        38.133          51.000
E01  25856221.688 8 135875360.719 8      2638.586          48.000    25856222.930 8 104112336.689 8      2021.789          50.000
E19  23724169.211 7 124671350.999 7      -212.184          46.000    23724170.289 8  95527392.105 8      -162.588          50.000
E21  23503124.477 8 123509759.770 8       335.359          51.000    23503127.055 8  94637339.811 8       256.973          51.000
> 2020 05 04 05 00 30.0000000  0 13        .000000000000
G05  22288558.797 8 117127149.642 8     -3043.602          51.000    22288555.797 8  91267902.530 8     -2371.638          51.000
G13  20240491.727 8 106364501.119 8       654.973          48.000    20240490.188 7  82881414.431 7       510.368          45.000
G28  20879865.641 8 109724507.827 8      -110.875          50.000    20879863.781 7  85499590.120 7       -86.396          46.000
R05  20058779.070 8 107225655.584 8     -2586.512          51.000    20058781.766 8  83397730.275 8     -2011.731          48.000
R15  20096887.992 7 107391760.465 7     -2490.352          42.000    20096890.078 5  83526899.694 5     -1936.943          35.000
R16  19588221.789 7 104636795.210 7      1548.586          46.000    19588225.195 7  81384176.332 7      1204.456          44.000
C05  39777302.289 5 207130850.779 5        12.672          35.000    39777301.805 6 160166684.809 6         9.805          40.000
C21  24153776.844 7 125775166.368 7     -3075.402          47.000
C24  23924510.414 8 124581203.959 8      2442.691          51.000
C26  21333961.891 8 111091471.146 8        25.188          51.000
E01  25841184.883 7 135796347.879 7      2630.297          47.000    25841187.062 8 104051794.345 8      2015.434          50.000
E19  23725419.039 7 124677920.379 7      -224.180          46.000    23725420.492 8  95532425.782 8      -171.777          50.000
E21  23501253.727 8 123499928.111 8       321.438          51.000    23501256.086 8  94629806.449 8       246.284          51.000
> 2020 05 04 05 01  0.0000000  0 13        .000000000000
G05  22305960.500 8 117218596.081 8     -3054.441          51.000    22305958.234 8  91339159.483 8     -2380.084          51.000
G13  20236785.453 8 106345023.661 8       641.941          49.000    20236783.938 7  82866237.179 7       500.211          46.000
G28  20880547.828 8 109728093.411 8      -129.641          50.000    20880546.086 7  85502384.051 7      -101.019          47.000
R05  20073346.141 8 107303525.424 8     -2606.438          50.000    20073349.195 8  83458295.695 8     -2027.229          49.000
R15  20110904.039 6 107466656.120 6     -2504.223          36.000    20110905.781 6  83585151.885 6     -1947.726          37.000
R16  19579577.062 7 104590615.652 7      1528.605          47.000    19579579.922 7  81348258.902 7      1188.915          43.000
C05  39777224.633 5 207130445.747 5        12.566          35.000    39777224.109 6 160166371.999 6         9.590          40.000
C21  24171511.117 8 125867515.618 8     -3082.867          48.000
C24  23910455.609 8 124508017.273 8      2434.828          51.000
C26  21333846.008 8 111090869.348 8        13.395          51.000
E01  25826184.961 8 135717522.891 8      2623.090          49.000    25826187.422 8 103991395.966 8      2009.978          50.000
E19  23726726.336 7 124684791.422 7      -235.293          46.000    23726728.258 8  95537690.596 8      -180.248          51.000
E21  23499450.812 8 123490452.833 8       308.750          51.000    23499453.039 8  94622546.163 8       236.551          51.000
> 2020 05 04 05 01 30.0000000  0 14        .000000000000
G05  22323400.672 8 117310245.960 8     -3064.125          50.000    22323399.391 8  91410574.957 8     -2387.630          50.000
G13  20233130.930 8 106325818.515 8       629.871          48.000    20233129.414 7  82851272.119 7       490.809          46.000
G28  20881314.320 8 109732121.937 8      -147.375          50.000    20881313.211 8  85505523.173 8      -114.838          48.000
R05  20088001.852 8 107381872.798 8     -2625.371          48.000    20088005.891 8  83519232.547 8     -2041.952          50.000
R15  20124974.555 6 107541847.153 6     -2517.176          39.000    20124976.430 6  83643633.862 6     -1957.803          36.000
R16  19571022.391 8 104544915.472 8      1509.629          48.000    19571024.109 7  81312714.340 7      1174.156          42.000
C05  39777125.273 5 207129928.138 5        13.523          35.000    39777124.711 6 160165971.749 6        10.412          40.000
C21  24189267.008 8 125959972.241 8     -3089.328          50.000
C24  23896424.727 8 124434952.636 8      2427.867          51.000
C26  21333776.164 8 111090506.749 8         2.453          51.000
E01  25811204.656 8 135638797.161 8      2616.836          51.000    25811206.938 8 103931073.675 8      2005.066          50.000
E19  23728074.383 7 124691875.197 7      -245.383          47.000    23728076.367 8  95543118.411 8      -188.086          51.000
E21  23497698.414 8 123481243.951 8       296.859          51.000    23497700.867 8  94615490.018 8       227.449          51.000
E27  25455175.438 5 133767845.539 5     -2272.773          35.000    25455180.578 5 102497461.226 5     -1741.880          33.000
> 2020 05 04 05 02  0.0000000  0 14        .000000000000
G05  22340930.750 8 117402370.157 8     -3068.883          48.000    22340930.484 8  91482360.034 8     -2391.337          49.000
G13  20229580.391 8 106307160.555 8       622.574          49.000    20229578.742 7  82836733.439 7       485.120          46.000
G28  20882217.461 8 109736867.018 8      -160.410          51.000    20882216.320 8  85509220.615 8      -124.995          49.000
R05  20102797.875 7 107460974.229 7     -2639.340          47.000    20102803.586 8  83580755.927 8     -2052.817          50.000
R15  20139152.680 7 107617608.982 7     -2524.863          42.000    20139153.648 6  83702559.685 6     -1963.783          38.000
R16  19562609.781 8 104499973.062 8      1495.363          48.000    19562610.805 7  81277759.153 7      1163.063          43.000
C05  39777056.305 5 207129570.375 5        18.254          35.000    39777055.750 6 160165693.923 6        14.538          40.000
C21  24207095.547 8 126052805.774 8     -3091.082          51.000
C24  23882469.312 8 124362281.930 8      2425.422          51.000
C26  21333804.156 8 111090653.870 8        -3.762          51.000
E01  25796295.688 8 135560445.437 8      2615.191          51.000    25796297.461 8 103871037.950 8      2003.869          50.000
E19  23729515.258 8 124699445.846 8      -250.789          48.000    23729517.133 8  95548919.294 8      -192.229          51.000
E21  23496048.812 8 123472574.782 8       289.699          51.000    23496051.305 8  94608847.400 8       221.989          51.000
E27  25468177.938 5 133836179.510 5     -2274.418          34.000    25468185.883 5 102549819.441 5     -1742.443          34.000
> 2020 05 04 05 02 30.0000000  0 14        .000000000000
G05  22358507.477 8 117494740.212 8     -3086.133          48.000    22358507.820 8  91554336.684 8     -2404.779          49.000
G13  20226091.148 8 106288825.077 8       602.605          49.000    20226089.273 7  82822446.047 7       469.563          46.000
G28  20883213.812 8 109742101.742 8      -185.836          51.000    20883212.453 8  85513299.608 8      -144.807          50.000
R05  20117692.453 8 107540598.073 8     -2666.055          48.000    20117699.125 8  83642685.608 8     -2073.595          50.000
R15  20153393.852 6 107693708.790 6     -2545.543          41.000    20153396.281 6  83761748.467 6     -1979.864          39.000
R16  19554295.867 8 104455559.364 8      1468.449          48.000    19554297.023 7  81243215.153 7      1142.127          44.000
C05                                                                  39776974.180 6 160165365.491 6         9.364          40.000
C21  24224953.039 8 126145790.695 8     -3105.141          51.000
C24  23868545.812 8 124289782.098 8      2410.617          49.000
C26  21333887.039 8 111091086.289 8       -22.293          51.000
E01  25781414.961 8 135482242.970 8      2601.086          51.000    25781416.031 8 103811116.593 8      1993.055          51.000
E19  23731006.023 8 124707278.425 8      -268.430          48.000    23731007.773 8  95554920.884 8      -205.761          51.000
E21  23494458.922 8 123464219.193 8       270.188          51.000    23494461.188 8  94602445.054 8       207.009          51.000
E27                                                                  25481215.508 5 102602291.475 5     -1752.808          32.000
> 2020 05 04 05 03  0.0000000  0 15        .000000000000
G05  22376179.633 8 117587609.405 8     -3103.148          50.000    22376179.359 8  91626702.223 8     -2418.041          50.000
G13  20222712.141 8 106271068.985 8       582.941          49.000    20222710.203 7  82808610.131 7       454.240          47.000
G28  20884351.969 8 109748082.006 8      -210.973          51.000    20884350.703 8  85517959.548 8      -164.394          50.000
G30  22009507.250 5 115660721.736 5     -2378.832          35.000    22009509.594 5  90125252.416 5     -1853.638          34.000
R05  20132734.219 8 107621002.686 8     -2692.324          51.000    20132740.422 8  83705222.543 8     -2094.030          49.000
R15  20167746.320 6 107770403.591 6     -2565.520          41.000    20167749.258 6  83821399.980 6     -1995.407          38.000
R16  19546129.070 7 104411934.520 7      1441.855          47.000    19546130.836 7  81209284.711 7      1121.443          44.000
C05  39776929.289 5 207128907.595 5         5.191          35.000    39776928.805 6 160165182.568 6         4.338          40.000
C21  24242887.742 8 126239178.865 8     -3118.742          51.000
C24  23854703.727 8 124217707.240 8      2396.133          50.000
C26  21334072.844 8 111092056.866 8       -40.492          51.000
E01  25766611.023 8 135404446.622 8      2587.344          51.000    25766611.867 8 103751506.424 8      1982.438          51.000
E19  23732595.234 8 124715628.992 8      -286.031          48.000    23732597.094 8  95561319.355 8      -219.218          51.000
E21  23492977.055 8 123456432.606 8       250.867          51.000    23492979.430 8  94596478.722 8       192.187          51.000
E27                                                                  25494317.711 5 102655052.277 5     -1762.999          32.000
> 2020 05 04 05 03 30.0000000  0 15        .000000000000
G05  22393876.664 8 117680607.039 8     -3104.016          51.000    22393875.227 8  91699167.828 8     -2418.717          51.000
G13  20219373.727 8 106253525.706 8       579.367          50.000    20219371.750 7  82794940.028 7       451.455          47.000
G28  20885561.789 8 109754439.077 8      -219.992          51.000    20885560.500 8  85522913.098 8      -171.422          50.000
G30  22023059.062 5 115731952.305 5     -2375.824          32.000    22023064.844 5  90180743.507 5     -1851.298          32.000
R05  20147852.070 8 107701812.174 8     -2702.254          51.000    20147857.320 8  83768074.322 8     -2101.756          48.000
R15  20182139.711 7 107847316.491 7     -2569.441          42.000    20182141.664 6  83881221.058 6     -1998.457          38.000
R16  19538039.930 8 104368724.782 8      1431.641          48.000    19538041.969 7  81175677.139 7      1113.495          45.000
C05  39776850.008 5 207128495.235 5        15.039          35.000    39776849.414 6 160164863.327 6        11.442          40.000
C21  24260829.469 8 126332604.005 8     -3116.602          51.000
C24  23840874.367 8 124145693.478 8      2397.570          51.000
C26  21334291.781 8 111093200.343 8       -42.816          51.000
E01  25751814.180 8 135326689.569 8      2589.336          51.000    25751815.414 8 103691926.344 8      1984.043          51.000
E19  23734213.109 8 124724130.543 8      -287.984          48.000    23734214.969 8  95567833.509 8      -220.624          51.000
E21  23491533.562 8 123448846.803 8       247.645          51.000    23491535.891 8  94590666.230 8       189.706          51.000
E27                                                                  25507421.523 5 102707819.659 5     -1760.635          35.000
> 2020 05 04 05 04  0.0000000  0 15        .000000000000
G05  22411631.734 8 117773908.962 8     -3102.012          51.000    22411629.766 8  91771870.549 8     -2417.155          51.000
G13  20216110.000 8 106236374.948 8       578.223          49.000    20216107.953 7  82781575.813 7       450.563          47.000
G28  20886877.086 8 109761351.122 8      -226.629          51.000    20886875.711 8  85528299.089 8      -176.594          50.000
G30  22036648.875 5 115803370.759 5     -2369.836          33.000    22036649.625 5  90236399.493 5     -1846.625          33.000
R05  20163079.422 8 107783206.303 8     -2709.578          51.000    20163083.359 7  83831380.838 7     -2107.453          45.000
R15  20196606.930 6 107924625.885 6     -2570.504          38.000    20196609.156 6  83941350.576 6     -1999.281          39.000
R16  19530062.578 7 104326112.050 7      1423.801          47.000    19530065.156 7  81142533.903 7      1107.401          45.000
C05  39776770.914 6 207128083.732 6        26.520          36.000    39776770.344 6 160164544.728 6        20.676          40.000
C21  24278811.703 8 126426241.530 8     -3111.871          51.000
C24  23827091.391 8 124073918.515 8      2401.512          51.000
C26  21334578.250 8 111094693.198 8       -42.699          51.000
E01  25737058.688 8 135249151.530 8      2594.055          51.000    25737060.570 8 103632514.079 8      1987.658          51.000
E19  23735893.797 8 124732962.328 8      -286.840          49.000    23735895.508 8  95574600.706 8      -219.819          51.000
E21  23490162.281 8 123441640.110 8       247.008          51.000    23490164.203 8  94585144.204 8       189.278          51.000
E27                                                                  25520561.617 5 102760735.380 5     -1755.894          34.000
> 2020 05 04 05 04 30.0000000  0 13        .000000000000
G05  22429421.852 8 117867396.159 8     -3127.234          49.000    22429420.148 8  91844717.674 8     -2436.806          49.000
G13  20212898.961 8 106219501.396 8       549.691          49.000    20212897.031 8  82768427.577 8       428.328          48.000
G28  20888275.836 8 109768701.371 8      -260.398          51.000    20888274.562 8  85534026.548 8      -202.908          50.000
R05  20178393.531 8 107865064.149 8     -2744.508          51.000    20178396.047 7  83895047.996 7     -2134.617          44.000
R15  20211125.648 6 108002210.369 6     -2599.117          40.000    20211127.836 6  84001694.070 6     -2021.536          38.000
R16  19522174.445 7 104283978.159 7      1388.172          46.000    19522177.898 7  81109763.099 7      1079.689          45.000
C05  39776669.688 5 207127556.227 5        11.215          35.000    39776669.281 6 160164137.590 6         8.880          40.000
C21  24296811.680 8 126519974.267 8     -3134.008          50.000
C24  23813332.078 8 124002267.576 8      2378.344          51.000
C26  21334909.555 8 111096419.230 8       -69.434          51.000
E01  25722322.859 8 135171717.038 8      2571.266          51.000    25722325.188 8 103573181.147 8      1970.241          51.000
E19  23737615.336 8 124742008.328 8      -313.184          49.000    23737616.781 8  95581532.054 8      -240.023          51.000
E21  23488840.820 8 123434695.606 8       218.945          51.000    23488842.492 8  94579823.093 8       167.814          51.000
> 2020 05 04 05 05  0.0000000  0 15        .000000000000
G05  22447297.609 7 117961337.144 7     -3135.996          44.000    22447297.141 7  91917918.409 7     -2443.633          45.000
G13  20209792.492 8 106203177.496 8       537.820          50.000    20209790.938 8  82755707.638 8       419.081          49.000
G28  20889809.422 8 109776760.356 8      -277.625          51.000    20889808.242 8  85540306.274 8      -216.328          50.000
G30  22063948.531 5 115946789.114 5     -2396.777          32.000
R05  20193844.938 8 107947660.168 8     -2762.641          50.000    20193846.000 7  83959289.275 7     -2148.724          43.000
R15  20225746.680 6 108080342.582 6     -2610.621          40.000    20225748.836 6  84062463.553 6     -2030.480          37.000
R16  19514427.703 7 104242599.196 7      1369.578          46.000    19514431.430 7  81077579.486 7      1065.227          45.000
C05  39776598.320 5 207127184.121 5        12.996          35.000    39776597.844 6 160163849.868 6         9.877          40.000
C21  24314880.820 8 126614069.448 8     -3139.766          49.000
C24  23799647.797 8 123931010.250 8      2371.500          50.000
C26  21335337.359 8 111098646.700 8       -79.863          51.000
E01  25707658.859 8 135094658.486 8      2565.074          51.000    25707661.117 8 103514136.280 8      1965.488          51.000
E19  23739429.344 8 124751540.411 8      -322.953          48.000    23739430.930 8  95588835.832 8      -247.437          51.000
E21  23487620.938 8 123428284.296 8       207.602          51.000    23487622.391 8  94574910.536 8       159.056          51.000
E27                                                                  25546936.125 5 102866925.819 5     -1776.830          34.000
> 2020 05 04 05 05 30.0000000  0 14        .000000000000
G05  22465223.164 7 118055545.206 7     -3144.875          42.000    22465224.805 7  91991327.365 7     -2450.549          42.000
G13  20206755.875 8 106187220.160 8       525.691          50.000    20206754.641 8  82743273.342 8       409.630          49.000
G28  20891442.641 8 109785343.225 8      -294.949          51.000    20891441.453 8  85546994.224 8      -229.831          49.000
R05  20209398.117 8 108030805.006 8     -2780.820          49.000    20209399.438 7  84023957.425 7     -2162.863          45.000
R15  20240435.094 7 108158832.418 7     -2622.398          42.000    20240437.422 6  84123511.149 6     -2039.646          37.000
R16  19506787.734 7 104201787.938 7      1350.648          46.000    19506791.094 7  81045837.396 7      1050.504          45.000
C05  39776521.547 6 207126785.219 6        14.078          36.000    39776521.070 6 160163540.624 6        10.663          40.000
C21  24332984.414 8 126708342.894 8     -3145.664          50.000
C24  23786004.266 8 123859964.691 8      2364.535          51.000
C26  21335826.336 8 111101192.469 8       -90.312          51.000
E01  25693032.000 8 135017792.808 8      2558.742          51.000    25693033.562 8 103455239.214 8      1960.586          51.000
E19  23741300.852 8 124761375.438 8      -333.117          48.000    23741302.773 8  95596371.736 8      -255.183          51.000
E21  23486467.398 8 123422221.663 8       196.027          51.000    23486468.539 8  94570265.136 8       150.197          51.000
E27                                                                  25560187.945 5 102920287.064 5     -1781.068          34.000
> 2020 05 04 05 06  0.0000000  0 15        .000000000000
G05  22483210.336 7 118150070.639 7     -3157.504          45.000    22483212.547 7  92064983.582 7     -2460.393          46.000
G13  20203799.406 8 106171683.873 8       509.645          50.000    20203798.430 8  82731167.123 8       397.126          49.000
G28  20893185.547 8 109794502.582 8      -316.191          51.000    20893184.391 8  85554131.386 8      -246.383          49.000
G30  22091349.914 5 116090828.376 5     -2411.203          33.000    22091352.992 5  90460397.030 5     -1878.857          33.000
R05  20225064.094 8 108114550.490 8     -2802.836          51.000    20225065.789 7  84089092.765 7     -2179.987          46.000
R15  20255199.992 6 108237730.536 6     -2637.914          38.000    20255201.070 5  84184876.313 5     -2051.708          35.000
R16  19499264.031 7 104161598.634 7      1327.977          45.000    19499267.523 7  81014579.018 7      1032.868          46.000
C05  39776449.547 5 207126410.016 5        10.828          35.000    39776449.078 6 160163250.471 6         8.584          40.000
C21  24351132.750 8 126802845.442 8     -3155.145          51.000
C24  23772411.562 8 123789183.990 8      2353.730          51.000
C26  21336386.000 8 111104108.345 8      -104.559          50.000
E01  25678452.258 8 134941173.965 8      2548.621          51.000    25678453.070 8 103396531.281 8      1952.822          51.000
E19  23743240.008 7 124771566.486 7      -346.934          47.000    23743242.000 8  95604180.448 8      -265.829          51.000
E21  23485390.180 8 123416560.273 8       180.789          51.000    23485391.141 8  94565927.184 8       138.524          51.000
E27                                                                  25573481.688 6 102973810.301 6     -1787.920          36.000
> 2020 05 04 05 06 30.0000000  0 15        .000000000000
G05  22501256.539 8 118244900.669 8     -3171.809          48.000    22501257.906 8  92138877.094 8     -2471.539          48.000
G13  20200921.375 8 106156559.375 8       491.426          51.000    20200920.539 8  82719381.774 8       382.929          50.000
G28  20895036.086 8 109804227.780 8      -339.375          51.000    20895034.828 8  85561709.462 8      -264.448          48.000
G30  22105123.422 5 116163214.906 5     -2421.910          34.000    22105127.383 5  90516802.157 5     -1887.203          34.000
R05  20240841.039 8 108198884.444 8     -2826.812          51.000    20240842.094 7  84154685.822 7     -2198.635          46.000
R15  20270038.734 7 108317023.866 7     -2655.492          43.000    20270040.445 6  84246548.886 6     -2065.386          38.000
R16  19491854.969 7 104122021.021 7      1303.199          47.000    19491858.500 7  80983796.401 7      1013.599          46.000
C05  39776380.484 5 207126050.771 5         6.367          35.000    39776380.055 6 160162971.921 6         4.627          41.000
C21  24369323.406 8 126897565.555 8     -3166.660          51.000
C24  23758867.562 8 123718658.999 8      2340.789          50.000
C26  21337015.047 8 111107383.825 8      -120.879          51.000
E01  25663917.430 8 134864793.107 8      2536.285          50.000    25663918.258 8 103338005.687 8      1943.339          51.000
E19  23745245.219 7 124782104.582 7      -362.820          47.000    23745247.188 8  95612255.067 8      -278.062          51.000
E21  23484387.312 8 123411289.796 8       163.383          51.000    23484388.125 8  94561888.769 8       125.162          51.000
E27                                                                  25586813.422 5 103027486.886 5     -1796.414          34.000
> 2020 05 04 05 07  0.0000000  0 15        .000000000000
G05  22519347.203 8 118339962.323 8     -3163.141          50.000    22519346.859 8  92212951.074 8     -2464.785          50.000
G13  20198108.609 8 106141777.615 8       496.453          51.000    20198107.750 8  82707863.517 8       386.847          50.000
G28  20896980.781 8 109814447.802 8      -339.367          51.000    20896979.320 7  85569673.114 7      -264.442          47.000
G30  22118924.547 5 116235740.752 5     -2410.215          34.000    22118928.930 5  90573309.166 5     -1878.089          33.000
R05  20256714.273 8 108283733.418 8     -2827.340          51.000    20256714.922 7  84220679.468 7     -2199.042          46.000
R15  20284938.133 6 108396637.893 6     -2649.582          39.000    20284941.039 6  84308470.848 6     -2060.786          39.000
R16  19484547.562 7 104082983.925 7      1301.832          47.000    19484550.461 7  80953434.202 7      1012.536          45.000
C05  39776300.883 6 207125635.940 6        24.105          36.000    39776300.398 6 160162651.118 6        18.743          41.000
C21  24387542.156 8 126992431.881 8     -3155.289          51.000
C24  23745359.406 8 123648320.697 8      2350.902          50.000
C26  21337699.758 8 111110948.537 8      -114.270          51.000
E01  25649414.156 8 134788580.944 8      2547.039          49.000    25649416.023 8 103279609.325 8      1951.627          51.000
E19  23747303.172 7 124792919.663 7      -355.648          47.000    23747305.250 8  95620541.928 8      -272.519          51.000
E21  23483445.422 8 123406339.512 8       169.066          51.000    23483445.953 8  94558095.694 8       129.547          51.000
E27                                                                  25600168.180 5 103081261.858 5     -1787.306          35.000
> 2020 05 04 05 07 30.0000000  0 14        .000000000000
G05  22537473.602 8 118435212.104 8     -3183.816          51.000    22537471.227 8  92287171.613 8     -2480.899          51.000
G13  20195353.625 8 106127299.376 8       471.730          51.000    20195352.586 8  82696581.767 8       367.582          50.000
G28  20899011.875 8 109825121.447 8      -369.109          51.000    20899010.320 8  85577990.263 8      -287.615          48.000
R05  20272675.211 8 108369053.964 8     -2857.773          51.000    20272676.531 7  84287039.883 7     -2222.713          47.000
R15  20299887.867 6 108476528.065 6     -2673.555          41.000    20299891.367 6  84370607.716 6     -2079.428          39.000
R16  19477333.688 8 104044446.084 8      1270.355          48.000    19477335.938 7  80923460.321 7       988.054          45.000
C05                                                                  39776202.508 6 160162256.994 6         9.959          41.000
C21  24405780.703 8 127087402.320 8     -3173.184          51.000
C24  23731879.328 8 123578129.324 8      2331.410          49.000
C26  21338432.086 8 111114761.438 8      -137.027          51.000
E01  25634935.641 8 134712497.758 8      2528.215          50.000    25634938.602 8 103221311.787 8      1937.180          51.000
E19  23749406.227 7 124803971.716 7      -377.910          46.000    23749408.344 8  95629010.364 8      -289.627          51.000
E21  23482556.555 8 123401668.283 8       145.316          51.000    23482557.031 8  94554516.438 8       111.346          51.000
E27                                                                  25613538.219 6 103135102.793 6     -1800.353          36.000
> 2020 05 04 05 08  0.0000000  0 14        .000000000000
G05  22555677.852 8 118530872.037 8     -3192.484          51.000    22555673.820 8  92361711.757 8     -2487.653          51.000
G13  20192699.156 8 106113349.572 8       459.148          51.000    20192697.984 8  82685711.789 8       357.778          50.000
G28  20901171.914 8 109836472.051 8      -386.684          51.000    20901170.242 7  85586834.894 7      -301.312          47.000
R05  20288766.750 8 108455071.862 8     -2875.816          51.000    20288768.484 7  84353942.682 7     -2236.746          46.000
R15  20314932.078 6 108556919.568 6     -2684.988          39.000    20314935.570 6  84433134.396 6     -2088.324          40.000
R16  19470255.750 8 104006635.403 8      1251.320          49.000    19470257.969 7  80894052.020 7       973.249          45.000
C05  39776129.555 6 207124743.975 6        13.785          36.000    39776129.203 6 160161961.394 6        10.584          41.000
C21  24424081.273 8 127182697.350 8     -3178.879          50.000
C24  23718470.062 8 123508307.677 8      2324.094          49.000
C26  21339255.047 8 111119044.020 8      -147.555          51.000
E01  25620525.320 8 134636768.766 8      2521.414          51.000    25620528.492 8 103163285.656 8      1931.951          51.000
E19  23751597.234 7 124815485.530 7      -388.656          46.000    23751599.125 8  95637832.614 8      -297.652          50.000
E21  23481763.156 8 123397499.875 8       133.500          51.000    23481763.758 8  94551322.471 8       102.337          51.000
E27                                                                  25626966.000 5 103189180.440 5     -1803.993          35.000
> 2020 05 04 05 08 30.0000000  0 14        .000000000000
G05  22573930.352 8 118626787.011 8     -3202.156          51.000    22573925.812 8  92436450.649 8     -2495.187          50.000
G13  20190116.547 8 106099777.642 8       445.320          51.000    20190115.383 8  82675136.242 8       347.003          51.000
G28  20903431.727 8 109848347.200 8      -405.289          51.000    20903429.961 8  85596088.267 8      -315.810          48.000
R05  20304959.477 8 108541630.608 8     -2895.055          51.000    20304961.734 8  84421266.078 8     -2251.712          48.000
R15  20330040.086 6 108637654.767 6     -2697.891          39.000    20330044.312 6  84495928.488 6     -2098.359          40.000
R16  19463284.883 8 103969397.285 8      1230.938          48.000    19463287.133 7  80865089.035 7       957.396          45.000
C05  39776051.789 6 207124338.825 6        13.156          36.000    39776051.438 6 160161648.081 6        10.164          41.000
C21  24442414.477 8 127278164.871 8     -3185.871          49.000
C24  23705103.711 8 123438705.999 8      2315.648          51.000
C26  21340138.680 8 111123645.160 8      -159.445          51.000
E01  25606154.125 8 134561243.155 8      2513.348          51.000    25606156.672 8 103105415.375 8      1925.851          51.000
E19  23753847.375 7 124827309.788 7      -400.230          46.000    23753848.711 8  95646892.756 8      -306.571          50.000
E21  23481036.742 8 123393682.081 8       120.668          51.000    23481036.930 8  94548397.151 8        92.451          51.000
E27                                                                  25640422.320 5 103243377.394 5     -1809.240          33.000
> 2020 05 04 05 09  0.0000000  0 14        .000000000000
G05  22592239.719 8 118723002.975 8     -3220.004          50.000    22592236.109 8  92511424.083 8     -2509.097          50.000
G13  20187615.227 8 106086633.066 8       423.203          51.000    20187614.102 8  82664893.695 8       329.769          51.000
G24  24149775.664 5 126907916.832 5      3168.191          35.000
G28  20905800.430 8 109860794.482 8      -432.266          51.000    20905798.609 8  85605787.446 8      -336.830          49.000
R05  20321262.703 8 108628777.534 8     -2922.617          51.000    20321264.969 8  84489046.964 8     -2273.147          49.000
R15  20345221.367 6 108718779.970 6     -2718.219          38.000    20345225.086 6  84559025.876 6     -2114.170          39.000
R16  19456430.219 7 103932781.411 7      1202.301          47.000    19456432.586 7  80836610.022 7       935.123          45.000
C05  39775978.812 6 207123958.845 6         4.391          36.000    39775978.398 6 160161354.250 6         3.392          41.000
C21  24460789.562 8 127373851.064 8     -3200.910          48.000
C24  23691790.023 8 123369372.783 8      2298.797          51.000
C26  21341092.562 8 111128612.085 8      -179.375          51.000
E01  25591831.016 8 134485970.327 8      2497.035          51.000    25591832.508 8 103047738.797 8      1913.346          51.000
E19  23756165.820 7 124839493.460 7      -420.012          47.000    23756166.812 8  95656228.276 8      -321.824          50.000
E21  23480386.008 8 123390262.803 8        99.527          51.000    23480386.133 8  94545777.177 8        76.294          51.000
> 2020 05 04 05 09 30.0000000  0 13        .000000000000
G05  22610604.602 8 118819513.279 8     -3217.621          49.000    22610602.719 8  92586626.898 8     -2507.237          48.000
G13  20185194.750 8 106073912.976 8       421.078          51.000    20185193.484 8  82654981.926 8       328.113          51.000
G28  20908276.984 8 109873809.258 8      -439.074          51.000    20908275.250 8  85615928.849 8      -342.136          49.000
R05  20337674.492 8 108716506.182 8     -2929.824          51.000    20337677.055 8  84557280.321 8     -2278.752          49.000
R15  20360474.930 6 108800288.160 6     -2718.594          38.000    20360476.820 6  84622421.105 6     -2114.462          39.000
R16  19449690.961 8 103896783.404 8      1193.738          48.000    19449693.727 7  80808611.587 7       928.463          45.000
C05  39775909.992 5 207123600.281 5        15.863          35.000    39775909.570 6 160161076.974 6        12.109          41.000
C21  24479205.648 7 127469750.368 7     -3195.957          46.000
C24  23678527.672 8 123300304.745 8      2301.961          51.000
C26  21342115.742 8 111133940.218 8      -179.520          50.000
E01  25577555.141 8 134410947.347 8      2500.727          51.000    25577555.531 8 102990253.674 8      1916.225          51.000
E19  23758551.977 7 124852033.067 7      -419.723          47.000    23758553.055 8  95665836.530 8      -321.570          50.000
E21  23479810.117 8 123387237.663 8        98.387          51.000    23479810.711 8  94543459.212 8        75.411          51.000
> 2020 05 04 05 10  0.0000000  0 13        .000000000000
G05  22629004.352 7 118916209.008 7     -3228.750          47.000    22629004.180 7  92661974.210 7     -2515.909          47.000
G13  20182835.055 8 106061512.575 8       405.422          51.000    20182833.680 8  82645319.257 8       315.913          51.000
G28  20910841.227 8 109887284.526 8      -459.383          51.000    20910839.312 8  85626429.028 8      -357.964          49.000
R05  20354173.844 8 108804706.356 8     -2950.566          51.000    20354177.125 8  84625880.466 8     -2294.885          49.000
R15  20375779.047 6 108882068.464 6     -2733.391          38.000    20375779.648 6  84686027.961 6     -2125.974          38.000
R16  19443047.453 8 103861295.354 8      1171.773          48.000    19443050.312 7  80781009.784 7       911.379          45.000
C05  39775825.133 6 207123158.063 6        13.574          36.000    39775824.680 6 160160734.994 6        10.629          41.000
C21  24497641.961 7 127565755.880 7     -3204.484          43.000
C24  23665295.734 8 123231397.392 8      2291.641          51.000
C26  21343187.945 8 111139523.644 8      -192.887          51.000
E01  25563306.609 8 134336069.083 8      2491.020          51.000    25563305.875 8 102932879.465 8      1908.781          50.000
E19  23760986.086 8 124864823.213 8      -432.871          48.000    23760987.023 8  95675636.749 8      -331.624          50.000
E21  23479289.164 8 123384500.087 8        84.035          51.000    23479290.008 8  94541361.585 8        64.397          51.000
> 2020 05 04 05 10 30.0000000  0 13        .000000000000
G05  22647459.469 7 119013194.886 7     -3237.070          47.000    22647460.211 7  92737547.617 7     -2522.392          47.000
G13  20180556.750 8 106049540.134 8       392.539          51.000    20180555.195 8  82635990.076 8       305.875          51.000
G28  20913513.367 8 109901326.974 8      -476.875          51.000    20913511.438 8  85637371.194 8      -371.591          49.000
R05  20370781.352 8 108893485.649 8     -2968.281          50.000    20370785.008 8  84694931.027 8     -2308.666          49.000
R15  20391154.102 6 108964227.142 6     -2744.352          38.000    20391155.609 6  84749929.190 6     -2134.496          38.000
R16  19436519.984 8 103826426.910 8      1152.652          48.000    19436522.672 7  80753889.889 7       896.507          45.000
C05  39775744.594 6 207122738.858 6        14.273          36.000    39775744.148 6 160160410.838 6        11.010          41.000
C21  24516116.594 6 127661972.410 6     -3210.336          38.000
C24  23652113.883 8 123162757.972 8      2284.148          51.000
C26  21344329.734 8 111145468.321 8      -203.508          51.000
E01  25549106.195 8 134261444.133 8      2483.934          51.000    25549104.578 8 102875699.356 8      1903.337          49.000
E19  23763488.516 8 124877971.912 8      -443.699          48.000    23763489.141 8  95685711.705 8      -339.846          50.000
E21  23478843.180 8 123382157.204 8        72.168          51.000    23478844.320 8  94539566.381 8        55.345          51.000
> 2020 05 04 05 11  0.0000000  0 15        .000000000000
G05  22665933.531 7 119110278.089 7     -3243.078          47.000    22665934.344 7  92813196.860 7     -2527.074          47.000
G13  20178324.016 8 106037807.210 8       381.688          51.000    20178322.227 8  82626847.528 8       297.419          51.000
G28  20916257.211 8 109915746.281 8      -492.277          51.000    20916255.484 8  85648607.009 8      -383.593          50.000
G30  22230539.281 5 116822247.919 5     -2464.160          35.000
R05  20387460.531 8 108982648.632 8     -2983.930          50.000    20387464.125 8  84764279.989 8     -2320.837          48.000
R15  20406563.156 6 109046568.213 6     -2753.160          36.000    20406565.945 6  84813972.245 6     -2141.347          36.000
R16  19430072.289 8 103791984.784 8      1135.348          48.000    19430074.977 7  80727101.571 7       883.045          44.000
C05  39775632.375 6 207122154.755 6        16.777          36.000    39775632.023 6 160159959.125 6        13.257          40.000
C21  24534595.695 6 127758210.197 6     -3213.582          40.000
C24  23638947.047 8 123094198.939 8      2278.586          51.000
C26  21345504.477 8 111151585.433 8      -212.156          51.000
E01  25534917.961 8 134186883.681 8      2478.824          51.000    25534915.953 8 102818568.657 8      1899.419          49.000
E19  23766022.969 8 124891289.796 8      -452.273          49.000    23766023.516 8  95695916.312 8      -346.520          50.000
E21  23478435.914 8 123380018.707 8        62.457          51.000    23478437.453 8  94537927.788 8        47.830          51.000
E27  25708195.859 6 135097477.630 6     -2386.270          37.000
> 2020 05 04 05 11 30.0000000  0 15        .000000000000
G05  22684496.125 7 119207824.798 7     -3255.363          47.000    22684496.641 7  92889207.280 7     -2536.647          47.000
G13  20176207.211 8 106026683.306 8       364.672          51.000    20176205.359 8  82618179.536 8       284.160          51.000
G24  24059338.070 6 126432673.383 6      3156.648          38.000
G28  20919142.789 8 109930909.927 8      -513.867          51.000    20919140.883 8  85660422.829 8      -400.416          50.000
R05  20404280.914 8 109072567.605 8     -3005.730          48.000    20404284.828 8  84834216.975 8     -2337.787          49.000
R15  20422075.500 6 109129463.293 6     -2768.215          36.000    20422075.922 5  84878446.085 5     -2153.062          32.000
R16  19423774.523 8 103758343.112 8      1112.078          48.000    19423776.773 7  80700935.855 7       864.950          44.000
C05  39775558.703 6 207121770.819 6        13.441          36.000    39775558.281 6 160159662.231 6        10.327          40.000
C21  24553152.383 7 127854832.624 7     -3223.098          43.000
C24  23625866.711 8 123026085.820 8      2267.039          51.000
C26  21346782.359 8 111158239.206 8      -226.785          51.000
E01  25520812.070 8 134112756.997 8      2467.676          51.000    25520810.344 8 102761770.307 8      1890.808          50.000
E19  23768659.547 8 124905145.680 8      -466.953          48.000    23768660.391 8  95706533.134 8      -357.810          50.000
E21  23478137.594 8 123378452.424 8        46.672          51.000    23478139.430 8  94536727.638 8        35.756          51.000
E27  25721857.562 6 135169270.799 6     -2395.438          37.000
> 2020 05 04 05 12  0.0000000  0 14        .000000000000
G05  22703097.266 7 119305573.056 7     -3263.605          47.000    22703097.367 7  92965374.756 7     -2543.069          47.000
G13  20174157.242 8 106015909.914 8       351.289          51.000    20174155.305 8  82609784.677 8       273.732          51.000
G24  24041319.734 6 126337989.263 6      3153.035          36.000
G28  20922120.438 8 109946557.534 8      -531.629          51.000    20922118.602 8  85672615.764 8      -414.256          50.000
R05  20421193.133 8 109162976.607 8     -3023.797          49.000    20421198.094 8  84904535.122 8     -2351.842          50.000
R16  19417577.492 8 103725238.465 8      1092.449          48.000    19417579.234 7  80675187.778 7       849.680          44.000
C05  39775474.141 6 207121330.172 6        13.695          36.000    39775473.609 6 160159321.493 6        10.463          40.000
C21  24571733.680 7 127951580.920 7     -3229.090          44.000
C24  23612822.477 8 122958162.320 8      2259.059          50.000
C26  21348113.586 8 111165171.941 8      -237.668          50.000
E01  25506738.852 8 134038805.811 8      2460.023          49.000    25506738.664 8 102705106.389 8      1884.941          51.000
E19  23771349.195 8 124919280.884 8      -477.789          48.000    23771350.305 8  95717363.979 8      -366.122          50.000
E21  23477898.859 8 123377198.554 8        34.582          51.000    23477901.023 8  94535766.874 8        26.477          51.000
E27  25735540.102 6 135241174.738 6     -2400.754          38.000
> 2020 05 04 05 12 30.0000000  0 15        .000000000000
G05  22721752.508 8 119403605.317 8     -3271.895          48.000    22721751.922 8  93041763.501 8     -2549.528          48.000
G13  20172190.461 8 106005573.939 8       337.875          51.000    20172188.406 8  82601730.667 8       263.279          51.000
G24  24023330.141 5 126243458.454 5      3149.496          35.000
G28  20925206.359 8 109962774.073 8      -549.391          51.000    20925204.719 8  85685252.040 8      -428.097          50.000
R05  20438214.406 8 109253960.681 8     -3041.668          51.000    20438219.484 8  84975300.488 8     -2365.742          50.000
R15  20453279.789 6 109296206.065 6     -2790.695          40.000    20453282.414 5  85008117.572 5     -2170.547          35.000
R16  19411497.188 8 103692757.424 8      1072.891          49.000    19411498.828 7  80649924.731 7       834.470          45.000
C05  39775395.062 6 207120918.851 6        13.715          36.000    39775394.539 6 160159002.632 6        10.650          40.000
C21  24590354.391 7 128048538.209 7     -3234.617          44.000
C24  23599829.992 8 122890513.892 8      2250.965          49.000
C26  21349514.586 8 111172467.824 8      -248.660          51.000
E01  25492714.492 8 133965116.684 8      2452.578          48.000    25492717.258 8 102648643.250 8      1879.221          51.000
E19  23774108.508 8 124933781.433 8      -488.719          49.000    23774109.734 8  95728474.778 8      -374.419          50.000
E21  23477735.781 8 123376342.266 8        22.551          51.000    23477738.297 8  94535110.744 8        17.282          51.000
E27  25749259.398 6 135313273.697 6     -2406.141          38.000
> 2020 05 04 05 13  0.0000000  0 15        .000000000000
G05  22740458.883 8 119501906.077 8     -3281.383          48.000    22740456.852 8  93118361.450 8     -2556.922          48.000
G13  20170304.609 8 105995663.484 8       322.891          51.000    20170302.469 8  82594008.224 8       251.603          51.000
G28  20928397.930 8 109979545.701 8      -568.727          51.000    20928396.219 8  85698320.831 8      -443.164          50.000
G30  22287116.297 5 117119589.196 5     -2491.715          35.000    22287115.656 5  91261987.424 5     -1941.593          34.000
R05  20455340.789 8 109345504.111 8     -3061.105          51.000    20455344.859 8  85046500.897 8     -2380.863          49.000
R15  20468977.055 5 109380114.903 5     -2803.016          35.000    20468979.945 5  85073379.918 5     -2180.123          33.000
R16  19405531.336 8 103660887.189 8      1051.812          49.000    19405532.523 7  80625136.769 7       818.076          45.000
C05  39775318.812 6 207120522.062 6        13.113          36.000    39775318.375 6 160158695.819 6         9.566          40.000
C21  24609011.586 7 128145689.893 7     -3242.113          43.000
C24  23586889.320 8 122823128.204 8      2241.414          51.000
C26  21350983.016 8 111180113.273 8      -260.988          51.000
E01  25478738.523 8 133891677.599 8      2443.434          49.000    25478743.344 8 102592371.702 8      1872.196          51.000
E19  23776935.062 8 124948635.011 8      -501.457          49.000    23776936.469 8  95739856.077 8      -384.191          50.000
E21  23477645.773 8 123375870.067 8         8.969          51.000    23477648.398 8  94534748.911 8         6.827          51.000
E27  25763013.102 5 135385553.235 5     -2413.254          34.000
> 2020 05 04 05 13 30.0000000  0 15        .000000000000
G05  22759222.430 8 119600506.992 8     -3291.066          48.000    22759218.562 8  93195193.270 8     -2564.470          48.000
G13  20168506.414 8 105986213.760 8       307.961          51.000    20168504.375 8  82586644.785 8       239.970          51.000
G28  20931701.445 8 109996905.703 8      -587.734          51.000    20931699.883 8  85711848.111 8      -457.975          51.000
G30  22301359.805 5 117194440.517 5     -2497.387          34.000    22301359.195 5  91320313.199 5     -1946.010          34.000
R05  20472577.562 8 109437639.550 8     -3080.309          51.000    20472580.344 7  85118161.762 7     -2395.796          47.000
R15  20484751.367 6 109464410.519 6     -2815.660          39.000    20484754.492 5  85138943.204 5     -2189.958          34.000
R16  19399685.984 8 103629661.890 8      1030.820          48.000    19399687.117 7  80600850.409 7       801.749          45.000
C05  39775252.234 6 207120174.869 6        11.480          36.000    39775251.688 6 160158427.300 6         8.886          40.000
C21  24627712.406 7 128243068.111 7     -3248.832          44.000
C24  23574006.578 8 122756039.726 8      2232.031          51.000
C26  21352524.977 8 111188141.369 8      -273.188          51.000
E01  25464817.961 8 133818523.695 8      2434.449          51.000    25464823.367 8 102536318.670 8      1865.390          51.000
E19  23779835.430 8 124963876.159 8      -513.812          48.000    23779836.922 8  95751534.332 8      -393.662          50.000
E21  23477635.516 8 123375815.628 8        -4.328          51.000    23477638.062 8  94534707.181 8        -3.334          51.000
E27                                                                  25776815.703 4 103792555.325 4     -1853.798          29.000
> 2020 05 04 05 14  0.0000000  0 15        .000000000000
G05  22778015.352 8 119699261.320 8     -3288.129          49.000    22778010.797 8  93272144.652 8     -2562.178          49.000
G13  20166768.781 8 105977082.045 8       305.262          51.000    20166766.781 8  82579529.155 8       237.866          51.000
G17  24588084.398 6 129211250.766 6      2830.504          37.000    24588079.359 6 100684071.909 6      2205.584          38.000
G28  20935089.398 8 110014709.147 8      -594.602          51.000    20935088.031 8  85725720.917 8      -463.326          50.000
R05  20489896.492 8 109530218.158 8     -3086.973          51.000    20489898.312 7  85190167.315 7     -2400.979          45.000
R15  20500569.375 6 109548944.168 6     -2815.184          40.000    20500577.281 5  85204691.541 5     -2189.590          35.000
R16  19393933.789 8 103598935.455 8      1022.176          49.000    19393935.539 7  80576952.074 7       795.026          46.000
C05  39775167.891 6 207119735.852 6        22.871          36.000    39775167.250 6 160158087.042 6        17.329          40.000
C21  24646429.852 7 128340528.686 7     -3243.914          45.000
C24  23561153.336 8 122689106.559 8      2234.711          51.000
C26  21354113.008 8 111196408.971 8      -273.441          51.000
E01  25450924.953 8 133745512.138 8      2437.629          51.000    25450930.141 8 102480374.714 8      1867.812          51.000
E19  23782782.188 8 124979361.614 8      -514.062          48.000    23782783.555 8  95763399.801 8      -393.925          50.000
E21  23477677.375 8 123376034.623 8        -5.652          51.000    23477679.898 8  94534874.974 8        -4.283          51.000
E27  25790613.164 5 135530586.412 5     -2413.898          35.000
> 2020 05 04 05 14 30.0000000  0 16        .000000000000
G05  22796836.555 8 119798163.743 8     -3306.477          49.000    22796832.562 8  93349211.435 8     -2576.475          49.000
G13  20165091.484 8 105968267.087 8       281.203          51.000    20165089.461 8  82572660.343 8       219.119          51.000
G17  24571960.969 5 129126516.855 5      2817.082          35.000    24571955.242 5 100618045.565 5      2195.132          35.000
G28  20938561.102 8 110032952.919 8      -622.812          51.000    20938559.695 8  85739936.837 8      -485.308          50.000
G30  22329888.844 5 117344349.416 5     -2507.551          33.000    22329889.023 5  91437149.980 5     -1953.939          32.000
R05  20507296.773 8 109623235.048 8     -3115.340          51.000    20507298.531 7  85262513.759 7     -2423.042          46.000
R15  20516431.469 6 109633710.205 6     -2836.805          36.000    20516442.266 5  85270620.703 5     -2206.404          34.000
R16  19388274.797 8 103568705.247 8       992.012          49.000    19388276.734 7  80553439.681 7       771.565          46.000
C05  39775065.086 6 207119200.844 6        11.977          36.000    39775064.523 6 160157673.298 6         9.533          40.000
C21  24665162.734 7 128438067.518 7     -3259.844          46.000
C24  23548328.867 8 122622326.971 8      2216.109          51.000
C26  21355746.102 8 111204912.974 8      -294.699          51.000
E01  25437058.719 8 133672641.513 8      2419.355          51.000    25437063.344 8 102424538.765 8      1853.708          51.000
E19  23785775.188 8 124995089.551 8      -535.441          49.000    23785776.242 8  95775451.063 8      -410.393          50.000
E21  23477770.656 8 123376524.178 8       -28.168          51.000    23477772.891 8  94535250.081 8       -21.586          51.000
E27  25804436.414 6 135603211.839 6     -2429.008          36.000
> 2020 05 04 05 15  0.0000000  0 16        .000000000000
G05  22815729.750 8 119897444.924 8     -3320.172          48.000    22815726.664 8  93426573.355 8     -2587.150          48.000
G13  20163519.031 8 105960002.903 8       261.727          51.000    20163517.031 8  82566220.710 8       203.940          51.000
G17  24555872.984 5 129042000.117 5      2808.137          33.000    24555876.445 5 100552208.585 5      2188.158          34.000
G28  20942160.773 8 110051869.068 8      -646.258          51.000    20942159.352 8  85754676.689 8      -503.578          49.000
G30  22344218.211 6 117419645.237 6     -2519.613          38.000    22344217.969 6  91495822.027 6     -1963.332          38.000
R05  20524823.234 8 109716924.911 8     -3138.898          51.000    20524825.453 7  85335383.593 7     -2441.368          46.000
R15  20532382.172 5 109718942.391 5     -2854.039          30.000    20532390.992 5  85336912.413 5     -2219.808          31.000
R16  19382752.344 7 103539207.339 7       966.309          47.000    19382754.891 7  80530496.865 7       751.573          46.000
C05  39774988.477 6 207118801.682 6         6.477          36.000    39774987.906 6 160157364.626 6         4.942          41.000
C21  24683954.461 7 128535913.611 7     -3271.098          47.000
C24  23535578.258 8 122555932.216 8      2202.215          50.000
C26  21357468.664 8 111213883.371 8      -311.324          50.000
E01  25423263.570 8 133600145.625 8      2405.762          51.000    25423267.258 8 102368989.954 8      1843.319          51.000
E19  23788858.922 8 125011292.980 8      -552.492          49.000    23788859.547 8  95787866.658 8      -423.263          50.000
E21  23477959.648 8 123377516.594 8       -45.988          51.000    23477961.336 8  94536010.495 8       -35.235          51.000
E27  25818313.195 5 135676151.180 5     -2439.809          34.000
> 2020 05 04 05 15 30.0000000  0 15        .000000000000
G05  22834667.289 7 119996960.209 7     -3323.777          47.000    22834664.930 7  93504117.696 7     -2589.956          47.000
G13  20162024.523 8 105952148.706 8       252.254          51.000    20162022.602 8  82560100.551 8       196.561          51.000
G15  21007487.805 5 110395092.578 5      1908.512          30.000
G28  20945861.117 8 110071314.852 8      -659.645          51.000    20945859.734 8  85769829.244 8      -514.009          48.000
G30  22358576.508 6 117495100.010 6     -2520.621          38.000    22358574.305 6  91554617.916 6     -1964.120          36.000
R05  20542448.422 8 109811141.587 8     -3152.090          51.000    20542450.477 7  85408663.186 7     -2451.625          45.000
R15  20548393.406 5 109804377.867 5     -2859.695          30.000    20548397.156 5  85403452.384 5     -2224.201          33.000
R16  19377339.859 8 103510297.821 8       951.078          48.000    19377342.875 7  80508011.680 7       739.727          45.000
C05  39774911.039 6 207118398.107 6        10.891          36.000    39774910.391 6 160157052.548 6         8.376          40.000
C21  24702777.586 8 128633924.903 8     -3272.270          48.000
C24  23522874.969 8 122489782.529 8      2198.203          50.000
C26  21359253.734 8 111223179.052 8      -317.863          51.000
E01  25409512.789 8 133527883.799 8      2402.051          51.000    25409514.727 8 102313620.509 8      1840.529          49.000
E19  23792006.172 8 125027831.152 8      -559.723          48.000    23792006.500 8  95800538.736 8      -428.816          50.000
E21  23478217.258 8 123378869.732 8       -53.855          51.000    23478218.688 8  94537047.311 8       -41.257          51.000
> 2020 05 04 05 16  0.0000000  0 15        .000000000000
G05  22853644.750 7 120096686.256 7     -3327.172          44.000    22853642.742 7  93581826.280 7     -2592.601          44.000
G13  20160604.281 8 105944685.123 8       242.945          51.000    20160602.406 8  82554284.761 8       189.308          51.000
G17  24523765.938 5 128873242.833 5      2810.648          32.000    24523764.375 5 100420710.690 5      2190.116          32.000
G28  20949658.133 8 110091268.840 8      -672.879          51.000    20949656.664 7  85785377.797 7      -524.321          47.000
G30  22372960.734 5 117570692.458 5     -2520.801          35.000    22372959.094 5  91613521.182 5     -1964.257          34.000
R05  20560167.391 8 109905861.749 8     -3165.102          48.000    20560169.555 7  85482334.403 7     -2461.749          44.000
R15  20564459.797 5 109890225.222 5     -2866.051          33.000    20564464.133 5  85470222.499 5     -2229.154          34.000
R16  19372033.977 8 103481955.864 8       935.973          48.000    19372037.008 7  80485967.932 7       727.979          45.000
C05  39774828.852 6 207117970.150 6        15.262          36.000    39774828.195 6 160156721.591 6        12.013          41.000
C21  24721627.430 7 128732079.529 7     -3273.477          47.000
C24  23510214.414 8 122423858.352 8      2194.496          48.000
C26  21361097.344 8 111232779.164 8      -324.422          51.000
E01  25395802.680 8 133455836.637 8      2398.742          51.000    25395802.406 8 102258415.586 8      1838.066          48.000
E19  23795213.141 8 125044683.945 8      -566.387          48.000    23795213.305 8  95813451.896 8      -433.967          50.000
E21  23478539.375 8 123380562.690 8       -61.344          51.000    23478540.773 8  94538344.513 8       -46.920          51.000
> 2020 05 04 05 16 30.0000000  0 12        .000000000000
G05  22872666.836 7 120196648.141 7     -3337.695          44.000    22872664.680 7  93659718.628 7     -2600.802          44.000
G13  20159263.836 8 105937640.882 8       226.164          51.000    20159261.984 8  82548795.729 8       176.232          51.000
G28  20953556.930 8 110111757.759 8      -693.531          50.000    20953555.523 7  85801343.184 7      -540.414          47.000
R05  20577984.500 7 110001111.045 7     -3185.551          47.000    20577987.250 7  85556417.194 7     -2477.651          44.000
R16  19366839.555 8 103454208.745 8       913.340          48.000    19366842.641 7  80464386.827 7       710.375          45.000
