     3.02           OBSERVATION DATA    M (MIXED)           RINEX VERSION / TYPE
SAVERINEX           SC600               20200506 125930 LCL PGM / RUN BY / DATE
       G = GPS       R = GLONASS       C = COMPASS          COMMENT
       S = SBAS      J = QZSS          E = GALILEO          COMMENT
BEAN                                                        MARKER NAME
1                                                           MARKER NUMBER
GEODETIC                                                    MARKER TYPE
Unige DICCA         GTER                                    OBSERVER / AGENCY
SC60291900056       SC600               2.12(191226)        REC # / TYPE / VERS
                    HEMA45          NONE                    ANT # / TYPE
  4509407.8091   693652.4678  4442337.6214                  APPROX POSITION XYZ
        0.0000        0.0000        0.0000                  ANTENNA: DELTA H/E/N
G    8 C1C L1C D1C S1C C2Y L2Y D2Y S2Y                      SYS / # / OBS TYPES
R    8 C1C L1C D1C S1C C2P L2P D2P S2P                      SYS / # / OBS TYPES
C    4 C1I L1I D1I S1I                                      SYS / # / OBS TYPES
E    8 C1C L1C D1C S1C C7Q L7Q D7Q S7Q                      SYS / # / OBS TYPES
DBHZ                                                        COMMENT
     30.000                                                 INTERVAL
  2020    05    06    10    00    0.0000000     GPS         TIME OF FIRST OBS
  2020    05    06    10    59   30.0000000     GPS         TIME OF LAST OBS
     0                                                      RCV CLOCK OFFS APPL
G L1C  0.00000                                              SYS / PHASE SHIFT
G L2Y  0.00000                                              SYS / PHASE SHIFT
R L1C  0.00000                                              SYS / PHASE SHIFT
R L2P  0.25000                                              SYS / PHASE SHIFT
C L1I  0.00000                                              SYS / PHASE SHIFT
E L1C  0.50000                                              SYS / PHASE SHIFT
E L7Q -0.25000                                              SYS / PHASE SHIFT
 13 R01  1 R02 -4 R07  5 R08  6 R09 -2 R10 -5 R11  0 R12 -1 GLONASS SLOT / FRQ #
    R19  3 R20  2 R21  4 R22 -3 R23  3                      GLONASS SLOT / FRQ #
 C1C   71.950 C2C   71.950 C2P   71.950                     GLONASS COD/PHS/BIS
    18                                                      LEAP SECONDS
*** Above antenna height is from mark to ANTENNA BOTTOM.    COMMENT
    17     4        0.0000        ANT MEASURE TYPE/HEIGT    COMMENT
    0.0000    0.0000    0.0458    0.0405    0.0000          COMMENT
                    BASE STATION                            COMMENT
                                                            END OF HEADER
> 2020 05 06 10 00  0.0000000  0 11        .000000000000
G02  22994449.477 5 120836596.607 5       656.016          34.000
G12  20425830.047 8 107338459.973 8     -1208.270          51.000    20425828.930 8  83640346.680 8      -941.509          51.000
G24  22139716.352 8 116344980.633 8     -2935.484          49.000    22139720.508 8  90658433.901 8     -2287.390          49.000
G29  22099026.680 8 116131158.418 8      3077.578          49.000    22099027.773 8  90491809.869 8      2398.113          49.000
R12  19491674.375 8 104121019.722 8        -3.586          51.000    19491677.109 7  80983021.419 7        -2.789          45.000
R22  19661575.312 8 104954826.022 8      1361.785          51.000    19661579.375 8  81631550.699 8      1059.166          51.000
C26  21590974.836 5 112429869.317 5       967.039          35.000
C29  22977474.609 5 119649768.204 5     -1587.121          35.000
E02  23349815.836 8 122704098.435 8        45.953          51.000    23349817.008 8  94020032.813 8        35.154          51.000
E08  24616071.445 7 129358321.303 7     -2450.562          47.000    24616071.562 7  99118725.021 7     -1877.814          47.000
E36  24579118.859 8 129164156.924 8      1752.137          51.000    24579120.898 8  98970025.820 8      1342.507          51.000
> 2020 05 06 10 00 30.0000000  0 10        .000000000000
G12  20432775.188 8 107374956.743 8     -1222.793          51.000    20432773.930 8  83668785.714 8      -952.826          51.000
G24  22156521.086 8 116433286.018 8     -2949.488          49.000    22156524.453 8  90727243.262 8     -2298.303          49.000
G25  20282891.219 5 106587344.811 5       729.941          32.000
G29  22081507.969 8 116039094.587 8      3062.090          51.000    22081507.633 8  90420071.846 8      2386.047          51.000
R12  19491750.711 8 104121426.420 8       -21.500          51.000    19491753.562 7  80983337.748 7       -16.722          45.000
R22  19654017.453 8 104914482.312 8      1329.871          51.000    19654022.023 8  81600172.243 8      1034.344          51.000
C26  21585451.141 6 112401105.785 6       952.738          36.000
E02  23349587.641 8 122702900.071 8        35.852          51.000    23349588.969 8  94019114.586 8        27.495          51.000
E08  24630098.625 8 129432031.243 8     -2461.438          48.000    24630098.578 7  99175204.035 7     -1886.129          47.000
E36  24569170.102 8 129111877.845 8      1735.113          51.000    24569172.875 8  98929967.877 8      1329.526          51.000
> 2020 05 06 10 01  0.0000000  0 11        .000000000000
G12  20439765.383 8 107411690.437 8     -1229.680          51.000    20439764.055 8  83697409.359 8      -958.192          51.000
G24  22173367.258 8 116521811.137 8     -2955.707          49.000    22173369.773 8  90796223.794 8     -2303.151          49.000
G25  20278737.945 5 106565520.320 5       721.473          34.000    20278737.523 5  83038037.656 5       562.183          34.000
G29  22064040.445 8 115947299.229 8      3054.000          51.000    22064038.867 8  90348543.054 8      2379.740          51.000
R12  19491889.672 8 104122167.772 8       -31.598          51.000    19491892.930 7  80983914.366 7       -24.576          46.000
R22  19646600.789 8 104874892.633 8      1305.777          51.000    19646605.422 8  81569380.287 8      1015.605          51.000
C26  21579970.398 6 112372566.023 6       946.086          36.000
C29  22995964.156 5 119746019.613 5     -1615.363          31.000
E02  23349378.273 8 122701800.571 8        33.715          51.000    23349379.711 8  94018272.112 8        25.810          51.000
E08  24644149.141 8 129505863.940 8     -2464.461          48.000    24644149.594 8  99231777.120 8     -1888.371          48.000
E36  24559279.688 8 129059904.202 8      1726.059          51.000    24559282.602 8  98890143.950 8      1322.564          51.000
> 2020 05 06 10 01 30.0000000  0 10        .000000000000
G12  20446768.445 8 107448492.053 8     -1242.145          51.000    20446767.055 8  83726085.961 8      -967.905          51.000
G24  22190222.875 8 116610387.136 8     -2967.652          50.000    22190224.445 8  90865243.969 8     -2312.459          50.000
G29  22046592.211 8 115855606.089 8      3040.488          51.000    22046590.273 8  90277093.894 8      2369.212          51.000
R12  19492059.266 8 104123074.265 8       -47.488          51.000    19492062.594 7  80984619.403 7       -36.938          46.000
R22  19639294.086 8 104835887.952 8      1275.859          51.000    19639298.312 8  81539043.311 8       992.335          50.000
C26  21574500.539 6 112344084.474 6       934.391          38.000
C29  23005276.953 5 119794472.814 5     -1632.539          31.000
E02  23349155.758 8 122700632.077 8        25.785          51.000    23349157.344 8  94017376.767 8        19.805          51.000
E08  24658190.484 7 129579649.249 7     -2473.020          47.000    24658191.906 8  99288313.886 8     -1894.890          49.000
E36  24549415.875 8 129008069.202 8      1711.148          51.000    24549419.117 8  98850426.239 8      1311.203          51.000
> 2020 05 06 10 02  0.0000000  0 11        .000000000000
G12  20453948.938 8 107486225.961 8     -1247.254          51.000    20453947.375 8  83755489.022 8      -971.883          51.000
G24  22207252.531 8 116699876.951 8     -2972.238          51.000    22207253.156 8  90934976.251 8     -2316.030          51.000
G25  20270656.672 5 106523006.542 5       701.836          32.000    20270657.773 5  83004939.736 5       546.885          33.000
G29  22029327.992 8 115764882.325 8      3034.016          50.000    22029326.695 8  90206400.082 8      2364.168          50.000
R12  19492424.492 8 104125026.071 8       -55.953          51.000    19492427.680 7  80986137.467 7       -43.519          46.000
R22  19632261.836 8 104798348.519 8      1253.352          51.000    19632266.180 8  81509846.012 8       974.832          50.000
C26  21569206.469 6 112316519.719 6       929.188          38.000
C29  23014794.984 5 119843966.460 5     -1641.969          32.000
E02  23349084.805 8 122700260.063 8        25.211          51.000    23349086.578 8  94017091.723 8        19.320          51.000
E08  24672387.016 7 129654250.415 7     -2474.152          47.000    24672389.398 8  99345475.797 8     -1895.776          48.000
E36  24539743.383 8 128957239.358 8      1703.676          51.000    24539747.305 8  98811478.734 8      1305.429          51.000
> 2020 05 06 10 02 30.0000000  0 12        .000000000000
G12  20461064.898 8 107523620.642 8     -1256.531          51.000    20461063.070 8  83784627.741 8      -979.115          51.000
G24  22224213.930 8 116789008.711 8     -2980.719          51.000    22224214.008 8  91004429.558 8     -2322.641          51.000
G25  20266648.273 4 106501954.364 4       692.137          29.000    20266654.047 4  82988533.875 4       539.330          27.000
G29  22012006.227 8 115673858.975 8      3023.438          49.000    22012006.180 8  90135472.807 8      2355.925          48.000
G32  22174193.039 5 116526154.945 5      -511.199          33.000    22174195.031 5  90799621.168 5      -398.337          32.000
R12  19492744.086 8 104126732.814 8       -68.727          51.000    19492746.828 7  80987464.948 7       -53.454          46.000
R22  19625262.383 8 104760985.226 8      1226.555          51.000    19625266.547 8  81480785.722 8       953.987          49.000
C26  21563846.992 6 112288613.626 6       920.500          39.000
E02  23348923.781 8 122699414.179 8        20.445          51.000    23348925.672 8  94016443.574 8        15.660          51.000
E08  24686496.523 8 129728394.767 8     -2479.453          48.000    24686499.680 7  99402287.695 7     -1899.868          47.000
E25  25822265.078 5 135696918.459 5     -1888.160          33.000
E36  24530020.617 8 128906145.364 8      1691.883          51.000    24530024.680 8  98772328.812 8      1296.432          51.000
> 2020 05 06 10 03  0.0000000  0 12        .000000000000
G12  20468298.680 8 107561634.491 8     -1272.414          51.000    20468296.672 8  83814248.926 8      -991.491          51.000
G24  22241289.273 8 116878739.699 8     -2995.906          51.000    22241289.977 8  91074349.785 8     -2334.475          51.000
G25  20262768.891 5 106481562.512 5       673.258          35.000    20262770.523 5  82972661.021 5       524.613          35.000
G29  21994810.273 8 115583497.152 8      3005.949          48.000    21994811.320 8  90065060.985 8      2342.298          48.000
G32  22177200.484 5 116541967.297 5      -537.066          34.000    22177202.461 5  90811953.703 5      -418.466          33.000
R12  19493200.695 8 104129170.500 8       -88.305          51.000    19493203.484 7  80989360.923 7       -68.678          46.000
R22  19618478.789 8 104724773.793 8      1193.020          51.000    19618482.609 8  81452621.307 8       927.907          49.000
C26  21558605.125 6 112261317.947 6       904.805          41.000
E02  23348855.273 8 122699053.955 8         8.961          51.000    23348857.141 8  94016167.550 8         6.857          51.000
E08  24700701.031 8 129803039.626 8     -2491.449          48.000    24700704.461 7  99459483.069 7     -1909.041          46.000
E25  25833089.141 5 135753794.054 5     -1897.668          34.000
E36  24520430.289 8 128855747.824 8      1673.434          51.000    24520434.062 8  98733712.554 8      1282.196          51.000
> 2020 05 06 10 03 30.0000000  0 11        .000000000000
G12  20475601.773 8 107600012.474 8     -1274.715          51.000    20475599.688 8  83844153.868 8      -993.281          51.000
G24  22258430.188 8 116968814.725 8     -2997.543          51.000    22258431.234 8  91144538.119 8     -2335.748          51.000
G25  20258963.195 5 106461570.112 5       670.027          34.000    20258966.320 5  82957082.445 5       522.093          34.000
G29  21977693.000 8 115493544.727 8      3002.199          50.000    21977693.984 8  89994968.183 8      2339.376          50.000
R11  21885758.047 6 116950842.687 6     -2786.707          36.000
R12  19493745.938 8 104132081.862 8       -94.059          51.000    19493748.289 7  80991625.339 7       -73.157          46.000
R22  19611862.656 8 104689457.436 8      1173.141          51.000    19611866.945 8  81425153.084 8       912.446          50.000
C26  21553432.758 6 112234381.897 6       902.676          41.000
E02  23348830.852 8 122698925.491 8        11.082          51.000    23348832.672 8  94016069.113 8         8.542          51.000
E08  24714951.789 8 129877928.719 8     -2489.719          48.000    24714954.641 7  99516865.579 7     -1907.689          45.000
E36  24510924.445 8 128805793.868 8      1668.406          51.000    24510927.805 8  98695436.165 8      1278.401          51.000
> 2020 05 06 10 04  0.0000000  0 14        .000000000000
G06  23552337.961 5 123768359.621 5      -814.797          34.000
G12  20482923.828 8 107638490.303 8     -1286.875          51.000    20482921.797 8  83874136.590 8     -1002.760          51.000
G24  22275586.086 8 117058968.541 8     -3009.152          51.000    22275587.555 8  91214787.817 8     -2344.794          51.000
G25  20255183.828 5 106441717.737 5       656.594          32.000    20255191.398 5  82941613.097 5       511.641          32.000
G29  21960604.359 8 115403740.081 8      2988.359          51.000    21960604.648 8  89924990.561 8      2328.592          51.000
R11  21901446.383 5 117034675.873 5     -2798.070          33.000
R12  19494329.734 8 104135200.234 8      -110.195          51.000    19494332.000 7  80994050.761 7       -85.707          47.000
R21  21646576.586 4 115835209.315 4     -3102.527          29.000    21646579.602 4  90094027.006 4     -2413.077          29.000
R22  19605364.172 8 104654769.688 8      1143.012          51.000    19605368.586 8  81398173.748 8       889.009          50.000
C26  21548279.625 7 112207545.464 7       890.391          42.000
E02  23348800.438 8 122698765.564 8         3.203          51.000    23348802.164 8  94015946.564 8         2.454          51.000
E08  24729198.312 8 129952796.511 8     -2497.875          48.000    24729199.570 7  99574231.778 7     -1913.929          44.000
E25  25854780.508 5 135867792.881 5     -1899.391          34.000
E36  24501453.102 8 128756021.264 8      1653.344          51.000    24501456.328 8  98657298.739 8      1266.860          51.000
> 2020 05 06 10 04 30.0000000  0 12        .000000000000
G02  22964643.844 5 120680047.094 5       491.246          32.000
G06  23557088.891 6 123793318.279 6      -851.430          39.000    23557095.805 5  96462371.502 5      -663.452          32.000
G12  20490344.164 8 107677484.907 8     -1314.590          51.000    20490342.273 8  83904521.993 8     -1024.356          51.000
G24  22292836.039 8 117149617.223 8     -3035.926          50.000    22292837.898 8  91285423.138 8     -2365.656          50.000
G25  20251512.688 5 106422423.292 5       627.348          35.000    20251520.570 5  82926578.500 5       488.842          33.000
G29  21943623.633 8 115314502.605 8      2958.859          51.000    21943623.312 8  89855454.897 8      2305.608          51.000
R12  19495031.672 8 104138951.264 8      -141.898          51.000    19495034.586 8  80996968.223 8      -110.365          48.000
R22  19599063.555 8 104621136.344 8      1097.191          51.000    19599067.898 8  81372014.493 8       853.371          51.000
C26  21543225.031 6 112181223.706 6       862.664          41.000
E02  23348843.555 8 122698992.190 8       -20.242          51.000    23348845.156 8  94016120.209 8       -15.495          51.000
E08  24743519.922 8 130028058.752 8     -2521.586          49.000    24743518.969 7  99631900.201 7     -1931.996          43.000
E36  24492095.641 8 128706849.004 8      1622.855          50.000    24492098.914 8  98619621.331 8      1243.508          51.000
> 2020 05 06 10 05  0.0000000  0 13        .000000000000
G02  22961824.242 5 120665203.243 5       491.168          35.000
G06  23561944.992 5 123818841.465 5      -854.098          34.000    23561956.742 5  96482259.748 5      -665.525          30.000
G12  20497819.422 8 107716768.139 8     -1308.535          51.000    20497817.758 8  83935132.294 8     -1019.638          51.000
G24  22310136.211 8 117240532.562 8     -3029.207          48.000    22310138.773 8  91356266.229 8     -2360.421          48.000
G25  20247904.242 5 106403459.532 5       632.203          32.000    20247911.898 5  82911801.588 5       492.626          32.000
G29  21926707.594 8 115225607.157 8      2963.203          51.000    21926706.906 8  89786185.766 8      2308.992          51.000
R11  21933057.055 5 117203593.534 5     -2817.629          32.000
R12  19495808.891 8 104143104.913 8      -139.328          51.000    19495812.125 8  81000198.804 8      -108.366          48.000
R22  19592917.547 8 104588327.689 8      1085.766          51.000    19592921.984 8  81346496.693 8       844.487          50.000
C26  21538225.469 7 112155192.510 7       868.672          42.000
E02  23348917.070 8 122699378.371 8        -9.766          51.000    23348918.539 8  94016416.112 8        -7.513          51.000
E08  24757873.086 8 130103486.133 8     -2511.254          48.000    24757870.680 7  99689695.179 7     -1924.297          43.000
E36  24482809.328 8 128658051.127 8      1626.098          49.000    24482812.977 8  98582230.769 8      1245.995          51.000
> 2020 05 06 10 05 30.0000000  0 11        .000000000000
G02  22959078.797 5 120650761.875 5       470.309          31.000
G12  20505325.758 8 107756214.688 8     -1322.324          51.000    20505324.250 8  83965869.837 8     -1030.383          51.000
G24  22327462.445 7 117331587.164 7     -3042.262          46.000    22327465.336 7  91427217.905 7     -2370.591          46.000
G25  20244333.680 5 106384693.723 5       616.383          31.000
G29  21909832.562 8 115136930.443 8      2947.457          51.000    21909832.219 8  89717087.071 8      2296.723          50.000
R12  19496638.164 8 104147535.447 8      -157.094          51.000    19496641.359 8  81003644.767 8      -122.184          48.000
R22  19586902.523 8 104556218.022 8      1053.910          51.000    19586906.453 8  81321522.528 8       819.711          50.000
C26  21533258.633 7 112129329.423 7       854.566          42.000
E02  23348997.320 8 122699799.698 8       -19.387          51.000    23348998.672 8  94016738.950 8       -14.804          51.000
E08  24772233.633 7 130178951.902 7     -2520.785          47.000    24772231.258 7  99747519.573 7     -1931.592          44.000
E36  24473570.414 7 128609504.178 7      1609.230          47.000    24473574.602 8  98545032.448 8      1233.134          51.000
> 2020 05 06 10 06  0.0000000  0 13        .000000000000
G02  22956448.828 5 120636944.187 5       462.176          34.000
G12  20512912.039 8 107796081.322 8     -1323.941          51.000    20512910.641 8  83996934.720 8     -1031.643          51.000
G24  22344864.094 7 117423038.558 7     -3043.059          46.000    22344868.289 7  91498478.732 7     -2371.214          46.000
G25  20240854.836 5 106366395.954 5       613.984          35.000    20240856.109 5  82882913.266 5       478.429          34.000
G29  21893048.258 8 115048732.529 8      2943.824          49.000    21893048.727 8  89648361.438 8      2293.889          50.000
R11  21964818.930 5 117373333.276 5     -2830.449          31.000
R12  19497568.773 8 104152506.196 8      -162.617          51.000    19497571.688 8  81007510.901 8      -126.480          48.000
R22  19581067.969 8 104525070.910 8      1034.293          51.000    19581071.367 8  81297297.033 8       804.453          50.000
C26  21528373.344 7 112103891.112 7       852.855          43.000
E02  23349133.359 8 122700514.437 8       -16.766          51.000    23349134.734 8  94017286.613 8       -12.801          51.000
E08  24786650.156 8 130254712.049 8     -2518.238          48.000    24786648.961 7  99805569.511 7     -1929.472          44.000
E25  25898454.266 5 136097294.046 5     -1910.363          35.000
E36  24464428.375 8 128561467.326 8      1604.703          48.000    24464433.078 8  98508225.006 8      1229.602          51.000
> 2020 05 06 10 06 30.0000000  0 15        .000000000000
G02  22953869.391 5 120623373.728 5       439.117          33.000
G06  23577089.680 5 123898437.570 5      -914.094          32.000
G12  20520506.727 8 107835991.859 8     -1340.609          51.000    20520505.383 8  84028033.844 8     -1044.631          51.000
G24  22362270.398 8 117514508.947 8     -3058.848          48.000    22362274.758 8  91569754.370 8     -2383.518          48.000
G25  20237390.727 6 106348191.056 6       596.188          37.000    20237393.812 6  82868727.568 6       464.559          37.000
G29  21876284.219 8 114960639.719 8      2925.145          50.000    21876285.336 8  89579717.688 8      2279.330          50.000
G32  22201312.922 5 116668687.338 5      -669.793          35.000
R11  21980749.992 6 117458435.366 6     -2846.492          36.000    21980761.109 4  91356632.839 4     -2213.935          28.000
R12  19498529.297 8 104157636.404 8      -183.258          51.000    19498532.117 8  81011501.051 8      -142.534          48.000
R22  19575342.188 8 104494505.657 8       999.531          51.000    19575345.328 8  81273524.078 8       777.413          50.000
C26  21523498.445 7 112078506.603 7       835.730          44.000
E02  23349253.812 8 122701147.319 8       -29.039          51.000    23349255.227 8  94017771.541 8       -22.248          51.000
E08  24801050.883 8 130330389.017 8     -2530.566          49.000    24801051.453 7  99863555.737 7     -1938.943          44.000
E25  25909373.344 5 136154693.923 5     -1919.793          33.000    25909385.945 5 104326359.608 5     -1471.274          34.000
E36  24455313.156 8 128513566.318 8      1585.059          50.000    24455317.562 8  98471521.644 8      1214.543          51.000
> 2020 05 06 10 07  0.0000000  0 13        .000000000000
G02  22951405.805 5 120610441.132 5       408.449          32.000
G06  23582360.758 5 123926123.658 5      -946.805          35.000    23582357.031 4  96565816.841 4      -737.773          25.000
G12  20528183.617 8 107876334.220 8     -1363.719          51.000    20528182.289 8  84059469.431 8     -1062.638          51.000
G24  22379754.320 8 117606385.398 8     -3081.062          49.000    22379758.844 8  91641346.367 8     -2400.831          49.000
G25  20234016.797 5 106330463.425 5       571.262          35.000    20234019.734 5  82854913.691 5       445.130          34.000
G29  21859615.094 8 114873042.334 8      2899.848          51.000    21859616.234 8  89511459.992 8      2259.622          51.000
R11  21996750.648 4 117543965.857 4     -2869.664          26.000    21996755.422 4  91423136.796 4     -2231.955          26.000
R12  19499593.789 8 104163322.070 8      -210.754          51.000    19499596.383 8  81015923.230 8      -163.920          49.000
R22  19569799.539 8 104464918.151 8       957.961          51.000    19569802.336 8  81250511.590 8       745.081          50.000
C26  21518708.336 7 112053561.957 7       812.602          44.000
E02  23349432.703 8 122702087.204 8       -48.047          51.000    23349434.070 8  94018491.718 8       -36.818          51.000
E08  24815509.438 8 130406369.279 8     -2549.316          49.000    24815511.656 7  99921774.359 7     -1953.321          45.000
E36  24446298.516 8 128466190.893 8      1558.949          51.000    24446302.188 8  98435221.011 8      1194.508          51.000
> 2020 05 06 10 07 30.0000000  0 12        .000000000000
G06  23587771.227 5 123954545.979 5      -932.453          32.000    23587771.320 5  96587964.062 5      -726.593          32.000
G12  20535948.016 8 107917136.239 8     -1340.543          51.000    20535946.742 8  84091263.205 8     -1044.579          51.000
G24  22397320.852 8 117698695.105 8     -3057.023          49.000    22397325.062 8  91713275.929 8     -2382.096          49.000
G25  20230738.953 5 106313241.576 5       592.109          32.000    20230741.547 5  82841494.106 5       461.387          32.000
G29  21843046.312 8 114785970.861 8      2920.629          51.000    21843046.766 8  89443612.123 8      2275.818          51.000
R11  22012831.117 5 117629909.931 5     -2844.387          33.000    22012835.766 4  91489921.725 4     -2212.307          24.000
R12  19500767.719 8 104169593.284 8      -191.297          51.000    19500770.211 8  81020800.842 8      -148.786          48.000
R22  19564445.469 8 104436338.686 8       963.359          51.000    19564448.289 8  81228283.143 8       749.280          50.000
C26  21514008.039 7 112029086.764 7       834.902          43.000
E02  23349675.523 8 122703363.092 8       -21.023          51.000    23349676.812 8  94019469.361 8       -16.097          51.000
E08  24830030.820 7 130482679.517 7     -2522.086          47.000    24830034.469 7  99980245.805 7     -1932.477          46.000
E36  24437389.477 8 128419370.936 8      1578.484          51.000    24437392.320 8  98399346.023 8      1209.482          51.000
> 2020 05 06 10 08  0.0000000  0 13        .000000000000
G12  20543694.539 8 107957844.308 8     -1371.145          51.000    20543693.406 8  84122983.784 8     -1068.424          51.000
G24  22414864.242 8 117790883.543 8     -3086.695          49.000    22414867.273 8  91785111.019 8     -2405.220          49.000
G25  20227452.211 6 106295973.339 6       560.633          37.000    20227456.523 6  82828038.387 6       436.860          37.000
G29  21826472.820 8 114698874.573 8      2887.879          51.000    21826472.070 8  89375744.905 8      2250.295          51.000
G32  22213254.383 5 116731466.029 5      -727.961          32.000
R11  22028889.852 5 117715714.469 5     -2873.922          33.000    22028901.516 4  91556711.606 4     -2235.282          26.000
R12  19501946.289 8 104175889.577 8      -226.387          51.000    19501948.820 8  81025697.979 8      -176.076          49.000
R22  19559174.898 8 104408206.870 8       914.250          50.000    19559178.188 8  81206402.862 8       711.083          51.000
C26  21509292.625 7 112004534.595 7       804.109          44.000
C29  23134095.375 4 120465297.726 4     -1807.988          28.000
E02  23349877.219 8 122704422.759 8       -47.520          51.000    23349878.375 8  94020281.327 8       -36.384          51.000
E08  24844509.398 7 130558765.215 7     -2548.117          46.000    24844514.016 7 100038545.162 7     -1952.489          47.000
E36  24428481.211 8 128372555.193 8      1544.613          51.000    24428483.078 8  98363474.239 8      1183.565          51.000
> 2020 05 06 10 08 30.0000000  0 11        .000000000000
G12  20551599.492 8 107999385.050 8     -1393.652          51.000    20551598.508 8  84155353.181 8     -1085.963          51.000
G24  22432560.352 7 117883876.525 7     -3108.316          47.000    22432562.125 7  91857573.043 7     -2422.065          47.000
G25  20224333.836 6 106279585.611 6       536.871          37.000    20224339.180 6  82815268.689 6       418.341          37.000
G29  21810071.133 8 114612682.082 8      2862.781          51.000    21810069.266 8  89308581.959 8      2230.739          51.000
R11  22045101.719 5 117802329.550 5     -2896.566          30.000
R12  19503306.328 8 104183154.035 8      -253.371          51.000    19503309.086 8  81031348.095 8      -197.069          49.000
R22  19554164.469 8 104381464.995 8       873.191          49.000    19554168.703 8  81185603.630 8       679.149          51.000
C26  21504739.469 7 111980824.968 7       781.184          45.000
E02  23350214.172 8 122706193.347 8       -66.023          51.000    23350215.227 8  94021638.009 8       -50.559          51.000
E08  24859120.828 7 130635551.159 7     -2566.273          43.000    24859126.031 8 100097381.092 8     -1966.428          48.000
E36  24419750.164 8 128326671.685 8      1518.742          51.000    24419751.625 8  98328316.787 8      1163.697          51.000
> 2020 05 06 10 09  0.0000000  0 11        .000000000000
G12  20559512.148 8 108040966.449 8     -1389.629          51.000    20559511.273 8  84187754.282 8     -1082.828          51.000
G24  22450258.188 7 117976882.013 7     -3103.328          44.000    22450259.500 7  91930044.848 7     -2418.178          44.000
G25  20221232.609 6 106263288.181 6       539.148          37.000    20221236.781 6  82802569.385 6       420.116          36.000
G29  21793691.023 8 114526605.153 8      2864.422          50.000    21793688.469 8  89241509.069 8      2232.020          50.000
R11  22061319.750 5 117888951.045 5     -2891.539          30.000    22061321.570 4  91691451.001 4     -2248.975          27.000
R12  19504697.375 8 104190584.349 8      -253.426          51.000    19504700.344 8  81037127.224 8      -197.109          49.000
R22  19549264.180 8 104355311.386 8       859.016          50.000    19549269.062 8  81165261.941 8       668.123          50.000
C26  21500198.266 7 111957175.901 7       784.332          45.000
E02  23350536.070 8 122707884.878 8       -58.004          51.000    23350537.102 8  94022934.125 8       -44.498          51.000
E08  24873714.102 6 130712245.015 6     -2557.918          41.000    24873719.531 7 100156146.470 7     -1959.957          47.000
E36  24411046.047 8 128280931.325 8      1519.336          51.000    24411047.844 8  98293269.014 8      1164.107          51.000
> 2020 05 06 10 09 30.0000000  0 14        .000000000000
G06  23610373.789 5 124073355.488 5     -1029.281          33.000    23610380.312 5  96680561.621 5      -802.034          32.000
G12  20567453.031 8 108082696.001 8     -1400.781          51.000    20567452.227 8  84220270.822 8     -1091.518          51.000
G24  22467978.148 7 118070006.297 7     -3113.359          43.000    22467980.336 7  92002609.259 7     -2425.994          43.000
G25  20218169.016 6 106247189.008 6       526.164          39.000    20218172.117 6  82790024.633 6       409.998          38.000
G29  21777353.414 8 114440752.868 8      2850.727          49.000    21777350.875 8  89174611.241 8      2221.348          50.000
G32  22226228.359 5 116799610.940 5      -785.094          35.000
R12  19506140.000 8 104198291.208 8      -268.973          51.000    19506142.961 8  81043121.440 8      -209.204          49.000
R22  19544495.430 8 104329856.473 8       829.430          51.000    19544500.375 8  81145463.677 8       645.112          49.000
C26  21495689.141 7 111933695.445 7       772.754          44.000
C29  23165714.555 5 120629945.018 5     -1847.355          35.000
E02  23350863.453 8 122709605.645 8       -65.133          51.000    23350864.508 8  94024252.630 8       -49.904          51.000
E08  24888310.344 6 130788952.662 6     -2564.215          41.000    24888314.531 7 100214922.466 7     -1965.001          45.000
E25  25975525.812 5 136502301.395 5     -1942.770          33.000
E36  24402389.859 8 128235443.253 8      1504.805          51.000    24402392.188 8  98258414.533 8      1153.023          51.000
> 2020 05 06 10 10  0.0000000  0 14        .000000000000
G06  23616289.578 5 124104432.805 5     -1049.590          32.000    23616298.523 5  96704781.615 5      -817.865          30.000
G12  20575460.750 8 108124776.583 8     -1411.227          51.000    20575459.984 8  84253060.901 8     -1099.657          51.000
G24  22485759.820 7 118163451.286 7     -3122.762          46.000    22485762.398 7  92075423.539 7     -2433.321          46.000
G25  20215182.273 6 106231491.681 6       513.855          40.000    20215185.656 6  82777792.969 6       400.410          39.000
G29  21761097.867 8 114355330.974 8      2837.539          50.000    21761096.133 8  89108048.776 8      2211.069          50.000
G32  22230745.945 6 116823362.538 6      -804.762          38.000
R11  22093833.562 5 118062739.541 5     -2909.859          31.000
R12  19507673.352 8 104206482.647 8      -283.828          51.000    19507676.328 8  81049492.557 8      -220.755          49.000
R22  19539896.742 8 104305307.585 8       800.473          51.000    19539901.516 8  81126370.152 8       622.593          49.000
C26  21491251.039 7 111910586.324 7       761.402          45.000
C29  23176374.961 5 120685479.541 5     -1861.434          35.000
E02  23351235.156 8 122711559.449 8       -71.680          51.000    23351236.211 8  94025749.692 8       -54.935          51.000
E08  24902948.492 7 130865875.687 7     -2570.406          43.000    24902949.695 7 100273863.436 7     -1969.535          44.000
E36  24393820.617 8 128190412.107 8      1490.711          51.000    24393823.586 8  98223910.155 8      1142.269          51.000
> 2020 05 06 10 10 30.0000000  0 11        .000000000000
G12  20583542.938 8 108167248.264 8     -1443.375          51.000    20583542.094 8  84286155.716 8     -1124.708          51.000
G24  22503610.727 8 118257256.163 8     -3153.770          48.000    22503612.953 8  92148518.214 8     -2457.486          48.000
G25  20212279.898 6 106216237.270 6       480.043          40.000    20212283.734 6  82765906.391 6       374.059          41.000
G29  21744932.711 8 114270382.053 8      2802.715          51.000    21744932.047 8  89041854.851 8      2183.937          51.000
G32  22235402.148 5 116847826.712 5      -846.418          33.000
R12  19509305.477 8 104215201.132 8      -320.836          51.000    19509308.250 8  81056273.611 8      -249.539          49.000
R22  19535476.164 8 104281707.046 8       749.539          51.000    19535480.000 7  81108014.228 7       582.978          47.000
C26  21486892.242 7 111887890.186 7       728.801          45.000
E02  23351659.078 8 122713787.543 8       -99.965          51.000    23351660.188 8  94027456.929 8       -76.599          51.000
E08  24917635.695 7 130943052.916 7     -2597.820          44.000    24917633.250 7 100332999.211 7     -1990.684          42.000
E36  24385345.844 8 128145879.931 8      1455.000          51.000    24385349.594 8  98189788.123 8      1114.867          51.000
> 2020 05 06 10 11  0.0000000  0 11        .000000000000
G02  22935307.305 6 120525853.425 6       288.062          36.000
G12  20591736.984 8 108210307.589 8     -1427.164          51.000    20591735.969 8  84319708.418 8     -1112.076          51.000
G24  22521567.383 8 118351616.568 8     -3136.598          50.000    22521569.125 8  92222045.740 8     -2444.105          49.000
G25  20209498.938 6 106201622.752 6       494.227          37.000    20209502.055 6  82754518.415 6       385.112          37.000
G29  21728895.555 8 114186104.906 8      2815.930          51.000    21728895.727 8  88976184.372 8      2194.234          51.000
R12  19511073.867 8 104224647.818 8      -308.805          51.000    19511076.820 8  81063621.042 8      -240.181          49.000
R22  19531270.844 8 104259255.888 8       747.441          51.000    19531273.969 7  81090552.296 7       581.346          47.000
C26  21482650.641 7 111865803.310 7       743.797          46.000
E02  23352172.789 8 122716487.212 8       -79.871          51.000    23352173.961 8  94029525.501 8       -61.194          51.000
E08  24932408.578 7 131020679.335 7     -2576.930          45.000    24932403.570 7 100392479.167 7     -1974.671          42.000
E36  24377003.898 8 128102044.904 8      1467.516          51.000    24377008.352 8  98156200.267 8      1124.424          51.000
> 2020 05 06 10 11 30.0000000  0 12        .000000000000
G02  22933707.711 6 120517491.311 6       267.289          37.000    22933703.180 5  93909679.977 5       208.277          33.000
G12  20599917.836 8 108253297.595 8     -1440.574          51.000    20599916.602 8  84353207.146 8     -1122.525          51.000
G24  22539504.656 8 118445875.026 8     -3148.914          50.000    22539506.242 8  92295493.813 8     -2453.702          50.000
G25  20206714.375 6 106186992.269 6       479.125          38.000    20206717.086 6  82743118.017 6       373.344          37.000
G29  21712861.664 8 114101845.006 8      2799.625          51.000    21712862.188 8  88910527.316 8      2181.526          51.000
R12  19512853.961 8 104234157.138 8      -326.852          51.000    19512857.289 8  81071017.142 8      -254.218          49.000
R22  19527156.078 8 104237288.357 8       715.312          51.000    19527158.172 7  81073466.479 7       556.357          46.000
C26  21478401.539 7 111843676.861 7       729.613          46.000
C29  23208891.266 5 120854793.892 5     -1899.723          35.000
E02  23352651.430 8 122719002.911 8       -89.441          51.000    23352652.711 8  94031453.110 8       -68.494          51.000
E08  24947141.562 7 131098096.990 7     -2585.742          44.000    24947136.250 7 100451799.141 7     -1981.214          44.000
E36  24368670.383 8 128058252.248 8      1450.363          51.000    24368675.164 8  98122644.843 8      1111.419          51.000
> 2020 05 06 10 12  0.0000000  0 13        .000000000000
G02  22932217.070 5 120509673.538 5       252.531          34.000
G12  20608160.070 8 108296610.734 8     -1448.602          51.000    20608158.742 8  84386957.648 8     -1128.780          51.000
G24  22557497.133 8 118540423.341 8     -3155.879          51.000    22557498.648 8  92369167.797 8     -2459.126          51.000
G25  20204002.711 6 106172739.653 6       469.340          40.000    20204004.531 6  82732012.072 6       365.719          40.000
G29  21696906.180 8 114017998.249 8      2788.539          51.000    21696906.844 8  88845192.163 8      2172.888          51.000
R12  19514720.977 8 104244130.001 8      -339.652          51.000    19514724.234 8  81078773.826 8      -264.171          49.000
R22  19523206.523 8 104216205.129 8       688.617          51.000    19523208.656 8  81057068.457 8       535.594          48.000
C26  21474220.141 7 111821902.004 7       720.398          47.000
C29  23219864.977 6 120911943.887 6     -1911.438          37.000
E02  23353170.047 8 122721728.676 8       -93.820          51.000    23353171.492 8  94033541.683 8       -71.888          51.000
E08  24961909.031 7 131175697.565 7     -2589.301          45.000    24961905.469 7 100511259.233 7     -1983.893          46.000
E25  26031261.523 5 136795180.818 5     -1959.359          34.000    26031270.508 5 104817123.206 5     -1501.618          31.000
E36  24360419.922 8 128014896.773 8      1438.438          51.000    24360425.039 8  98089424.436 8      1102.188          51.000
> 2020 05 06 10 12 30.0000000  0 15        .000000000000
G12  20616456.602 8 108340209.713 8     -1451.652          51.000    20616455.258 8  84420930.877 8     -1131.158          51.000
G24  22575537.227 8 118635222.742 8     -3157.797          50.000    22575538.914 8  92443037.434 8     -2460.621          50.000
G25  20201355.891 6 106158827.927 6       464.625          41.000    20201357.469 6  82721171.750 6       362.048          41.000
G29  21681022.398 8 113934529.041 8      2782.277          50.000    21681022.836 8  88780151.206 8      2168.008          50.000
G32  22255069.695 5 116951180.107 5      -889.773          33.000
R12  19516667.828 8 104254530.103 8      -347.359          51.000    19516671.102 8  81086862.806 8      -270.168          49.000
R21  21957094.516 4 117496853.010 4     -3395.539          29.000
R22  19519415.406 8 104195968.889 8       666.801          49.000    19519417.922 8  81041329.177 8       518.626          49.000
R23  22342562.781 6 119517653.541 6      4459.121          36.000    22342567.797 4  92958188.488 4      3468.205          28.000
C26  21470099.672 7 111800443.148 7       716.309          47.000
C29  23230911.297 5 120969472.730 5     -1917.492          33.000
E02  23353721.633 8 122724627.806 8       -93.191          51.000    23353723.312 8  94035763.102 8       -71.454          51.000
E08  24976703.602 7 131253441.978 7     -2587.617          44.000    24976703.000 8 100570829.569 8     -1982.615          48.000
E25                                                                  26042471.836 4 104862241.496 4     -1500.019          29.000
E36  24352246.164 8 127971942.555 8      1431.449          51.000    24352250.883 8  98056511.478 8      1096.816          51.000
> 2020 05 06 10 13  0.0000000  0 12        .000000000000
G12  20624808.852 8 108384101.601 8     -1470.078          50.000    20624807.500 8  84455132.350 8     -1145.515          50.000
G24  22593626.203 8 118730280.178 8     -3174.953          49.000    22593628.055 8  92517108.143 8     -2473.989          49.000
G25  20198774.695 6 106145265.327 6       444.449          39.000    20198776.570 6  82710603.474 6       346.324          38.000
G29  21665212.102 8 113851447.169 8      2760.895          48.000    21665211.688 8  88715412.067 8      2151.346          49.000
R12  19518696.500 8 104265366.346 8      -370.637          51.000    19518699.594 8  81095290.997 8      -288.273          48.000
R22  19515784.594 8 104176588.796 8       629.582          49.000    19515787.531 8  81026255.780 8       489.675          50.000
R23  22317610.133 6 119384196.085 6      4442.773          37.000    22317617.867 3  92854384.372 3      3455.493          23.000
C26  21466041.461 7 111779309.522 7       696.906          47.000
C29  23242034.789 6 121027387.026 6     -1938.762          38.000
E02  23354307.883 8 122727708.791 8      -107.793          51.000    23354309.719 8  94038123.849 8       -82.577          51.000
E08  24991526.742 7 131331336.358 7     -2600.961          42.000    24991528.828 8 100630514.814 8     -1993.004          50.000
E36  24344150.836 8 127929398.878 8      1409.152          51.000    24344154.562 8  98023913.078 8      1079.773          51.000
> 2020 05 06 10 13 30.0000000  0 14        .000000000000
G12  20633199.555 8 108428195.534 8     -1475.375          49.000    20633198.141 8  84489491.249 8     -1149.646          49.000
G24  22611746.461 7 118825502.888 7     -3178.996          47.000    22611748.188 7  92591307.656 7     -2477.140          47.000
G25  20196242.609 6 106131961.537 6       437.473          40.000    20196244.570 6  82700236.937 6       340.888          40.000
G29  21649458.523 8 113768664.167 8      2752.340          49.000    21649456.242 8  88650905.889 8      2144.683          48.000
G32  22265514.078 5 117006047.116 5      -932.141          33.000
R12  19520789.734 8 104276548.083 8      -380.660          51.000    19520792.703 8  81103987.894 8      -296.069          48.000
R21  21995436.203 5 117701969.020 5     -3431.535          35.000    21995437.992 5  91546003.594 5     -2668.975          32.000
R22  19512296.945 8 104157973.337 8       605.559          48.000    19512300.375 8  81011777.078 8       470.990          51.000
R23  22292689.961 5 119250890.966 5      4439.066          35.000
C26  21462028.469 8 111758412.678 8       690.473          48.000
C29  23253213.555 6 121085595.376 6     -1946.941          39.000
E02  23354911.727 8 122730881.691 8      -109.301          51.000    23354913.578 8  94040555.036 8       -83.765          51.000
E08  25006360.875 6 131409288.410 6     -2601.480          39.000    25006364.562 8 100690244.273 8     -1993.255          50.000
E36  24336116.414 8 127887176.472 8      1400.078          51.000    24336119.695 8  97991560.882 8      1072.811          51.000
> 2020 05 06 10 14  0.0000000  0 14        .000000000000
G12  20641656.672 8 108472638.005 8     -1490.402          49.000    20641655.164 8  84524121.732 8     -1161.352          49.000
G24  22629925.609 7 118921036.941 7     -3192.918          46.000    22629927.672 7  92665749.747 7     -2487.988          45.000
G25  20193788.594 7 106119064.051 7       419.969          43.000    20193789.906 7  82690186.952 7       327.248          43.000
G29  21633790.688 8 113686329.069 8      2733.875          50.000    21633787.219 8  88586748.748 8      2130.295          50.000
G32  22270890.797 5 117034338.146 5      -956.289          32.000
R12  19522975.898 8 104288225.942 8      -400.836          51.000    19522978.891 8  81113070.665 8      -311.761          48.000
R21  22014727.211 6 117805197.808 6     -3453.613          37.000    22014726.734 5  91626292.584 5     -2686.144          31.000
R22  19508980.680 8 104140272.528 8       571.539          50.000    19508984.773 8  80998009.788 8       444.530          51.000
R23  22267827.000 6 119117892.494 6      4424.641          36.000
C26  21458089.047 8 111737899.639 8       674.246          48.000
C29  23264474.703 5 121144241.684 5     -1965.551          33.000
E02  23355561.242 8 122734294.097 8      -120.906          51.000    23355562.969 8  94043169.741 8       -92.648          51.000
E08  25021232.141 6 131487443.314 6     -2611.375          36.000    25021237.570 8 100750129.178 8     -2001.157          50.000
E36  24328171.648 8 127845423.727 8      1380.812          51.000    24328174.492 8  97959568.556 8      1058.016          51.000
> 2020 05 06 10 14 30.0000000  0 15        .000000000000
G02  22926239.727 5 120478199.244 5       165.840          35.000
G12  20650189.469 8 108517478.258 8     -1496.605          49.000    20650188.133 8  84559062.156 8     -1166.189          48.000
G24  22648173.047 7 119016931.301 7     -3197.715          45.000    22648175.695 7  92740472.601 7     -2491.726          45.000
G25  20191421.422 7 106106622.836 7       411.801          44.000    20191422.500 7  82680492.451 7       320.881          44.000
G29  21618218.211 8 113604493.297 8      2724.160          51.000    21618215.742 8  88522980.674 8      2122.725          51.000
G32  22276392.406 5 117063219.703 5      -970.875          30.000
R12  19525264.734 8 104300451.770 8      -411.973          51.000    19525267.656 8  81122579.646 8      -320.423          48.000
R21  22034126.562 6 117909012.732 6     -3465.508          38.000    22034127.672 4  91707037.523 4     -2695.392          28.000
R22  19505845.695 8 104123537.699 8       546.516          51.000    19505849.711 8  80984993.813 8       425.068          50.000
R23  22243031.422 6 118985254.887 6      4419.832          39.000
C26  21454232.906 8 111717821.018 8       666.730          48.000
C29  23275829.266 5 121203373.604 5     -1974.285          34.000
E02  23356265.891 8 122737996.323 8      -123.562          51.000    23356267.500 8  94046006.508 8       -94.648          51.000
E08  25036149.383 6 131565848.990 6     -2613.016          39.000    25036157.039 8 100810206.278 8     -2002.199          49.000
E36  24320325.789 8 127804191.715 8      1370.438          51.000    24320328.523 8  97927975.218 8      1050.055          51.000
> 2020 05 06 10 15  0.0000000  0 14        .000000000000
G12  20658752.500 8 108562477.586 8     -1507.375          48.000    20658751.508 8  84594126.576 8     -1174.578          48.000
G24  22666442.961 7 119112945.379 7     -3207.078          44.000    22666445.086 7  92815288.714 7     -2499.025          44.000
G25  20189095.508 7 106094400.276 7       399.113          42.000    20189097.078 7  82670968.382 7       311.000          42.000
G29  21602695.969 8 113522920.983 8      2710.004          51.000    21602695.008 8  88459417.858 8      2111.691          51.000
G32  22281981.266 5 117092569.540 5      -989.281          34.000
R12  19527611.086 8 104312984.886 8      -427.680          51.000    19527613.461 8  81132327.627 8      -332.643          48.000
R21  22053589.211 6 118013167.733 6     -3482.195          37.000    22053593.672 4  91788047.005 4     -2708.374          26.000
R22  19502846.609 8 104107527.660 8       516.809          51.000    19502850.547 8  80972541.569 8       401.962          50.000
R23  22218259.773 6 118852740.568 6      4410.246          38.000
C26  21450415.297 8 111697942.421 8       654.598          48.000
C29  23287232.977 5 121262754.102 5     -1987.992          34.000
E02  23356980.508 8 122741751.110 8      -130.730          51.000    23356982.133 8  94048883.559 8      -100.176          51.000
E08  25051071.680 6 131644269.900 6     -2618.910          41.000    25051075.281 8 100870294.950 8     -2006.611          48.000
E36  24312533.359 8 127763243.812 8      1355.473          51.000    24312536.383 8  97896599.574 8      1038.585          51.000
> 2020 05 06 10 15 30.0000000  0 16        .000000000000
G02  22924527.289 6 120469176.187 6       131.352          37.000
G12  20667378.914 8 108607808.987 8     -1516.363          49.000    20667377.992 8  84629449.782 8     -1181.579          49.000
G24  22684769.180 7 119209252.236 7     -3214.820          45.000    22684770.922 7  92890332.921 7     -2505.058          44.000
G25  20186844.031 7 106082569.810 7       387.926          42.000    20186845.781 7  82661749.861 7       302.283          42.000
G29  21587256.633 8 113441787.258 8      2697.281          49.000    21587257.297 8  88396196.766 8      2101.778          49.000
G32  22287686.672 5 117122541.622 5     -1010.086          30.000
R11  22276454.148 5 119038616.334 5     -3004.594          33.000
R12  19530048.219 8 104326002.394 8      -441.789          51.000    19530050.469 8  81142452.340 8      -343.617          48.000
R21  22073147.594 5 118117835.211 5     -3497.188          33.000    22073155.023 4  91869455.082 4     -2720.038          28.000
R22  19500016.477 8 104092418.814 8       488.840          51.000    19500020.375 8  80960790.269 8       380.212          50.000
R23  22193545.266 5 118720529.933 5      4401.918          35.000
C26  21446669.367 8 111678436.656 8       644.191          48.000
C29  23298715.906 5 121322552.768 5     -1999.789          33.000
E02  23357738.148 8 122745732.200 8      -136.199          51.000    23357739.836 8  94051934.002 8      -104.345          51.000
E08  25066029.047 7 131722874.346 7     -2622.785          44.000    25066031.859 7 100930522.485 7     -2009.661          47.000
E36  24304828.164 8 127722754.469 8      1342.309          51.000    24304831.664 8  97865575.258 8      1028.522          51.000
> 2020 05 06 10 16  0.0000000  0 14        .000000000000
G06  23695831.539 6 124522426.656 6     -1265.992          36.000    23695837.617 5  97030482.121 5      -986.497          35.000
G12  20676033.953 8 108653290.996 8     -1518.164          48.000    20676033.086 8  84664890.346 8     -1182.985          48.000
G24  22703116.703 7 119305668.976 7     -3215.113          43.000    22703119.258 7  92965462.815 7     -2505.283          43.000
G25  20184632.906 7 106070951.181 7       384.234          43.000    20184634.086 7  82652696.394 7       299.403          43.000
G29  21571865.797 7 113360913.255 7      2691.957          47.000    21571868.062 7  88333178.028 7      2097.629          47.000
R12  19532541.719 8 104339321.858 8      -448.637          51.000    19532544.305 8  81152811.894 8      -348.943          48.000
R21  22092770.148 4 118222861.437 4     -3504.824          29.000    22092774.695 5  91951144.650 5     -2725.977          30.000
R22  19497320.852 8 104078028.173 8       468.125          51.000    19497324.258 8  80949597.562 8       364.097          50.000
R23  22168855.078 5 118588442.881 5      4401.039          33.000
C26  21442960.875 8 111659126.078 8       640.848          49.000
C29  23310245.398 6 121382589.285 6     -2004.617          38.000
E02  23358504.570 8 122749759.492 8      -134.633          51.000    23358506.336 8  94055019.869 8      -103.202          51.000
E08  25080986.852 7 131801473.883 7     -2619.488          44.000    25080988.695 7 100990747.084 7     -2007.230          46.000
E36  24297175.766 8 127682544.246 8      1336.152          50.000    24297180.266 8  97834764.832 8      1023.724          51.000
> 2020 05 06 10 16 30.0000000  0 15        .000000000000
G02  22923241.758 6 120462485.667 6        95.102          38.000    22923240.953 5  93866872.924 5        74.108          35.000
G06  23703201.758 6 124561158.492 6     -1294.035          37.000    23703209.555 6  97060662.795 6     -1008.339          37.000
G12  20684817.961 8 108699450.693 8     -1537.168          49.000    20684817.078 8  84700858.930 8     -1197.793          49.000
G24  22721585.031 7 119402721.981 7     -3232.758          42.000    22721588.938 7  93041088.497 7     -2519.032          42.000
G25  20182562.508 7 106060071.985 7       363.039          43.000    20182563.914 7  82644219.100 7       282.888          43.000
G29  21556625.648 8 113280828.283 8      2669.062          48.000    21556627.711 8  88270774.130 8      2079.789          48.000
G32  22299435.484 5 117184324.838 5     -1047.297          34.000
R12  19535192.461 8 104353480.559 8      -472.965          51.000    19535195.125 8  81163824.242 8      -367.859          48.000
R22  19494860.164 8 104064891.990 8       429.926          51.000    19494863.492 8  80939380.570 8       334.390          50.000
R23  22144278.438 5 118456988.821 5      4382.797          33.000
C26  21439390.539 8 111640534.470 8       620.461          49.000
C29  23321921.359 6 121443384.399 6     -2026.430          37.000
E02  23359380.188 8 122754360.904 8      -150.203          51.000    23359382.148 8  94058545.642 8      -115.082          51.000
E08  25096044.719 7 131880598.988 7     -2633.273          44.000    25096045.727 7 101051375.397 7     -2017.838          47.000
E36  24289677.102 8 127643141.749 8      1312.738          50.000    24289682.328 8  97804573.304 8      1005.855          51.000
> 2020 05 06 10 17  0.0000000  0 15        .000000000000
G02  22922706.445 5 120459684.323 5        76.590          32.000    22922703.758 4  93864690.010 4        59.690          26.000
G06  23710603.469 5 124600054.389 5     -1314.199          34.000    23710610.445 5  97090971.258 5     -1024.051          34.000
G12  20693581.328 8 108745501.768 8     -1548.238          49.000    20693580.062 8  84736742.861 8     -1206.419          49.000
G24  22740024.695 7 119499624.455 7     -3242.383          42.000    22740029.734 7  93116596.932 7     -2526.532          42.000
G25  20180483.789 7 106049147.172 7       350.031          43.000    20180485.336 7  82635706.271 7       272.752          44.000
G29  21541387.508 8 113200748.650 8      2654.219          50.000    21541387.727 8  88208374.478 8      2068.222          50.000
G32  22305427.617 5 117215815.218 5     -1067.285          35.000
R12  19537850.820 8 104367681.294 8      -489.234          51.000    19537853.562 8  81174869.231 8      -380.519          48.000
R22  19492484.805 8 104052212.833 8       399.863          51.000    19492488.211 8  80929519.054 8       311.005          49.000
R23  22119691.328 5 118325436.158 5      4371.898          33.000
C26  21435809.219 8 111621885.036 8       607.816          49.000
C29  23333592.727 5 121504158.181 5     -2039.930          32.000
E02  23360215.719 8 122758751.761 8      -157.758          51.000    23360217.812 8  94061910.076 8      -120.879          51.000
E08  25111052.688 7 131959462.627 7     -2639.340          45.000    25111052.922 7 101111803.349 7     -2022.354          46.000
E36  24282183.359 8 127603762.931 8      1297.250          51.000    24282188.781 8  97774399.924 8       994.033          51.000
> 2020 05 06 10 17 30.0000000  0 14        .000000000000
G02  22922303.125 5 120457515.946 5        63.887          33.000    22922301.789 5  93862993.718 5        49.782          31.000
G12  20702430.664 8 108792004.821 8     -1553.273          48.000    20702429.047 8  84772978.987 8     -1210.346          48.000
G24  22758542.148 7 119596935.513 7     -3245.855          42.000    22758547.852 6  93192423.745 6     -2529.238          41.000
G25  20178503.047 7 106038737.726 7       342.730          43.000    20178504.836 7  82627595.025 7       267.063          43.000
G29  21526257.633 8 113121236.846 8      2645.363          51.000    21526256.656 8  88146417.314 8      2061.325          51.000
G32  22311555.875 5 117248022.060 5     -1081.500          33.000
R12  19540623.961 8 104382495.398 8      -499.582          51.000    19540626.625 8  81186391.304 8      -388.564          48.000
R22  19490301.977 8 104040560.589 8       375.758          51.000    19490304.859 8  80920456.214 8       292.256          49.000
R23  22095185.320 6 118194327.868 6      4367.539          39.000
C26  21432323.656 8 111603734.564 8       601.133          50.000
C29  23345364.930 5 121565464.664 5     -2048.840          33.000
E02  23361117.961 8 122763493.314 8      -159.438          51.000    23361120.133 8  94065543.215 8      -122.169          51.000
E08  25126117.055 7 132038623.650 7     -2639.145          47.000    25126116.398 7 101172459.160 7     -2022.250          47.000
E36  24274801.367 8 127564969.663 8      1287.785          51.000    24274806.461 8  97744675.216 8       986.715          51.000
> 2020 05 06 10 18  0.0000000  0 13        .000000000000
G02  22921995.641 5 120455904.415 5        38.969          34.000    22921997.242 5  93861740.883 5        30.356          31.000
G12  20711330.867 8 108838775.860 8     -1570.273          49.000    20711329.062 8  84809423.945 8     -1223.590          48.000
G24  22777102.500 7 119694470.388 7     -3261.871          43.000    22777108.305 7  93268424.936 7     -2541.718          43.000
G25  20176585.453 7 106028660.865 7       323.484          43.000    20176587.242 7  82619742.929 7       252.066          43.000
G29  21511201.141 8 113042111.810 8      2624.188          51.000    21511200.305 8  88084761.488 8      2044.824          51.000
R12  19543477.070 8 104397737.347 8      -522.125          51.000    19543479.938 8  81198246.121 8      -406.097          48.000
R22  19488276.422 8 104029749.464 8       339.438          51.000    19488279.242 8  80912047.575 8       264.007          50.000
R23  22070727.508 6 118063481.888 6      4350.312          38.000
C26  21428899.336 8 111585902.993 8       582.277          51.000
C29  23357205.078 5 121627120.914 5     -2067.465          32.000
E02  23362052.133 8 122768403.075 8      -173.305          51.000    23362054.453 8  94069305.237 8      -132.795          51.000
E08  25141202.609 7 132117897.194 7     -2651.168          47.000    25141201.375 7 101233201.165 7     -2031.414          47.000
E36  24267496.406 8 127526580.090 8      1266.074          51.000    24267501.156 8  97715259.831 8       970.112          51.000
> 2020 05 06 10 18 30.0000000  0 13        .000000000000
G06  23733531.141 5 124720554.135 5     -1352.531          33.000
G12  20720285.266 8 108885832.253 8     -1558.930          48.000    20720283.172 8  84846091.257 8     -1214.750          48.000
G24  22795708.867 7 119792245.491 7     -3248.965          44.000    22795714.109 7  93344613.312 7     -2531.661          44.000
G25  20174734.445 7 106018934.479 7       332.887          43.000    20174735.969 7  82612163.895 7       259.389          43.000
G29  21496221.172 8 112963392.818 8      2631.492          50.000    21496221.156 8  88023422.005 8      2050.513          50.000
