     3.02           OBSERVATION DATA    M (MIXED)           RINEX VERSION / TYPE
SAVERINEX           SC600               20200502 035931 LCL PGM / RUN BY / DATE
       G = GPS       R = GLONASS       C = COMPASS          COMMENT
       S = SBAS      J = QZSS          E = GALILEO          COMMENT
BEAN                                                        MARKER NAME
1                                                           MARKER NUMBER
GEODETIC                                                    MARKER TYPE
Unige DICCA         GTER                                    OBSERVER / AGENCY
SC60291900056       SC600               2.12(191226)        REC # / TYPE / VERS
                    HEMA45          NONE                    ANT # / TYPE
  4509407.8091   693652.4678  4442337.6214                  APPROX POSITION XYZ
        0.0000        0.0000        0.0000                  ANTENNA: DELTA H/E/N
G    8 C1C L1C D1C S1C C2Y L2Y D2Y S2Y                      SYS / # / OBS TYPES
R    8 C1C L1C D1C S1C C2P L2P D2P S2P                      SYS / # / OBS TYPES
C    8 C1I L1I D1I S1I C7I L7I D7I S7I                      SYS / # / OBS TYPES
E    8 C1C L1C D1C S1C C7Q L7Q D7Q S7Q                      SYS / # / OBS TYPES
DBHZ                                                        COMMENT
     30.000                                                 INTERVAL
  2020    05    02    01    00    0.0000000     GPS         TIME OF FIRST OBS
  2020    05    02    01    59   30.0000000     GPS         TIME OF LAST OBS
     0                                                      RCV CLOCK OFFS APPL
G L1C  0.00000                                              SYS / PHASE SHIFT
G L2Y  0.00000                                              SYS / PHASE SHIFT
R L1C  0.00000                                              SYS / PHASE SHIFT
R L2P  0.25000                                              SYS / PHASE SHIFT
C L1I  0.00000                                              SYS / PHASE SHIFT
C L7I  0.00000                                              SYS / PHASE SHIFT
E L1C  0.50000                                              SYS / PHASE SHIFT
E L7Q -0.25000                                              SYS / PHASE SHIFT
 11 R01  1 R02 -4 R07  5 R08  6 R09 -2 R10 -7 R11  0 R12 -1 GLONASS SLOT / FRQ #
    R17  4 R22 -3 R23  3                                    GLONASS SLOT / FRQ #
 C1C   71.950 C2C   71.950 C2P   71.950                     GLONASS COD/PHS/BIS
    18                                                      LEAP SECONDS
*** Above antenna height is from mark to ANTENNA BOTTOM.    COMMENT
    17     4        0.0000        ANT MEASURE TYPE/HEIGT    COMMENT
    0.0000    0.0000    0.0458    0.0405    0.0000          COMMENT
                    BASE STATION                            COMMENT
                                                            END OF HEADER
> 2020 05 02 01 00  0.0000000  0 14        .000000000000
G06  21184285.305 8 111324166.480 8      -886.660          51.000    21184287.039 8  86746121.740 8      -690.904          51.000
G07  21787342.641 8 114493256.803 8      2303.633          51.000    21787342.930 8  89215506.117 8      1795.039          51.000
G09  20392747.453 8 107164610.303 8      -747.098          51.000    20392748.383 8  83504889.746 8      -582.151          51.000
R10  22684594.836 5 120921569.446 5     -2894.578          31.000
R11  20627226.664 6 110225645.674 6      1187.387          40.000    20627233.672 5  85731054.972 5       923.523          35.000
R12  22142296.820 8 118280202.312 8      4118.852          49.000    22142297.695 7  91995727.100 7      3203.551          46.000
R17  21107501.820 5 112950504.922 5     -1906.332          31.000
C05  39760823.844 6 207045042.412 6       -19.164          36.000    39760820.742 6 160100345.771 6       -14.801          38.000
C24  23894155.898 8 124423093.111 8      2753.309          51.000
C26  22758849.484 6 118511413.064 6        98.508          40.000
C28  24666299.789 5 128443895.390 5     -1765.035          30.000
E03  24525070.086 5 128880100.752 5      1410.031          33.000    24525085.078 5  98752313.730 5      1080.461          31.000
E05  23728476.688 8 124693981.379 8      -787.344          51.000    23728479.703 8  95544840.459 8      -603.209          51.000
E31  27000490.344 6 141888524.064 6      -555.617          40.000    27000492.539 5 108719807.834 5      -425.870          34.000
> 2020 05 02 01 00 30.0000000  0 13        .000000000000
G06  21189407.484 8 111351084.227 8      -910.273          51.000    21189408.805 8  86767096.601 8      -709.304          51.000
G07  21774232.672 8 114424361.992 8      2286.809          51.000    21774232.555 8  89161821.869 8      1781.929          51.000
G09  20397048.758 8 107187213.868 8      -762.266          51.000    20397049.828 8  83522502.915 8      -593.973          51.000
R01  20561342.258 5 109912072.903 5     -1844.750          30.000    20561322.203 4  85487156.831 4     -1434.809          28.000
R11  20620637.680 6 110190431.364 6      1157.781          37.000    20620640.734 6  85703666.022 6       900.493          36.000
R12  22119193.875 7 118156794.474 7      4105.754          47.000    22119196.805 8  91899743.228 8      3193.364          48.000
R17  21118260.148 5 113008082.280 5     -1933.113          31.000
C05  39760939.703 6 207045646.172 6       -22.809          36.000    39760936.734 6 160100812.654 6       -17.945          38.000
C24  23878325.078 8 124340654.374 8      2740.273          51.000
C26  22758336.688 7 118508741.599 7        77.609          44.000
E03                                                                  24517051.742 5  98720003.017 5      1073.957          33.000
E05  23732990.438 8 124717700.453 8      -796.328          51.000    23732993.227 8  95563014.817 8      -610.144          51.000
E31  27003709.211 6 141905438.958 6      -574.227          40.000    27003710.320 5 108732768.559 5      -440.153          33.000
> 2020 05 02 01 01  0.0000000  0 12        .000000000000
G06  21194656.578 8 111378669.696 8      -927.531          51.000    21194657.906 8  86788591.754 8      -722.755          51.000
G07  21761210.883 8 114355930.951 8      2276.305          51.000    21761209.523 8  89108498.983 8      1773.744          51.000
G09  20401429.531 8 107210235.121 8      -771.258          51.000    20401430.641 8  83540441.550 8      -600.980          51.000
R01  20571695.414 5 109967513.692 5     -1851.320          30.000
R11  20614210.141 5 110156076.607 5      1134.395          32.000    20614213.461 6  85676945.619 6       882.307          39.000
R12  22096157.023 7 118033739.755 7      4099.070          46.000    22096161.781 8  91804033.986 8      3188.166          48.000
R17  21129158.859 5 113066396.437 5     -1955.164          30.000
C05  39761069.375 6 207046320.790 6       -21.125          36.000    39761066.328 6 160101334.292 6       -15.964          38.000
C24  23862562.188 8 124258568.859 8      2733.301          51.000
C26  22757937.531 7 118506659.884 7        62.617          44.000
E05  23737547.453 8 124741646.947 8      -798.875          51.000    23737550.008 8  95581363.437 8      -612.182          51.000
E31  27007025.445 6 141922864.415 6      -586.262          37.000    27007025.594 5 108746102.488 5      -449.561          34.000
> 2020 05 02 01 01 30.0000000  0 12        .000000000000
G06  21200011.945 8 111406813.118 8      -947.016          51.000    21200013.680 8  86810521.688 8      -737.934          51.000
G07  21748256.773 8 114287856.331 8      2263.473          51.000    21748254.148 8  89055453.835 8      1763.745          51.000
G09  20405868.875 8 107233564.261 8      -782.430          51.000    20405869.953 8  83558620.093 8      -609.685          51.000
R01  20582115.172 5 110023206.016 5     -1859.598          33.000    20582115.031 4  85573620.299 4     -1446.348          26.000
R12  22073166.586 7 117910932.157 7      4089.766          47.000    22073172.523 7  91708516.920 7      3180.926          47.000
R17  21140189.977 5 113125374.812 5     -1978.523          33.000
R24  23109986.469 5 123579463.010 5     -4263.617          32.000
C05  39761191.852 6 207046958.336 6       -20.273          36.000    39761188.766 6 160101827.305 6       -15.788          38.000
C24  23846846.297 8 124176730.956 8      2724.098          51.000
C26  22757630.125 6 118505059.988 6        45.367          41.000
E05  23742126.984 8 124765711.743 8      -803.746          51.000    23742129.391 8  95599802.692 8      -615.810          51.000
E31  27010417.211 5 141940691.196 5      -600.430          32.000    27010417.805 5 108759761.915 5      -460.228          35.000
> 2020 05 02 01 02  0.0000000  0 15        .000000000000
G03  24417345.797 5 128314010.121 5     -3223.051          31.000
G06  21205477.969 8 111435536.575 8      -966.496          51.000    21205479.891 8  86832903.606 8      -753.114          51.000
G07  21735375.352 8 114220163.633 8      2250.570          51.000    21735372.180 8  89002706.282 8      1753.691          51.000
G09  20410371.047 8 107257223.306 8      -793.574          51.000    20410372.180 8  83577055.712 8      -618.370          51.000
R01  20592578.352 5 110079145.207 5     -1868.367          34.000    20592580.711 4  85617106.521 4     -1453.174          29.000
R02  20232677.312 5 107965387.072 5      1692.883          30.000    20232681.617 5  83973135.978 5      1316.681          32.000
R11  20601775.055 5 110089651.340 5      1082.234          32.000    20601784.680 5  85625288.725 5       841.741          33.000
R12  22050227.891 8 117788399.292 8      4080.254          48.000    22050234.414 7  91613213.589 7      3173.534          46.000
R17  21151361.930 5 113185158.584 5     -2001.969          30.000    21151352.242 4  88032916.582 4     -1557.090          26.000
R24  23133920.305 5 123707450.603 5     -4267.219          34.000
C05  39761311.586 6 207047582.664 6       -20.250          36.000    39761308.523 6 160102309.286 6       -15.489          38.000
C24  23831182.320 8 124095165.644 8      2714.801          51.000
C26  22757420.938 6 118503964.797 6        28.641          41.000
E05  23746733.281 8 124789917.534 8      -808.734          51.000    23746735.586 8  95618349.993 8      -619.677          51.000
E31                                                                  27013891.094 5 108773746.119 5      -471.096          35.000
> 2020 05 02 01 02 30.0000000  0 14        .000000000000
G06  21211061.703 8 111464878.425 8      -986.691          51.000    21211063.602 8  86855767.377 8      -768.850          51.000
G07  21722574.148 8 114152893.444 8      2236.922          49.000    21722571.492 8  88950287.941 8      1743.056          49.000
G09  20414943.312 8 107281250.580 8      -805.316          51.000    20414944.484 8  83595778.273 8      -627.519          51.000
R01  20603095.727 5 110135371.036 5     -1876.938          35.000    20603097.992 4  85660839.656 4     -1459.840          29.000
R10  22767436.812 5 121363205.303 5     -2991.332          31.000
R11  20595781.867 6 110057640.256 6      1055.055          39.000    20595790.188 4  85600391.440 4       820.607          26.000
R12  22027349.695 8 117666185.390 8      4070.117          49.000    22027355.719 7  91518158.357 7      3165.647          46.000
R17  21162646.359 5 113245602.807 5     -2026.543          30.000    21162654.555 4  88079936.011 4     -1576.200          25.000
R24  23157882.906 6 123835580.271 6     -4271.520          36.000
C05  39761435.969 6 207048230.686 6       -20.258          36.000    39761433.023 6 160102810.407 6       -15.692          38.000
C24  23815578.547 8 124013914.142 8      2704.855          51.000
C26  22757314.883 6 118503413.199 6        11.477          37.000
E05  23751373.758 8 124814303.347 8      -814.078          51.000    23751375.969 8  95637035.224 8      -623.816          51.000
E31                                                                  27017453.352 5 108788084.865 5      -482.395          35.000
> 2020 05 02 01 03  0.0000000  0 17        .000000000000
G04  22192183.797 5 116620706.399 5     -2562.164          35.000
G06  21216756.578 8 111494804.628 8     -1008.668          51.000    21216757.938 8  86879086.482 8      -785.975          51.000
G07  21709846.727 7 114086014.088 7      2221.395          46.000    21709845.773 7  88898174.153 7      1730.957          46.000
G09  20419579.211 8 107305612.122 8      -819.020          51.000    20419580.344 8  83614761.292 8      -638.197          51.000
R01  20613661.102 5 110191849.910 5     -1888.262          33.000    20613664.219 4  85704767.607 4     -1468.654          27.000
R10  22784328.859 5 121453250.870 5     -3012.406          30.000
R11  20589940.422 6 110026414.893 6      1025.945          41.000    20589939.625 5  85576076.142 5       797.957          30.000
R12  22004526.156 8 117544261.652 8      4057.766          51.000    22004531.406 7  91423328.823 7      3156.040          46.000
R17  21174073.016 4 113306774.613 4     -2052.312          28.000
R24  23181865.000 5 123963814.275 5     -4277.898          34.000
C05  39761558.969 6 207048870.668 6       -22.820          36.000    39761555.898 6 160103305.272 6       -17.465          39.000
C14  21573507.297 8 112338912.364 8        -8.273          50.000    21573505.992 8  86867569.061 8        -6.310          51.000
C24  23800029.641 8 123932945.933 8      2692.727          51.000
C26  22757308.477 6 118503372.624 6        -8.660          39.000
C28  24728675.008 5 128768731.819 5     -1841.254          33.000
E05  23756042.188 8 124838835.836 8      -821.668          51.000    23756044.172 8  95655832.839 8      -629.572          51.000
E31                                                                  27021097.266 5 108802752.472 5      -495.741          35.000
> 2020 05 02 01 03 30.0000000  0 16        .000000000000
G06  21222556.984 8 111525285.376 8     -1023.684          51.000    21222557.664 8  86902837.694 8      -797.676          51.000
G07  21697188.273 7 114019499.057 7      2212.234          44.000    21697189.062 7  88846344.235 7      1723.819          45.000
G09  20424273.000 8 107330278.152 8      -825.953          51.000    20424274.086 8  83633981.570 8      -643.600          51.000
R01  20624267.898 5 110248551.730 5     -1892.148          33.000    20624271.367 4  85748871.054 4     -1471.674          28.000
R10  22801318.867 5 121543823.097 5     -3027.016          34.000
R11  20584240.016 6 109995947.694 6      1004.195          39.000    20584244.266 6  85552379.517 6       781.047          36.000
R12  21981752.312 8 117422603.172 8      4052.270          50.000    21981756.766 7  91328705.609 7      3151.768          46.000
R24  23205860.992 5 124092118.657 5     -4276.262          33.000
C05  39761674.773 6 207049474.125 6       -18.555          36.000    39761671.875 6 160103771.890 6       -13.867          38.000
C14  21573564.484 8 112339210.182 8       -12.180          50.000    21573563.203 8  86867799.351 8        -9.340          51.000
C24  23784530.266 8 123852234.744 8      2687.410          51.000
C26  22757393.461 5 118503718.940 5       -22.195          30.000
C28  24739305.055 4 128824064.787 4     -1849.543          29.000
E05  23760733.109 8 124863485.937 8      -822.172          51.000    23760734.695 8  95674720.573 8      -629.964          51.000
E09  25205838.938 5 132457569.739 5     -2231.777          32.000
E31  27024812.500 5 142016355.234 5      -656.223          34.000    27024815.594 5 108817733.509 5      -503.404          34.000
> 2020 05 02 01 04  0.0000000  0 15        .000000000000
G06  21228467.539 8 111556345.799 8     -1044.637          51.000    21228468.305 8  86927040.584 8      -814.003          51.000
G07  21684605.281 7 113953375.789 7      2197.957          47.000    21684606.328 7  88794819.599 7      1712.694          47.000
G09  20429029.398 8 107355273.808 8      -838.203          51.000    20429030.555 8  83653458.702 8      -653.145          51.000
R01  20634920.984 6 110305503.484 6     -1902.094          37.000    20634925.281 4  85793169.709 4     -1479.403          25.000
R02  20194994.672 6 107764319.304 6      1660.715          36.000
R10  22818412.844 6 121634945.191 6     -3045.992          38.000
R11  20578686.391 6 109966266.558 6       976.266          38.000    20578688.156 5  85529294.268 5       759.318          33.000
R12  21959033.883 8 117301240.993 8      4040.855          49.000    21959037.375 7  91234312.852 7      3142.888          46.000
R24  23229874.227 6 124220515.578 6     -4281.109          36.000
C05  39761788.516 6 207050066.914 6       -18.961          36.000    39761785.828 6 160104230.291 6       -14.698          38.000
C14  21573668.664 8 112339751.900 8       -21.746          50.000    21573667.078 8  86868218.248 8       -16.737          51.000
C24  23769084.836 8 123771808.675 8      2676.566          49.000
C26  22757583.227 5 118504690.257 5       -39.051          31.000
E05  23765451.344 8 124888279.520 8      -828.332          51.000    23765452.633 8  95693718.254 8      -634.678          51.000
E31  27028615.461 5 142036331.448 5      -672.238          34.000    27028615.516 5 108833033.711 5      -515.193          34.000
> 2020 05 02 01 04 30.0000000  0 14        .000000000000
G06  21234496.469 8 111588028.093 8     -1065.984          51.000    21234497.852 8  86951728.063 8      -830.637          51.000
G07  21672106.219 8 113887689.419 8      2182.695          51.000    21672106.125 8  88743635.442 8      1700.805          51.000
G09  20433856.633 8 107380641.486 8      -851.289          51.000    20433857.867 8  83673225.714 8      -663.342          51.000
R01  20645630.289 5 110362748.574 5     -1912.312          35.000    20645632.742 4  85837689.785 4     -1487.354          28.000
R02  20185687.531 5 107714681.709 5      1650.863          31.000
R10  22835618.156 6 121726657.095 6     -3066.000          40.000
R11  20573287.750 5 109937417.559 5       947.785          33.000    20573287.680 5  85506855.999 5       737.163          33.000
R12  21936379.875 8 117180223.622 8      4028.762          48.000    21936382.281 7  91140188.287 7      3133.484          45.000
R24  23253911.016 6 124349045.141 6     -4285.820          38.000    23253907.328 4  96715963.583 4     -3333.419          28.000
C05  39761908.625 6 207050691.046 6       -21.348          36.000    39761905.828 6 160104713.684 6       -16.390          38.000
C14  21573827.852 8 112340580.844 8       -31.980          51.000    21573826.070 8  86868859.250 8       -24.814          51.000
C24  23753702.094 8 123691712.881 8      2664.766          50.000
E05  23770205.023 8 124913259.634 8      -835.414          51.000    23770206.180 8  95712858.853 8      -640.116          51.000
E31  27032507.758 5 142056780.062 5      -688.746          34.000    27032504.297 5 108848692.876 5      -527.812          33.000
> 2020 05 02 01 05  0.0000000  0 16        .000000000000
G04  22250908.609 5 116929306.689 5     -2588.672          34.000
G06  21240657.328 8 111620403.255 8     -1091.605          51.000    21240659.516 8  86976955.446 8      -850.602          51.000
G07  21659704.391 8 113822513.372 8      2163.141          51.000    21659702.680 8  88692848.944 8      1685.564          51.000
G09  20438768.312 8 107406452.203 8      -868.648          51.000    20438769.438 8  83693337.947 8      -676.869          51.000
R10  22852947.477 6 121819028.350 6     -3090.801          38.000
R11  20568059.000 5 109909475.126 5       915.715          33.000    20568061.047 4  85485122.866 4       712.220          28.000
R12  21913804.359 7 117059628.651 7      4011.734          47.000    21913806.172 7  91046392.250 7      3120.238          43.000
R24  23277983.852 6 124477776.013 6     -4295.648          36.000    23277979.734 4  96816087.579 4     -3341.060          29.000
C05  39762048.656 6 207051419.836 6       -26.891          36.000    39762045.844 6 160105277.231 6       -20.929          39.000
C14  21574056.188 8 112341768.855 8       -46.520          51.000    21574054.125 8  86869777.897 8       -35.984          51.000
C24  23738397.242 8 123612020.812 8      2648.766          51.000
C26  22758290.539 6 118508383.492 6       -82.117          36.000
C28  24771626.453 5 128992344.899 5     -1894.148          33.000
E03  24446044.203 5 128464845.422 5      1355.273          34.000    24446056.836 5  98434116.553 5      1038.190          34.000
E05  23775007.781 8 124938497.976 8      -846.469          51.000    23775008.914 8  95732197.321 8      -648.614          51.000
E31                                                                  27036496.844 5 108864768.754 5      -543.367          30.000
> 2020 05 02 01 05 30.0000000  0 20        .000000000000
G03  24546809.422 4 128994338.166 4     -3254.594          29.000
G04  22265656.227 5 117006805.855 5     -2587.785          32.000
G06  21246901.773 8 111653218.042 8     -1105.121          51.000    21246904.555 8  87002525.416 8      -861.130          51.000
G07  21647351.945 8 113757597.098 8      2155.582          51.000    21647348.852 8  88642264.860 8      1679.674          51.000
G09  20443716.180 8 107432452.854 8      -873.824          51.000    20443716.961 8  83713598.201 8      -680.902          51.000
G30  23566954.562 6 123845178.066 6      3549.211          38.000    23566952.281 6  96502724.348 6      2765.622          38.000
R01  20667204.781 5 110478043.427 5     -1929.930          35.000    20667214.211 5  85927393.040 5     -1501.053          32.000
R10  22870351.969 5 121911799.142 5     -3103.570          30.000
R11  20562951.281 6 109882184.576 6       894.664          37.000
R12  21891260.172 8 116939204.463 8      4007.367          48.000    21891262.414 7  90952728.994 7      3116.841          43.000
R17  21233193.844 4 113623035.090 4     -2166.066          29.000    21233201.656 5  88373524.022 5     -1684.712          30.000
R24  23302044.602 5 124606447.461 5     -4292.074          35.000    23302042.578 4  96916165.331 4     -3338.280          28.000
C05  39762160.484 6 207052003.395 6       -20.805          37.000    39762157.766 6 160105727.698 6       -16.054          38.000
C14  21574305.500 8 112343066.536 8       -49.078          51.000    21574303.359 8  86870781.349 8       -37.905          51.000
C24  23723122.812 8 123532484.862 8      2644.605          51.000
C26  22758771.797 5 118510879.571 5       -93.695          30.000
C28  24782526.039 5 129049093.813 5     -1899.238          35.000
E03  24438270.758 6 128424039.076 6      1356.750          36.000    24438284.883 6  98402849.481 6      1039.345          36.000
E05  23779811.609 8 124963742.197 8      -845.527          51.000    23779812.797 8  95751540.297 8      -647.860          51.000
E31                                                                  27040546.453 5 108881062.832 5      -549.961          33.000
> 2020 05 02 01 06  0.0000000  0 18        .000000000000
G02  22590593.070 6 118714367.522 6      1120.801          36.000
G04  22280441.891 6 117084507.521 6     -2592.684          36.000
G06  21253265.969 8 111686661.906 8     -1124.445          51.000    21253268.836 8  87028585.568 8      -876.191          51.000
G07  21635085.344 8 113693133.334 8      2142.152          51.000    21635081.391 8  88592033.384 8      1669.213          51.000
G09  20448736.211 8 107458833.052 8      -884.824          51.000    20448736.625 8  83734154.217 8      -689.470          51.000
G30  23546707.648 6 123738777.048 6      3544.289          40.000    23546704.242 6  96419814.509 6      2761.787          39.000
R11  20558001.578 6 109855741.241 6       868.160          40.000    20558011.906 5  85443411.322 5       675.236          34.000
R12  21868785.031 8 116819149.003 8      3996.430          50.000    21868788.008 7  90859352.525 7      3108.334          43.000
R17  21245416.523 5 113688468.718 5     -2189.203          31.000    21245407.367 4  88424357.265 4     -1702.717          28.000
R24  23326129.148 5 124735249.104 5     -4294.129          32.000    23326127.398 4  97016344.342 4     -3339.881          27.000
C05  39762280.609 6 207052628.694 6       -21.145          36.000    39762277.828 6 160106211.208 6       -15.891          39.000
C14  21574612.156 8 112344663.103 8       -57.391          50.000    21574610.047 8  86872015.906 8       -44.327          51.000
C24  23707915.102 8 123453296.052 8      2634.707          51.000
C26  22759340.125 6 118513816.340 6      -110.277          36.000
C28  24793500.445 5 129106234.247 5     -1910.547          34.000
E03  24430539.938 5 128383356.810 5      1351.555          33.000    24430557.352 5  98371721.154 5      1035.643          35.000
E05  23784652.688 8 124989182.593 8      -850.477          51.000    23784653.984 8  95771033.588 8      -651.640          51.000
E31                                                                  27044685.977 5 108897721.735 5      -560.769          34.000
> 2020 05 02 01 06 30.0000000  0 18        .000000000000
G02  22584218.406 6 118680843.406 6      1105.027          40.000
G06  21259713.078 8 111720542.718 8     -1143.109          51.000    21259715.523 8  87054986.177 8      -890.735          51.000
G07  21622868.320 8 113628932.535 8      2129.117          51.000    21622864.297 8  88542006.815 8      1659.052          51.000
G09  20453791.945 8 107485400.846 8      -895.223          51.000    20453792.250 8  83754856.397 8      -697.576          51.000
G30  23526463.391 6 123632385.866 6      3539.609          40.000    23526457.023 6  96336912.359 6      2758.140          40.000
R01  20688935.109 5 110594238.633 5     -1946.043          30.000    20688945.047 5  86017756.234 5     -1513.589          32.000
R02  20148914.461 5 107518446.003 5      1618.820          31.000
R11  20553175.555 7 109829952.234 7       842.004          42.000    20553179.852 5  85423353.182 5       654.889          34.000
R12  21846344.242 8 116699272.453 8      3986.160          51.000    21846346.422 6  90766115.198 6      3100.347          41.000
R17  21257726.953 4 113754349.597 4     -2211.008          29.000    21257723.961 4  88475601.005 4     -1719.673          29.000
R24  23350201.383 5 124863982.220 5     -4296.617          34.000    23350202.930 5  97116470.129 5     -3341.807          30.000
C05  39762372.570 6 207053107.427 6       -20.023          36.000    39762369.734 6 160106581.401 6       -15.296          39.000
C14  21574939.922 8 112346369.766 8       -65.199          50.000    21574937.906 8  86873335.614 8       -50.446          51.000
C24  23692738.422 8 123374267.358 8      2625.062          51.000
C26  22760000.258 5 118517245.358 5      -127.340          35.000
C28  24804514.148 5 129163574.668 5     -1920.887          34.000
E05  23789494.758 8 125014627.914 8      -854.797          51.000    23789496.125 8  95790530.655 8      -654.944          51.000
E31  27048872.398 5 142142775.751 5      -745.398          33.000    27048878.320 5 108914599.711 5      -571.607          35.000
> 2020 05 02 01 07  0.0000000  0 16        .000000000000
G02  22577970.180 6 118647990.407 6      1083.457          38.000
G06  21266303.523 8 111755178.108 8     -1167.707          51.000    21266305.281 8  87081974.764 8      -909.902          51.000
G07  21610762.133 8 113565314.621 8      2110.176          51.000    21610758.539 8  88492434.435 8      1644.293          51.000
G09  20458943.867 8 107512474.101 8      -911.375          51.000    20458944.242 8  83775952.446 8      -710.162          51.000
G30  23506281.812 6 123526325.717 6      3529.219          37.000    23506271.516 6  96254268.189 6      2750.041          37.000
R01  20699894.602 5 110652805.139 5     -1960.184          35.000    20699896.797 5  86063308.022 5     -1524.587          30.000
R11  20548533.453 7 109805143.052 7       809.965          43.000    20548537.883 6  85404057.122 6       629.976          39.000
R12  21823998.398 8 116579903.597 8      3969.906          51.000    21823998.844 6  90673272.716 6      3087.705          39.000
R17  21270194.523 5 113821087.364 5     -2239.551          30.000    21270201.789 4  88527508.187 4     -1741.867          24.000
C05  39762497.078 6 207053755.515 6       -24.645          36.000    39762494.266 6 160107082.565 6       -19.162          38.000
C14  21575349.398 8 112348502.890 8       -78.781          49.000    21575347.688 8  86874985.072 8       -60.985          51.000
C24  23677653.969 8 123295716.920 8      2609.805          51.000
C26  22760783.719 5 118521361.770 5      -149.070          34.000
C28  24815626.891 5 129221428.938 5     -1937.852          32.000
E05  23794398.484 8 125040396.750 8      -865.004          51.000    23794399.859 8  95810275.612 8      -662.828          51.000
E31  27053175.867 5 142165404.082 5      -765.102          34.000    27053184.555 5 108931940.540 5      -586.142          33.000
> 2020 05 02 01 07 30.0000000  0 16        .000000000000
G02  22571820.367 5 118615655.037 5      1069.668          34.000
G04  22324979.852 5 117318560.917 5     -2609.305          34.000
G06  21273008.055 8 111790412.279 8     -1183.887          51.000    21273009.508 8  87109429.954 8      -922.509          51.000
G07  21598737.867 8 113502126.930 8      2099.668          51.000    21598734.938 8  88443197.269 8      1636.105          51.000
G09  20464162.289 8 107539897.139 8      -919.391          51.000    20464162.766 8  83797321.047 8      -716.408          51.000
R01  20710903.414 4 110711647.159 4     -1965.770          29.000    20710908.422 5  86109074.084 5     -1528.932          31.000
R11  20544045.297 6 109781158.142 6       786.422          39.000    20544049.148 6  85385402.274 6       611.664          37.000
R12  21801718.852 8 116460889.899 8      3961.668          50.000    21801717.914 6  90580706.489 6      3081.297          39.000
R24  23398458.570 4 125122066.755 4     -4303.605          27.000    23398461.586 4  97317176.819 4     -3347.249          25.000
C05  39762624.625 6 207054419.825 6       -22.129          36.000    39762621.906 6 160107596.218 6       -16.574          39.000
C14  21575811.406 8 112350909.716 8       -84.121          48.000    21575810.023 8  86876846.189 8       -65.141          51.000
C24  23662632.281 8 123217493.696 8      2602.480          51.000
C26  22761676.977 6 118526012.593 6      -163.453          36.000
C28  24826807.508 5 129279641.509 5     -1945.703          31.000
E05  23799334.305 8 125066334.222 8      -866.875          51.000    23799335.672 8  95830149.777 8      -664.250          51.000
E31  27057565.891 5 142188468.338 5      -776.590          34.000    27057575.141 5 108949643.414 5      -594.663          31.000
> 2020 05 02 01 08  0.0000000  0 16        .000000000000
G02  22565729.227 5 118583706.941 5      1052.824          34.000
G04  22339870.266 5 117396798.408 5     -2614.418          33.000
G06  21279794.844 8 111826077.425 8     -1202.891          51.000    21279796.852 8  87137220.975 8      -937.317          51.000
G07  21586763.969 8 113439204.668 8      2086.109          51.000    21586761.680 8  88394166.940 8      1625.540          51.000
G09  20469415.430 8 107567502.567 8      -930.238          51.000    20469416.000 8  83818831.771 8      -724.858          51.000
R01  20721930.844 6 110770606.134 6     -1973.781          36.000    20721931.594 4  86154908.382 4     -1535.163          28.000
R11  20539681.430 6 109757829.527 6       759.461          39.000    20539682.953 6  85367257.743 6       590.692          39.000
R12  21779474.000 8 116342066.420 8      3950.617          49.000    21779472.742 6  90488288.290 6      3072.702          40.000
C05  39762723.555 6 207054935.206 6       -21.246          37.000    39762720.945 6 160107994.760 6       -16.453          39.000
C14  21576294.336 7 112353425.563 7       -92.523          47.000    21576293.227 8  86878791.588 8       -71.572          51.000
C24  23647642.141 8 123139434.758 8      2592.383          51.000
C26  22762639.070 5 118531034.682 5      -180.312          30.000
C28  24838028.062 5 129338045.221 5     -1957.230          31.000
E05  23804270.367 8 125092273.482 8      -871.531          51.000    23804271.789 8  95850025.304 8      -667.806          51.000
E09  25320847.828 5 133061951.999 5     -2243.758          33.000
E31  27062010.328 5 142211824.307 5      -790.047          31.000    27062019.438 5 108967539.145 5      -605.666          32.000
> 2020 05 02 01 08 30.0000000  0 17        .000000000000
G04  22354817.391 5 117475357.788 5     -2617.605          34.000
G06  21286730.133 8 111862522.143 8     -1220.594          51.000    21286732.992 8  87165619.441 8      -951.112          51.000
G07  21574907.250 8 113376899.004 8      2073.520          51.000    21574905.664 8  88345617.101 8      1615.730          50.000
G09  20474769.602 8 107595639.138 8      -939.543          51.000    20474770.312 8  83840756.366 8      -732.111          51.000
G30  23445900.016 5 123209025.996 5      3517.684          32.000    23445906.484 5  96007050.294 5      2741.058          32.000
R01  20733042.594 6 110830015.330 6     -1980.746          36.000    20733040.891 4  86201099.085 4     -1540.583          26.000
R11  20535507.133 6 109735513.612 6       734.203          39.000    20535507.367 5  85349901.115 5       571.044          34.000
R12  21757332.500 8 116223793.042 8      3940.438          50.000    21757332.070 7  90396297.909 7      3064.785          43.000
R24  23446758.258 5 125380360.752 5     -4305.473          31.000
C05  39762860.484 6 207055648.393 6       -20.086          36.000    39762857.922 6 160108546.254 6       -15.640          39.000
C14  21576864.742 7 112356397.545 7       -99.711          47.000    21576863.922 8  86881089.707 8       -77.070          51.000
C24  23632750.688 8 123061888.885 8      2583.316          51.000
C26  22763748.492 6 118536769.203 6      -195.902          37.000
C28  24849351.688 5 129397080.433 5     -1966.160          31.000
E05  23809273.242 8 125118564.076 8      -875.133          51.000    23809274.664 8  95870170.044 8      -670.514          51.000
E09  25333670.195 5 133129338.741 5     -2242.949          35.000    25333671.352 5 102008196.888 5     -1718.902          33.000
E31                                                                  27066584.383 5 108985923.440 5      -615.399          34.000
> 2020 05 02 01 09  0.0000000  0 16        .000000000000
G06  21293748.555 8 111899403.277 8     -1237.922          51.000    21293751.891 8  87194357.993 8      -964.614          51.000
G07  21563103.219 8 113314868.953 8      2061.707          51.000    21563102.070 8  88297282.008 8      1606.525          51.000
G09  20480159.625 8 107623964.010 8      -948.559          51.000    20480160.320 8  83862827.693 8      -739.134          51.000
G30  23425832.609 6 123103552.399 6      3514.027          36.000    23425835.773 6  95924863.059 6      2738.203          36.000
R01  20744175.859 6 110889538.054 6     -1987.648          36.000    20744180.164 4  86247398.906 4     -1545.952          27.000
R11  20531455.766 6 109713864.559 6       708.738          39.000    20531456.000 5  85333062.971 5       551.244          35.000
R12  21735230.711 8 116105726.654 8      3930.637          51.000    21735231.211 7  90304468.515 7      3057.162          47.000
C05  39762970.367 6 207056220.548 6       -17.801          36.000    39762967.773 6 160108988.717 6       -14.172          39.000
C14  21577457.844 7 112359487.323 7      -106.410          46.000    21577457.258 8  86883478.915 8       -82.192          51.000
C24  23617893.195 8 122984519.466 8      2574.688          51.000
C26  22764926.961 5 118542880.673 5      -211.355          33.000
C28  24860711.008 5 129456214.184 5     -1975.922          32.000
E03  24384696.578 5 128142444.998 5      1325.988          31.000    24384697.273 5  98187067.506 5      1015.924          33.000
E05  23814277.922 8 125144863.912 8      -878.121          51.000    23814279.344 8  95890321.871 8      -672.906          51.000
E09  25346472.977 5 133196613.397 5     -2242.352          35.000    25346472.922 5 102059745.768 5     -1717.594          34.000
E31                                                                  27071204.727 6 109004528.808 6      -624.699          38.000
> 2020 05 02 01 09 30.0000000  0 16        .000000000000
G06  21300893.445 8 111936948.699 8     -1264.758          51.000    21300896.695 8  87223614.180 8      -985.526          51.000
G07  21551395.781 8 113253346.038 8      2039.891          51.000    21551394.898 8  88249342.099 8      1589.525          51.000
G09  20485628.898 8 107652705.374 8      -967.207          51.000    20485629.469 8  83885223.573 8      -753.668          51.000
G30  23405812.453 6 122998337.337 6      3500.781          36.000    23405814.305 6  95842877.315 6      2727.881          36.000
R01  20755374.961 5 110949407.254 5     -2004.352          30.000    20755380.492 4  86293974.867 4     -1558.946          26.000
R02  20095168.477 4 107231684.238 4      1563.508          29.000
R11  20527572.312 6 109693116.435 6       674.352          40.000    20527575.883 4  85316925.508 4       524.490          27.000
R12  21713212.461 8 115988104.866 8      3910.977          50.000    21713213.719 8  90212984.962 8      3041.871          48.000
C05  39763096.789 6 207056878.832 6       -25.504          36.000    39763094.164 6 160109497.738 6       -19.881          39.000
C14  21578117.477 7 112362922.405 7      -122.426          46.000    21578117.039 8  86886135.140 8       -94.701          51.000
C24  23603112.938 8 122907555.723 8      2556.555          49.000
C26  22766213.844 5 118549595.336 5      -236.266          33.000
C28  24872119.492 4 129515648.064 4     -1994.500          29.000
E05  23819327.961 8 125171401.931 8      -890.797          51.000    23819329.391 8  95910656.197 8      -682.544          51.000
E09  25359296.617 5 133264001.968 5     -2250.766          33.000    25359297.312 5 102111381.192 5     -1724.619          32.000
E31                                                                  27075923.727 6 109023530.397 6      -641.619          38.000
> 2020 05 02 01 10  0.0000000  0 14        .000000000000
G06  21308139.484 8 111975025.765 8     -1276.242          51.000    21308142.055 8  87253284.615 8      -994.474          51.000
G07  21539760.281 8 113192200.519 8      2033.824          51.000    21539759.406 8  88201696.239 8      1584.798          51.000
G09  20491152.297 8 107681730.924 8      -970.465          51.000    20491152.820 8  83907840.903 8      -756.203          51.000
G30  23385816.086 6 122893251.789 6      3502.258          37.000    23385817.148 6  95760992.413 6      2729.029          38.000
R01  20766614.070 6 111009488.789 6     -2004.379          36.000    20766622.164 4  86340718.835 4     -1558.958          24.000
R11  20523832.094 7 109673136.960 7       655.004          44.000    20523831.133 4  85301315.749 4       509.444          29.000
R12  21691253.383 8 115870798.597 8      3906.750          48.000    21691254.641 8  90121746.749 8      3038.583          49.000
C05  39763214.773 6 207057493.119 6       -17.855          36.000    39763212.156 6 160109972.706 6       -13.795          39.000
C14  21578818.750 7 112366573.072 7      -123.480          46.000    21578818.125 8  86888958.062 8       -95.510          51.000
C24  23588385.242 8 122830869.641 8      2553.395          48.000
C26  22767594.742 5 118556782.952 5      -245.246          33.000
C28  24883614.367 6 129575488.030 6     -1997.508          37.000
E05  23824398.266 8 125198046.552 8      -888.180          51.000    23824399.617 8  95931072.205 8      -680.547          51.000
E31  27080708.023 5 142310087.464 5      -844.137          33.000    27080715.930 6 109042827.073 6      -646.752          37.000
> 2020 05 02 01 10 30.0000000  0 16        .000000000000
G06  21315488.234 8 112013642.624 8     -1295.898          51.000    21315489.594 8  87283375.636 8     -1009.791          51.000
G07  21528198.664 8 113131443.056 8      2019.074          51.000    21528197.641 8  88154352.758 8      1573.305          51.000
G09  20496731.375 8 107711049.190 8      -981.820          51.000    20496732.031 8  83930686.313 8      -765.055          51.000
G30  23365846.055 6 122788307.438 6      3496.539          37.000    23365847.367 6  95679217.548 6      2724.573          36.000
R01  20777894.695 5 111069792.371 5     -2013.000          31.000
R11  20520237.906 6 109653936.711 6       627.113          37.000    20520242.820 5  85286382.294 5       487.764          34.000
R12  21669354.219 7 115753821.794 7      3894.121          45.000    21669356.664 8  90030764.769 8      3028.761          48.000
R17  21360961.336 4 114306784.729 4     -2387.344          28.000    21360969.594 4  88905307.142 4     -1856.823          28.000
C05  39763326.086 6 207058072.788 6       -18.250          37.000    39763323.523 6 160110420.960 6       -14.272          39.000
C14  21579563.477 7 112370449.164 7      -132.652          47.000    21579562.406 8  86891955.310 8      -102.524          51.000
C24  23573712.812 8 122754472.775 8      2542.027          48.000
C28  24895167.008 6 129635622.132 6     -2008.855          36.000
E03  24362158.281 5 128024005.815 5      1310.957          33.000    24362148.023 5  98096289.555 5      1004.859          31.000
E05  23829490.594 8 125224807.019 8      -893.559          51.000    23829491.867 8  95951576.975 8      -684.681          51.000
E09                                                                  25384941.617 5 102214627.700 5     -1719.952          32.000
E31  27085574.836 5 142335656.213 5      -858.770          31.000    27085582.602 6 109062425.592 6      -657.934          37.000
> 2020 05 02 01 11  0.0000000  0 17        .000000000000
G04  22429911.211 5 117869978.288 5     -2644.621          32.000
G06  21322947.312 8 112052839.898 8     -1318.539          51.000    21322947.977 8  87313918.950 8     -1027.433          51.000
G07  21516718.875 8 113071116.380 8      2001.328          51.000    21516717.898 8  88107344.935 8      1559.473          51.000
G09  20502373.883 8 107740701.185 8      -996.203          51.000    20502374.758 8  83953791.769 8      -776.262          51.000
G30  23345911.164 6 122683548.652 6      3486.527          39.000    23345912.672 6  95597587.313 6      2716.772          39.000
R01  20789226.148 6 111130360.507 6     -2025.152          36.000
R11  20516798.289 6 109635559.513 6       596.539          40.000    20516798.922 5  85272088.821 5       463.969          34.000
R12  21647523.914 7 115637221.783 7      3877.898          46.000    21647528.828 8  89940075.807 8      3016.140          49.000
R17  21374419.086 5 114378833.169 5     -2413.918          30.000
C05  39763438.797 6 207058659.495 6       -21.992          37.000    39763436.211 6 160110874.649 6       -17.111          39.000
C14  21580359.469 7 112374592.765 7      -144.871          47.000    21580358.086 8  86895159.413 8      -112.078          51.000
C24  23559105.258 8 122678408.846 8      2527.609          50.000
C26  22770651.664 6 118572685.141 6      -284.355          38.000
C28  24906780.211 5 129696089.695 5     -2023.941          34.000
E05  23834612.961 8 125251725.109 8      -902.266          51.000    23834614.141 8  95972202.519 8      -691.382          51.000
E09                                                                  25397769.445 5 102266290.170 5     -1723.598          30.000
E31                                                                  27090531.859 6 109082357.698 6      -672.014          36.000
> 2020 05 02 01 11 30.0000000  0 16        .000000000000
G02  22525951.258 5 118374681.924 5       934.508          34.000
G06  21330523.336 8 112092652.616 8     -1337.395          51.000    21330524.484 8  87344941.832 8     -1042.126          51.000
G07  21505328.281 8 113011259.510 8      1987.074          51.000    21505327.523 8  88060703.227 8      1548.370          51.000
G09  20508086.664 8 107770722.278 8     -1006.836          51.000    20508087.523 8  83977184.845 8      -784.547          51.000
G30  23326019.148 6 122579014.121 6      3480.234          39.000    23326019.945 6  95516131.799 6      2711.871          39.000
R01  20800613.742 5 111191198.091 5     -2034.520          30.000
R11  20513519.641 6 109618043.332 6       569.500          39.000    20513521.594 6  85258465.199 6       442.944          36.000
R12  21625773.875 8 115521039.994 8      3865.695          48.000    21625779.461 8  89849712.170 8      3006.652          49.000
R17  21388003.492 5 114451463.184 5     -2435.195          35.000
C05  39763559.719 6 207059289.294 6       -21.773          36.000    39763557.156 6 160111361.632 6       -16.749          39.000
C14  21581213.773 7 112379040.316 7      -153.359          47.000    21581212.180 8  86898598.541 8      -118.596          51.000
C24  23544569.961 8 122602716.031 8      2516.785          51.000
C26  22772334.477 6 118581437.110 6      -301.180          37.000
C28  24918459.695 5 129756924.400 5     -2033.605          32.000
E05  23839772.195 8 125278836.946 8      -907.039          51.000    23839773.375 8  95992976.523 8      -694.998          51.000
E31                                                                  27095571.180 6 109102650.716 6      -682.493          38.000
> 2020 05 02 01 12  0.0000000  0 16        .000000000000
G02  22520659.352 5 118346863.278 5       930.305          34.000
G04  22460135.094 6 118028806.169 6     -2641.270          36.000
G06  21338209.641 8 112133044.872 8     -1343.664          51.000    21338211.758 8  87376416.326 8     -1047.011          51.000
G07  21494020.641 8 112951839.169 8      1985.887          50.000    21494020.469 8  88014401.651 8      1547.444          50.000
G09  20513862.961 8 107801077.077 8     -1005.047          51.000    20513863.625 8  84000837.927 8      -783.153          51.000
G30  23306163.688 6 122474671.631 6      3486.977          39.000    23306164.094 6  95434825.950 6      2717.125          39.000
R01  20812047.055 4 111252299.740 4     -2029.363          29.000
R12  21604097.188 8 115405245.470 8      3865.887          51.000    21604102.867 8  89759649.790 8      3006.801          49.000
R17  21401718.406 6 114524816.855 6     -2444.031          37.000    21401722.547 4  89074978.304 4     -1900.919          29.000
C05  39763682.375 6 207059928.030 6        -9.074          36.000    39763679.852 6 160111855.553 6        -7.089          39.000
C14  21582120.078 8 112383758.136 8      -149.422          48.000    21582118.258 8  86902246.667 8      -115.555          51.000
C24  23530100.273 8 122527362.289 8      2518.371          51.000
C26  22774112.430 5 118590793.317 5      -305.148          30.000
C28  24930201.469 5 129818089.957 5     -2031.680          33.000
E05  23844961.633 8 125306107.819 8      -899.242          51.000    23844962.945 8  96013872.389 8      -688.970          51.000
E31                                                                  27100693.836 6 109123277.770 6      -683.492          40.000
> 2020 05 02 01 12 30.0000000  0 15        .000000000000
G06  21345980.539 8 112173880.929 8     -1373.262          51.000    21345983.125 8  87408236.650 8     -1070.074          51.000
G07  21482770.602 8 112892722.621 8      1960.750          48.000    21482771.391 8  87968336.795 8      1527.857          48.000
G09  20519677.008 8 107831630.254 8     -1026.430          51.000    20519677.586 8  84024645.579 8      -799.815          51.000
G30  23286319.539 6 122370389.198 6      3470.660          37.000    23286319.016 6  95353566.948 6      2704.417          36.000
R01  20823518.414 5 111313661.994 5     -2049.195          33.000
R02  20043082.523 5 106953693.173 5      1518.965          32.000    20043072.617 4  83186192.446 4      1181.417          25.000
R12  21582468.852 8 115289706.366 8      3842.203          51.000    21582474.000 8  89669786.040 8      2988.380          49.000
R17  21415515.078 5 114598685.121 5     -2476.191          33.000    21415522.156 5  89132431.331 5     -1925.930          30.000
C05  39763781.039 6 207060441.604 6       -19.609          36.000    39763778.758 6 160112253.440 6       -15.012          39.000
C14  21583052.695 8 112388613.532 8      -168.891          48.000    21583050.734 8  86906001.175 8      -130.530          51.000
C24  23515670.383 8 122452216.595 8      2496.645          51.000
C26  22775963.797 6 118600460.704 6      -333.105          36.000
C28  24941982.312 5 129879451.053 5     -2052.906          34.000
E05  23850155.703 8 125333403.228 8      -914.977          51.000    23850157.203 8  96034787.055 8      -701.062          51.000
E31  27105871.047 5 142442312.323 5      -917.023          32.000    27105873.820 6 109144135.374 6      -702.579          40.000
> 2020 05 02 01 13  0.0000000  0 15        .000000000000
G06  21353878.102 8 112215382.851 8     -1392.582          51.000    21353880.484 8  87440575.817 8     -1085.129          51.000
G07  21471620.797 7 112834134.462 7      1945.996          46.000    21471622.703 7  87922683.655 7      1516.361          46.000
G09  20525571.141 8 107862604.287 8     -1037.695          51.000    20525571.812 8  84048781.180 8      -808.594          51.000
G30  23266529.609 6 122266392.659 6      3463.555          37.000    23266525.312 4  95272530.830 4      2698.877          29.000
R01  20835046.695 5 111375282.971 5     -2058.957          31.000
R02  20034552.305 4 106908216.301 4      1510.031          28.000
R12  21560931.789 8 115174654.244 8      3828.805          51.000    21560936.547 8  89580301.048 8      2977.956          49.000
R17  21429452.227 4 114673291.373 4     -2496.562          29.000    21429462.930 4  89190458.410 4     -1941.768          27.000
C05  39763898.648 6 207061053.501 6       -20.180          36.000    39763896.242 6 160112726.599 6       -15.354          39.000
C14  21584054.227 8 112393828.412 8      -178.066          48.000    21584052.266 8  86910033.655 8      -137.611          51.000
C24  23501322.898 8 122377502.476 8      2485.117          51.000
C26  22777935.391 6 118610740.334 6      -351.094          36.000
C28  24953843.977 5 129941226.717 5     -2063.980          34.000
E05  23855396.953 8 125360946.382 8      -920.332          51.000    23855398.531 8  96055891.550 8      -705.213          51.000
E31  27111152.742 5 142470056.807 5      -931.973          35.000    27111153.828 6 109165394.183 6      -713.816          39.000
> 2020 05 02 01 13 30.0000000  0 13        .000000000000
G06  21361906.180 8 112257571.664 8     -1408.328          51.000    21361908.203 8  87473450.190 8     -1097.399          51.000
G07  21460576.234 7 112776097.937 7      1934.637          47.000    21460578.242 7  87877460.404 7      1507.509          47.000
G09  20531549.445 8 107894020.704 8     -1044.980          51.000    20531550.305 8  84073261.498 8      -814.270          51.000
G30  23246799.195 6 122162706.740 6      3460.438          39.000    23246792.758 6  95191736.669 6      2696.445          38.000
R01  20846646.383 5 111437290.635 5     -2063.051          35.000
R12  21539490.961 8 115060116.428 8      3818.934          51.000    21539495.344 7  89491216.040 7      2970.279          47.000
C05  39764039.203 6 207061785.019 6       -17.168          37.000    39764036.742 6 160113292.272 6       -13.094          39.000
C14  21585128.984 8 112399425.439 8      -183.613          49.000    21585127.227 8  86914361.627 8      -142.027          51.000
C24  23487062.414 8 122303244.300 8      2477.039          51.000
C26  22780027.094 5 118621653.881 5      -364.855          35.000
C28  24965790.195 6 130003436.876 6     -2071.293          36.000
E05  23860689.617 8 125388759.571 8      -922.098          51.000    23860691.148 8  96077202.952 8      -706.665          51.000
E31  27116535.977 5 142498358.706 5      -942.551          34.000    27116537.617 6 109187070.864 6      -722.358          36.000
> 2020 05 02 01 14  0.0000000  0 13        .000000000000
G06  21370009.648 8 112300157.576 8     -1417.230          51.000    21370011.547 8  87506633.986 8     -1104.335          51.000
G07  21449582.867 8 112718327.375 8      1930.121          49.000    21449583.391 8  87832444.415 8      1503.987          49.000
G09  20537556.922 8 107925590.337 8     -1045.832          51.000    20537557.828 8  84097861.208 8      -814.937          51.000
G30  23227073.586 6 122059045.579 6      3463.637          39.000    23227067.352 6  95110961.706 6      2698.941          39.000
R12  21518092.000 8 114945804.529 8      3815.684          50.000    21518096.602 7  89402306.760 7      2967.754          46.000
R17  21457704.109 5 114824467.010 5     -2525.871          35.000    21457706.742 4  89307939.001 4     -1964.569          28.000
C05  39764147.750 6 207062350.600 6        -7.418          37.000    39764145.477 6 160113729.616 6        -5.633          39.000
C14  21586222.305 8 112405119.486 8      -182.555          48.000    21586220.867 8  86918764.616 8      -141.160          51.000
C24  23472834.117 8 122229158.572 8      2475.547          51.000
C26  22782188.188 6 118632915.560 6      -372.469          38.000
C28  24977765.523 6 130065793.704 6     -2071.750          37.000
E05  23865978.758 8 125416554.377 8      -917.266          51.000    23865980.219 8  96098500.268 8      -702.870          51.000
E31  27121966.586 5 142526896.017 5      -946.828          32.000    27121967.898 5 109208925.936 5      -725.174          30.000
> 2020 05 02 01 14 30.0000000  0 15        .000000000000
G04  22536160.703 5 118428308.609 5     -2668.094          32.000
G06  21378204.344 8 112343223.079 8     -1441.875          51.000    21378206.539 8  87540191.497 8     -1123.539          51.000
G07  21438656.727 8 112660907.752 8      1909.688          51.000    21438655.594 8  87787701.906 8      1488.068          51.000
G09  20543609.391 8 107957396.126 8     -1062.559          51.000    20543610.031 8  84122644.936 8      -827.968          51.000
G30  23207368.555 6 121955495.280 6      3451.480          40.000    23207363.461 6  95030273.145 6      2689.465          40.000
R01  20869899.734 5 111561569.960 5     -2076.113          31.000    20869912.969 4  86770165.499 4     -1614.755          26.000
R11  20497030.000 6 109529893.876 6       414.324          38.000    20497025.469 5  85189914.066 5       322.243          33.000
R12  21496751.367 8 114831808.136 8      3796.328          48.000    21496756.602 7  89313642.924 7      2952.703          42.000
R17  21471981.141 6 114900831.811 6     -2553.121          36.000    21471982.703 4  89367333.889 4     -1985.758          29.000
C05  39764240.406 6 207062833.334 6       -12.863          36.000    39764238.156 6 160114102.917 6       -10.252          40.000
C14  21587350.180 8 112410994.191 8      -197.230          48.000    21587349.180 8  86923307.295 8      -152.433          51.000
C24  23458655.141 8 122155330.521 8      2458.090          51.000
C26  22784431.703 5 118644607.989 5      -395.309          35.000
C28  24989785.438 6 130128378.055 6     -2088.434          36.000
E05  23871280.312 8 125444414.510 8      -928.078          51.000    23871281.688 8  96119847.634 8      -711.074          51.000
> 2020 05 02 01 15  0.0000000  0 15        .000000000000
G06  21386529.953 8 112386975.537 8     -1474.191          51.000    21386532.531 8  87574284.311 8     -1148.721          51.000
G07  21427837.562 8 112604049.534 8      1881.629          50.000    21427835.812 8  87743396.812 8      1466.204          50.000
G09  20549746.367 8 107989646.004 8     -1086.652          51.000    20549746.750 8  84147774.709 8      -846.742          51.000
G30  23187724.430 6 121852267.051 6      3431.160          41.000    23187721.281 6  94949835.601 6      2673.631          41.000
R01  20881618.383 5 111624189.982 5     -2099.059          31.000    20881625.367 4  86818869.522 4     -1632.604          26.000
R11  20494817.102 5 109518096.979 5       372.953          31.000    20494824.305 6  85180738.651 6       290.084          38.000
R12  21475509.008 7 114718343.961 7      3768.883          43.000    21475513.062 6  89225393.140 6      2931.359          36.000
R17  21486390.406 5 114977946.878 5     -2587.469          35.000    21486389.734 4  89427312.444 4     -2012.464          27.000
C05  39764357.031 6 207063441.379 6       -26.582          36.000    39764354.719 6 160114572.311 6       -20.757          39.000
C14  21588552.547 8 112417256.928 8      -219.438          48.000    21588551.836 8  86928150.039 8      -169.701          51.000
C24  23444565.766 8 122081969.197 8      2433.324          50.000
C26  22786798.914 5 118656937.775 5      -426.137          34.000
C28  25001888.500 6 130191394.615 6     -2112.020          38.000
E05  23876633.953 8 125472548.654 8      -946.633          51.000    23876635.336 8  96141404.965 8      -725.342          51.000
E31                                                                  27133065.820 5 109253605.398 5      -762.193          34.000
> 2020 05 02 01 15 30.0000000  0 16        .000000000000
G06  21394963.539 8 112431294.471 8     -1484.477          51.000    21394966.508 8  87608818.532 8     -1156.735          51.000
G07  21417102.359 8 112547634.826 8      1875.113          49.000    21417100.797 8  87699437.314 8      1461.127          49.000
G09  20555945.055 8 108022220.088 8     -1089.047          51.000    20555945.539 8  84173157.121 8      -848.608          51.000
G30  23168119.859 6 121749244.380 6      3432.688          41.000    23168117.664 6  94869558.193 6      2674.821          41.000
R01  20893384.914 5 111687090.589 5     -2098.344          31.000    20893384.000 4  86867745.296 4     -1632.033          26.000
R11  20492763.516 6 109507129.738 6       353.883          39.000    20492769.375 6  85172208.512 6       275.233          36.000
R12  21454343.688 7 114605295.640 7      3763.391          44.000    21454346.539 6  89137466.783 6      2927.085          40.000
R17  21500913.922 6 115055687.050 6     -2599.336          38.000    21500916.453 4  89487777.066 4     -2021.706          28.000
C05  39764474.812 6 207064054.793 6       -18.336          36.000    39764472.578 6 160115046.642 6       -14.236          40.000
C14  21589806.969 8 112423790.372 8      -220.066          48.000    21589806.453 8  86933202.094 8      -170.163          51.000
C24  23430544.477 8 122008958.824 8      2430.004          51.000
C26  22789266.148 5 118669786.626 5      -435.051          35.000
C28  25014050.930 6 130254723.319 6     -2114.180          39.000
E05  23882017.070 8 125500837.744 8      -943.387          51.000    23882018.688 8  96163081.017 8      -722.822          51.000
E15  24923590.398 6 130974351.589 6      -603.656          40.000
E31                                                                  27138749.461 5 109276486.648 5      -766.587          35.000
> 2020 05 02 01 16  0.0000000  0 17        .000000000000
G06  21403498.742 8 112476146.420 8     -1511.887          51.000    21403501.430 8  87643768.104 8     -1178.094          51.000
G07  21406445.586 8 112491632.647 8      1851.789          50.000    21406444.391 8  87655799.277 8      1442.953          50.000
G09  20562199.211 8 108055085.537 8     -1108.410          51.000    20562199.906 8  84198766.565 8      -863.696          51.000
G30  23148549.008 6 121646397.614 6      3417.332          39.000    23148547.328 6  94789417.837 6      2662.859          38.000
