     3.02           OBSERVATION DATA    M (MIXED)           RINEX VERSION / TYPE
SAVERINEX           SC600               20200510 035931 LCL PGM / RUN BY / DATE
       G = GPS       R = GLONASS       C = COMPASS          COMMENT
       S = SBAS      J = QZSS          E = GALILEO          COMMENT
BEAN                                                        MARKER NAME
1                                                           MARKER NUMBER
GEODETIC                                                    MARKER TYPE
Unige DICCA         GTER                                    OBSERVER / AGENCY
SC60291900056       SC600               2.12(191226)        REC # / TYPE / VERS
                    HEMA45          NONE                    ANT # / TYPE
  4509407.8091   693652.4678  4442337.6214                  APPROX POSITION XYZ
        0.0000        0.0000        0.0000                  ANTENNA: DELTA H/E/N
G    8 C1C L1C D1C S1C C2Y L2Y D2Y S2Y                      SYS / # / OBS TYPES
R    8 C1C L1C D1C S1C C2P L2P D2P S2P                      SYS / # / OBS TYPES
C    8 C1I L1I D1I S1I C7I L7I D7I S7I                      SYS / # / OBS TYPES
E    8 C1C L1C D1C S1C C7Q L7Q D7Q S7Q                      SYS / # / OBS TYPES
DBHZ                                                        COMMENT
     30.000                                                 INTERVAL
  2020    05    10    01    00    0.0000000     GPS         TIME OF FIRST OBS
  2020    05    10    01    59   30.0000000     GPS         TIME OF LAST OBS
     0                                                      RCV CLOCK OFFS APPL
G L1C  0.00000                                              SYS / PHASE SHIFT
G L2Y  0.00000                                              SYS / PHASE SHIFT
R L1C  0.00000                                              SYS / PHASE SHIFT
R L2P  0.25000                                              SYS / PHASE SHIFT
C L1I  0.00000                                              SYS / PHASE SHIFT
C L7I  0.00000                                              SYS / PHASE SHIFT
E L1C  0.50000                                              SYS / PHASE SHIFT
E L7Q -0.25000                                              SYS / PHASE SHIFT
 12 R01  1 R02 -4 R07  5 R08  6 R09 -2 R10 -5 R11  0 R12 -1 GLONASS SLOT / FRQ #
    R13 -2 R17  4 R22 -3 R23  3                             GLONASS SLOT / FRQ #
 C1C   71.950 C2C   71.950 C2P   71.950                     GLONASS COD/PHS/BIS
    18                                                      LEAP SECONDS
*** Above antenna height is from mark to ANTENNA BOTTOM.    COMMENT
    17     4        0.0000        ANT MEASURE TYPE/HEIGT    COMMENT
    0.0000    0.0000    0.0458    0.0405    0.0000          COMMENT
                    BASE STATION                            COMMENT
                                                            END OF HEADER
> 2020 05 10 01 00  0.0000000  0 15        .000000000000
G06  21760284.328 8 114351060.221 8     -2119.219          49.000    21760286.336 8  89104726.465 8     -1651.339          49.000
G07  21102075.047 8 110892144.059 8      1348.387          51.000    21102072.281 8  86409431.988 8      1050.691          51.000
G09  20795654.164 8 109282007.273 8     -1419.004          51.000    20795655.195 8  85154790.020 8     -1105.717          51.000
G30  22514679.984 7 118315465.147 7      3154.496          46.000    22514682.227 7  92193881.802 7      2458.049          47.000
R02  19739911.531 4 105335929.748 4      1153.219          29.000    19739901.828 5  81927970.288 5       896.942          31.000
R11  20514771.836 6 109624728.283 6      -583.039          40.000    20514772.695 5  85263674.972 5      -453.472          35.000
R12  20783936.914 8 111024110.241 8      3211.289          50.000    20783939.961 7  86352078.778 7      2497.666          47.000
R17  22056293.680 7 118027622.855 7     -3214.430          42.000    22056294.820 6  91799270.909 6     -2500.112          41.000
C05  39782419.555 5 207157497.752 5       -18.602          35.000    39782417.852 6 160187307.844 6       -14.487          39.000
C11  26031465.695 4 135552627.754 4     -2856.992          29.000    26031473.273 6 104817907.124 6     -2208.350          36.000
C21  22518599.516 8 117260246.492 8     -1407.211          51.000
C26  22860356.516 8 119039901.203 8      2481.129          51.000
E12                                                                  24369098.156 6  98124244.725 6     -2135.089          40.000
E19  24316880.391 8 127786075.917 8      -897.238          49.000    24316880.367 8  97914023.866 8      -687.455          50.000
E21  25579059.938 5 134418866.165 5      1631.922          34.000
> 2020 05 10 01 00 30.0000000  0 15        .000000000000
G06  21772420.734 8 114414835.470 8     -2132.621          51.000    21772422.016 8  89154421.432 8     -1661.783          51.000
G07  21094415.617 8 110851893.045 8      1335.109          51.000    21094413.000 8  86378067.590 8      1040.348          51.000
G09  20803774.898 8 109324681.612 8     -1425.824          51.000    20803776.125 8  85188042.749 8     -1111.032          51.000
G30  22496690.812 7 118220929.296 7      3147.832          47.000    22496692.578 7  92120217.525 7      2452.859          47.000
R01  21338639.336 5 114067222.168 5     -2392.082          31.000    21338637.391 5  88718964.447 5     -1860.514          30.000
R11  20518114.383 6 109642588.687 6      -607.879          36.000    20518116.211 5  85277566.470 5      -472.792          34.000
R12  20765946.969 8 110928012.757 8      3195.246          50.000    20765949.656 7  86277336.297 7      2485.191          47.000
R17  22074351.273 7 118124248.880 7     -3227.242          44.000    22074351.047 6  91874424.477 6     -2510.077          41.000
C05  39782520.477 5 207158023.037 5       -16.227          35.000    39782518.664 6 160187714.028 6       -12.502          39.000
C11                                                                  26047931.078 5 104884171.977 5     -2209.196          35.000
C21  22526724.250 8 117302552.690 8     -1413.066          51.000
C26  22846088.586 8 118965603.442 8      2472.102          51.000
E12  24385014.859 5 128144110.390 5     -2789.914          35.000    24385015.984 6  98188337.683 6     -2137.813          40.000
E19  24322009.766 8 127813030.852 8      -899.633          49.000    24322009.711 8  97934677.647 8      -689.365          50.000
E21  25569771.914 6 134370046.613 6      1622.699          36.000
> 2020 05 10 01 01  0.0000000  0 15        .000000000000
G06  21784655.492 8 114479127.231 8     -2151.512          51.000    21784656.078 8  89204518.886 8     -1676.506          51.000
G07  21086852.492 8 110812149.033 8      1316.395          51.000    21086850.109 8  86347098.243 8      1025.762          51.000
G09  20811955.492 8 109367670.396 8     -1438.164          51.000    20811956.766 8  85221540.517 8     -1120.647          51.000
G30  22478760.891 7 118126704.704 7      3135.758          47.000    22478762.258 7  92046795.800 7      2443.448          47.000
R02  19727033.906 4 105267232.131 4      1132.984          29.000
R11  20521614.219 6 109661298.522 6      -637.711          40.000    20521617.570 5  85292118.587 5      -496.000          34.000
R12  20748068.008 8 110832508.443 8      3173.691          50.000    20748070.367 7  86203055.194 7      2468.427          47.000
R17  22092501.664 7 118221370.785 7     -3245.508          44.000    22092500.367 7  91949963.726 7     -2524.281          42.000
C05  39782627.328 5 207158580.189 5       -19.160          35.000    39782625.367 6 160188144.066 6       -14.629          39.000
C11                                                                  26064412.195 6 104950532.154 6     -2213.415          38.000
C21  22534903.148 8 117345142.228 8     -1424.293          51.000
C26  22831893.000 8 118891684.185 8      2457.699          51.000
E04  24638201.008 5 129474618.903 5      1450.223          31.000
E12  24400976.609 6 128227967.662 6     -2798.688          36.000    24400974.781 6  98252591.908 6     -2144.476          40.000
E19  24327173.766 8 127840167.180 8      -907.566          49.000    24327173.547 8  97955470.410 8      -695.372          50.000
> 2020 05 10 01 01 30.0000000  0 13        .000000000000
G06  21796981.586 8 114543899.852 8     -2166.594          51.000    21796981.750 8  89254991.034 8     -1688.255          51.000
G07  21079379.672 8 110772879.015 8      1301.438          51.000    21079377.297 8  86316498.209 8      1014.104          51.000
G09  20820189.422 8 109410939.339 8     -1446.645          51.000    20820190.570 8  85255256.579 8     -1127.255          51.000
G30  22460883.984 7 118032760.178 7      3127.141          46.000    22460885.281 7  91973592.304 7      2436.733          46.000
R11  20525268.273 6 109680822.879 6      -663.859          40.000    20525271.000 5  85307304.249 5      -516.335          33.000
R12  20730293.938 8 110737567.881 8      3155.629          48.000    20730297.570 8  86129212.545 8      2454.378          49.000
R17  22110736.219 7 118318949.880 7     -3259.750          42.000    22110735.719 6  92025858.623 6     -2535.361          41.000
C05  39782733.680 5 207159133.064 5       -17.648          35.000    39782731.688 6 160188572.398 6       -13.886          39.000
C11                                                                  26080910.469 6 105016960.212 6     -2215.125          38.000
C21  22543130.078 8 117387982.122 8     -1431.777          51.000
C26  22817763.812 8 118818112.326 8      2447.000          50.000
E12  24416971.211 5 128312000.018 5     -2803.516          35.000    24416967.086 6  98316980.326 6     -2148.157          38.000
E19  24332365.828 8 127867451.188 8      -911.535          49.000    24332365.578 8  97976376.341 8      -698.476          50.000
> 2020 05 10 01 02  0.0000000  0 14        .000000000000
G06  21809398.414 8 114609151.240 8     -2183.801          51.000    21809398.281 8  89305836.262 8     -1701.663          51.000
G07  21071997.531 8 110734084.775 8      1284.297          51.000    21071995.188 8  86286268.915 8      1000.751          51.000
G09  20828476.508 8 109454487.721 8     -1457.066          51.000    20828477.352 8  85289190.385 8     -1135.376          51.000
G30  22443060.211 7 117939098.041 7      3116.469          44.000    22443062.250 7  91900608.823 7      2428.417          44.000
R02  19714410.227 5 105199853.319 5      1113.078          33.000    19714407.000 4  81822096.464 4       865.730          28.000
R11  20529074.445 4 109701148.875 4      -692.793          28.000    20529075.359 4  85323122.744 4      -538.824          28.000
R12  20712626.039 8 110643194.963 8      3135.457          49.000    20712631.531 8  86055811.373 8      2438.689          51.000
R17  22129054.742 7 118416982.004 7     -3276.020          45.000    22129054.961 6  92102105.844 6     -2548.015          40.000
C05  39782839.594 5 207159685.100 5       -19.465          35.000    39782837.812 6 160188999.252 6       -15.070          39.000
C11                                                                  26097425.086 5 105083454.118 5     -2218.372          35.000
C21  22551405.156 8 117431072.602 8     -1441.305          51.000
C26  22803701.891 8 118744890.006 8      2434.121          50.000
E12  24432997.914 5 128396205.608 5     -2810.590          35.000    24432992.039 6  98381501.493 6     -2153.539          36.000
E19  24337585.961 8 127894883.025 8      -917.672          49.000    24337585.844 8  97997395.538 8      -703.265          50.000
> 2020 05 10 01 02 30.0000000  0 15        .000000000000
G06  21821904.992 8 114674874.824 8     -2198.648          50.000    21821905.359 8  89357049.430 8     -1713.233          50.000
G07  21064705.094 8 110695762.696 8      1269.582          51.000    21064703.039 8  86256407.563 8       989.288          51.000
G09  20836815.711 8 109498310.406 8     -1465.219          51.000    20836816.242 8  85323337.922 8     -1141.729          51.000
G30  22425289.945 7 117845716.125 7      3108.312          46.000    22425292.633 7  91827843.685 7      2422.062          46.000
R01  21392729.055 5 114356361.766 5     -2425.898          30.000
R11  20533030.258 5 109722295.279 5      -718.035          35.000    20533029.742 5  85339564.923 5      -558.472          31.000
R12  20695064.797 8 110549389.345 8      3117.465          49.000    20695071.641 8  85982851.458 8      2424.695          49.000
R17  22147456.930 7 118515458.463 7     -3289.875          45.000    22147456.945 6  92178698.630 6     -2558.795          40.000
C05  39782944.438 6 207160230.894 6       -18.086          36.000    39782942.578 6 160189421.280 6       -13.728          39.000
C11                                                                  26113954.453 5 105150008.695 5     -2218.991          32.000
C21  22559727.312 8 117474409.563 8     -1448.543          51.000
C26  22789707.000 8 118672014.958 8      2423.484          50.000
E12  24449055.430 6 128480651.206 6     -2814.941          36.000    24449048.703 5  98446150.659 5     -2157.161          34.000
E19  24342833.406 8 127922458.585 8      -921.430          49.000    24342833.477 8  98018524.852 8      -706.022          49.000
E21  25533346.945 5 134178642.998 5      1569.930          32.000    25533342.102 5 102812189.299 5      1203.604          33.000
> 2020 05 10 01 03  0.0000000  0 15        .000000000000
G06  21834503.477 8 114741081.533 8     -2215.035          50.000    21834504.320 8  89408639.069 8     -1726.001          50.000
G07  21057505.273 8 110657926.428 8      1252.934          51.000    21057503.141 8  86226924.765 8       976.312          51.000
G09  20845209.422 8 109542419.747 8     -1475.336          51.000    20845209.820 8  85357708.817 8     -1149.612          51.000
G30  22407576.664 8 117752629.877 8      3097.797          48.000    22407579.211 8  91755308.938 8      2413.868          48.000
R01  21406363.125 5 114429277.589 5     -2434.738          30.000
R11  20537140.883 6 109744262.387 6      -746.191          39.000    20537142.641 5  85356650.589 5      -580.371          31.000
R12  20677614.344 8 110456168.607 8      3097.324          51.000    20677620.711 8  85910346.480 8      2409.030          48.000
R17  22165944.500 7 118614388.141 7     -3305.383          46.000    22165944.008 6  92255643.908 6     -2570.853          41.000
C05  39783050.547 5 207160783.735 5       -18.598          35.000    39783048.750 6 160189848.787 6       -14.127          39.000
C11                                                                  26130500.797 4 105216632.173 4     -2222.187          28.000
C21  22568099.359 8 117518006.175 8     -1457.797          51.000
C26  22775781.922 8 118599502.260 8      2410.758          51.000
E12  24465146.273 6 128565202.109 6     -2821.441          37.000    24465138.680 5  98510974.326 5     -2161.722          31.000
E19  24348110.633 8 127950190.890 8      -927.121          49.000    24348110.852 8  98039774.278 8      -710.409          49.000
E21                                                                  25524416.039 5 102776242.489 5      1193.218          35.000
> 2020 05 10 01 03 30.0000000  0 13        .000000000000
G06  21847188.711 8 114807745.447 8     -2229.652          48.000    21847190.469 8  89460584.975 8     -1737.391          48.000
G07  21050393.648 8 110620553.041 8      1238.293          51.000    21050391.188 8  86197802.653 8       964.904          51.000
G09  20853653.000 8 109586791.198 8     -1483.324          51.000    20853653.398 8  85392283.964 8     -1155.837          51.000
G30  22389916.031 8 117659817.765 8      3089.293          50.000    22389917.688 8  91682987.828 8      2407.241          50.000
R01  21420057.008 4 114502449.393 4     -2442.859          29.000
R12  20660269.945 8 110363512.539 8      3079.297          50.000    20660274.445 7  85838280.684 7      2395.012          46.000
R17  22184511.688 7 118713742.620 7     -3318.531          47.000    22184510.203 7  92332919.568 7     -2581.080          42.000
C05  39783153.656 5 207161320.345 5       -17.520          35.000    39783151.781 6 160190263.735 6       -13.457          39.000
C21  22576516.609 8 117561839.090 8     -1464.895          51.000
C26  22761922.312 8 118527330.402 8      2400.223          51.000
E12  24481265.820 6 128649905.668 6     -2825.613          37.000    24481252.078 4  98575857.907 4     -2165.173          29.000
E19  24353413.258 8 127978056.511 8      -930.840          49.000    24353413.594 8  98061125.862 8      -713.235          49.000
E21                                                                  25515558.461 5 102740574.138 5      1184.406          35.000
> 2020 05 10 01 04  0.0000000  0 16        .000000000000
G02  22385148.258 5 117634737.038 5        54.996          33.000
G06  21859969.828 8 114874912.909 8     -2246.289          48.000    21859972.320 8  89512923.261 8     -1750.355          48.000
G07  21043379.148 8 110583692.062 8      1221.105          51.000    21043376.633 8  86169079.846 8       951.511          51.000
G09  20862155.586 8 109631472.640 8     -1493.590          51.000    20862156.023 8  85427100.658 8     -1163.836          51.000
G30  22372317.352 8 117567330.652 8      3078.445          51.000    22372317.852 8  91610919.974 8      2398.789          51.000
R01  21433791.406 4 114575884.486 4     -2451.035          29.000
R11  20545841.703 5 109790737.979 5      -799.863          35.000    20545829.984 5  85392789.042 5      -622.113          33.000
R12  20643040.500 7 110271474.826 7      3058.547          47.000    20643043.336 7  85766695.778 7      2378.867          44.000
R17  22203166.000 7 118813566.678 7     -3334.234          46.000    22203164.656 7  92410560.471 7     -2593.296          42.000
C05  39783262.836 6 207161888.957 6       -18.656          36.000    39783261.031 6 160190703.427 6       -14.529          39.000
C21  22584988.922 8 117605956.695 8     -1474.391          51.000
C26  22748137.531 8 118455549.601 8      2387.051          51.000
E01  27268862.125 7 143298836.446 7      3106.973          42.000    27268859.023 6 109800395.142 6      2380.437          41.000
E12  24497423.508 6 128734808.679 6     -2832.355          36.000    24497405.164 5  98640899.260 5     -2170.076          32.000
E19  24358750.469 8 128006103.888 8      -936.984          49.000    24358750.969 8  98082616.699 8      -717.955          48.000
E21                                                                  25506778.180 5 102705222.576 5      1174.002          33.000
> 2020 05 10 01 04 30.0000000  0 16        .000000000000
G02  22384878.906 5 117633314.666 5        41.129          35.000
G06  21872832.914 8 114942508.771 8     -2258.125          50.000    21872835.484 8  89565595.365 8     -1759.578          50.000
G07  21036448.500 8 110547271.785 8      1208.855          51.000    21036446.312 8  86140700.431 8       941.968          51.000
G09  20870703.086 8 109676390.343 8     -1499.000          50.000    20870703.703 8  85462101.451 8     -1168.052          50.000
G30  22354766.836 8 117475097.872 8      3072.332          51.000    22354766.336 8  91539050.299 8      2394.025          51.000
R02  19683788.008 5 105036455.802 5      1067.277          32.000    19683789.773 4  81695039.383 4       830.111          26.000
R11  20550384.070 4 109815028.992 4      -824.008          28.000    20550375.906 4  85411652.854 4      -640.904          29.000
R12  20625912.539 7 110179985.185 7      3042.703          47.000    20625915.867 7  85695537.119 7      2366.547          46.000
R17  22221892.469 7 118913781.561 7     -3344.809          45.000    22221892.547 7  92488505.346 7     -2601.518          42.000
C05  39783364.414 5 207162417.504 5       -15.090          35.000    39783362.617 6 160191112.108 6       -11.315          40.000
C21  22593502.398 8 117650286.870 8     -1479.066          51.000
C26  22734413.992 8 118384089.612 8      2378.887          51.000
E01  27251125.023 7 143205629.137 7      3108.906          42.000    27251123.250 7 109728976.566 7      2382.125          43.000
E12  24513604.680 6 128819836.323 6     -2834.488          36.000    24513586.742 5  98706050.198 5     -2171.698          34.000
E19  24364108.406 8 128034260.316 8      -938.156          49.000    24364108.961 8  98104191.106 8      -718.838          48.000
E21                                                                  25498060.727 4 102670124.192 4      1166.657          29.000
> 2020 05 10 01 05  0.0000000  0 15        .000000000000
G02  22384713.508 5 117632463.017 5        18.047          31.000
G06  21885785.250 8 115010571.398 8     -2278.898          51.000    21885787.555 8  89618631.160 8     -1775.765          51.000
G07  21029609.469 8 110511333.256 8      1187.387          51.000    21029607.805 8  86112696.394 8       925.236          51.000
G09  20879303.117 8 109721584.136 8     -1513.434          50.000    20879304.008 8  85497317.400 8     -1179.296          50.000
G30  22337272.523 8 117383162.243 8      3057.180          51.000    22337271.469 8  91467412.157 8      2382.218          51.000
R02  19677831.617 5 105004680.203 5      1051.598          35.000    19677836.586 4  81670325.076 4       817.909          25.000
R11  20555096.969 5 109840175.908 5      -855.410          32.000    20555101.734 5  85431262.173 5      -665.319          34.000
R12  20608896.992 8 110089088.882 8      3017.500          51.000    20608900.477 8  85624839.976 8      2346.944          49.000
R17  22240698.898 7 119014424.538 7     -3364.285          44.000    22240700.562 6  92566783.203 6     -2616.666          41.000
C05  39783466.023 5 207162947.424 5       -20.391          35.000    39783464.250 6 160191521.104 6       -15.538          39.000
C21  22602064.109 8 117694870.106 8     -1492.676          51.000
C26  22720759.734 8 118312992.730 8      2361.457          49.000
E01  27233397.930 7 143112476.351 7      3101.734          43.000    27233396.859 7 109657599.782 7      2376.696          43.000
E12  24529816.164 6 128905027.235 6     -2844.871          37.000    24529800.523 5  98771326.221 5     -2179.720          35.000
E19  24369494.836 8 128062566.419 8      -948.582          49.000    24369495.148 7  98125880.187 7      -726.791          47.000
> 2020 05 10 01 05 30.0000000  0 14        .000000000000
G02  22384643.203 5 117632085.306 5         1.992          32.000
G06  21898821.422 8 115079074.270 8     -2292.266          51.000    21898823.055 8  89672010.000 8     -1786.181          51.000
G07  21022857.547 8 110475853.202 8      1173.551          51.000    21022856.008 8  86085049.606 8       914.455          51.000
G09  20887950.914 8 109767029.072 8     -1520.543          49.000    20887952.062 8  85532729.058 8     -1184.839          49.000
G30  22319830.117 8 117291501.810 8      3049.324          51.000    22319829.258 8  91395988.441 8      2376.097          51.000
R02  19671925.297 5 104973186.498 5      1043.703          34.000    19671932.773 4  81645829.947 4       811.766          25.000
R12  20591989.219 8 109998765.317 8      2999.730          51.000    20591992.492 8  85554588.345 8      2333.124          49.000
R17  22259580.406 7 119115466.232 7     -3376.164          46.000    22259582.594 7  92645371.193 7     -2625.905          42.000
C05  39783563.102 5 207163452.773 5       -17.617          35.000    39783561.398 6 160191911.893 6       -13.725          40.000
C21  22610670.109 8 117739682.510 8     -1499.055          51.000
C26  22707170.844 7 118242236.962 7      2351.418          47.000
E01  27215677.188 7 143019356.045 7      3102.039          42.000    27215676.312 7 109586247.894 7      2376.935          43.000
E12  24546053.375 6 128990355.301 6     -2847.848          38.000    24546039.320 5  98836707.414 5     -2182.177          35.000
E19  24374905.203 8 128090998.129 8      -951.238          49.000    24374905.312 7  98147665.515 7      -728.853          47.000
> 2020 05 10 01 06  0.0000000  0 17        .000000000000
G04  23297661.969 5 122430013.780 5     -2852.695          33.000
G06  21911931.141 8 115147963.972 8     -2308.523          51.000    21911931.922 8  89725690.265 8     -1798.849          51.000
G07  21016183.406 8 110440780.964 8      1156.562          51.000    21016181.656 8  86057720.586 8       901.218          51.000
G09  20896636.703 8 109812673.230 8     -1530.551          49.000    20896637.953 8  85568295.948 8     -1192.637          49.000
G30  22302430.477 8 117200067.642 8      3038.223          50.000    22302429.898 8  91324741.037 8      2367.446          51.000
R02  19666063.977 5 104941924.060 5      1032.906          34.000
R11  20564949.766 5 109892864.025 5      -907.504          35.000    20564953.758 5  85472237.414 5      -705.839          35.000
R12  20575179.812 8 109908966.630 8      2978.637          51.000    20575182.078 8  85484744.936 8      2316.717          49.000
R17  22278525.711 7 119216850.372 7     -3390.855          45.000    22278528.695 7  92724225.526 7     -2637.332          42.000
C05  39783645.883 6 207163883.211 6       -19.082          36.000    39783644.328 6 160192245.511 6       -14.641          39.000
C21  22619310.570 8 117784673.618 8     -1508.332          51.000
C26  22693638.688 8 118171773.619 8      2338.188          48.000
E01  27197953.445 7 142926219.291 7      3099.215          42.000    27197952.547 7 109514883.392 7      2374.642          42.000
E04  24556546.250 5 129045521.245 5      1408.633          35.000
E12  24562306.102 6 129075767.540 6     -2854.301          40.000    24562292.328 5  98902153.069 5     -2186.843          34.000
E19  24380329.766 8 128119504.338 8      -957.180          49.000    24380329.781 7  98169507.926 7      -733.480          47.000
E21  25472334.469 5 133858036.961 5      1480.129          34.000
> 2020 05 10 01 06 30.0000000  0 15        .000000000000
G06  21925180.797 8 115217588.915 8     -2321.852          51.000    21925180.992 8  89779943.445 8     -1809.235          51.000
G07  21009653.898 8 110406468.351 8      1142.199          51.000    21009652.195 8  86030983.481 8       890.025          51.000
G09  20905426.984 8 109858866.582 8     -1537.789          49.000    20905428.266 8  85604290.781 8     -1198.277          49.000
G30  22285140.938 8 117109212.656 8      3030.055          50.000    22285140.445 8  91253944.954 8      2361.085          50.000
R02  19660315.969 5 104911250.395 5      1023.770          34.000
R11  20570150.555 5 109920648.318 5      -932.449          35.000    20570155.844 6  85493847.419 6      -725.235          37.000
R12  20558535.812 8 109820053.178 8      2960.379          51.000    20558537.555 8  85415590.051 8      2302.517          49.000
R17  22297600.492 7 119318929.240 7     -3402.703          45.000    22297605.297 7  92803620.234 7     -2646.547          43.000
C05  39783781.281 5 207164588.363 5       -17.340          35.000    39783779.719 6 160192790.766 6       -13.176          40.000
C21  22628051.773 8 117830191.150 8     -1514.910          51.000
C26  22680230.297 8 118101952.237 8      2327.887          48.000
E01  27180293.617 6 142833418.926 6      3098.914          41.000    27180292.781 6 109443776.642 6      2374.657          40.000
E12  24578641.320 6 129161612.786 6     -2857.348          39.000    24578626.773 5  98967946.568 5     -2189.723          34.000
E19  24385835.281 8 128148435.749 8      -960.250          49.000    24385835.461 7  98191676.141 7      -735.863          47.000
E21  25463951.281 6 133813950.451 6      1469.293          37.000    25463952.086 5 102532768.908 5      1125.879          33.000
> 2020 05 10 01 07  0.0000000  0 16        .000000000000
G02  22385063.742 5 117634294.448 5       -50.285          34.000
G06  21938476.477 8 115287455.933 8     -2336.488          51.000    21938476.242 8  89834385.253 8     -1820.640          51.000
G07  21003175.617 8 110372425.069 8      1126.637          51.000    21003173.922 8  86004456.256 8       877.899          51.000
G09  20914228.250 8 109905117.543 8     -1546.250          48.000    20914229.523 8  85640330.486 8     -1204.873          48.000
G30  22267868.328 8 117018448.202 8      3020.355          49.000    22267868.156 8  91183219.385 8      2353.524          49.000
R02  19654584.922 5 104880668.952 5      1014.234          30.000
R11  20575458.547 6 109949017.945 6      -959.020          37.000    20575465.422 6  85515912.733 6      -745.904          36.000
R12  20541964.328 8 109731530.008 8      2940.508          51.000    20541966.039 8  85346738.705 8      2287.062          48.000
R17  22316711.477 7 119421198.915 7     -3415.828          45.000    22316717.109 7  92883163.237 7     -2656.758          42.000
C05  39783875.922 5 207165081.011 5       -17.074          35.000    39783874.344 6 160193171.709 6       -12.590          39.000
C21  22636800.469 8 117875748.884 8     -1522.840          51.000
C26  22666852.227 8 118032288.404 8      2315.914          49.000
E01  27162604.961 6 142740466.309 6      3097.230          40.000    27162604.336 6 109372553.244 6      2373.382          39.000
E12  24594965.781 6 129247398.366 6     -2862.215          38.000    24594950.281 5  99033678.225 5     -2192.761          34.000
E19  24391328.398 8 128177301.864 8      -964.629          49.000    24391328.680 7  98213794.312 7      -739.098          46.000
E21  25455598.297 6 133770052.792 6      1456.684          38.000    25455599.062 5 102499133.102 5      1116.268          35.000
> 2020 05 10 01 07 30.0000000  0 16        .000000000000
G02  22385405.805 5 117636094.123 5       -70.254          34.000
G06  21951864.773 8 115357812.913 8     -2353.285          49.000    21951864.805 8  89889208.866 8     -1833.729          49.000
G07  20996796.500 8 110338902.572 8      1108.805          51.000    20996794.492 8  85978334.827 8       864.004          51.000
G09  20923088.047 8 109951675.520 8     -1556.859          49.000    20923089.219 8  85676609.439 8     -1213.137          49.000
G30  22250660.789 8 116928026.710 8      3008.348          48.000    22250661.719 8  91112761.052 8      2344.167          48.000
R02  19648918.625 5 104850434.049 5      1002.250          30.000    19648930.484 4  81550344.855 4       779.519          27.000
R11  20580925.578 6 109978225.900 6      -987.598          38.000    20580926.328 5  85538629.999 5      -768.132          33.000
R12  20525513.672 8 109643655.537 8      2918.332          51.000    20525515.516 7  85278391.880 7      2269.814          47.000
R17  22335905.906 7 119523909.557 7     -3431.039          45.000    22335910.703 6  92963049.261 6     -2668.586          41.000
C05  39783977.312 5 207165609.289 5       -18.773          35.000    39783975.789 6 160193580.232 6       -14.203          40.000
C21  22645604.859 8 117921594.879 8     -1532.973          51.000
C26  22653552.469 8 117963032.033 8      2301.809          50.000
E01  27144935.492 6 142647613.873 6      3093.465          40.000    27144934.492 6 109301406.677 6      2370.332          37.000
E12  24611326.453 6 129333372.512 6     -2868.812          38.000    24611310.680 5  99099554.465 5     -2198.028          35.000
E19  24396856.680 8 128206352.816 8      -971.316          49.000    24396856.914 7  98236054.129 7      -744.220          47.000
E21  25447326.445 6 133726581.720 6      1442.000          38.000    25447327.297 5 102465824.105 5      1105.265          35.000
> 2020 05 10 01 08  0.0000000  0 15        .000000000000
G06  21965344.773 7 115428657.496 7     -2367.664          45.000    21965346.445 7  89944412.448 7     -1844.933          45.000
G07  20990516.703 8 110305901.244 8      1093.340          51.000    20990514.734 8  85952619.503 8       851.953          51.000
G09  20932006.172 8 109998539.811 8     -1565.246          50.000    20932006.938 8  85713127.073 8     -1219.672          50.000
G30  22233519.539 8 116837950.371 8      2998.691          49.000    22233521.109 8  91042571.683 8      2336.643          49.000
R02  19643316.656 5 104820500.890 5       992.363          32.000
R11  20586548.305 6 110008271.088 6     -1013.379          38.000    20586549.539 5  85561998.438 5      -788.184          34.000
R12  20509185.164 8 109556433.397 8      2898.523          51.000    20509186.172 7  85210552.413 7      2254.404          46.000
R17  22355182.109 7 119627056.633 7     -3443.402          45.000    22355186.031 7  93043274.750 7     -2678.199          42.000
C05  39784085.531 5 207166173.344 5       -17.371          35.000    39784084.055 6 160194016.381 6       -13.466          39.000
C21  22654464.539 8 117967729.322 8     -1540.602          51.000
C26  22640331.391 8 117894185.037 8      2290.098          50.000
E01  27127285.070 6 142554863.816 6      3091.965          39.000    27127281.055 5 109230338.577 5      2369.066          34.000
E12  24627721.617 6 129419533.342 6     -2873.039          39.000    24627707.000 6  99165573.814 6     -2201.512          36.000
E19  24402420.094 8 128235588.705 8      -975.715          49.000    24402420.266 7  98258455.639 7      -747.545          46.000
E21  25439135.938 6 133683538.661 6      1429.602          39.000    25439135.336 6 102432843.063 6      1095.448          37.000
> 2020 05 10 01 08 30.0000000  0 15        .000000000000
G06  21978903.148 7 115499911.087 7     -2382.480          47.000    21978906.266 7  89999934.730 7     -1856.478          47.000
G07  20984321.547 8 110273345.291 8      1077.246          51.000    20984319.984 8  85927251.252 8       839.416          51.000
G09  20940967.867 8 110045633.394 8     -1574.215          49.000    20940968.242 8  85749823.357 8     -1226.661          49.000
G30  22216430.469 8 116748145.035 8      2988.449          51.000    22216431.867 8  90972593.515 8      2328.662          51.000
R02  19637772.359 5 104790914.178 5       981.828          31.000    19637775.750 5  81504049.208 5       763.644          31.000
R11  20592312.891 6 110039074.325 6     -1039.703          36.000    20592315.414 5  85585956.645 5      -808.652          32.000
R12  20492964.906 8 109469790.068 8      2877.848          51.000    20492965.547 7  85143163.179 7      2238.326          45.000
R17  22374524.234 7 119730557.847 7     -3456.496          45.000    22374527.125 6  93123775.709 6     -2688.386          41.000
C05  39784186.258 5 207166697.764 5       -17.238          35.000    39784184.742 6 160194421.907 6       -13.342          40.000
C21  22663364.828 8 118014076.825 8     -1549.066          51.000
C26  22627175.070 8 117825673.807 8      2277.551          51.000
E01  27109640.219 6 142462141.977 6      3089.832          37.000    27109632.375 5 109159292.034 5      2367.665          34.000
E12  24644137.141 6 129505802.730 6     -2877.863          38.000    24644124.188 6  99231676.310 6     -2205.119          38.000
E19  24408004.227 8 128264933.370 8      -980.406          49.000    24408004.281 7  98280940.502 7      -751.289          47.000
E21  25431012.633 6 133640848.823 6      1416.395          40.000    25431011.367 6 102400132.645 6      1085.406          37.000
> 2020 05 10 01 09  0.0000000  0 17        .000000000000
G02  22387041.602 5 117644692.906 5      -122.898          35.000    22387016.852 4  91671090.287 4       -95.765          24.000
G04  23395630.938 5 122944827.753 5     -2868.809          33.000
G06  21992539.898 8 115571571.678 8     -2397.953          50.000    21992543.297 8  90055774.146 8     -1868.535          50.000
G07  20978211.258 8 110241235.947 8      1060.301          51.000    20978209.859 8  85902231.013 8       826.211          51.000
G09  20949972.961 8 110092955.837 8     -1583.738          48.000    20949973.133 8  85786697.964 8     -1234.082          48.000
G30  22199393.609 8 116658613.253 8      2977.113          51.000    22199394.570 8  90902828.524 8      2319.832          51.000
R02  19632273.445 5 104761574.019 5       970.645          32.000    19632278.203 5  81481229.042 5       754.949          31.000
R11  20598218.805 6 110070634.892 6     -1067.180          40.000    20598220.648 5  85610503.735 5      -830.032          30.000
R12  20476853.492 8 109383729.755 8      2856.285          51.000    20476854.297 7  85076227.383 7      2221.555          45.000
R17  22393931.984 7 119834409.517 7     -3470.219          46.000    22393933.836 6  93204549.206 6     -2699.059          41.000
C05  39784279.461 5 207167183.130 5       -17.820          35.000    39784278.000 6 160194797.236 6       -13.901          40.000
C21  22672306.055 8 118060637.852 8     -1558.156          51.000
C26  22614084.000 8 117757500.658 8      2264.270          51.000
E01                                                                  27091992.992 6 109088269.025 6      2365.154          37.000
E12  24660573.016 6 129592179.178 6     -2883.398          36.000    24660561.734 6  99297860.810 6     -2209.561          39.000
E19  24413609.109 8 128294387.354 8      -986.117          49.000    24413609.062 7  98303509.127 7      -755.695          47.000
E21  25422955.875 6 133598514.004 6      1402.652          37.000    25422956.797 6 102367694.261 6      1075.014          37.000
> 2020 05 10 01 09 30.0000000  0 16        .000000000000
G02  22387797.453 6 117648652.600 6      -140.098          36.000
G06  22006273.422 8 115643739.368 8     -2411.895          51.000    22006276.188 8  90112008.679 8     -1879.401          51.000
G07  20972205.500 8 110209676.213 8      1044.777          50.000    20972204.117 8  85877639.015 8       814.112          50.000
G09  20959040.883 7 110140608.863 7     -1591.875          46.000    20959041.062 7  85823830.188 7     -1240.422          46.000
G30  22182428.711 8 116569459.647 8      2967.352          51.000    22182429.352 8  90833358.226 8      2312.222          51.000
R02  19626861.539 5 104732625.662 5       960.793          33.000    19626842.172 4  81458696.762 4       747.283          27.000
R11  20604285.875 6 110103055.302 6     -1092.781          36.000    20604287.086 4  85635717.498 4      -849.947          26.000
R12  20460871.523 8 109298360.455 8      2836.090          51.000    20460873.844 7  85009829.093 7      2205.851          46.000
R17  22413423.352 7 119938711.123 7     -3482.008          45.000    22413424.109 6  93285672.643 6     -2708.228          41.000
C05  39784384.664 5 207167731.113 5       -17.125          35.000    39784383.211 6 160195220.979 6       -13.532          40.000
C21  22681308.148 8 118107514.063 8     -1565.809          51.000
C26  22601077.453 8 117689769.048 8      2252.379          51.000
E01                                                                  27074382.438 6 109017349.761 6      2363.849          39.000
E12  24677048.172 5 129678763.233 5     -2887.766          34.000    24677038.617 6  99364204.388 6     -2212.644          39.000
E19  24419254.188 8 128324053.173 8      -990.461          49.000    24419254.227 7  98326240.062 7      -758.913          46.000
E21  25414986.172 5 133556638.012 5      1390.207          35.000    25414989.086 6 102335607.542 6      1065.179          36.000
> 2020 05 10 01 10  0.0000000  0 15        .000000000000
G02  22388645.969 5 117653103.731 5      -157.641          34.000
G06  22020082.586 8 115716305.175 8     -2426.176          51.000    22020084.594 8  90168553.440 8     -1890.527          51.000
G07  20966284.109 8 110178560.422 8      1029.023          50.000    20966283.141 8  85853392.956 8       801.836          50.000
G09  20968151.367 7 110188485.221 7     -1600.438          46.000    20968151.602 7  85861136.429 7     -1247.094          46.000
G30  22165515.773 8 116480579.900 8      2957.316          51.000    22165516.203 8  90764101.322 8      2304.405          50.000
R11  20610493.852 6 110136225.822 6     -1118.902          40.000    20610494.508 4  85661513.858 4      -870.260          28.000
R12  20444999.742 8 109213577.688 8      2815.504          51.000    20445002.852 8  84943886.974 8      2189.839          48.000
R17  22432976.578 7 120043349.875 7     -3494.297          43.000    22432977.703 6  93367058.322 6     -2717.789          41.000
C05  39784481.688 5 207168235.272 5       -17.074          35.000    39784480.242 6 160195611.580 6       -13.067          40.000
C21  22690350.664 8 118154600.090 8     -1573.824          51.000
C26  22588135.250 8 117622375.366 8      2240.059          51.000
E01                                                                  27056778.578 6 108946454.285 6      2362.191          41.000
E12  24693542.195 5 129765440.389 5     -2892.344          32.000    24693534.516 6  99430623.962 6     -2215.810          40.000
E19  24424919.328 8 128353824.437 8      -994.844          48.000    24424919.594 7  98349051.806 7      -762.283          47.000
E21  25407085.164 5 133515115.965 5      1377.508          35.000    25407086.180 5 102303791.891 5      1055.424          33.000
> 2020 05 10 01 10 30.0000000  0 15        .000000000000
G06  22033982.180 8 115789347.402 8     -2441.242          51.000    22033984.195 8  90225469.437 8     -1902.267          51.000
G07  20960462.641 8 110147969.782 8      1012.344          49.000    20960462.156 8  85829556.084 8       788.839          49.000
G09  20977319.680 7 110236664.838 7     -1609.527          46.000    20977320.016 7  85898678.978 7     -1254.177          46.000
G30  22148670.070 7 116392056.916 7      2946.289          47.000    22148670.586 7  90695122.402 7      2295.810          47.000
R02  19616155.000 5 104675560.528 5       940.008          32.000    19616157.727 4  81414336.870 4       731.117          29.000
R11  20616857.938 5 110170226.972 5     -1145.512          34.000    20616858.125 4  85687964.093 4      -890.960          25.000
R12  20429254.055 8 109129467.151 8      2793.871          51.000    20429257.828 8  84878467.681 8      2173.011          49.000
R17  22452607.242 7 120148403.416 7     -3507.180          45.000    22452609.336 7  93448766.630 7     -2727.806          42.000
C05  39784585.859 6 207168777.732 6       -17.090          36.000    39784584.461 6 160196031.066 6       -13.293          40.000
C21  22699448.953 8 118201976.031 8     -1582.617          51.000
C26  22575273.469 8 117555401.434 8      2226.941          50.000
E01                                                                  27039195.281 6 108875646.062 6      2359.808          40.000
E12  24710061.891 5 129852261.416 5     -2896.891          32.000    24710064.586 6  99497179.881 6     -2219.680          40.000
E19  24430620.023 8 128383781.894 8     -1000.180          48.000    24430620.422 7  98372006.218 7      -766.333          47.000
E21  25399267.492 5 133474029.934 5      1363.660          35.000    25399266.117 5 102272310.230 5      1044.951          35.000
> 2020 05 10 01 11  0.0000000  0 16        .000000000000
G02  22390649.633 6 117663638.253 6      -191.484          36.000    22390639.875 5  91685931.461 5      -149.209          31.000
G06  22047952.805 8 115862763.606 8     -2454.336          51.000    22047955.711 8  90282676.861 8     -1912.470          51.000
G07  20954722.188 8 110117804.737 8       997.551          50.000    20954721.828 8  85806050.844 8       777.309          50.000
G09  20986526.648 7 110285046.990 7     -1616.863          46.000    20986527.148 7  85936379.364 7     -1259.893          45.000
G30  22131872.602 7 116303792.822 7      2936.691          46.000    22131874.195 7  90626345.169 7      2288.331          46.000
R02  19610913.086 5 104647528.427 5       930.484          35.000    19610903.117 5  81392519.647 5       723.710          34.000
R11  20623352.820 5 110204924.281 5     -1170.359          35.000
R12  20413616.000 8 109045931.222 8      2773.980          51.000    20413620.633 8  84813495.290 8      2157.540          50.000
R17  22472297.000 7 120253765.246 7     -3517.926          44.000    22472299.000 7  93530714.702 7     -2736.164          43.000
C05  39784678.250 6 207169259.686 6       -15.992          36.000    39784676.898 6 160196402.961 6       -12.321          40.000
C21  22708583.734 8 118249542.941 8     -1589.645          51.000
C26  22562473.359 8 117488750.115 8      2215.340          49.000
E01                                                                  27021614.125 6 108804850.173 6      2358.976          40.000
E12                                                                  24726609.266 6  99563794.090 6     -2222.162          40.000
E19  24436337.203 8 128413825.801 8     -1003.793          48.000    24436337.523 7  98395026.873 7      -769.128          47.000
E21                                                                  25391513.453 6 102241087.108 6      1035.894          38.000
> 2020 05 10 01 11 30.0000000  0 16        .000000000000
G02  22391804.109 6 117669703.108 6      -210.770          36.000
G06  22062012.914 8 115936650.020 8     -2470.066          51.000    22062016.820 8  90340250.708 8     -1924.727          51.000
G07  20949081.859 8 110088164.395 8       979.926          51.000    20949081.266 8  85782954.467 8       763.575          51.000
G09  20995790.578 7 110333729.554 7     -1627.102          45.000    20995791.414 7  85974313.845 7     -1267.871          44.000
G30  22115144.242 8 116215888.339 8      2924.613          48.000    22115146.773 7  90557848.133 7      2278.919          47.000
R02  19605727.602 5 104619808.571 5       918.527          34.000    19605710.320 5  81370959.792 5       714.407          35.000
R11  20630010.312 6 110240479.014 6     -1198.250          37.000
R12  20398104.805 8 108963073.639 8      2751.199          50.000    20398110.031 8  84749050.489 8      2139.822          50.000
R17  22492063.359 7 120359531.602 7     -3531.641          43.000    22492064.633 7  93612977.362 7     -2746.835          43.000
C05  39784777.641 5 207169777.003 5       -17.023          35.000    39784776.227 6 160196802.995 6       -13.393          40.000
C21  22717773.930 8 118297398.700 8     -1599.383          51.000
C26  22549754.367 8 117422520.998 8      2201.164          50.000
E01  27004048.602 5 141907242.572 5      3074.371          34.000    27004053.852 6 108734143.898 6      2355.876          38.000
E12  24743181.555 5 130026296.413 5     -2906.520          32.000    24743186.406 6  99630540.712 6     -2226.705          40.000
E19  24442089.672 8 128444054.839 8     -1010.070          48.000    24442089.766 7  98418189.378 7      -774.040          46.000
E21  25383836.898 5 133392960.425 5      1336.891          35.000    25383842.992 6 102210199.097 6      1024.760          38.000
> 2020 05 10 01 12  0.0000000  0 14        .000000000000
G02  22393056.727 5 117676293.666 5      -229.438          35.000
G06  22076153.500 8 116010959.573 8     -2484.949          51.000    22076158.398 8  90398154.282 8     -1936.324          51.000
G07  20943533.438 8 110059005.388 8       963.117          51.000    20943532.531 8  85760233.146 8       750.481          51.000
G09  21005103.008 7 110382667.236 7     -1636.336          46.000    21005104.156 7  86012447.120 7     -1275.067          46.000
G30  22098477.109 8 116128300.938 8      2913.266          49.000    22098480.219 8  90489598.223 8      2270.077          49.000
R12  20382712.695 8 108880853.055 8      2729.094          50.000    20382718.148 8  84685101.142 8      2122.628          50.000
R17  22511895.992 7 120465652.358 7     -3544.234          44.000    22511896.586 7  93695515.732 7     -2756.624          42.000
C05  39784875.445 5 207170286.605 5       -17.531          35.000    39784874.109 6 160197197.069 6       -13.744          40.000
C21  22727010.930 8 118345499.259 8     -1608.312          51.000
C26  22537108.477 8 117356671.781 8      2187.738          51.000
E01  26986502.203 6 141815039.429 6      3071.105          37.000    26986507.148 6 108663494.720 6      2353.532          37.000
E12  24759779.289 5 130113517.709 5     -2911.203          31.000    24759787.039 6  99697384.140 6     -2230.480          39.000
E19  24447868.883 8 128474424.476 8     -1015.723          48.000    24447868.664 7  98441459.600 7      -778.185          46.000
E21  25376241.133 6 133353043.076 6      1322.891          38.000    25376245.273 6 102179613.013 6      1013.808          36.000
> 2020 05 10 01 12 30.0000000  0 14        .000000000000
G06  22090382.258 8 116085732.033 8     -2497.621          50.000    22090387.430 8  90456418.548 8     -1946.198          50.000
G07  20938084.664 8 110030370.264 8       948.414          51.000    20938083.461 8  85737920.078 8       739.027          51.000
G09  21014472.062 7 110431901.489 7     -1643.555          46.000    21014473.062 7  86050811.489 7     -1280.692          47.000
G30  22081879.008 8 116041075.014 8      2904.273          50.000    22081882.383 8  90421629.976 8      2263.070          49.000
R11  20643762.258 6 110313995.210 6     -1249.457          37.000
R12  20367448.492 8 108799315.942 8      2709.062          50.000    20367453.977 8  84621683.402 8      2107.052          49.000
R17  22531801.133 7 120572166.194 7     -3554.293          44.000    22531801.344 7  93778359.806 7     -2764.453          42.000
C05  39784979.773 5 207170829.610 5       -16.488          35.000    39784978.562 6 160197617.684 6       -12.448          40.000
C21  22736303.055 8 118393886.539 8     -1615.133          51.000
C26  22524544.320 8 117291246.119 8      2176.348          51.000
E01  26968979.758 6 141722955.224 6      3070.035          39.000    26968981.844 5 108592936.735 5      2352.092          35.000
E12                                                                  24776419.180 6  99764355.244 6     -2232.497          38.000
E19  24453682.914 7 128504976.991 7     -1018.883          47.000    24453682.422 7  98464869.980 7      -780.816          45.000
E21  25368728.094 6 133313563.377 6      1311.246          38.000    25368730.789 6 102149362.303 6      1004.784          39.000
> 2020 05 10 01 13  0.0000000  0 14        .000000000000
G06  22104683.320 8 116160883.790 8     -2513.086          50.000    22104687.555 8  90514978.339 8     -1958.249          50.000
G07  20932720.156 8 110002177.755 8       930.676          51.000    20932718.570 8  85715951.895 8       725.202          51.000
G09  21023882.102 7 110481350.449 7     -1653.527          46.000    21023882.961 7  86089343.160 7     -1288.460          46.000
G30  22065334.625 8 115954131.553 8      2891.703          49.000    22065337.969 8  90353881.837 8      2253.278          49.000
R12  20352297.781 8 108718383.538 8      2685.934          51.000    20352302.492 8  84558735.982 8      2089.062          48.000
R17  22551763.312 7 120678985.812 7     -3567.578          44.000    22551763.023 7  93861441.687 7     -2774.786          42.000
C05  39785075.336 5 207171327.643 5       -17.324          35.000    39785074.227 6 160198002.829 6       -13.662          40.000
C21  22745634.922 8 118442480.313 8     -1624.871          51.000
C26  22512046.547 8 117226165.458 8      2161.965          51.000
E01  26951464.938 6 141630910.943 6      3065.738          41.000    26951463.648 5 108522409.342 5      2348.659          35.000
E04  24446222.062 5 128465768.324 5      1350.285          33.000
E12  24793058.516 5 130288402.166 5     -2919.945          32.000    24793066.914 6  99831390.402 6     -2236.825          37.000
E19  24459516.375 7 128535631.255 7     -1025.168          47.000    24459515.609 7  98488358.312 7      -785.599          45.000
E21  25361283.906 6 133274441.604 6      1296.254          37.000    25361286.461 6 102119385.860 6       993.245          40.000
> 2020 05 10 01 13 30.0000000  0 15        .000000000000
G06  22119067.805 8 116236474.045 8     -2526.141          50.000    22119070.703 8  90573879.796 8     -1968.424          50.000
G07  20927451.758 8 109974490.739 8       915.336          51.000    20927450.000 8  85694377.605 8       713.249          51.000
G09  21033344.609 7 110531075.062 7     -1661.176          46.000    21033345.359 7  86128089.608 7     -1294.423          46.000
G30  22048855.797 8 115867534.308 8      2881.633          48.000    22048858.844 8  90286403.480 8      2245.428          48.000
R11  20658088.289 5 110390559.867 5     -1301.785          33.000    20658090.219 5  85859335.247 5     -1012.503          30.000
R12  20337272.742 8 108638122.067 8      2664.988          51.000    20337276.914 8  84496310.422 8      2072.769          48.000
R17  22571793.539 7 120786169.338 7     -3578.016          43.000    22571792.969 6  93944806.649 6     -2782.898          41.000
C05  39785174.070 5 207171841.070 5       -16.789          35.000    39785172.836 6 160198399.825 6       -12.834          40.000
C21  22755017.867 8 118491341.780 8     -1632.348          51.000
C26  22499627.258 8 117161492.731 8      2149.750          51.000
E01  26933969.977 7 141538970.446 7      3063.859          42.000    26933967.609 6 108451961.460 6      2347.507          37.000
E04  24438521.234 5 128425295.173 5      1347.555          31.000
E12  24809735.734 5 130376036.926 5     -2922.223          32.000    24809741.188 5  99898535.349 5     -2239.372          34.000
E19  24465381.000 7 128566449.326 7     -1029.047          46.000    24465380.008 7  98511972.149 7      -788.446          44.000
E21  25353919.812 6 133235740.643 6      1283.938          38.000    25353921.625 6 102089731.854 6       983.695          38.000
> 2020 05 10 01 14  0.0000000  0 15        .000000000000
G06  22133530.094 8 116312474.184 8     -2540.832          49.000    22133532.688 8  90633100.636 8     -1979.869          49.000
G07  20922274.398 8 109947283.758 8       898.180          51.000    20922272.750 8  85673177.386 8       699.880          51.000
G09  21042854.219 7 110581048.522 7     -1670.668          46.000    21042854.805 7  86167029.967 7     -1301.819          46.000
G30  22032437.766 7 115781259.363 7      2869.703          47.000    22032440.000 7  90219176.248 7      2236.132          47.000
R11  20665475.469 6 110430016.295 6     -1328.980          36.000    20665477.453 5  85890023.503 5     -1033.651          33.000
R12  20322369.539 8 108558508.680 8      2642.176          51.000    20322372.969 8  84434388.907 8      2055.029          48.000
R17  22591885.062 6 120893685.819 6     -3590.219          40.000    22591885.344 6  94028430.597 6     -2792.392          40.000
C05  39785270.648 5 207172344.178 5       -17.301          35.000    39785269.461 6 160198788.870 6       -13.435          40.000
C21  22764447.461 8 118540445.220 8     -1641.473          51.000
C26  22487281.758 8 117097203.958 8      2135.848          51.000
E01  26916490.031 7 141447109.870 7      3059.855          43.000    26916488.289 6 108381574.834 6      2344.556          39.000
E04  24430841.836 5 128384940.578 5      1341.957          33.000
E12  24826436.234 5 130463794.228 5     -2927.910          33.000    24826437.055 5  99965774.701 5     -2243.098          32.000
E19  24471271.836 7 128597405.292 7     -1034.906          46.000    24471270.625 7  98535691.654 7      -792.995          44.000
E21  25346630.844 6 133197435.861 6      1269.473          39.000    25346631.555 6 102060381.344 6       972.725          38.000
> 2020 05 10 01 14 30.0000000  0 17        .000000000000
G06  22148072.945 8 116388898.229 8     -2553.371          48.000    22148075.945 8  90692651.814 8     -1989.640          49.000
G07  20917191.672 8 109920573.734 8       883.152          51.000    20917189.797 8  85652364.390 8       688.171          51.000
G09  21052414.125 7 110631286.646 7     -1678.102          44.000    21052414.539 7  86206176.565 7     -1307.615          44.000
G30  22016084.492 8 115695325.290 8      2859.801          48.000    22016085.352 8  90152214.635 8      2228.416          48.000
R01  21732590.039 5 116173117.833 5     -2618.191          33.000
R02  19575801.336 5 104460212.382 5       855.199          35.000    19575800.719 5  81246839.314 5       665.155          31.000
R11  20673005.961 6 110470256.307 6     -1353.695          36.000    20673007.148 5  85921321.367 5     -1052.874          33.000
R12  20307591.594 8 108479563.826 8      2621.477          51.000    20307594.359 8  84372987.391 8      2038.929          48.000
R17  22612039.320 6 121001547.711 6     -3600.273          38.000    22612041.398 6  94112323.154 6     -2800.216          40.000
C05  39785368.461 5 207172853.552 5       -16.035          35.000    39785367.328 6 160199182.754 6       -12.581          39.000
C21  22773927.312 8 118589807.075 8     -1648.652          51.000
C26  22475013.305 8 117033317.322 8      2123.895          51.000
E01  26899028.945 7 141355347.940 7      3058.105          45.000    26899028.234 7 108311263.739 7      2343.269          42.000
E04  24423188.539 5 128344721.487 5      1339.523          31.000    24423190.055 5  98342053.153 5      1026.071          35.000
E12  24843160.930 5 130551685.409 5     -2930.203          35.000    24843157.930 4 100033101.654 4     -2245.095          29.000
E19  24477191.812 7 128628515.628 7     -1038.457          46.000    24477190.648 7  98559529.458 7      -795.833          44.000
E21  25339420.539 6 133159545.036 6      1257.281          39.000    25339422.312 6 102031348.122 6       963.291          39.000
> 2020 05 10 01 15  0.0000000  0 18        .000000000000
G02  22402707.406 6 117726975.781 6      -331.582          36.000    22402699.992 4  91735310.942 4      -258.376          28.000
G06  22162688.375 8 116465702.689 8     -2565.117          49.000    22162691.016 8  90752499.435 8     -1998.793          49.000
G07  20912195.664 8 109894319.905 8       868.793          51.000    20912193.703 8  85631906.881 8       676.982          51.000
G09  21062016.539 7 110681747.711 7     -1684.477          44.000    21062017.336 7  86245496.853 7     -1312.579          44.000
G30  21999789.320 8 115609693.045 8      2850.785          50.000    21999789.266 8  90085488.232 8      2221.394          50.000
R01  21747302.812 4 116251762.129 4     -2624.562          29.000
R02  19571024.250 6 104434720.311 6       846.055          37.000    19571023.156 5  81227012.144 5       658.043          33.000
R11  20680676.508 6 110511237.034 6     -1376.566          36.000    20680676.383 5  85953195.187 5     -1070.666          34.000
R12  20292931.703 8 108401249.344 8      2601.289          51.000    20292933.570 7  84312076.141 7      2023.225          47.000
R17  22632249.812 6 121109708.636 6     -3608.938          40.000    22632252.930 6  94196448.321 6     -2806.951          39.000
C05  39785459.719 5 207173328.768 5       -14.020          35.000    39785458.586 6 160199550.208 6       -10.820          40.000
C21  22783448.984 8 118639386.931 8     -1654.910          51.000
C26  22462814.531 8 116969794.052 8      2112.637          51.000
E01  26881578.914 7 141263645.818 7      3057.258          43.000    26881579.195 7 108240998.506 7      2342.350          43.000
E04                                                                  24415553.617 5  98311307.089 5      1024.616          35.000
E12  24859901.539 5 130639647.808 5     -2932.398          33.000
E19  24483133.383 7 128659739.579 7     -1041.336          45.000    24483132.375 7  98583454.297 7      -797.946          44.000
E21  25332281.711 6 133122028.532 6      1245.848          39.000    25332281.898 5 102002601.704 5       954.368          35.000
> 2020 05 10 01 15 30.0000000  0 17        .000000000000
G02  22404666.125 5 117737226.010 5      -350.656          32.000
