     3.02           OBSERVATION DATA    M (MIXED)           RINEX VERSION / TYPE
SAVERINEX           SC600               20200502 125930 LCL PGM / RUN BY / DATE
       G = GPS       R = GLONASS       C = COMPASS          COMMENT
       S = SBAS      J = QZSS          E = GALILEO          COMMENT
BEAN                                                        MARKER NAME
1                                                           MARKER NUMBER
GEODETIC                                                    MARKER TYPE
Unige DICCA         GTER                                    OBSERVER / AGENCY
SC60291900056       SC600               2.12(191226)        REC # / TYPE / VERS
                    HEMA45          NONE                    ANT # / TYPE
  4509407.8091   693652.4678  4442337.6214                  APPROX POSITION XYZ
        0.0000        0.0000        0.0000                  ANTENNA: DELTA H/E/N
G    8 C1C L1C D1C S1C C2Y L2Y D2Y S2Y                      SYS / # / OBS TYPES
R    8 C1C L1C D1C S1C C2P L2P D2P S2P                      SYS / # / OBS TYPES
C    4 C1I L1I D1I S1I                                      SYS / # / OBS TYPES
E    8 C1C L1C D1C S1C C7Q L7Q D7Q S7Q                      SYS / # / OBS TYPES
DBHZ                                                        COMMENT
     30.000                                                 INTERVAL
  2020    05    02    10    00    0.0000000     GPS         TIME OF FIRST OBS
  2020    05    02    10    59   30.0000000     GPS         TIME OF LAST OBS
     0                                                      RCV CLOCK OFFS APPL
G L1C  0.00000                                              SYS / PHASE SHIFT
G L2Y  0.00000                                              SYS / PHASE SHIFT
R L1C  0.00000                                              SYS / PHASE SHIFT
R L2P  0.25000                                              SYS / PHASE SHIFT
C L1I  0.00000                                              SYS / PHASE SHIFT
E L1C  0.50000                                              SYS / PHASE SHIFT
E L7Q -0.25000                                              SYS / PHASE SHIFT
 15 R03  5 R04  6 R05  1 R06 -4 R07  5 R10 -5 R12 -1 R13 -2 GLONASS SLOT / FRQ #
    R14 -7 R15  0 R16 -1 R17  4 R18 -3 R19  3 R23  3        GLONASS SLOT / FRQ #
 C1C   71.950 C2C   71.950 C2P   71.950                     GLONASS COD/PHS/BIS
    18                                                      LEAP SECONDS
*** Above antenna height is from mark to ANTENNA BOTTOM.    COMMENT
    17     4        0.0000        ANT MEASURE TYPE/HEIGT    COMMENT
    0.0000    0.0000    0.0458    0.0405    0.0000          COMMENT
                    BASE STATION                            COMMENT
                                                            END OF HEADER
> 2020 05 02 10 00  0.0000000  0 12        .000000000000
G12  20232998.203 8 106325119.098 8      -862.180          51.000    20232997.242 8  82850743.752 8      -671.828          51.000
G24  21619183.961 8 113609550.273 8     -2591.148          50.000    21619186.812 8  88526933.569 8     -2019.077          50.000
G25  20469822.562 5 107569634.154 5      1129.383          31.000
G29  22714925.211 7 119367714.769 7      3410.574          45.000    22714924.328 7  93013821.485 7      2657.590          46.000
R06  23119771.805 6 123371518.364 6     -3563.262          36.000
R18  19852342.516 8 105973179.262 8      1602.117          50.000    19852346.773 8  82423610.967 8      1246.091          49.000
C27  23641415.711 8 123107140.463 8      3033.754          49.000
C28  22146940.078 8 115324943.778 8       279.672          51.000
E07  27187157.648 6 142869498.119 6     -2916.238          38.000
E15  25611979.055 8 134591828.968 8      2846.125          49.000    25611981.805 8 103128838.199 8      2180.734          51.000
E27                                                                  23890298.516 5  96196332.077 5       847.188          31.000
E30  22888031.281 8 120277411.216 8     -1137.891          48.000    22888035.477 6  92160625.650 6      -871.884          40.000
> 2020 05 02 10 00 30.0000000  0 14        .000000000000
G02  23159304.758 5 121702967.119 5      1155.410          32.000
G12  20237941.438 8 106351096.450 8      -869.316          51.000    20237940.656 8  82870985.828 8      -677.389          51.000
G24  21633997.680 8 113687395.664 8     -2598.422          50.000    21634000.172 8  88587592.300 8     -2024.744          50.000
G25  20463404.031 5 107535886.916 5      1121.641          33.000    20463398.461 4  83794191.177 4       874.000          28.000
G29  22695470.242 7 119265477.007 7      3405.641          45.000    22695468.797 7  92934155.716 7      2653.746          46.000
G32  22139127.289 5 116341885.699 5       206.738          35.000
R06  23139817.969 6 123478484.286 6     -3567.211          36.000
R18  19843402.711 8 105925459.507 8      1579.480          51.000    19843407.242 8  82386495.602 8      1228.485          48.000
C27  23623952.062 8 123016198.561 8      3029.309          49.000
C28  22145368.031 8 115316758.501 8       266.469          51.000
E07  27203797.383 6 142956947.708 6     -2913.457          37.000
E15  25595738.508 8 134506487.358 8      2843.707          50.000    25595742.508 8 103063446.615 8      2178.983          51.000
E27                                                                  23883988.055 5  96170918.717 5       847.179          33.000
E30  22894530.844 8 120311566.414 8     -1138.785          48.000    22894534.273 6  92186796.442 6      -872.420          37.000
> 2020 05 02 10 01  0.0000000  0 15        .000000000000
G02  23152776.539 5 121668655.655 5      1136.293          32.000
G12  20242965.070 8 106377496.706 8      -885.215          51.000    20242964.242 8  82891557.432 8      -689.781          51.000
G24  21648892.289 8 113765666.259 8     -2614.324          49.000    21648895.164 8  88648582.347 8     -2037.139          50.000
G25  20457064.414 5 107502598.499 5      1106.832          31.000    20457068.438 5  83768226.562 5       862.476          31.000
G29  22676083.297 7 119163598.515 7      3391.758          46.000    22676081.836 7  92854769.908 7      2642.931          46.000
G32  22138029.727 5 116336131.199 5       182.590          35.000
R06  23159928.102 5 123585795.689 5     -3581.160          35.000
R15  21532999.945 5 115065799.583 5     -2537.133          30.000
R18  19834630.172 8 105878631.273 8      1547.887          51.000    19834634.867 7  82350073.713 7      1203.915          47.000
C27  23606552.969 8 122925594.301 8      3016.312          48.000
C28  22143911.391 8 115309173.742 8       244.637          51.000
E07  27220462.992 5 143044534.015 5     -2919.781          35.000
E15  25579551.008 8 134421424.058 8      2832.562          50.000    25579555.883 8 102998268.260 8      2170.453          51.000
E27                                                                  23877719.125 5  96145673.916 5       839.807          32.000
E30  22901074.578 8 120345954.181 8     -1148.363          48.000    22901076.156 6  92213145.539 6      -880.025          37.000
> 2020 05 02 10 01 30.0000000  0 16        .000000000000
G02  23146327.250 6 121634759.773 6      1122.820          37.000
G12  20248040.953 8 106404171.240 8      -893.961          51.000    20248040.070 8  82912342.776 8      -696.593          51.000
G24  21663839.352 8 113844212.696 8     -2622.973          50.000    21663842.461 8  88709787.350 8     -2043.875          50.000
G25  20450777.258 5 107469554.910 5      1096.566          34.000    20450782.586 5  83742478.403 5       854.464          33.000
G29  22656736.789 7 119061933.472 7      3385.098          46.000    22656735.672 7  92775550.438 7      2637.738          46.000
R06  23180073.422 5 123693296.966 5     -3586.855          35.000
R15  21547263.836 5 115142010.505 5     -2543.938          33.000    21547275.273 4  89554943.681 4     -1978.624          27.000
R16  19512907.258 6 104234454.383 6       468.473          37.000    19512905.977 4  81071229.014 4       364.368          26.000
R17  21117996.688 4 113006690.111 4     -2496.742          28.000
R18  19825997.016 8 105832545.801 8      1523.641          51.000    19826000.852 7  82314229.522 7      1185.057          46.000
C27  23589190.336 8 122835183.029 8      3010.234          48.000
C28  22142542.016 8 115302042.795 8       229.953          51.000
E07  27237126.203 5 143132106.946 5     -2919.027          34.000
E15  25563388.750 8 134336492.958 8      2828.660          50.000    25563394.453 8 102933191.234 8      2167.385          51.000
E27                                                                  23871462.180 5  96120485.384 5       838.362          32.000
E30  22907634.281 8 120380426.418 8     -1150.664          48.000    22907635.484 6  92239559.292 6      -881.615          37.000
> 2020 05 02 10 02  0.0000000  0 14        .000000000000
G02  23139965.742 5 121601341.202 5      1105.105          31.000
G12  20253181.766 8 106431186.549 8      -906.770          51.000    20253180.961 8  82933393.672 8      -706.574          51.000
G24  21678851.383 8 113923100.894 8     -2635.852          50.000    21678855.062 8  88771258.658 8     -2053.910          50.000
G29  22637443.859 7 118960551.342 7      3374.031          47.000    22637443.734 7  92696551.420 7      2629.115          46.000
R06  23200265.836 5 123801052.861 5     -3597.590          31.000
R15  21561578.055 5 115218493.434 5     -2554.789          34.000    21561591.500 4  89614471.318 4     -1987.064          25.000
R16  19510316.305 5 104220621.176 5       454.129          31.000    19510317.195 4  81060469.831 4       353.208          27.000
R18  19817516.055 8 105787273.697 8      1494.852          51.000    19817519.812 8  82279017.952 8      1162.662          49.000
C27  23571877.984 8 122745033.430 8      3000.031          49.000
C28  22141272.422 8 115295432.272 8       211.125          51.000
E07  27253799.938 5 143219684.958 5     -2922.598          33.000
E15  25547265.180 8 134251763.321 8      2820.320          51.000    25547271.227 8 102868268.587 8      2161.105          51.000
E27                                                                  23865233.297 5  96095404.948 5       833.635          33.000
E30  22914223.008 8 120415050.499 8     -1157.273          49.000    22914225.570 6  92266089.314 6      -886.538          38.000
> 2020 05 02 10 02 30.0000000  0 13        .000000000000
G12  20258387.984 8 106458544.959 8      -916.898          51.000    20258387.180 8  82954711.931 8      -714.463          51.000
G24  21693928.688 8 114002332.508 8     -2645.996          50.000    21693933.055 8  88832997.573 8     -2061.815          50.000
G29  22618205.742 7 118859457.592 7      3365.898          47.000    22618207.383 7  92617777.093 7      2622.778          47.000
R06  23220505.523 5 123909069.550 5     -3603.285          32.000
R15  21575941.195 5 115295251.349 5     -2562.281          35.000
R16  19507800.641 5 104207183.717 5       442.199          34.000    19507799.562 4  81050017.080 4       343.939          26.000
R18  19809188.531 8 105742820.175 8      1469.047          51.000    19809192.469 8  82244443.047 8      1142.595          50.000
C27  23554617.289 8 122655150.789 8      2992.418          50.000
C28  22140103.172 8 115289345.358 8       194.992          51.000
E07  27270484.422 5 143307362.207 5     -2922.680          33.000    27270485.336 5 109806941.749 5     -2239.300          32.000
E15  25531181.258 8 134167240.443 8      2814.848          51.000    25531187.000 8 102803504.357 8      2156.831          51.000
E27  23859040.477 5 125380116.570 5      1085.258          32.000    23859033.633 5  96070435.359 5       831.070          35.000
E30  22920841.398 8 120449829.712 8     -1160.930          49.000    22920843.992 6  92292738.351 6      -889.609          38.000
> 2020 05 02 10 03  0.0000000  0 14        .000000000000
G12  20263665.523 8 106486278.044 8      -924.289          51.000    20263664.625 8  82976322.123 8      -720.225          51.000
G24  21709077.297 8 114081938.551 8     -2653.426          50.000    21709082.062 8  88895028.232 8     -2067.605          51.000
G25  20432315.086 6 107372561.330 6      1065.441          36.000    20432328.930 5  83666933.626 5       830.220          34.000
G29  22599029.453 8 118758686.908 8      3360.039          48.000    22599032.516 8  92539254.481 8      2618.212          48.000
R06  23240799.266 5 124017359.492 5     -3607.934          34.000
R16  19505365.055 5 104194175.810 5       432.910          34.000    19505365.234 4  81039899.279 4       336.708          28.000
R17  21160605.445 5 113234655.787 5     -2559.344          32.000
R18  19801020.570 8 105699220.155 8      1445.543          51.000    19801024.797 8  82210531.933 8      1124.314          50.000
C27  23537414.094 8 122565569.300 8      2987.215          49.000
C28  22139040.766 8 115283814.196 8       181.363          51.000
E07  27287185.844 5 143395124.374 5     -2920.438          34.000    27287185.195 5 109874187.999 5     -2237.301          32.000
E15  25515142.727 8 134082958.722 8      2811.750          50.000    25515148.578 8 102738924.903 8      2154.452          51.000
E27                                                                  23852867.586 5  96045601.699 5       830.645          35.000
E30  22927495.516 8 120484796.652 8     -1162.301          48.000    22927497.703 6  92319531.157 6      -890.636          41.000
> 2020 05 02 10 03 30.0000000  0 16        .000000000000
G02  23121406.875 6 121503786.608 6      1061.992          36.000
G12  20268992.211 8 106514269.886 8      -938.652          51.000    20268991.438 8  82998133.954 8      -731.417          51.000
G24  21724275.242 8 114161802.887 8     -2667.789          51.000    21724279.969 8  88957260.154 8     -2078.797          51.000
G25  20426286.070 5 107340859.923 5      1051.613          34.000    20426287.969 5  83642251.553 5       819.445          33.000
G29  22579893.461 8 118658126.129 8      3347.281          49.000    22579897.008 8  92460895.440 8      2608.271          49.000
R06  23261123.781 6 124125809.470 6     -3618.785          36.000
R15  21604821.930 6 115449581.701 6     -2579.797          38.000
R16  19502988.406 5 104181481.709 5       416.398          34.000    19502990.633 5  81030026.114 5       323.862          30.000
R17  21175031.133 5 113311853.750 5     -2584.574          35.000
R18  19792990.867 8 105656358.454 8      1415.012          51.000    19792995.211 8  82177195.055 8      1100.565          50.000
C27  23520246.906 8 122476176.933 8      2975.340          50.000
C28  22138063.336 8 115278724.592 8       160.926          51.000
E07  27303881.602 5 143482864.337 5     -2924.863          34.000    27303881.047 5 109941408.828 5     -2241.464          34.000
E15  25499128.398 8 133998805.102 8      2801.629          49.000    25499134.539 8 102674443.578 8      2146.736          51.000
E27                                                                  23846712.211 5  96020827.944 5       824.288          33.000
E30  22934163.297 8 120519836.168 8     -1170.438          49.000    22934166.148 7  92346379.601 7      -896.880          42.000
> 2020 05 02 10 04  0.0000000  0 15        .000000000000
G02  23115370.906 6 121472057.946 6      1046.398          36.000
G12  20274361.992 8 106542488.808 8      -950.152          51.000    20274361.430 8  83020122.723 8      -740.381          51.000
G24  21739516.469 8 114241893.784 8     -2679.230          51.000    21739520.477 8  89019668.615 8     -2087.715          51.000
G29  22560792.305 8 118557746.556 8      3337.176          50.000    22560795.352 8  92382677.621 8      2600.400          51.000
G32  22133786.742 5 116313818.439 5        63.582          34.000
R06  23281471.445 6 124234383.453 6     -3626.922          36.000
R16  19500664.836 5 104169071.254 5       402.809          32.000    19500667.438 5  81020373.597 5       313.296          32.000
R17  21189555.266 5 113389596.114 5     -2606.230          31.000    21189563.328 4  88191945.304 4     -2027.074          24.000
R18  19785093.609 8 105614205.496 8      1387.410          49.000    19785098.719 8  82144409.455 8      1079.100          50.000
C27  23503110.289 8 122386945.018 8      2966.035          50.000
C28  22137164.914 8 115274045.717 8       143.426          51.000
E07  27320565.125 5 143570531.135 5     -2926.980          35.000    27320565.039 5 110008578.910 5     -2242.584          35.000
E15  25483132.156 7 133914750.532 7      2794.422          47.000    25483139.320 8 102610038.132 8      2141.255          51.000
E27                                                                  23840562.195 5  95996066.482 5       820.735          33.000
E30  22940839.062 8 120554917.353 8     -1175.711          48.000    22940843.391 7  92373259.964 7      -900.926          44.000
> 2020 05 02 10 04 30.0000000  0 13        .000000000000
G12  20279823.125 8 106571187.645 8      -965.312          51.000    20279822.398 8  83042485.451 8      -752.192          51.000
G24  21754848.672 8 114322462.590 8     -2694.168          51.000    21754851.164 8  89082449.490 8     -2099.352          51.000
G29  22541774.445 8 118457804.038 8      3323.344          51.000    22541776.195 8  92304800.374 8      2589.622          51.000
R06  23301888.641 5 124343334.574 5     -3638.770          35.000
R16  19498442.438 5 104157202.958 5       386.309          34.000    19498446.992 5  81011142.629 5       300.459          32.000
R18  19777377.781 8 105573020.499 8      1356.012          49.000    19777383.289 8  82112376.685 8      1054.676          49.000
C23  25117564.539 5 130793776.598 5     -2649.625          31.000
C27  23486053.461 8 122298126.705 8      2953.039          51.000
C28  22136393.727 8 115270028.601 8       122.266          51.000
E07  27337284.375 5 143658379.291 5     -2931.957          35.000    27337283.781 5 110075891.057 5     -2246.633          34.000
E15  25467203.656 7 133831050.437 7      2783.441          47.000    25467211.453 8 102545904.305 8      2132.731          50.000
E27                                                                  23834467.266 5  95971523.837 5       814.201          33.000
E30  22947571.180 8 120590293.716 8     -1184.797          48.000    22947576.195 7  92400366.513 7      -907.879          44.000
> 2020 05 02 10 05  0.0000000  0 14        .000000000000
G02  23103622.812 5 121410359.742 5      1016.234          35.000    23103621.031 4  94605465.186 4       791.871          26.000
G12  20285350.859 8 106600236.280 8      -970.910          51.000    20285349.781 8  83065120.731 8      -756.556          51.000
G24  21770246.891 8 114403379.880 8     -2699.941          50.000    21770248.078 8  89145501.904 8     -2103.850          49.000
G29  22522815.391 8 118358171.514 8      3319.172          51.000    22522815.898 8  92227164.679 8      2586.371          51.000
R06  23322351.078 5 124452527.039 5     -3640.109          35.000
R15  21648497.789 5 115683033.362 5     -2605.758          32.000    21648490.164 4  89975641.245 4     -2026.697          29.000
R16  19496298.109 5 104145747.515 5       377.996          33.000    19496303.023 5  81002232.848 5       294.000          33.000
R18  19769819.008 8 105532673.956 8      1334.102          48.000    19769824.938 8  82080996.041 8      1037.635          49.000
C27  23469052.344 8 122209596.275 8      2949.332          51.000
C28  22135724.898 8 115266545.418 8       110.406          51.000
E07  27354014.477 5 143746281.986 5     -2927.645          34.000    27354011.727 5 110143244.975 5     -2243.284          32.000
E15  25451319.242 8 133747577.880 8      2781.793          49.000    25451326.484 8 102481944.833 8      2131.543          49.000
E27                                                                  23828403.070 5  95947103.537 5       814.530          31.000
E30  22954334.828 8 120625836.397 8     -1184.324          49.000    22954339.547 7  92427600.479 7      -907.502          42.000
> 2020 05 02 10 05 30.0000000  0 12        .000000000000
G12  20290921.469 8 106629509.938 8      -983.457          51.000    20290920.266 8  83087931.371 8      -766.330          51.000
G24  21785686.797 7 114484519.814 7     -2712.289          47.000    21785688.070 7  89208727.809 7     -2113.472          47.000
G29  22503891.680 8 118258726.960 8      3307.762          50.000    22503891.156 8  92149675.468 8      2577.477          50.000
R06  23342835.086 6 124561830.708 6     -3649.129          36.000
R16  19494207.891 6 104134579.474 6       363.480          37.000    19494212.859 5  80993546.572 5       282.710          33.000
R18  19762394.242 7 105493042.094 7      1305.066          47.000    19762400.789 8  82050171.281 8      1015.049          48.000
C23  25148108.227 5 130952795.619 5     -2656.336          33.000
C27  23452083.398 8 122121232.861 8      2938.781          51.000
C28  22135134.914 8 115263473.141 8        91.672          51.000
E07  27370730.062 5 143834156.268 5     -2930.855          32.000    27370725.922 5 110210569.202 5     -2245.610          31.000
E15  25435455.719 8 133664210.787 8      2773.184          51.000    25435461.703 8 102418066.192 8      2124.901          49.000
E30  22961106.297 8 120661421.516 8     -1190.660          48.000    22961109.180 6  92454866.940 6      -912.599          41.000
> 2020 05 02 10 06  0.0000000  0 12        .000000000000
G12  20296561.922 8 106659150.886 8      -998.363          51.000    20296560.828 8  83111028.188 8      -777.945          51.000
G24  21801195.125 7 114566024.190 7     -2726.641          44.000    21801197.625 7  89272237.744 7     -2124.655          44.000
G29  22485031.016 8 118159615.780 8      3293.941          50.000    22485029.477 8  92072446.027 8      2566.708          50.000
R06  23363366.859 5 124671386.016 5     -3659.789          35.000
R16  19492199.086 6 104123845.847 6       346.109          37.000    19492203.852 5  80985198.195 5       269.196          33.000
R18  19755130.766 7 105454271.620 7      1273.750          47.000    19755137.656 7  82020016.477 7       990.694          47.000
C23  25163419.461 5 131032532.799 5     -2665.938          34.000
C27  23435173.961 8 122033180.255 8      2925.805          50.000
C28  22134650.977 8 115260953.342 8        70.648          51.000
E07  27387458.570 5 143922065.250 5     -2935.344          30.000
E15  25419640.070 8 133581094.226 8      2762.160          51.000    25419644.914 8 102354379.532 8      2116.460          50.000
E30  22967913.094 8 120697192.173 8     -1199.625          48.000    22967914.289 6  92482275.560 6      -919.133          41.000
> 2020 05 02 10 06 30.0000000  0 14        .000000000000
G12  20302274.750 8 106689172.331 8     -1001.609          51.000    20302273.789 8  83134421.522 8      -780.475          51.000
G24  21816775.383 7 114647905.579 7     -2730.031          44.000    21816779.516 7  89336041.418 7     -2127.297          44.000
G25  20391457.672 5 107157821.110 5       986.008          35.000    20391454.141 5  83499605.424 5       768.318          35.000
G29  22466236.766 8 118060853.993 8      3291.621          51.000    22466235.516 8  91995488.859 8      2564.903          51.000
R06  23383947.289 6 124781202.541 6     -3659.348          36.000
R15  21692601.508 5 115918672.933 5     -2630.109          33.000    21692607.891 5  90158994.728 5     -2045.638          31.000
R16  19490274.312 6 104113561.554 6       340.984          37.000    19490278.109 5  80977199.299 5       265.207          33.000
R17  21264106.609 5 113788468.064 5     -2709.223          31.000
R18  19748032.141 8 105416378.227 8      1254.012          50.000    19748038.695 7  81990543.838 7       975.342          46.000
C23  25178770.016 5 131112474.475 5     -2663.180          33.000
C27  23418326.789 8 121945454.232 8      2924.160          49.000
C28  22134275.617 8 115258999.615 8        61.074          51.000
E15  25403874.930 8 133498244.050 8      2762.523          51.000    25403879.164 8 102290897.002 8      2116.709          50.000
E30  22974757.914 7 120733162.298 7     -1197.004          45.000    22974759.086 7  92509837.049 7      -917.308          46.000
> 2020 05 02 10 07  0.0000000  0 14        .000000000000
G02  23081146.008 4 121292240.826 4       950.180          28.000
G12  20308034.969 8 106719442.372 8     -1017.523          51.000    20308034.172 8  83158008.549 8      -792.875          51.000
G24  21832403.398 7 114730031.881 7     -2745.957          45.000    21832407.789 7  89400035.909 7     -2139.710          45.000
G29  22447484.508 8 117962312.692 8      3276.602          51.000    22447484.875 8  91918703.473 8      2553.196          51.000
R06  23404550.562 5 124891142.982 5     -3670.285          34.000
R15  21707400.086 5 115997750.028 5     -2643.426          35.000
R16  19488408.781 6 104103595.050 6       321.875          38.000    19488411.922 5  80969447.561 5       250.347          32.000
R17  21279377.352 6 113870203.423 6     -2735.348          36.000    21279380.867 4  88565762.280 4     -2127.496          26.000
R18  19741073.719 8 105379230.670 8      1221.418          51.000    19741079.148 7  81961651.340 7       949.992          45.000
C23  25194132.453 4 131192490.416 4     -2672.461          26.000
C27  23401517.680 8 121857927.047 8      2909.848          49.000
C28  22133983.922 8 115257481.998 8        38.930          51.000
E15  25388135.812 8 133415531.272 8      2750.246          50.000    25388139.242 8 102227519.736 8      2107.466          50.000
E30  22981615.430 7 120769201.049 7     -1206.895          42.000    22981617.516 7  92537451.100 7      -924.772          47.000
> 2020 05 02 10 07 30.0000000  0 10        .000000000000
G12  20313818.258 8 106749833.428 8     -1024.512          51.000    20313817.617 8  83181689.903 8      -798.318          51.000
G24  21848054.344 8 114812274.954 8     -2752.785          49.000    21848058.461 8  89464121.359 8     -2145.027          49.000
G29  22428750.617 8 117863867.400 8      3270.422          51.000    22428752.367 8  91841992.886 8      2548.381          51.000
R16  19486578.422 6 104093818.723 6       313.129          36.000    19486581.102 5  80961843.765 5       243.542          32.000
R17  21294714.906 5 113952272.177 5     -2752.160          33.000    21294715.812 4  88629593.467 4     -2140.569          27.000
R18  19734231.359 8 105342701.549 8      1197.762          51.000    19734236.008 7  81933239.862 7       931.592          46.000
C27  23384723.203 8 121770475.130 8      2904.363          50.000
C28  22133751.820 8 115256274.706 8        25.656          51.000
E15  25372398.711 8 133332831.226 8      2747.023          49.000    25372401.789 8 102164152.204 8      2104.832          49.000
E30  22988464.453 7 120805196.813 7     -1208.031          42.000    22988464.922 8  92565020.717 8      -925.461          48.000
> 2020 05 02 10 08  0.0000000  0 10        .000000000000
G12  20319713.500 8 106780812.454 8     -1038.152          51.000    20319712.797 8  83205829.384 8      -808.950          51.000
G24  21863816.422 8 114895101.141 8     -2766.324          51.000    21863820.227 8  89528661.185 8     -2155.577          51.000
G29  22410124.656 8 117765987.687 8      3257.461          51.000    22410126.445 8  91765723.018 8      2538.281          51.000
R16  19484873.094 6 104084708.545 6       297.070          38.000    19484873.797 5  80954758.094 5       231.061          33.000
R17  21310219.938 5 114035230.305 5     -2775.934          31.000    21310220.836 4  88694116.553 4     -2159.056          26.000
R18  19727593.828 8 105307267.559 8      1167.246          51.000    19727598.023 7  81905680.167 7       907.861          47.000
C27  23368032.906 8 121683563.802 8      2892.242          51.000
C28  22133668.508 8 115255840.894 8         5.805          51.000
E15  25356752.797 7 133250613.407 7      2736.918          47.000    25356756.242 8 102101154.223 8      2097.068          49.000
E30  22995388.703 7 120841587.138 7     -1215.527          42.000    22995390.414 8  92592904.260 8      -931.393          48.000
> 2020 05 02 10 08 30.0000000  0 13        .000000000000
G12  20325684.664 8 106812190.741 8     -1066.328          51.000    20325683.977 8  83230279.985 8      -830.905          51.000
G24  21879653.414 8 114978320.607 8     -2794.211          51.000    21879656.234 8  89593507.513 8     -2177.307          51.000
G25  20369502.672 5 107042459.359 5       918.402          32.000
G29  22391571.258 8 117668487.416 8      3229.863          51.000    22391571.758 8  91689748.847 8      2516.780          51.000
G32  22135087.180 5 116320688.228 5      -134.184          33.000
R16  19483256.836 6 104076075.266 6       265.988          38.000    19483257.406 5  80948043.303 5       206.883          34.000
R17  21325855.008 5 114118882.756 5     -2814.324          32.000    21325867.297 4  88759195.747 4     -2188.922          26.000
R18  19721125.852 8 105272738.996 8      1121.828          51.000    19721129.453 8  81878824.633 8       872.533          48.000
C23  25240399.758 5 131433383.024 5     -2704.832          31.000
C27  23351411.398 8 121597008.648 8      2865.672          51.000
C28  22133698.031 8 115255993.888 8       -28.488          51.000
E15  25341162.984 7 133168691.690 7      2712.020          46.000    25341166.797 8 102038383.100 8      2078.056          50.000
E30                                                                  23002357.859 8  92620957.659 8      -948.472          49.000
> 2020 05 02 10 09  0.0000000  0 12        .000000000000
G12  20331715.344 8 106843882.030 8     -1055.371          51.000    20331714.805 8  83254974.478 8      -822.367          51.000
G24  21895548.719 8 115061847.530 8     -2783.051          51.000    21895550.398 8  89658593.414 8     -2168.611          51.000
G25  20364199.477 5 107014587.395 5       929.602          32.000    20364207.336 5  83388006.863 5       724.365          30.000
G29  22373074.445 8 117571283.765 8      3241.367          51.000    22373073.914 8  91614005.838 8      2525.747          51.000
R16  19481713.875 6 104067833.189 6       274.668          39.000    19481715.281 5  80941632.778 5       213.634          34.000
R17  21341600.930 5 114203138.931 5     -2812.785          34.000
R18  19714811.070 8 105239030.685 8      1116.312          51.000    19714814.852 8  81852607.077 8       868.243          48.000
C23  25255904.625 4 131514122.416 4     -2688.074          29.000
C27  23334842.383 8 121510727.346 8      2877.617          51.000
C28  22133823.906 8 115256649.064 8       -24.020          51.000
E15  25325613.008 7 133086982.896 7      2726.348          45.000    25325618.023 8 101975775.157 8      2088.963          50.000
E30                                                                  23009350.945 8  92649115.731 8      -935.586          49.000
> 2020 05 02 10 09 30.0000000  0 11        .000000000000
G12  20337746.055 8 106875574.223 8     -1104.684          50.000    20337745.844 8  83279669.683 8      -860.789          51.000
G24  21911442.555 8 115145368.808 8     -2832.199          50.000    21911443.547 8  89723674.913 8     -2206.908          50.000
G29  22354575.141 8 117474067.649 8      3192.445          51.000    22354574.641 8  91538253.100 8      2487.623          51.000
R16  19480185.117 6 104059666.923 6       221.891          40.000    19480187.305 5  80935281.234 5       172.582          35.000
R17  21357399.055 5 114287678.427 5     -2872.039          35.000
R18  19708590.781 8 105205827.918 8      1049.242          50.000    19708595.016 8  81826782.713 8       816.077          49.000
C23  25271376.180 4 131594697.469 4     -2730.789          29.000
C27  23318266.805 8 121424413.457 8      2829.672          51.000
C28  22133987.008 8 115257497.729 8       -79.316          51.000
E15  25310044.898 7 133005177.748 7      2680.219          43.000    25310051.289 8 101913093.354 8      2053.483          51.000
E30                                                                  23016310.820 8  92677140.077 8      -968.906          49.000
> 2020 05 02 10 10  0.0000000  0 14        .000000000000
G12  20343925.266 8 106908046.765 8     -1079.426          51.000    20343925.258 8  83304972.941 8      -841.111          51.000
G24  21927483.086 8 115229663.736 8     -2806.699          48.000    21927484.719 8  89789359.253 8     -2187.038          48.000
G25  20353761.812 5 106959719.947 5       903.957          31.000    20353762.984 5  83345242.964 5       704.388          30.000
G29  22336222.133 8 117377621.167 8      3218.090          51.000    22336222.125 8  91463100.046 8      2507.602          51.000
G32  22137586.516 5 116333783.379 5      -173.980          34.000
R15  21797252.633 5 116477873.196 5     -2692.641          35.000
R16  19478819.281 6 104052371.094 6       244.969          40.000    19478822.172 6  80929606.700 6       190.528          36.000
R17  21373396.719 5 114373291.986 5     -2855.738          33.000
R18  19702613.828 8 105173924.593 8      1058.156          49.000    19702618.445 8  81801968.998 8       823.010          49.000
C23  25286967.750 5 131675870.897 5     -2699.793          33.000
C27  23301833.367 8 121338842.138 8      2855.941          50.000
C28  22134335.453 8 115259312.851 8       -60.672          51.000
E15  25294606.227 7 132924058.573 7      2708.660          42.000    25294615.273 8 101850937.124 8      2075.416          51.000
E30  23023383.352 6 120988693.928 6     -1233.258          37.000    23023385.812 8  92705628.699 8      -945.036          49.000
> 2020 05 02 10 10 30.0000000  0 13        .000000000000
G12  20350111.445 8 106940555.908 8     -1088.828          51.000    20350111.531 8  83330304.714 8      -848.437          51.000
G24  21943528.297 7 115313986.811 7     -2815.773          45.000    21943531.555 7  89855065.544 7     -2194.109          45.000
G25  20348628.273 5 106932765.721 5       893.953          32.000    20348629.109 5  83324225.019 5       696.593          32.000
G29  22317874.305 8 117281203.116 8      3208.836          50.000    22317874.766 8  91387969.133 8      2500.392          50.000
G32  22138633.883 5 116339298.754 5      -193.102          34.000
R16  19477475.000 6 104045190.981 6       232.801          41.000    19477478.875 6  80924022.141 6       181.064          37.000
R17  21389452.188 5 114459218.894 5     -2874.465          33.000
R18  19696739.219 8 105142566.764 8      1031.418          51.000    19696744.172 8  81777579.594 8       802.214          49.000
C23  25302532.523 5 131756910.469 5     -2703.727          31.000
C27  23285401.742 8 121253278.611 8      2847.422          50.000
C28  22134728.156 8 115261357.299 8       -76.484          51.000
E15  25279158.258 7 132842883.783 7      2702.102          46.000    25279169.070 8 101788738.263 8      2070.489          51.000
E30  23030433.023 7 121025736.390 7     -1236.934          42.000    23030434.797 8  92734011.944 8      -947.849          50.000
> 2020 05 02 10 11  0.0000000  0 15        .000000000000
G02  23040493.227 5 121078604.074 5       825.738          31.000
G06  23474451.844 6 123359082.402 6      -441.527          38.000    23474454.375 6  96123958.098 6      -344.044          37.000
G12  20356364.141 8 106973414.336 8     -1102.098          50.000    20356364.188 8  83355908.672 8      -858.777          50.000
G24  21959638.648 7 115398651.221 7     -2828.809          46.000    21959643.062 7  89921037.814 7     -2204.269          46.000
G29  22299591.812 8 117185129.798 8      3195.762          49.000    22299592.797 8  91313106.829 8      2490.204          49.000
G32  22139800.594 5 116345427.652 5      -214.957          35.000
R15  21827588.906 6 116639978.242 6     -2711.301          38.000
R16  19476212.562 6 104038447.013 6       216.805          41.000    19476216.531 6  80918776.851 6       168.626          38.000
R17  21405626.703 5 114545774.809 5     -2896.852          33.000
R18  19691027.188 8 105112074.946 8      1000.957          51.000    19691032.016 8  81753863.760 8       778.522          49.000
C23  25318132.258 5 131838126.992 5     -2711.672          33.000
C27  23269031.820 8 121168036.129 8      2835.059          48.000
C28  22135224.656 8 115263942.072 8       -96.047          51.000
E15  25263761.398 8 132761969.457 8      2691.824          48.000    25263772.156 8 101726738.978 8      2062.585          51.000
E30  23037515.961 7 121062955.705 7     -1244.641          43.000    23037517.359 8  92762530.543 8      -953.659          49.000
> 2020 05 02 10 11 30.0000000  0 13        .000000000000
G02  23035815.820 6 121054009.123 6       811.477          36.000
G06  23477012.195 6 123372541.274 6      -458.438          37.000    23477017.664 6  96134445.544 6      -357.221          37.000
G12  20362670.414 8 107006553.488 8     -1110.137          51.000    20362670.320 8  83381731.390 8      -865.042          51.000
G24  21975801.492 8 115483587.209 8     -2836.598          49.000    21975805.453 8  89987221.593 8     -2210.339          50.000
G29  22281362.297 8 117089334.945 8      3187.707          49.000    22281363.742 8  91238461.517 8      2483.928          49.000
G32  22141070.852 4 116352120.168 4      -232.352          29.000
R15  21842812.359 4 116721359.188 4     -2716.688          26.000
R16  19475018.688 6 104032070.953 6       205.293          41.000    19475022.812 6  80913817.700 6       159.672          38.000
R18  19685464.844 8 105082380.502 8       975.672          51.000    19685469.039 8  81730768.085 8       758.856          48.000
C27  23252710.906 8 121083048.908 8      2827.754          48.000
C28  22135811.539 8 115266999.030 8      -110.570          51.000
E15  25248402.305 8 132681249.033 8      2686.609          50.000    25248411.914 8 101664888.319 8      2058.544          51.000
E30  23044619.352 7 121100283.243 7     -1246.887          43.000    23044620.422 8  92791132.228 8      -955.407          49.000
> 2020 05 02 10 12  0.0000000  0 12        .000000000000
G02  23031237.094 5 121029951.686 5       793.168          31.000
G06  23479695.617 6 123386641.745 6      -480.117          38.000    23479702.211 6  96145432.927 6      -374.114          38.000
G12  20369047.594 8 107040065.159 8     -1122.566          51.000    20369047.398 8  83407844.383 8      -874.727          51.000
G24  21992034.078 8 115568886.596 8     -2848.680          51.000    21992037.906 8  90053688.546 8     -2219.753          51.000
G25  20333636.648 5 106853970.857 5       857.961          35.000    20333636.914 5  83262842.079 5       668.541          31.000
G29  22263204.047 8 116993913.847 8      3175.070          48.000    22263205.391 8  91164107.461 8      2474.084          48.000
R16  19473911.578 6 104026158.711 6       189.977          41.000    19473915.945 6  80909219.285 6       147.760          38.000
R18  19680069.578 8 105053579.423 8       945.754          51.000    19680073.648 8  81708367.272 8       735.586          49.000
C27  23236457.133 8 120998411.206 8      2816.074          48.000
C28  22136506.961 8 115270620.106 8      -129.555          51.000
E15  25233098.531 8 132600817.710 8      2676.852          51.000    25233106.547 8 101603259.155 8      2051.100          51.000
E30  23051760.812 6 121137812.587 6     -1253.652          40.000    23051761.836 8  92819888.443 8      -960.567          48.000
> 2020 05 02 10 12 30.0000000  0 13        .000000000000
G02  23026751.562 5 121006383.080 5       777.688          32.000
G06  23482490.828 5 123401334.052 5      -499.605          34.000    23482498.281 5  96156881.491 5      -389.306          34.000
G12  20375486.023 8 107073898.889 8     -1133.051          51.000    20375485.633 8  83434208.324 8      -882.897          51.000
G24  22008326.180 8 115654498.268 8     -2858.746          51.000    22008330.320 8  90120398.879 8     -2227.597          51.000
G25  20328771.844 6 106828415.078 6       846.062          36.000    20328773.734 6  83242930.773 6       659.269          36.000
G29  22245107.891 8 116898818.156 8      3164.523          49.000    22245108.391 8  91090007.000 8      2465.865          49.000
R15  21873447.945 6 116885087.281 6     -2736.629          36.000
R16  19472882.453 7 104020660.950 7       176.395          42.000    19472886.586 6  80904943.269 6       137.196          39.000
R18  19674832.484 8 105025622.400 8       918.000          51.000    19674836.750 8  81686622.937 8       714.000          48.000
C27  23220261.445 8 120914075.755 8      2806.246          49.000
C28  22137301.328 8 115274755.784 8      -146.348          51.000
E15  25217840.273 8 132520627.776 8      2669.117          50.000    25217847.000 8 101541814.963 8      2045.138          51.000
E30  23058930.555 6 121175494.065 6     -1258.453          40.000    23058931.992 8  92848761.260 8      -964.299          48.000
> 2020 05 02 10 13  0.0000000  0 15        .000000000000
G02  23022363.367 5 120983318.658 5       762.738          33.000
G06  23485401.352 5 123416631.907 5      -517.844          34.000    23485410.109 5  96168801.858 5      -403.512          34.000
G12  20381988.180 8 107108067.923 8     -1142.148          51.000    20381987.531 8  83460833.543 8      -889.986          51.000
G24  22024679.797 8 115740434.235 8     -2867.449          51.000    22024683.914 8  90187361.941 8     -2234.379          51.000
G25  20323975.703 5 106803222.186 5       836.102          31.000    20323979.797 4  83223282.751 4       651.511          28.000
G29  22227076.828 8 116804064.003 8      3155.250          49.000    22227076.516 8  91016172.671 8      2458.639          49.000
G32  22145584.469 5 116375832.081 5      -292.938          32.000    22145589.812 5  90682474.609 5      -228.272          33.000
R15  21888838.477 6 116967336.573 6     -2743.934          37.000
R16  19471933.906 7 104015592.986 7       164.195          43.000    19471937.352 6  80901001.525 6       127.707          38.000
R17  21471435.664 5 114897981.654 5     -2972.680          32.000
R18  19669756.117 8 104998524.228 8       891.445          51.000    19669760.125 8  81665546.585 8       693.346          48.000
C27  23204126.805 8 120830058.088 8      2797.633          49.000
C28  22138196.719 8 115279419.187 8      -161.820          51.000
E15  25202629.742 8 132440694.886 8      2662.375          50.000    25202636.016 8 101480567.721 8      2040.038          51.000
E30  23066132.406 6 121213341.485 6     -1262.082          41.000    23066134.125 8  92877761.235 8      -967.044          49.000
> 2020 05 02 10 13 30.0000000  0 14        .000000000000
G06  23488417.750 6 123432485.566 6      -539.898          36.000    23488428.539 5  96181155.347 5      -420.700          31.000
G12  20388544.680 8 107142522.278 8     -1155.508          51.000    20388543.859 8  83487681.087 8      -900.396          51.000
G24  22041085.125 8 115826644.374 8     -2880.383          50.000    22041089.148 8  90254538.647 8     -2244.454          49.000
G29  22209101.898 8 116709604.204 8      3141.434          50.000    22209101.805 8  90942567.717 8      2447.873          50.000
G32  22147316.227 5 116384923.952 5      -315.152          31.000    22147321.070 5  90689559.191 5      -245.576          30.000
R15  21904271.562 5 117049812.711 5     -2755.406          32.000    21904283.984 4  91038773.936 4     -2143.103          26.000
R16  19471056.641 7 104010905.578 7       147.426          44.000    19471059.773 6  80897355.772 6       114.668          39.000
R17  21488162.898 5 114987484.283 5     -2995.457          32.000
R18  19664831.523 8 104972236.266 8       860.480          51.000    19664835.711 8  81645100.419 8       669.266          49.000
C23  25396542.469 5 132246507.076 5     -2736.180          30.000
C27  23188043.773 8 120746311.373 8      2784.902          49.000
C28  22139184.156 8 115284561.209 8      -181.652          51.000
E15  25187458.438 8 132360971.762 8      2651.766          50.000    25187464.680 8 101419481.214 8      2031.765          51.000
E30  23073356.453 7 121251305.737 7     -1269.809          42.000    23073358.531 8  92906850.778 8      -972.874          48.000
> 2020 05 02 10 14  0.0000000  0 14        .000000000000
G06  23491538.117 4 123448865.571 4      -556.789          28.000    23491548.805 4  96193965.963 4      -433.868          24.000
G12  20395152.930 8 107177248.399 8     -1163.141          51.000    20395152.055 8  83514740.398 8      -906.343          51.000
G24  22057539.500 8 115913114.354 8     -2887.570          48.000    22057543.500 8  90321917.804 8     -2250.055          48.000
G29  22191181.203 8 116615428.495 8      3133.332          51.000    22191181.758 8  90869184.076 8      2441.557          51.000
R15  21919754.875 5 117132478.696 5     -2760.707          33.000
R16  19470248.406 7 104006587.185 7       136.789          44.000    19470251.125 6  80893997.028 6       106.391          39.000
R17  21504988.383 4 115077518.925 4     -3010.695          27.000
R18  19660056.609 8 104946746.397 8       835.258          51.000    19660060.633 8  81625274.988 8       649.648          48.000
R19  21666001.555 6 115898496.930 6      4142.668          38.000    21666004.750 6  90143283.961 6      3222.078          41.000
C23  25412308.156 5 132328520.638 5     -2738.109          31.000
C27  23172010.719 8 120662824.969 8      2777.473          49.000
C28  22140260.805 8 115290168.797 8      -195.664          51.000
E15  25172325.078 8 132281447.610 8      2646.516          51.000    25172331.383 8 101358547.173 8      2027.793          50.000
E30  23080600.586 7 121289374.353 7     -1271.680          43.000    23080602.414 7  92936020.265 7      -974.470          47.000
> 2020 05 02 10 14 30.0000000  0 14        .000000000000
G06  23494780.242 6 123465902.670 6      -577.469          38.000    23494790.008 5  96207241.469 5      -449.970          30.000
G12  20401831.227 8 107212342.770 8     -1175.078          51.000    20401830.344 8  83542086.653 8      -915.645          51.000
G24  22074061.430 7 115999940.313 7     -2899.266          47.000    22074065.391 7  90389574.363 7     -2259.171          47.000
G25  20309963.961 5 106729571.448 5       801.172          34.000    20309962.828 5  83165892.152 5       624.305          32.000
G29  22173333.297 8 116521635.794 8      3120.902          49.000    22173334.367 8  90796098.880 8      2431.875          49.000
R15  21935283.094 5 117215480.650 5     -2770.785          35.000    21935290.531 5  91167629.439 5     -2155.058          30.000
R16  19469527.984 7 104002737.958 7       121.406          44.000    19469530.617 6  80891003.198 6        94.430          40.000
R18  19655449.781 8 104922154.523 8       805.727          51.000    19655453.539 8  81606148.013 8       626.676          48.000
R19  21642811.758 6 115774448.914 6      4129.039          39.000    21642813.617 6  90046802.283 6      3211.478          39.000
C23  25428103.359 5 132410815.651 5     -2744.867          30.000
C27  23156046.242 8 120579697.330 8      2765.914          48.000
C28  22141445.500 8 115296338.053 8      -214.121          51.000
E15  25157249.102 8 132202221.797 8      2636.766          51.000    25157254.703 8 101297841.755 8      2020.394          49.000
E30  23087883.297 7 121327644.829 7     -1278.215          42.000    23087885.219 7  92965344.390 7      -979.360          47.000
> 2020 05 02 10 15  0.0000000  0 14        .000000000000
G02  23005703.062 5 120895822.268 5       696.910          31.000
G06  23498124.219 5 123483473.797 5      -596.688          31.000
G12  20408559.242 8 107247698.667 8     -1184.586          51.000    20408558.461 8  83569636.697 8      -923.054          51.000
G24  22090630.531 7 116087014.737 7     -2908.324          47.000    22090634.477 7  90457424.566 7     -2266.227          47.000
G25  20305419.344 5 106705698.396 5       789.496          33.000    20305419.438 6  83147277.405 6       615.195          36.000
G29  22155538.305 8 116428122.704 8      3110.730          50.000    22155539.664 8  90723231.545 8      2423.946          50.000
R16  19468875.219 7 103999251.606 7       108.539          44.000    19468878.430 6  80888291.608 6        84.419          40.000
R17  21538969.766 4 115259358.107 4     -3050.254          29.000    21538969.258 4  89646175.826 4     -2372.420          27.000
R18  19650991.312 8 104898353.827 8       778.438          51.000    19650994.789 7  81587636.379 7       605.451          47.000
R19  21619680.625 6 115650714.886 6      4117.566          38.000    21619680.867 6  89950564.819 6      3202.558          39.000
C27  23140131.273 8 120496825.422 8      2756.527          50.000
C28  22142717.953 8 115302963.519 8      -230.145          51.000
E15  25142210.477 8 132123190.310 8      2629.332          51.000    25142213.781 7 101237285.293 7      2014.668          46.000
E30  23095183.391 6 121366011.248 6     -1282.297          41.000    23095186.453 7  92994742.061 7      -982.572          47.000
> 2020 05 02 10 15 30.0000000  0 12        .000000000000
G02  23001774.594 5 120875122.191 5       673.316          33.000
G12  20415354.008 8 107283405.401 8     -1201.941          51.000    20415353.344 8  83597460.120 8      -936.581          51.000
G24  22107263.727 8 116174426.117 8     -2925.324          48.000    22107267.812 8  90525537.349 8     -2279.473          48.000
G29  22137813.781 8 116334980.719 8      3092.754          50.000    22137814.828 8  90650653.377 8      2409.938          50.000
R16  19468307.711 7 103996220.363 7        87.641          43.000    19468311.234 6  80885933.968 6        68.165          41.000
R18  19646698.078 8 104875436.764 8       743.254          51.000    19646701.570 7  81569812.035 7       578.089          47.000
R19  21596624.820 6 115527390.252 6      4098.020          36.000    21596626.828 6  89854645.752 6      3187.349          41.000
C27  23124283.312 8 120414300.165 8      2739.199          51.000
C28  22144094.883 8 115310133.795 8      -253.820          51.000
E15  25127226.352 8 132044444.974 8      2614.254          51.000    25127226.500 7 101176948.073 7      2003.130          46.000
E27  23706855.305 5 124580366.131 5       957.824          32.000
E30  23102519.391 6 121404563.743 6     -1294.102          41.000    23102522.977 7  93024282.280 7      -991.453          46.000
> 2020 05 02 10 16  0.0000000  0 12        .000000000000
G06  23505158.898 4 123520438.846 4      -634.566          29.000
G12  20422207.562 8 107319420.918 8     -1204.250          51.000    20422206.867 8  83625524.155 8      -938.374          51.000
G24  22123953.547 8 116262131.953 8     -2927.141          48.000    22123957.469 8  90593879.561 8     -2280.889          48.000
G25  20296537.367 6 106659021.791 6       767.336          37.000    20296536.430 5  83110931.775 5       597.924          34.000
G29  22120152.156 8 116242170.734 8      3089.461          49.000    22120152.672 8  90578333.936 8      2407.375          49.000
R16  19467818.039 7 103993603.520 7        81.777          44.000    19467821.594 6  80883898.660 6        63.608          41.000
R18  19642562.727 8 104853361.899 8       723.125          51.000    19642565.953 7  81552642.725 7       562.431          47.000
R19  21573639.180 6 115404437.594 6      4093.582          37.000    21573643.094 7  89759015.936 7      3183.897          43.000
C27  23108494.945 8 120332082.707 8      2736.770          51.000
C28  22145568.727 8 115317807.650 8      -262.816          51.000
E15  25112288.938 8 131965946.542 8      2613.785          51.000    25112288.391 8 101116800.017 8      2002.720          48.000
E30  23109883.500 6 121443261.200 6     -1291.215          40.000    23109887.477 7  93053933.612 7      -989.411          46.000
> 2020 05 02 10 16 30.0000000  0 14        .000000000000
G12  20429140.125 8 107355851.508 8     -1211.453          51.000    20429139.375 8  83653911.625 8      -943.989          51.000
G24  22140720.062 8 116350237.577 8     -2933.609          49.000    22140724.227 8  90662533.263 8     -2285.932          49.000
G25  20292214.875 5 106636305.717 5       758.992          31.000    20292211.961 4  83093228.463 4       591.413          29.000
G29  22102574.219 8 116149801.852 8      3081.371          48.000    22102574.094 8  90506358.206 8      2401.068          48.000
G32  22160062.578 5 116451915.734 5      -426.348          31.000
R15  21997898.727 5 117550125.365 5     -2800.051          35.000    21997903.273 5  91427869.311 5     -2177.811          30.000
R16  19467426.406 7 103991511.235 7        70.973          44.000    19467430.078 6  80882271.329 6        55.201          41.000
R18  19638605.453 8 104832239.133 8       698.242          51.000    19638609.031 7  81536213.956 7       543.080          47.000
R19  21550744.930 6 115281969.622 6      4084.152          37.000    21550749.297 7  89663763.103 7      3176.563          43.000
C23  25491556.922 6 132741203.415 6     -2757.914          36.000
C27  23092786.336 8 120250280.911 8      2729.523          51.000
C28  22147159.500 8 115326090.512 8      -276.418          51.000
E15  25097418.531 8 131887803.847 8      2608.676          50.000    25097419.477 8 101056924.506 8      1998.879          50.000
E30  23117295.719 6 121482210.787 6     -1292.586          38.000    23117299.836 7  93083778.091 7      -990.432          45.000
> 2020 05 02 10 17  0.0000000  0 12        .000000000000
G12  20436116.273 8 107392511.405 8     -1224.879          51.000    20436115.531 8  83682477.777 8      -954.451          51.000
G24  22157527.336 8 116438556.611 8     -2946.578          50.000    22157531.008 8  90731353.240 8     -2296.035          50.000
G29  22085045.859 8 116057691.100 8      3066.965          49.000    22085044.562 8  90434583.622 8      2389.846          49.000
R15  22013667.133 5 117634414.159 5     -2811.555          35.000    22013671.266 4  91493427.236 4     -2186.768          27.000
R16  19467097.883 7 103989756.737 7        53.820          44.000    19467101.172 6  80880906.723 6        41.860          41.000
R18  19634791.586 8 104811881.006 8       666.883          51.000    19634795.258 7  81520379.894 7       518.687          47.000
R19  21527906.953 6 115159802.897 6      4068.453          36.000    21527911.469 7  89568744.533 7      3164.352          43.000
C23  25507487.906 5 132824176.115 5     -2766.406          35.000
C27  23077122.375 8 120168713.567 8      2715.973          51.000
C28  22148831.773 8 115334798.746 8      -296.383          51.000
E15  25082580.414 8 131809834.052 8      2597.094          49.000    25082583.273 8 100997181.444 8      1989.966          51.000
E30  23124720.992 6 121521227.819 6     -1300.840          41.000    23124724.492 7  93113674.290 7      -996.625          44.000
> 2020 05 02 10 17 30.0000000  0 13        .000000000000
G12  20443141.148 8 107429427.618 8     -1234.859          51.000    20443140.469 8  83711243.662 8      -962.228          51.000
G24  22174379.906 8 116527115.892 8     -2955.988          49.000    22174382.805 8  90800360.369 8     -2303.371          49.000
G29  22067572.898 8 115965868.069 8      3055.945          51.000    22067570.734 8  90363033.278 8      2381.259          51.000
G32  22165204.414 6 116478925.503 6      -467.938          36.000    22165203.336 6  90762802.712 6      -364.630          36.000
R15  22029484.594 5 117718886.154 5     -2819.773          33.000
R16  19466837.836 7 103988368.912 7        39.996          44.000    19466840.789 6  80879827.308 6        31.108          41.000
R18  19631126.242 8 104792316.374 8       638.855          51.000    19631130.070 8  81505162.991 8       496.891          48.000
R19  21505131.555 5 115037969.450 5      4055.602          35.000    21505135.656 6  89473985.194 6      3154.360          41.000
C23  25523437.438 6 132907236.769 6     -2770.328          37.000
C27  23061508.453 8 120087409.932 8      2705.590          49.000
C28  22150591.109 8 115343959.162 8      -312.945          51.000
E15  25067780.227 7 131732066.629 7      2588.832          47.000    25067785.336 8 100937593.411 8      1983.588          51.000
E30  23132163.742 6 121560339.896 6     -1305.473          37.000    23132167.375 7  93143643.351 7     -1000.297          42.000
> 2020 05 02 10 18  0.0000000  0 15        .000000000000
G12  20450225.695 8 107466657.412 8     -1246.074          51.000    20450224.961 8  83740253.907 8      -970.967          51.000
G24  22191288.539 8 116615971.045 8     -2966.609          50.000    22191290.469 8  90869598.044 8     -2311.647          50.000
G25  20279569.594 5 106569857.520 5       721.211          31.000    20279569.336 5  83041446.185 5       561.970          31.000
G29  22050166.336 8 115874392.940 8      3043.617          51.000    22050164.305 8  90291754.015 8      2371.653          51.000
G32  22167939.250 5 116493291.174 5      -488.301          33.000    22167940.391 5  90773996.718 5      -380.503          31.000
R07  22628238.945 5 121130729.013 5     -1738.410          34.000
R15  22045336.750 5 117803635.406 5     -2829.000          34.000
R16  19466657.953 7 103987408.503 7        25.062          45.000    19466660.742 7  80879080.326 7        19.490          42.000
R18  19627620.711 8 104773604.877 8       609.680          50.000    19627624.656 8  81490609.612 8       474.198          48.000
R19  21482430.375 6 114916532.620 6      4041.500          36.000    21482433.734 6  89379534.353 6      3143.389          39.000
C23  25539414.930 5 132990442.555 5     -2775.977          34.000
C27  23045956.023 7 120006429.450 7      2694.086          47.000
C28  22152448.008 8 115353628.743 8      -330.645          51.000
E15  25053030.281 8 131654561.543 8      2579.395          48.000    25053037.219 8 100878206.399 8      1976.347          51.000
E30  23139634.750 6 121599605.503 6     -1311.137          37.000    23139639.172 6  93173729.957 6     -1004.628          40.000
> 2020 05 02 10 18 30.0000000  0 13        .000000000000
G12  20457370.938 8 107504206.150 8     -1256.375          51.000    20457370.023 8  83769512.667 8      -978.994          51.000
G24  22208254.648 8 116705127.530 8     -2976.520          51.000    22208255.781 8  90939070.570 8     -2319.369          51.000
G29  22032827.477 8 115783274.266 8      3031.871          51.000    22032826.312 8  90220752.505 8      2362.500          51.000
G32  22170787.180 5 116508274.006 5      -508.824          31.000    22170789.164 4  90785655.926 4      -396.508          27.000
R15  22061247.039 6 117888649.737 6     -2837.820          38.000    22061256.625 4  91691174.875 4     -2207.200          29.000
R16  19466559.344 7 103986882.558 7        10.711          45.000    19466562.383 7  80878671.247 7         8.331          42.000
R18  19624276.305 8 104755753.304 8       581.184          49.000    19624280.141 8  81476725.055 8       452.032          49.000
R19  21459805.711 6 114795502.922 6      4028.156          37.000    21459807.820 6  89285400.231 6      3133.013          39.000
C23  25555421.688 5 133073799.181 5     -2780.324          32.000
C27  23030466.883 7 119925780.229 7      2683.188          47.000
C28  22154404.070 8 115363813.195 8      -347.566          51.000
E15  25038332.883 8 131577326.998 8      2570.473          49.000    25038340.430 8 100819026.694 8      1969.568          51.000
E30  23147137.539 6 121639030.688 6     -1316.465          37.000    23147141.516 6  93203938.977 6     -1008.594          39.000
> 2020 05 02 10 19  0.0000000  0 13        .000000000000
