     3.02           OBSERVATION DATA    M (MIXED)           RINEX VERSION / TYPE
SAVERINEX           SC600               20200506 035931 LCL PGM / RUN BY / DATE
       G = GPS       R = GLONASS       C = COMPASS          COMMENT
       S = SBAS      J = QZSS          E = GALILEO          COMMENT
BEAN                                                        MARKER NAME
1                                                           MARKER NUMBER
GEODETIC                                                    MARKER TYPE
Unige DICCA         GTER                                    OBSERVER / AGENCY
SC60291900056       SC600               2.12(191226)        REC # / TYPE / VERS
                    HEMA45          NONE                    ANT # / TYPE
  4509407.8091   693652.4678  4442337.6214                  APPROX POSITION XYZ
        0.0000        0.0000        0.0000                  ANTENNA: DELTA H/E/N
G    8 C1C L1C D1C S1C C2Y L2Y D2Y S2Y                      SYS / # / OBS TYPES
R    8 C1C L1C D1C S1C C2P L2P D2P S2P                      SYS / # / OBS TYPES
C    8 C1I L1I D1I S1I C7I L7I D7I S7I                      SYS / # / OBS TYPES
E    8 C1C L1C D1C S1C C7Q L7Q D7Q S7Q                      SYS / # / OBS TYPES
DBHZ                                                        COMMENT
     30.000                                                 INTERVAL
  2020    05    06    01    00    0.0000000     GPS         TIME OF FIRST OBS
  2020    05    06    01    59   30.0000000     GPS         TIME OF LAST OBS
     0                                                      RCV CLOCK OFFS APPL
G L1C  0.00000                                              SYS / PHASE SHIFT
G L2Y  0.00000                                              SYS / PHASE SHIFT
R L1C  0.00000                                              SYS / PHASE SHIFT
R L2P  0.25000                                              SYS / PHASE SHIFT
C L1I  0.00000                                              SYS / PHASE SHIFT
C L7I  0.00000                                              SYS / PHASE SHIFT
E L1C  0.50000                                              SYS / PHASE SHIFT
E L7Q -0.25000                                              SYS / PHASE SHIFT
 14 R02 -4 R03  5 R04  6 R05  1 R06 -4 R10 -5 R13 -2 R14 -7 GLONASS SLOT / FRQ #
    R15  0 R16 -1 R18 -3 R19  3 R20  2 R21  4               GLONASS SLOT / FRQ #
 C1C   71.950 C2C   71.950 C2P   71.950                     GLONASS COD/PHS/BIS
    18                                                      LEAP SECONDS
*** Above antenna height is from mark to ANTENNA BOTTOM.    COMMENT
    17     4        0.0000        ANT MEASURE TYPE/HEIGT    COMMENT
    0.0000    0.0000    0.0458    0.0405    0.0000          COMMENT
                    BASE STATION                            COMMENT
                                                            END OF HEADER
> 2020 05 06 01 00  0.0000000  0 16        .000000000000
G06  21413173.938 8 112526983.610 8     -1536.691          51.000    21413175.844 8  87683371.727 8     -1197.422          51.000
G07  21399221.781 8 112453656.089 8      1846.176          50.000    21399220.633 8  87626208.059 8      1438.579          50.000
G09  20563636.688 8 108062720.002 8     -1101.746          51.000    20563637.352 8  84204708.317 8      -858.506          51.000
G30  23131172.711 6 121555085.520 6      3417.445          36.000    23131172.430 5  94718263.629 5      2662.944          35.000
R05  20519520.336 6 109688638.354 6     -1745.383          37.000    20519523.312 5  85313353.656 5     -1357.520          34.000
R14  23125992.422 4 123274534.833 4     -3313.555          29.000
R16  21467390.727 8 114674929.958 8      3843.742          48.000    21467394.117 6  89191648.542 6      2989.580          36.000
R21  21590491.258 5 115535032.808 5     -2485.195          35.000
C05  39772012.477 5 207103305.739 5       -21.078          35.000    39772009.820 6 160145402.963 6       -16.257          38.000
C20  21921506.625 8 114151030.110 8        76.105          51.000
C23  24518668.133 5 127675164.557 5     -1721.508          30.000
C29  25655006.703 7 133592316.044 7     -2740.090          44.000
E04  25047613.102 5 131626097.038 5     -1682.000          31.000
E09  21656012.133 6 113803098.302 6       432.590          40.000    21656011.211 6  87199781.267 6       331.492          40.000
E31  26393672.469 8 138699679.896 8      2688.941          49.000    26393673.711 8 106276401.395 8      2060.388          49.000
E36  24947964.727 7 131102441.347 7     -1691.730          42.000    24947966.969 7 100455123.376 7     -1296.258          46.000
> 2020 05 06 01 00 30.0000000  0 16        .000000000000
G06  21421995.461 8 112573339.889 8     -1556.637          51.000    21421997.211 8  87719493.491 8     -1212.964          51.000
G07  21388720.633 8 112398470.275 8      1829.863          50.000    21388719.250 8  87583206.128 8      1425.867          50.000
G09  20569952.195 8 108095908.554 8     -1113.938          51.000    20569953.117 8  84230569.524 8      -868.003          51.000
G30  23111681.242 5 121452655.467 5      3408.961          34.000    23111681.617 5  94638448.003 5      2656.333          33.000
R05  20529338.719 6 109741117.865 6     -1756.219          36.000    20529343.445 6  85354171.068 6     -1365.945          36.000
R14  23144683.188 5 123374156.715 5     -3330.977          30.000
R15  20475638.203 6 109415495.188 6        52.820          37.000    20475629.562 5  85100974.520 5        41.073          35.000
R16  21445838.164 7 114559800.578 7      3828.492          45.000    21445840.766 6  89102103.618 6      2977.722          38.000
C05  39772129.883 5 207103916.911 5       -21.957          35.000    39772127.148 6 160145875.562 6       -17.263          37.000
C20  21921089.672 8 114148860.146 8        65.656          51.000
C23  24528616.906 4 127727003.165 4     -1736.770          29.000
C29  25670800.086 7 133674555.585 7     -2745.562          43.000
E04  25057221.203 6 131676594.054 6     -1686.938          36.000    25057234.555 5 100895091.856 5     -1293.133          32.000
E09  21653553.688 6 113790180.855 6       425.770          41.000    21653553.453 6  87189883.505 6       326.134          41.000
E31  26378335.445 8 138619082.337 8      2681.230          49.000    26378337.422 8 106214644.857 8      2054.560          50.000
E36  24957654.461 7 131153364.272 7     -1705.840          43.000    24957657.742 7 100494142.232 7     -1307.138          46.000
> 2020 05 06 01 01  0.0000000  0 18        .000000000000
G02  22471263.477 5 118087285.574 5       733.410          34.000
G06  21430890.328 8 112620082.331 8     -1575.309          51.000    21430892.312 8  87755916.156 8     -1227.513          51.000
G07  21378271.742 8 112343560.497 8      1814.848          50.000    21378270.016 8  87540419.292 8      1414.167          49.000
G09  20576295.766 8 108129245.085 8     -1124.422          51.000    20576296.969 8  84256546.026 8      -876.173          51.000
G30  23092196.016 6 121350266.933 6      3401.547          36.000    23092199.977 6  94558664.688 6      2650.553          36.000
R05  20539176.555 5 109793705.121 5     -1765.754          34.000    20539181.203 6  85395072.337 6     -1373.364          36.000
R14  23163433.008 4 123474090.919 4     -3347.500          29.000    23163434.398 4  96035440.967 4     -2603.614          27.000
R15  20475366.641 6 109414104.298 6        24.527          39.000    20475370.891 6  85099897.246 6        19.071          38.000
R16  21424330.266 7 114444912.959 7      3814.461          42.000    21424333.414 7  89012746.649 7      2966.806          42.000
R21  21618540.492 5 115685206.200 5     -2529.230          35.000    21618559.930 4  89977444.273 4     -1967.179          25.000
C05  39772215.555 5 207104362.981 5       -22.793          35.000    39772212.820 6 160146219.475 6       -17.613          38.000
C20  21920692.172 8 114146790.333 8        56.605          51.000
C23  24538617.305 4 127779033.070 4     -1751.508          29.000
C29  25686585.664 7 133756752.855 7     -2749.988          42.000
E04  25066813.766 5 131727023.540 5     -1690.555          35.000    25066837.016 5 100933732.475 5     -1295.567          31.000
E09  21651095.562 7 113777263.160 7       419.840          42.000    21651095.336 6  87179985.524 6       321.645          41.000
E31  26363002.547 8 138538505.575 8      2674.711          51.000    26363004.227 8 106152904.231 8      2049.535          50.000
E36  24967383.906 7 131204494.795 7     -1718.566          43.000    24967387.914 7 100533320.168 7     -1316.770          47.000
> 2020 05 06 01 01 30.0000000  0 16        .000000000000
G06  21439944.055 8 112667660.339 8     -1587.516          51.000    21439946.461 8  87792989.930 8     -1237.025          51.000
G07  21367961.125 8 112289378.579 8      1806.355          49.000    21367959.414 8  87498199.630 8      1407.553          49.000
G09  20582753.117 8 108163179.682 8     -1128.809          51.000    20582754.586 8  84282988.557 8      -879.594          51.000
G30  23072803.375 6 121248373.368 6      3400.703          38.000    23072810.781 6  94479267.035 6      2649.895          37.000
R05  20549119.547 6 109846858.819 6     -1768.660          38.000    20549124.578 6  85436414.083 6     -1375.622          36.000
R15  20475322.172 5 109413828.382 5         3.215          31.000    20475316.672 6  85099682.503 6         2.494          37.000
R16  21402953.344 6 114330730.422 6      3806.691          37.000    21402958.703 7  88923937.998 7      2960.757          44.000
R21  21632784.633 5 115761441.577 5     -2543.590          34.000
C05                                                                  39772352.594 6 160146782.334 6       -13.022          38.000
C20  21920399.922 8 114145268.221 8        53.855          51.000
C23  24548754.164 4 127831804.780 4     -1760.770          28.000
C29  25702448.547 6 133839352.283 6     -2747.609          41.000
E04  25076485.305 6 131777814.620 6     -1687.973          36.000
E09  21648723.727 7 113764796.271 7       420.324          43.000    21648722.898 7  87170432.914 7       322.240          42.000
E31  26347759.953 8 138458402.784 8      2674.516          50.000    26347761.164 8 106091526.750 8      2049.397          51.000
E36  24977238.664 7 131256282.577 7     -1724.746          44.000    24977242.578 7 100573001.747 7     -1321.580          46.000
> 2020 05 06 01 02  0.0000000  0 16        .000000000000
G02  22463086.688 5 118044323.234 5       695.160          33.000
G04  22652056.320 6 119037331.284 6     -2713.945          37.000
G06  21449083.695 8 112715691.238 8     -1614.934          49.000    21449086.719 8  87830416.619 8     -1258.390          49.000
G07  21357716.703 8 112235544.811 8      1782.418          49.000    21357715.312 8  87456251.259 8      1388.900          49.000
G09  20589251.703 8 108197330.410 8     -1148.184          51.000    20589253.109 8  84309599.516 8      -894.689          51.000
G30  23053432.977 6 121146596.068 6      3383.906          39.000    23053441.703 6  94399959.986 6      2636.807          39.000
R05  20559097.305 6 109900191.161 6     -1787.051          40.000    20559101.148 6  85477894.803 6     -1389.925          37.000
R15  20475400.539 6 109414290.709 6       -34.129          37.000    20475403.047 6  85100042.147 6       -26.548          39.000
R16  21381634.812 6 114216869.961 6      3783.613          37.000    21381644.023 7  88835379.712 7      2942.807          45.000
R21  21647127.945 6 115838205.727 6     -2573.859          36.000
C05  39772476.695 5 207105723.122 5       -25.777          35.000    39772474.008 6 160147271.220 6       -19.579          38.000
C20  21920140.516 8 114143916.847 8        35.961          51.000
C29  25718315.047 6 133921973.767 6     -2760.562          38.000
E09  21646365.055 7 113752399.106 7       405.695          43.000    21646363.609 6  87160933.776 6       311.091          41.000
E31  26332535.016 8 138378395.062 8      2659.125          48.000    26332536.805 8 106030222.106 8      2037.508          51.000
E36  24987146.180 7 131308345.257 7     -1746.234          47.000    24987149.117 7 100612893.925 7     -1338.003          46.000
> 2020 05 06 01 02 30.0000000  0 16        .000000000000
G04  22667500.477 4 119118518.457 4     -2714.047          28.000
G06  21458320.766 8 112764235.382 8     -1627.680          48.000    21458324.203 8  87868243.225 8     -1268.322          48.000
G07  21347550.688 8 112182122.702 8      1772.848          51.000    21347549.773 8  87414623.636 8      1381.440          51.000
G09  20595803.227 8 108231758.408 8     -1153.230          51.000    20595804.203 8  84336426.517 8      -898.621          51.000
G30  23034097.773 6 121044999.267 6      3382.625          40.000    23034106.930 6  94320793.607 6      2635.812          40.000
R05  20569119.672 6 109953765.165 6     -1790.707          39.000    20569124.602 6  85519563.414 6     -1392.778          37.000
R15  20475637.578 5 109415554.451 5       -56.578          34.000    20475639.266 6  85101025.121 6       -44.002          38.000
R16  21360393.492 7 114103398.770 7      3774.797          42.000    21360401.836 7  88747124.292 7      2935.953          43.000
R21  21661582.891 6 115915557.618 6     -2589.402          38.000
C05  39772591.578 5 207106321.202 5       -19.832          35.000    39772588.906 6 160147733.739 6       -15.939          38.000
C20  21919925.984 8 114142798.226 8        32.391          51.000
C29  25734194.602 5 134004676.221 5     -2759.449          30.000
E04  25095842.500 5 131879539.518 5     -1698.074          34.000    25095835.961 5 101050531.648 5     -1301.400          32.000
E09  21644030.930 7 113740133.699 7       405.555          42.000    21644029.273 6  87151535.642 6       310.516          40.000
E31  26317339.133 7 138298546.553 7      2657.871          46.000    26317342.703 8 105969039.445 8      2036.598          51.000
E36  24997118.234 8 131360743.460 8     -1753.219          48.000    24997119.719 7 100653043.162 7     -1343.441          46.000
> 2020 05 06 01 03  0.0000000  0 15        .000000000000
G06  21467660.031 8 112813314.745 8     -1646.562          49.000    21467662.945 8  87906486.856 8     -1283.036          49.000
G07  21337468.094 8 112129137.394 8      1757.199          51.000    21337467.453 8  87373336.360 8      1369.246          51.000
G09  20602411.938 8 108266486.297 8     -1164.391          51.000    20602412.633 8  84363487.210 8      -907.317          51.000
G30  23014802.633 6 120943608.926 6      3374.828          41.000    23014811.508 6  94241788.117 6      2629.736          41.000
R05  20579191.602 6 110007604.966 6     -1800.797          40.000    20579194.930 5  85561438.742 5     -1400.623          35.000
R15  20476028.562 5 109417643.743 5       -84.883          33.000    20476032.219 6  85102650.172 6       -66.011          39.000
R16  21339231.367 7 113990345.837 7      3759.816          46.000    21339237.156 7  88659194.181 7      2924.302          43.000
R21  21676153.133 6 115993517.754 6     -2610.004          38.000
C05  39772704.453 5 207106908.722 5       -21.645          35.000    39772701.773 6 160148188.008 6       -16.405          38.000
C20  21919760.734 8 114141936.381 8        22.777          51.000
C29  25750094.578 5 134087495.327 5     -2763.320          30.000
E04  25105539.914 5 131930502.829 5     -1702.055          31.000    25105536.398 5 101089591.623 5     -1304.253          34.000
E09  21641726.320 7 113728023.690 7       399.383          43.000    21641724.344 6  87142256.600 6       305.988          40.000
E31  26302177.656 7 138218882.994 7      2650.625          45.000    26302183.156 8 105907998.485 8      2031.079          50.000
E36  25007158.508 8 131413499.318 8     -1766.152          48.000    25007159.492 7 100693466.464 7     -1353.402          47.000
> 2020 05 06 01 03 30.0000000  0 16        .000000000000
G04  22698506.523 5 119281456.564 5     -2712.676          35.000
G06  21477077.359 8 112862801.812 8     -1655.312          50.000    21477079.055 8  87945048.209 8     -1289.854          50.000
G07  21327444.914 8 112076463.938 8      1751.555          51.000    21327444.258 8  87332292.119 8      1364.848          51.000
G09  20609053.531 8 108301387.471 8     -1165.238          51.000    20609054.320 8  84390682.934 8      -907.978          51.000
G30  22995523.836 7 120842301.628 7      3376.418          42.000    22995531.750 7  94162847.305 7      2630.972          42.000
R05  20589290.695 7 110061582.488 7     -1800.379          42.000    20589292.109 5  85603421.275 5     -1400.292          33.000
R15  20476548.398 6 109420430.721 6      -103.648          38.000    20476552.688 6  85104817.876 6       -80.618          36.000
R16  21318124.555 7 113877587.401 7      3754.676          47.000    21318128.602 7  88571493.189 7      2920.303          43.000
R21  21690812.344 6 116071954.085 6     -2621.316          39.000
C05  39772791.328 5 207107360.925 5       -11.430          35.000    39772788.664 6 160148537.725 6        -9.273          38.000
C20  21919620.852 8 114141207.334 8        23.051          51.000
C29  25765996.633 5 134170274.404 5     -2757.844          35.000
E04                                                                  25115231.086 6 101128622.902 6     -1299.796          37.000
E09  21639427.945 7 113715943.459 7       403.031          43.000    21639425.148 6  87133000.323 6       308.897          40.000
E31  26287028.570 7 138139280.699 7      2653.254          47.000    26287034.758 8 105847004.505 8      2033.073          49.000
E36  25017242.156 7 131466485.707 7     -1769.055          47.000    25017243.750 8 100734066.404 8     -1355.551          48.000
> 2020 05 06 01 04  0.0000000  0 17        .000000000000
G04  22714041.000 5 119363082.037 5     -2725.688          34.000
G06  21486614.742 8 112912918.687 8     -1681.676          51.000    21486615.734 8  87984100.297 8     -1310.400          51.000
G07  21317523.688 8 112024327.574 8      1728.332          51.000    21317523.188 8  87291666.419 8      1346.752          51.000
G09  20615770.438 8 108336684.818 8     -1183.871          51.000    20615771.328 8  84418187.361 8      -922.494          51.000
G30  22976304.281 7 120741303.459 7      3360.570          44.000    22976311.586 7  94084147.400 7      2618.626          43.000
R05  20599456.891 6 110115925.728 6     -1818.215          40.000    20599457.320 5  85645688.097 5     -1414.176          34.000
R14  23277930.508 4 124084467.560 4     -3437.328          29.000
R15  20477243.438 6 109424143.045 6      -139.508          37.000    20477247.352 6  85107705.248 6      -108.500          38.000
R16  21297115.859 8 113765355.483 8      3731.609          48.000    21297118.602 7  88484201.724 7      2902.363          42.000
R21  21705601.633 6 116151090.362 6     -2650.461          41.000    21705622.531 5  90339730.953 5     -2061.467          32.000
C05  39772894.867 5 207107899.846 5       -20.289          35.000    39772892.188 6 160148954.408 6       -15.251          38.000
C20  21919549.070 8 114140833.436 8         5.824          51.000
C29  25781933.828 6 134253247.623 6     -2769.539          37.000
E04                                                                  25124962.273 6 101167797.811 6     -1308.760          39.000
E09  21637177.766 7 113704116.794 7       389.188          43.000    21637174.906 6  87123938.333 6       298.182          41.000
E31  26271935.641 8 138059965.638 8      2638.348          48.000    26271940.672 7 105786230.649 7      2021.579          47.000
E36  25027411.266 7 131519924.958 7     -1789.535          47.000    25027413.469 7 100775013.379 7     -1371.154          47.000
> 2020 05 06 01 04 30.0000000  0 16        .000000000000
G06  21496276.344 8 112963687.701 8     -1699.516          51.000    21496277.094 8  88023660.537 8     -1324.298          51.000
G07  21307709.625 8 111972753.958 8      1713.371          51.000    21307708.992 8  87251479.194 8      1335.094          51.000
G09  20622567.164 8 108372401.498 8     -1193.750          51.000    20622568.008 8  84446018.542 8      -930.195          51.000
G30  22957149.133 7 120640640.792 7      3353.359          46.000    22957156.016 7  94005708.931 7      2613.007          46.000
R05  20609697.047 6 110170658.589 6     -1827.188          40.000    20609695.898 4  85688273.054 4     -1421.143          29.000
R14  23297329.742 4 124187875.443 4     -3452.441          27.000
R15  20478115.961 6 109428804.977 6      -167.445          40.000    20478120.406 6  85111331.246 6      -130.235          36.000
R16  21276210.297 7 113653679.345 7      3716.938          46.000    21276212.727 6  88397342.582 6      2890.954          41.000
R21  21720525.664 6 116230947.297 6     -2670.141          41.000    21720535.352 5  90401841.897 5     -2076.776          30.000
C05  39773019.617 5 207108550.258 5       -20.176          35.000    39773016.906 6 160149456.596 6       -15.338          38.000
C20  21919550.008 8 114140839.149 8        -2.887          51.000
C29  25797911.055 6 134336436.246 6     -2772.531          37.000
E04                                                                  25134732.750 6 101207134.788 6     -1311.298          40.000
E09  21634980.008 7 113692567.738 7       383.934          42.000    21634978.094 7  87115089.044 7       294.126          42.000
E31  26256902.922 8 137980963.932 8      2631.758          49.000    26256905.734 7 105725696.949 7      2016.410          46.000
E36  25037670.852 7 131573839.756 7     -1801.504          47.000    25037672.891 7 100816324.718 7     -1380.328          47.000
> 2020 05 06 01 05  0.0000000  0 15        .000000000000
G06  21506032.125 8 113014952.452 8     -1715.512          51.000    21506032.938 8  88063607.103 8     -1336.762          50.000
G07  21297973.508 8 111921589.447 8      1700.230          51.000    21297972.414 8  87211610.737 8      1324.855          51.000
G09  20629414.125 8 108408381.984 8     -1202.125          51.000    20629414.953 8  84474055.278 8      -936.721          51.000
G30  22938029.211 7 120540161.337 7      3347.680          47.000    22938035.383 7  93927413.258 7      2608.582          47.000
R05  20619978.023 5 110225624.089 5     -1834.426          30.000    20619974.562 4  85731017.021 4     -1426.776          28.000
R15  20479136.422 6 109434259.159 6      -193.434          40.000    20479139.828 5  85115573.385 5      -150.448          34.000
R16  21255379.297 7 113542405.937 7      3703.988          42.000    21255382.477 7  88310796.659 7      2880.880          42.000
R21  21735555.016 6 116311363.316 6     -2688.105          38.000    21735554.469 4  90464387.549 4     -2090.755          24.000
C05  39773136.094 5 207109156.106 5       -17.949          35.000    39773133.523 6 160149925.863 6       -13.867          38.000
C20  21919594.469 8 114141071.848 8        -9.949          51.000
C29  25813898.109 6 134419684.628 6     -2774.348          37.000
E04  25144510.992 5 132135296.560 5     -1712.383          34.000    25144512.898 6 101246515.289 6     -1312.208          40.000
E09  21632804.703 7 113681141.754 7       380.375          42.000    21632804.734 7  87106334.065 7       291.456          42.000
E31  26241900.688 8 137902123.156 8      2626.820          49.000    26241901.867 7 105665286.541 7      2012.824          46.000
E36  25047990.977 7 131628074.055 7     -1811.539          46.000    25047992.188 7 100857880.865 7     -1388.101          47.000
> 2020 05 06 01 05 30.0000000  0 15        .000000000000
G06  21515879.344 8 113066700.614 8     -1733.398          50.000    21515880.367 8  88103930.360 8     -1350.700          50.000
G07  21288313.352 8 111870824.526 8      1685.051          51.000    21288311.852 8  87172053.671 8      1313.027          51.000
G09  20636309.117 8 108444614.833 8     -1212.418          51.000    20636309.898 8  84502288.651 8      -944.741          51.000
G30  22918942.570 7 120439856.828 7      3340.137          47.000    22918946.344 7  93849253.960 7      2602.707          45.000
R05  20630303.297 6 110280811.371 6     -1843.891          40.000    20630304.109 5  85773940.341 5     -1434.137          30.000
R15  20480304.273 6 109440494.823 6      -221.238          40.000    20480306.812 5  85120423.421 5      -172.068          30.000
R16  21234620.695 6 113431529.457 6      3688.363          37.000    21234626.438 6  88224559.381 6      2868.724          41.000
R21  21750685.312 6 116392323.655 6     -2707.965          38.000
C05  39773242.406 5 207109710.054 5       -17.566          35.000    39773239.953 6 160150354.224 6       -13.768          38.000
C20  21919680.578 8 114141521.687 8       -19.176          51.000
C29  25829892.789 6 134502979.749 6     -2778.016          36.000
E04  25154301.469 6 132186737.419 6     -1715.762          36.000    25154302.055 6 101285931.076 6     -1314.827          41.000
E09  21630651.188 7 113669828.332 7       374.684          43.000    21630652.633 7  87097665.339 7       287.116          43.000
E31  26226927.367 8 137823434.863 8      2620.008          49.000    26226928.383 8 105604992.953 8      2007.500          48.000
E36  25058369.508 7 131682615.842 7     -1823.734          46.000    25058370.180 7 100899672.604 7     -1397.395          47.000
> 2020 05 06 01 06  0.0000000  0 15        .000000000000
G06  21525831.961 8 113119003.261 8     -1752.273          49.000    21525833.008 8  88144685.695 8     -1365.408          50.000
G07  21278743.289 8 111820533.727 8      1668.910          51.000    21278741.570 8  87132866.052 8      1300.449          51.000
G09  20643265.758 8 108481171.972 8     -1223.535          51.000    20643266.492 8  84530774.725 8      -953.404          51.000
G30  22899903.297 7 120339802.476 7      3331.484          44.000    22899900.891 7  93771289.671 7      2595.968          44.000
R05  20640683.227 5 110336294.395 5     -1854.434          35.000    20640684.484 4  85817093.779 4     -1442.337          26.000
R15  20481631.305 6 109447585.548 6      -250.191          40.000
R16  21213950.695 6 113321128.088 6      3672.426          39.000    21213958.633 6  88138691.572 6      2856.331          41.000
R21  21765928.773 6 116473898.633 6     -2728.465          38.000    21765937.484 4  90590830.104 4     -2122.139          25.000
C05  39773352.539 5 207110283.371 5       -18.957          35.000    39773350.109 6 160150797.554 6       -14.780          38.000
C20  21919822.461 8 114142261.451 8       -28.988          50.000
C29  25845908.602 6 134586391.346 6     -2781.812          36.000
E04  25164114.703 5 132238297.215 5     -1720.277          35.000    25164114.594 7 101325437.903 7     -1317.874          42.000
E09  21628533.734 7 113658700.358 7       368.473          44.000    21628535.664 7  87089138.714 7       282.303          43.000
E31  26211997.117 8 137744974.014 8      2612.039          49.000    26211998.695 8 105544873.625 8      2001.486          49.000
E36  25068820.133 7 131737536.467 7     -1836.402          47.000    25068821.320 8 100941754.641 8     -1407.143          48.000
> 2020 05 06 01 06 30.0000000  0 16        .000000000000
G06  21535874.578 8 113171777.347 8     -1762.211          51.000    21535875.906 8  88185808.364 8     -1373.151          51.000
G07  21269248.227 8 111770637.001 8      1661.387          51.000    21269246.586 8  87093985.499 8      1294.587          51.000
G09  20650268.398 8 108517971.266 8     -1225.945          51.000    20650269.133 8  84559449.488 8      -955.282          51.000
G30  22880895.648 6 120239919.399 6      3331.070          39.000    22880891.359 6  93693458.749 6      2595.639          40.000
R05  20651102.102 6 110391990.722 6     -1855.523          36.000    20651104.820 4  85860424.124 4     -1443.185          28.000
R15  20483103.109 6 109455448.738 6      -269.992          40.000    20483131.859 5  85132094.558 5      -209.982          30.000
R16  21193357.664 7 113211123.496 7      3664.895          43.000    21193365.062 7  88053132.476 7      2850.474          42.000
R21  21781269.172 6 116556001.365 6     -2740.766          36.000    21781280.203 5  90654687.756 5     -2131.710          30.000
C05  39773450.961 5 207110795.605 5       -11.461          35.000    39773448.484 6 160151193.647 6        -8.790          38.000
C20  21920004.586 8 114143211.319 8       -30.523          50.000
C23  24654256.961 5 128381161.700 5     -1891.719          32.000
C29  25861931.289 5 134669836.473 5     -2777.195          35.000
E04  25173932.484 5 132289907.599 5     -1715.812          34.000    25173933.891 7 101364973.480 7     -1314.734          42.000
E09  21626436.383 7 113647676.761 7       370.332          43.000    21626438.078 7  87080692.031 7       283.806          43.000
E31  26197095.227 8 137666661.505 8      2612.621          51.000    26197097.062 8 105484867.934 8      2001.858          50.000
E36  25079327.672 8 131792753.331 8     -1840.754          49.000    25079329.812 8 100984063.653 8     -1410.454          49.000
> 2020 05 06 01 07  0.0000000  0 16        .000000000000
G06  21546041.125 8 113225203.206 8     -1788.301          49.000    21546043.016 8  88227438.872 8     -1393.484          49.000
G07  21259862.891 8 111721317.128 8      1637.793          51.000    21259861.445 8  87055554.439 8      1276.202          51.000
G09  20657351.617 8 108555193.963 8     -1244.410          51.000    20657352.469 8  84588454.179 8      -969.670          51.000
G30  22861954.266 6 120140392.045 6      3314.988          39.000    22861952.922 6  93615904.907 6      2583.105          39.000
R05  20661598.383 5 110448085.405 5     -1873.441          32.000    20661599.156 4  85904053.413 4     -1457.112          28.000
R15  20484754.375 6 109464269.230 6      -306.418          38.000    20484778.234 5  85138955.200 5      -238.319          31.000
R16  21172875.469 7 113101705.562 7      3640.855          46.000    21172881.891 7  87968029.661 7      2831.776          43.000
R21  21796741.734 6 116638813.058 6     -2768.742          38.000    21796753.484 4  90719091.975 4     -2153.466          26.000
C05  39773572.328 5 207111428.298 5       -19.926          35.000    39773569.812 6 160151682.113 6       -15.184          39.000
C20  21920261.820 8 114144552.308 8       -47.910          50.000
C23  24665254.367 6 128438412.667 6     -1914.004          36.000
C29  25877995.039 5 134753493.155 5     -2788.895          33.000
E04  25183792.977 6 132341724.414 6     -1727.328          40.000    25183793.773 7 101404677.274 7     -1323.702          42.000
E09  21624392.844 7 113636939.579 7       356.406          42.000    21624394.406 7  87072464.839 7       273.174          43.000
E31  26182256.734 8 137588681.579 8      2597.219          51.000    26182258.867 8 105425117.072 8      1990.038          51.000
E36  25089926.328 8 131848447.046 8     -1860.965          50.000    25089928.797 8 101026738.043 8     -1425.865          49.000
> 2020 05 06 01 07 30.0000000  0 16        .000000000000
G06  21556294.000 8 113279083.929 8     -1804.168          49.000    21556296.188 8  88269423.823 8     -1405.845          49.000
G07  21250550.531 8 111672380.821 8      1624.324          51.000    21250549.312 8  87017422.248 8      1265.704          51.000
G09  20664478.180 8 108592644.173 8     -1252.727          51.000    20664479.156 8  84617636.151 8      -976.151          51.000
G30  22843045.477 7 120041027.589 7      3308.742          43.000    22843046.234 7  93538478.020 7      2578.241          43.000
R05  20672129.992 4 110504381.178 4     -1880.586          29.000    20672129.617 4  85947850.935 4     -1462.678          27.000
R15  20486547.484 5 109473848.440 5      -332.609          34.000    20486556.523 5  85146405.667 5      -258.693          30.000
R16  21152467.109 7 112992680.597 7      3626.938          47.000    21152472.305 7  87883232.469 7      2820.951          43.000
R21  21812311.703 7 116722131.270 7     -2786.176          43.000    21812319.891 4  90783887.904 4     -2167.026          28.000
C05  39773679.484 5 207111986.385 5       -18.125          35.000    39773677.062 6 160152113.641 6       -13.783          38.000
C20  21920557.414 8 114146091.802 8       -55.254          50.000
C23  24676313.523 5 128495992.889 5     -1925.117          35.000
C29  25894062.625 5 134837165.588 5     -2790.273          31.000
E04  25193658.344 6 132393565.688 6     -1729.027          39.000    25193658.820 7 101444399.832 7     -1324.833          43.000
E09  21622366.133 7 113626293.909 7       352.766          43.000    21622368.117 7  87064307.769 7       270.376          43.000
E31  26167444.398 8 137510841.300 8      2591.785          50.000    26167447.227 8 105365473.224 8      1985.925          51.000
E36  25100578.539 8 131904421.111 8     -1871.012          50.000    25100580.586 8 101069627.241 8     -1433.608          48.000
> 2020 05 06 01 08  0.0000000  0 15        .000000000000
G06  21566645.562 8 113333483.825 8     -1822.801          48.000    21566647.828 8  88311813.350 8     -1420.361          48.000
G07  21241323.719 8 111623895.231 8      1607.863          49.000    21241323.117 8  86979641.263 8      1252.880          50.000
G09  20671660.414 8 108630387.175 8     -1263.688          51.000    20671661.367 8  84647046.290 8      -984.689          51.000
G30  22824181.617 7 119941894.521 7      3299.859          45.000    22824183.141 7  93461231.464 7      2571.319          45.000
R15  20488495.008 5 109484253.116 5      -361.047          34.000    20488498.383 5  85154498.243 5      -280.814          32.000
R16  21132145.266 7 112884120.125 7      3610.188          46.000    21132149.453 7  87798796.550 7      2807.927          43.000
R21  21827990.406 7 116806019.511 7     -2806.562          42.000    21827995.250 5  90849134.188 5     -2182.885          32.000
C05  39773785.102 5 207112536.418 5       -19.039          35.000    39773782.703 6 160152538.973 6       -14.704          38.000
C20  21920904.000 8 114147896.012 8       -65.297          50.000
C23  24687447.383 6 128553966.437 6     -1939.648          37.000
C29  25910145.961 5 134920916.901 5     -2793.312          32.000
E04  25203540.438 6 132445497.591 6     -1732.949          37.000    25203541.312 7 101484191.770 7     -1328.072          42.000
E09  21620370.133 7 113615806.036 7       346.062          44.000    21620372.641 7  87056271.607 7       265.228          43.000
E31  26152671.195 8 137433209.010 8      2583.484          48.000    26152674.711 8 105305988.744 8      1979.565          51.000
E36  25111296.086 8 131960740.242 8     -1883.941          49.000    25111296.531 7 101112780.842 7     -1443.495          46.000
> 2020 05 06 01 08 30.0000000  0 15        .000000000000
G06  21577096.867 7 113388407.906 7     -1840.164          47.000    21577099.430 7  88354611.313 7     -1433.894          47.000
G07  21232184.172 8 111575868.431 8      1592.445          50.000    21232184.359 8  86942217.786 8      1240.866          50.000
G09  20678899.508 8 108668428.959 8     -1273.832          51.000    20678900.188 8  84676689.239 8      -992.596          51.000
G30  22805363.492 7 119843001.979 7      3291.762          46.000    22805365.266 7  93384172.352 7      2565.009          46.000
R15  20490596.102 5 109495489.951 5      -389.203          34.000    20490599.992 6  85163238.119 6      -302.711          36.000
R16  21111912.062 7 112776035.549 7      3594.234          45.000    21111915.273 6  87714730.761 6      2795.516          41.000
R21  21843776.789 6 116890480.349 6     -2825.621          39.000    21843777.023 5  90914825.853 5     -2197.708          31.000
C05  39773890.609 5 207113085.308 5       -19.059          35.000    39773888.117 6 160152963.430 6       -14.755          38.000
C20  21921302.930 8 114149972.319 8       -74.449          51.000
C23  24698656.523 6 128612338.417 6     -1953.273          38.000
C29  25926244.836 5 135004751.456 5     -2796.469          32.000
E04  25213440.266 5 132497526.819 5     -1737.020          34.000    25213440.727 6 101524058.300 6     -1330.634          41.000
E09  21618406.172 7 113605482.894 7       340.590          45.000    21618408.922 7  87048361.658 7       260.962          44.000
E31  26137938.984 8 137355793.664 8      2576.191          48.000    26137943.031 8 105246670.488 8      1973.911          51.000
E36  25122079.539 8 132017409.749 8     -1895.582          48.000    25122078.555 7 101156202.931 7     -1452.495          46.000
> 2020 05 06 01 09  0.0000000  0 15        .000000000000
G06  21587654.164 8 113443887.697 8     -1857.219          49.000    21587657.023 8  88397842.293 8     -1447.183          48.000
G07  21223138.773 8 111528335.005 8      1577.535          51.000    21223139.203 8  86905178.733 8      1229.248          51.000
G09  20686201.680 8 108706802.060 8     -1283.238          51.000    20686201.984 8  84706590.358 8      -999.926          51.000
G30  22786597.773 7 119744385.807 7      3284.000          47.000    22786599.797 7  93307328.587 7      2558.961          47.000
R15  20492859.242 6 109507592.451 6      -416.578          37.000    20492863.672 5  85172651.357 5      -324.011          32.000
R16  21091774.352 7 112668465.252 7      3578.234          45.000    21091777.164 6  87631065.033 6      2783.074          39.000
R21  21859673.305 6 116975543.683 6     -2844.020          40.000    21859670.234 5  90980986.157 5     -2212.018          33.000
C05  39774002.188 5 207113666.396 5       -18.844          35.000    39773999.648 6 160153412.742 6       -14.224          39.000
C20  21921760.523 8 114152354.504 8       -83.148          50.000
C23  24709948.664 6 128671140.276 6     -1965.934          37.000
C29  25942364.531 4 135088700.015 4     -2799.402          28.000
E04  25223365.438 5 132549679.808 5     -1739.738          33.000    25223364.578 6 101564024.992 6     -1332.750          41.000
E09  21616480.055 7 113595357.972 7       335.500          45.000    21616482.773 7  87040603.600 7       257.006          45.000
E31  26123254.664 7 137278630.851 7      2569.250          47.000    26123259.289 8 105187545.713 8      1968.592          51.000
E36  25132935.430 8 132074461.606 8     -1906.777          48.000    25132934.406 7 101199917.989 7     -1461.034          47.000
> 2020 05 06 01 09 30.0000000  0 16        .000000000000
G02  22414203.086 5 117787423.097 5       441.887          32.000
G04  22886471.125 5 120269217.115 5     -2764.895          32.000
G06  21598297.492 8 113499818.458 8     -1871.688          50.000    21598300.609 8  88441424.692 8     -1458.458          50.000
G07  21214167.969 8 111481193.334 8      1565.000          50.000    21214168.102 8  86868444.973 8      1219.481          50.000
G09  20693547.164 8 108745402.802 8     -1290.301          51.000    20693547.281 8  84736668.860 8     -1005.429          51.000
G30  22767865.203 7 119645945.390 7      3278.559          46.000    22767867.539 7  93230621.774 7      2554.721          45.000
R15  20495267.492 5 109520455.752 5      -441.480          32.000    20495268.961 5  85182655.932 5      -343.380          34.000
R16  21071714.461 7 112561309.031 7      3565.141          46.000    21071716.148 6  87547721.357 6      2772.890          39.000
R21  21875662.422 6 117061100.684 6     -2859.953          40.000    21875659.844 5  91047530.487 5     -2224.408          35.000
C05  39774100.367 5 207114177.814 5       -15.113          35.000    39774097.859 6 160153808.238 6       -12.115          39.000
C20  21922257.148 8 114154941.339 8       -89.512          50.000
C23  24721303.750 6 128730268.520 6     -1976.426          37.000
E04                                                                  25233294.898 6 101604013.015 6     -1333.085          41.000
E09  21614571.742 7 113585328.521 7       332.969          45.000    21614574.461 7  87032918.714 7       255.015          45.000
E31  26108598.992 7 137201619.789 7      2564.629          46.000    26108604.531 8 105128537.224 8      1965.162          51.000
E36  25143844.516 8 132131791.505 8     -1915.367          49.000    25143844.398 7 101243846.082 7     -1467.598          47.000
> 2020 05 06 01 10  0.0000000  0 15        .000000000000
G04  22902259.914 5 120352190.176 5     -2770.441          33.000
G06  21609004.734 8 113556083.977 8     -1891.578          51.000    21609007.672 8  88485267.950 8     -1473.957          51.000
G07  21205250.102 8 111434330.044 8      1546.957          51.000    21205249.836 8  86831928.134 8      1205.421          51.000
G09  20700914.008 8 108784116.022 8     -1302.789          51.000    20700914.211 8  84766835.018 8     -1015.160          51.000
G30  22749144.539 7 119547568.786 7      3267.824          45.000    22749146.602 7  93153964.683 7      2546.357          45.000
R15  20497792.305 6 109533982.295 6      -471.535          38.000    20497797.531 5  85193131.266 5      -366.753          34.000
R16  21051711.656 8 112454455.086 8      3546.039          48.000    21051713.125 6  87464612.799 6      2758.030          41.000
R21  21891720.188 6 117147030.952 6     -2881.133          36.000    21891718.938 6  91114365.172 6     -2240.881          36.000
C05  39774163.453 5 207114506.423 5       -18.230          35.000    39774160.984 6 160154062.348 6       -14.260          39.000
C20  21922771.391 8 114157620.132 8      -101.250          51.000
C23  24732699.781 5 128789608.209 5     -1991.867          35.000
E04                                                                  25243210.102 6 101643934.703 6     -1337.826          41.000
E09  21612659.328 7 113575280.378 7       324.836          46.000    21612662.344 7  87025219.487 7       248.813          46.000
E31  26093951.180 7 137124648.328 7      2554.520          46.000    26093957.211 8 105069559.073 8      1957.362          51.000
E36  25154784.891 8 132189283.636 8     -1929.668          49.000    25154785.578 7 101287898.481 7     -1478.478          47.000
> 2020 05 06 01 10 30.0000000  0 15        .000000000000
G02  22409369.781 6 117762055.576 6       398.820          37.000
G06  21619862.211 8 113613138.118 8     -1913.582          51.000    21619864.477 8  88529725.720 8     -1491.103          51.000
G07  21196472.398 8 111388202.172 8      1526.602          51.000    21196471.867 8  86795984.335 8      1189.560          51.000
G09  20708388.828 8 108823396.655 8     -1317.574          51.000    20708389.250 8  84797443.310 8     -1026.681          51.000
G30  22730523.164 7 119449714.114 7      3254.406          45.000    22730524.406 7  93077714.289 7      2535.901          45.000
R15  20500530.953 5 109548596.032 5      -503.891          32.000    20500535.516 6  85204497.427 6      -391.912          36.000
R16  21031853.609 8 112348371.669 8      3524.598          48.000    21031854.758 7  87382103.461 7      2741.351          43.000
R21  21907932.742 6 117233794.332 6     -2904.656          36.000    21907933.641 6  91181847.836 6     -2259.174          36.000
C05  39774278.148 5 207115103.036 5       -23.137          35.000    39774275.711 6 160154524.432 6       -17.761          39.000
C20  21923390.344 8 114160843.193 8      -115.199          51.000
C23  24744222.727 5 128849609.353 5     -2009.566          35.000
E04                                                                  25253195.336 6 101684139.319 6     -1343.884          40.000
E09  21610829.898 7 113565669.403 7       314.516          46.000    21610833.406 7  87017855.241 7       240.930          47.000
E31  26079398.297 7 137048174.403 7      2542.191          46.000    26079404.531 8 105010962.168 8      1947.790          51.000
E36  25165842.430 8 132247392.309 8     -1945.914          48.000    25165843.914 7 101332423.307 7     -1491.064          47.000
> 2020 05 06 01 11  0.0000000  0 14        .000000000000
G02  22407128.320 5 117750298.586 5       386.977          35.000
G06  21630824.000 8 113670740.807 8     -1925.035          51.000    21630825.414 8  88574610.924 8     -1500.027          51.000
G07  21187789.477 8 111342572.819 8      1516.922          50.000    21187789.000 8  86760429.010 8      1182.017          50.000
G09  20715926.141 8 108863005.744 8     -1321.562          51.000    20715926.648 8  84828307.536 8     -1029.789          51.000
G30  22711956.430 7 119352145.497 7      3251.727          47.000    22711957.531 7  93001686.820 7      2533.813          47.000
R15  20503426.695 6 109564112.502 6      -525.867          37.000    20503428.359 5  85216547.566 5      -409.014          34.000
R16  21012094.367 7 112242820.613 7      3513.750          46.000    21012096.008 7  87300008.177 7      2732.917          44.000
R21  21924256.070 6 117321144.362 6     -2917.156          38.000    21924257.922 6  91249786.683 6     -2268.902          36.000
C05  39774399.195 5 207115733.753 5       -17.207          35.000    39774396.859 6 160155012.138 6       -13.300          39.000
C20  21924068.789 8 114164375.215 8      -118.668          51.000
C23  24755826.133 5 128910034.353 5     -2017.395          34.000
E09  21609038.617 7 113556257.637 7       314.613          46.000    21609042.469 7  87010643.618 7       241.049          47.000
E31  26064895.156 7 136971961.984 7      2540.125          47.000    26064901.594 8 104952565.635 8      1946.383          50.000
E36  25176971.570 8 132305877.839 8     -1951.590          48.000    25176973.539 8 101377236.883 8     -1495.257          48.000
> 2020 05 06 01 11 30.0000000  0 15        .000000000000
G06  21641889.891 8 113728892.234 8     -1942.379          51.000    21641891.125 8  88619923.696 8     -1513.542          51.000
G07  21179201.953 8 111297445.082 8      1501.113          50.000    21179201.602 8  86725264.553 8      1169.699          50.000
G09  20723526.164 8 108902944.565 8     -1331.645          51.000    20723526.594 8  84859428.680 8     -1037.648          51.000
G30  22693445.188 8 119254867.388 8      3243.051          48.000    22693447.164 8  92925885.706 8      2527.053          48.000
R05  20758225.945 5 110964640.683 5     -1953.648          33.000    20758219.516 5  86305818.232 5     -1519.507          33.000
R15  20506483.492 5 109580455.468 5      -553.633          34.000    20506486.023 5  85229258.831 5      -430.597          34.000
R16  20992435.180 7 112137808.482 7      3496.664          45.000    20992437.633 7  87218332.055 7      2719.628          44.000
R21  21940689.508 6 117409078.814 6     -2935.637          39.000    21940690.680 5  91318180.116 5     -2283.276          35.000
C05  39774527.062 5 207116399.848 5       -17.555          35.000    39774524.836 6 160155527.219 6       -13.650          39.000
C20  21924807.180 8 114168218.927 8      -128.172          51.000
C23  24767510.344 5 128970883.510 5     -2030.055          32.000
E04  25273242.680 5 132811786.064 5     -1754.930          31.000    25273239.742 6 101764864.439 6     -1344.294          39.000
E09  21607286.023 7 113547047.338 7       308.797          47.000    21607289.562 7  87003586.361 7       236.626          47.000
E31  26050443.047 7 136896015.359 7      2532.344          47.000    26050448.961 8 104894372.753 8      1940.325          50.000
E36  25188172.633 8 132364740.884 8     -1963.160          49.000    25188174.648 8 101422339.738 8     -1504.302          48.000
> 2020 05 06 01 12  0.0000000  0 15        .000000000000
G04  22965694.477 5 120685538.360 5     -2777.312          31.000
G06  21652990.344 8 113787226.127 8     -1952.730          51.000    21652991.781 8  88665378.658 8     -1521.611          51.000
G07  21170640.852 8 111252455.635 8      1492.176          50.000    21170640.461 8  86690207.843 8      1162.734          50.000
G09  20731119.469 8 108942848.038 8     -1334.633          51.000    20731119.781 8  84890522.267 8     -1039.974          51.000
G30  22674920.414 8 119157517.900 8      3240.926          48.000    22674923.375 8  92850028.961 8      2525.397          48.000
R05  20769170.883 6 111023189.443 6     -1956.141          36.000    20769173.625 6  86351356.194 6     -1521.443          36.000
R15  20509635.117 6 109597292.972 6      -574.391          36.000    20509638.078 5  85242354.637 5      -446.751          34.000
R16  20972808.305 7 112032969.672 7      3486.527          44.000    20972811.422 7  87136790.753 7      2711.743          44.000
R21  21957160.914 6 117497222.549 6     -2947.121          39.000    21957163.062 5  91386736.354 5     -2292.205          33.000
C05  39774592.539 5 207116740.501 5       -10.797          35.000    39774590.289 6 160155790.634 6        -8.590          39.000
C20  21925536.156 8 114172014.058 8      -130.832          51.000
E04                                                                  25283232.961 6 101805094.510 6     -1342.008          38.000
E09  21605502.797 8 113537674.343 8       309.965          48.000    21605505.305 7  86996404.448 7       237.562          47.000
E31  26035972.969 8 136819972.412 8      2531.262          49.000    26035977.492 8 104836106.064 8      1939.529          48.000
E36  25199376.469 8 132423615.682 8     -1967.875          50.000    25199378.688 8 101467451.570 8     -1507.762          49.000
> 2020 05 06 01 12 30.0000000  0 14        .000000000000
G06  21664263.789 8 113846468.633 8     -1975.938          51.000    21664265.695 8  88711541.632 8     -1539.692          51.000
G07  21162244.805 8 111208333.844 8      1470.168          50.000    21162244.312 8  86655827.209 8      1145.585          50.000
G09  20738844.406 8 108983443.441 8     -1350.832          51.000    20738844.781 8  84922155.027 8     -1052.596          51.000
G30  22656520.945 8 119060827.336 8      3226.102          49.000    22656524.141 8  92774685.647 8      2513.842          49.000
R05  20780248.734 5 111082419.421 5     -1971.457          34.000    20780256.125 6  86397423.868 6     -1533.365          38.000
R15  20513016.203 5 109615341.185 5      -608.449          30.000    20513021.297 5  85256410.165 5      -473.226          33.000
R16  20953353.938 7 111929048.483 7      3462.801          44.000    20953357.383 7  87055963.150 7      2693.289          44.000
R21  21973809.156 6 117586312.785 6     -2971.141          39.000    21973812.336 5  91456028.751 5     -2310.887          32.000
C05  39774734.078 5 207117477.332 5       -17.113          35.000    39774731.891 6 160156360.415 6       -13.653          39.000
C20  21926394.320 8 114176482.741 8      -146.363          51.000
E04  25293317.984 5 132917294.318 5     -1760.848          35.000    25293320.055 6 101845705.319 6     -1349.409          37.000
E09  21603827.094 8 113528866.891 8       297.961          48.000    21603828.992 7  86989655.884 7       228.323          47.000
E31  26021624.016 8 136744563.290 8      2516.918          50.000    26021626.469 7 104778325.063 7      1928.539          47.000
E36  25210721.047 8 132483228.774 8     -1985.566          50.000    25210723.391 8 101513129.144 8     -1521.417          49.000
> 2020 05 06 01 13  0.0000000  0 14        .000000000000
G06  21675589.414 8 113905985.061 8     -1993.211          51.000    21675591.719 8  88757918.049 8     -1553.151          51.000
G07  21153893.461 8 111164448.091 8      1454.105          49.000    21153892.992 8  86621630.512 8      1133.069          49.000
G09  20746580.453 8 109024097.214 8     -1360.906          51.000    20746581.000 8  84953833.269 8     -1060.446          51.000
G30  22638126.859 8 118964165.364 8      3216.840          49.000    22638129.477 8  92699364.628 8      2506.628          50.000
R05  20791335.406 6 111141687.273 6     -1981.039          39.000    20791339.742 5  86443521.108 5     -1540.802          34.000
R15  20516507.977 6 109634002.640 6      -636.926          36.000    20516511.320 5  85270924.543 5      -495.393          32.000
R16  20933951.250 7 111825405.923 7      3445.184          43.000    20933955.766 7  86975352.234 7      2679.587          44.000
R21  21990512.539 6 117675701.273 6     -2989.328          36.000    21990518.156 5  91525553.045 5     -2325.033          32.000
C05  39774831.320 5 207117983.560 5       -17.758          35.000    39774829.102 6 160156751.841 6       -13.671          39.000
C20  21927261.516 8 114180998.655 8      -156.062          51.000
E04  25303380.523 6 132970159.175 6     -1764.750          36.000    25303381.062 6 101886212.151 6     -1351.972          36.000
E09  21602138.281 7 113519992.416 7       292.207          47.000    21602140.336 7  86982855.972 7       223.878          47.000
E31  26007275.656 8 136669157.418 8      2508.789          51.000    26007275.859 7 104720546.576 7      1922.313          46.000
E36  25222085.164 8 132542945.939 8     -1997.031          50.000    25222087.727 8 101558886.453 8     -1530.154          49.000
> 2020 05 06 01 13 30.0000000  0 14        .000000000000
G06  21687004.344 8 113965970.829 8     -2003.254          51.000    21687007.266 8  88804660.200 8     -1560.977          51.000
G07  21145624.727 8 111120996.363 8      1445.199          49.000    21145624.141 8  86587772.025 8      1126.129          49.000
G09  20754365.102 8 109065006.023 8     -1363.789          51.000    20754365.820 8  84985710.261 8     -1062.693          51.000
G30  22619776.430 8 118867731.748 8      3214.688          51.000    22619777.953 8  92624221.562 8      2504.951          51.000
R05  20802466.898 6 111201193.942 6     -1983.133          39.000    20802471.914 6  86489804.024 6     -1542.440          39.000
R16  20914639.883 7 111722247.682 7      3434.637          45.000    20914644.562 7  86895118.004 7      2671.384          42.000
R21  22007307.555 6 117765584.653 6     -3000.316          36.000    22007316.320 5  91595462.320 5     -2333.586          33.000
C05  39774921.766 5 207118455.015 5       -10.988          35.000    39774919.672 6 160157116.411 6        -8.587          39.000
C20  21928175.375 8 114185758.174 8      -158.652          51.000
C23  24814871.727 5 129217537.259 5     -2075.211          32.000
E04  25313452.891 5 133023092.901 5     -1761.125          34.000    25313450.078 5 101926766.335 5     -1349.173          33.000
E09  21600474.211 7 113511248.599 7       293.348          47.000    21600476.742 8  86976156.154 8       224.833          48.000
E31  25992965.773 8 136593954.468 8      2507.422          51.000    25992963.898 7 104662923.585 7      1921.259          46.000
E36  25233506.211 8 132602963.140 8     -2001.422          50.000    25233508.484 8 101604873.663 8     -1533.530          48.000
> 2020 05 06 01 14  0.0000000  0 14        .000000000000
G06  21698544.367 8 114026613.836 8     -2025.656          51.000    21698547.531 8  88851914.521 8     -1578.433          51.000
G07  21137475.062 8 111078170.449 8      1423.938          48.000    21137474.281 8  86554401.181 8      1109.562          48.000
G09  20762234.328 8 109106358.987 8     -1378.945          51.000    20762235.078 8  85017933.338 8     -1074.503          51.000
G30  22601506.164 8 118771718.698 8      3200.230          51.000    22601506.633 8  92549406.231 8      2493.686          51.000
R05  20813680.328 6 111261132.543 6     -1998.453          37.000    20813687.625 6  86536422.835 6     -1554.359          37.000
R16  20895456.953 7 111619770.578 7      3411.457          46.000    20895460.438 6  86815413.607 6      2653.355          41.000
R21  22024232.758 6 117856152.338 6     -3023.469          40.000    22024241.734 5  91665903.861 5     -2351.584          34.000
C05  39775041.828 5 207119080.022 5       -16.586          35.000    39775039.672 6 160157599.701 6       -12.753          39.000
C20  21929172.258 8 114190950.133 8      -173.535          51.000
C23  24826924.391 5 129280262.633 5     -2093.051          32.000
E04  25323572.664 6 133076271.245 6     -1770.066          36.000    25323566.062 5 101967513.431 5     -1355.839          34.000
E09  21598871.289 7 113502825.457 7       282.297          47.000    21598874.180 8  86969702.065 8       216.255          49.000
E31  25978730.477 8 136519146.442 8      2493.797          51.000    25978728.133 7 104605603.208 7      1910.852          47.000
E36  25245020.180 8 132663468.795 8     -2018.203          51.000    25245021.797 8 101651235.146 8     -1546.424          49.000
> 2020 05 06 01 14 30.0000000  0 15        .000000000000
G06  21710157.375 8 114087640.101 8     -2042.410          51.000    21710160.258 8  88899467.485 8     -1591.488          51.000
G07  21129392.836 8 111035699.250 8      1407.965          49.000    21129391.891 8  86521306.746 8      1097.115          49.000
G09  20770136.250 8 109147883.369 8     -1388.883          51.000    20770136.922 8  85050289.986 8     -1082.249          51.000
G30  22583264.602 8 118675856.559 8      3190.934          51.000    22583264.180 8  92474708.503 8      2486.445          51.000
R05  20824923.609 6 111321226.565 6     -2007.750          38.000    20824925.906 5  86583162.640 5     -1561.580          35.000
R15  20527946.539 5 109695064.486 5      -717.949          34.000    20527933.914 5  85318375.244 5      -558.405          33.000
R16  20876349.672 7 111517702.729 7      3393.578          46.000    20876352.391 6  86736027.585 6      2639.453          40.000
R21  22041235.180 6 117947122.876 6     -3041.051          41.000    22041242.195 5  91736658.678 5     -2365.262          35.000
C05  39775139.555 5 207119589.301 5       -16.492          35.000    39775137.570 6 160157993.526 6       -13.209          39.000
C20  21930200.688 8 114196305.678 8      -183.086          51.000
C23  24839026.391 4 129343250.335 4     -2106.461          29.000
E04  25333689.945 5 133129435.397 5     -1773.418          34.000    25333683.266 5 102008237.974 5     -1359.071          34.000
E09  21597277.766 7 113494451.243 7       276.484          47.000    21597280.688 8  86963285.453 8       211.855          48.000
E31  25964518.992 8 136444463.548 8      2485.398          51.000    25964517.078 8 104548378.685 8      1904.372          48.000
E36  25256575.070 8 132724189.365 8     -2029.426          51.000    25256576.211 8 101697761.287 8     -1555.089          48.000
> 2020 05 06 01 15  0.0000000  0 14        .000000000000
G06  21721866.047 8 114149169.841 8     -2059.230          50.000    21721868.539 8  88947412.743 8     -1604.592          50.000
G07  21121401.781 8 110993705.802 8      1391.988          51.000    21121400.406 8  86488584.591 8      1084.666          51.000
G09  20778093.867 8 109189700.524 8     -1398.648          51.000    20778094.461 8  85082874.774 8     -1089.856          51.000
G30  22565075.164 8 118580269.858 8      3181.777          49.000    22565074.125 8  92400225.397 8      2479.307          49.000
R05  20836219.672 5 111381600.274 5     -2016.914          35.000    20836221.570 6  86630119.947 6     -1568.711          36.000
R15  20532053.383 5 109717052.820 5      -746.234          31.000    20532046.141 5  85335470.655 5      -580.398          32.000
R16  20857342.625 7 111416172.784 7      3375.574          46.000    20857344.367 6  86657059.925 6      2625.447          38.000
R21  22058335.367 6 118038616.430 6     -3058.418          41.000    22058339.406 6  91807820.363 6     -2378.770          37.000
C05                                                                  39775236.438 6 160158391.529 6       -13.013          39.000
C20  21931283.961 8 114201946.620 8      -192.621          51.000
E04  25343826.125 5 133182704.575 5     -1777.223          30.000    25343821.328 5 102049047.565 5     -1361.295          33.000
