     3.02           OBSERVATION DATA    M (MIXED)           RINEX VERSION / TYPE
SAVERINEX           SC600               20200513 195931 LCL PGM / RUN BY / DATE
       G = GPS       R = GLONASS       C = COMPASS          COMMENT
       S = SBAS      J = QZSS          E = GALILEO          COMMENT
BEAN                                                        MARKER NAME
1                                                           MARKER NUMBER
GEODETIC                                                    MARKER TYPE
Unige DICCA         GTER                                    OBSERVER / AGENCY
SC60291900056       SC600               2.12(191226)        REC # / TYPE / VERS
                    HEMA45          NONE                    ANT # / TYPE
  4509407.8091   693652.4678  4442337.6214                  APPROX POSITION XYZ
        0.0000        0.0000        0.0000                  ANTENNA: DELTA H/E/N
G    8 C1C L1C D1C S1C C2Y L2Y D2Y S2Y                      SYS / # / OBS TYPES
R    8 C1C L1C D1C S1C C2P L2P D2P S2P                      SYS / # / OBS TYPES
C    8 C1I L1I D1I S1I C7I L7I D7I S7I                      SYS / # / OBS TYPES
E    8 C1C L1C D1C S1C C7Q L7Q D7Q S7Q                      SYS / # / OBS TYPES
DBHZ                                                        COMMENT
     30.000                                                 INTERVAL
  2020    05    13    17    00    0.0000000     GPS         TIME OF FIRST OBS
  2020    05    13    17    59   30.0000000     GPS         TIME OF LAST OBS
     0                                                      RCV CLOCK OFFS APPL
G L1C  0.00000                                              SYS / PHASE SHIFT
G L2Y  0.00000                                              SYS / PHASE SHIFT
R L1C  0.00000                                              SYS / PHASE SHIFT
R L2P  0.25000                                              SYS / PHASE SHIFT
C L1I  0.00000                                              SYS / PHASE SHIFT
C L7I  0.00000                                              SYS / PHASE SHIFT
E L1C  0.50000                                              SYS / PHASE SHIFT
E L7Q -0.25000                                              SYS / PHASE SHIFT
 13 R01  1 R02 -4 R03  5 R07  5 R08  6 R10 -5 R12 -1 R13 -2 GLONASS SLOT / FRQ #
    R14 -7 R15  0 R17  4 R22 -3 R23  3                      GLONASS SLOT / FRQ #
 C1C   71.950 C2C   71.950 C2P   71.950                     GLONASS COD/PHS/BIS
    18                                                      LEAP SECONDS
*** Above antenna height is from mark to ANTENNA BOTTOM.    COMMENT
    17     4        0.0000        ANT MEASURE TYPE/HEIGT    COMMENT
    0.0000    0.0000    0.0458    0.0405    0.0000          COMMENT
                    BASE STATION                            COMMENT
                                                            END OF HEADER
> 2020 05 13 17 00  0.0000000  0 19        .000000000000
G08  20565281.961 5 108071282.559 5      1119.969          35.000    20565283.211 5  84211386.432 5       872.709          35.000
G10  21220133.695 8 111512607.182 8     -1352.973          49.000    21220135.258 8  86892956.553 8     -1054.264          49.000
G11  21679757.297 5 113927901.558 5      2659.285          34.000
G16  23514055.648 6 123567221.838 6     -3619.164          39.000    23514056.555 6  96286139.592 6     -2820.125          36.000
G22  24295762.133 6 127675085.250 6      3559.461          36.000
G27  20524509.000 8 107857017.825 8     -1134.574          51.000    20524511.156 8  84044424.352 8      -884.084          51.000
G32  23709978.172 8 124596770.751 8      2771.270          48.000    23709983.992 8  97088414.619 8      2159.431          48.000
R01  21232656.523 4 113500671.075 4     -2292.656          29.000
R02  20309781.914 8 108376965.415 8      2681.172          51.000    20309787.352 8  84293206.542 8      2085.359          49.000
R15  22655300.367 7 121063159.492 7     -3436.750          44.000    22655306.109 7  94160138.001 7     -2673.031          44.000
R17  19555084.117 5 104643199.294 5       620.879          34.000    19555081.656 4  81389125.513 4       482.909          29.000
C05  39632736.742 5 206378059.267 5       -20.039          35.000
C11  21972936.211 8 114418892.368 8      -661.160          51.000    21972936.867 8  88475891.465 8      -511.248          51.000
C12  25093130.953 4 130666515.366 4     -2617.535          29.000    25093129.211 5 101039637.267 5     -2023.896          30.000
C14  23327501.148 7 121472399.822 7      2834.324          47.000    23327500.352 8  93930213.476 8      2191.631          49.000
C21  23555704.570 5 122660816.156 5     -1527.242          33.000
E03  25585741.031 8 134454054.801 8      2226.375          51.000    25585743.430 8 103023255.053 8      1705.900          51.000
E15  23179849.133 7 121810901.601 7       196.137          46.000    23179851.711 7  93335652.425 7       150.343          47.000
E27  25626954.570 8 134670545.322 8     -2146.812          50.000    25626958.906 8 103189155.148 8     -1644.927          48.000
> 2020 05 13 17 00 30.0000000  0 18        .000000000000
G08  20558925.930 6 108037882.814 6      1107.418          36.000    20558928.227 5  84185360.620 5       862.920          35.000
G10  21227903.461 8 111553437.037 8     -1368.387          48.000    21227904.664 8  86924772.034 8     -1066.272          48.000
G11  21664600.227 4 113848248.677 4      2652.352          29.000
G16  23534731.891 6 123675866.545 6     -3623.230          37.000    23534731.234 5  96370797.810 5     -2823.296          33.000
G22  24275455.734 5 127568369.594 5      3556.012          33.000
G27  20531028.484 8 107891277.575 8     -1148.586          51.000    20531030.469 8  84071120.241 8      -895.002          51.000
G32  23694177.336 8 124513734.219 8      2765.289          48.000    23694182.672 8  97023710.905 8      2154.774          49.000
R02  20294768.297 8 108296849.184 8      2660.734          51.000    20294773.234 8  84230893.979 8      2069.463          48.000
R15  22674625.602 7 121166428.108 7     -3447.066          45.000    22674631.469 7  94240457.965 7     -2681.055          43.000
R17  19551634.258 6 104624733.947 6       610.953          36.000    19551634.516 5  81374763.666 5       475.192          30.000
C05  39632851.648 5 206378657.972 5       -19.285          35.000
C11  21976771.508 8 114438863.508 8      -669.531          51.000    21976772.172 8  88491334.413 8      -517.715          51.000
C14  23311198.352 7 121387510.372 7      2825.973          47.000    23311197.211 8  93864571.616 8      2185.049          48.000
C21  23564542.391 6 122706843.362 6     -1540.555          36.000
C23  26301799.039 4 136960380.239 4     -2534.020          29.000
E03  25573055.844 8 134387394.814 8      2218.320          51.000    25573058.758 8 102972177.954 8      1699.755          51.000
E15  23178743.523 7 121805090.296 7       192.031          46.000    23178746.094 8  93331199.605 8       147.096          48.000
E27  25639237.391 8 134735090.867 8     -2155.527          51.000    25639240.430 8 103238612.093 8     -1651.593          48.000
> 2020 05 13 17 01  0.0000000  0 16        .000000000000
G08  20552647.031 6 108004886.890 6      1093.168          38.000    20552649.602 6  84159649.475 6       851.819          38.000
G10  21235763.414 8 111594741.213 8     -1384.461          50.000    21235764.062 8  86956957.130 8     -1078.801          48.000
G16  23555432.383 6 123784641.432 6     -3627.734          38.000    23555430.617 5  96455557.373 5     -2826.809          35.000
G27  20537631.352 8 107925976.074 8     -1163.809          51.000    20537633.336 8  84098158.010 8      -906.864          51.000
G32  23678414.562 7 124430898.551 7      2758.004          47.000    23678419.109 7  96959163.702 7      2149.097          47.000
R02  20279873.602 8 108217365.352 8      2639.090          51.000    20279877.617 8  84169073.250 8      2052.628          49.000
R15  22694013.516 7 121270028.158 7     -3458.523          45.000    22694019.242 7  94321035.706 7     -2689.963          44.000
R17  19548245.180 5 104606596.432 5       599.254          33.000    19548246.156 4  81360656.703 4       466.086          29.000
C05  39632964.578 5 206379245.167 5       -19.543          35.000    39632964.625 5 159585523.454 5       -14.508          34.000
C11  21980658.914 8 114459106.286 8      -679.094          51.000    21980659.477 8  88506987.401 8      -525.013          51.000
C14  23294948.039 7 121302895.139 7      2816.020          46.000    23294946.570 7  93799141.787 7      2177.652          47.000
C21  23573460.953 5 122753297.149 5     -1555.180          34.000
C23  26316416.953 5 137036487.250 5     -2539.168          31.000
E03  25560420.695 8 134320997.705 8      2209.180          51.000    25560424.625 8 102921302.286 8      1692.760          51.000
E15  23177665.055 7 121799423.926 7       186.695          45.000    23177667.914 7  93326857.809 7       143.109          47.000
E27  25651574.430 8 134799920.751 8     -2165.445          51.000    25651576.539 7 103288286.892 7     -1659.204          47.000
> 2020 05 13 17 01 30.0000000  0 16        .000000000000
G08  20546445.852 6 107972297.841 6      1078.238          39.000    20546447.125 6  84134255.429 6       840.189          39.000
G10  21243713.555 8 111636519.877 8     -1401.668          48.000    21243714.375 7  86989511.945 7     -1092.209          47.000
G16  23576157.055 6 123893545.738 6     -3633.391          39.000    23576152.867 4  96540405.854 4     -2831.210          26.000
G27  20544318.031 8 107961115.028 8     -1179.855          51.000    20544319.992 8  84125539.005 8      -919.368          51.000
G32  23662690.461 7 124348268.660 7      2749.668          46.000    23662694.570 7  96894776.830 7      2142.598          46.000
R02  20265098.469 8 108138519.053 8      2616.379          51.000    20265101.945 8  84107748.396 8      2034.964          49.000
R15  22713463.477 7 121373956.846 7     -3471.105          44.000    22713469.047 7  94401869.063 7     -2699.752          45.000
R17  19544912.555 5 104588784.617 5       586.578          32.000    19544919.758 4  81346839.954 4       456.237          28.000
C05  39633075.875 5 206379824.689 5       -20.023          35.000    39633075.664 5 159585972.628 5       -15.731          35.000
C11  21984599.023 8 114479622.930 8      -689.645          51.000    21984599.297 8  88522852.184 8      -533.180          51.000
C14  23278751.242 7 121218558.009 7      2805.410          46.000    23278749.234 7  93733927.010 7      2169.415          47.000
C21  23582506.273 5 122800281.920 5     -1570.805          32.000
C23  26331050.750 5 137112708.795 5     -2543.707          32.000
E03  25547836.336 8 134254867.082 8      2198.793          51.000    25547841.156 8 102870630.815 8      1684.786          51.000
E15  23176614.234 7 121793904.412 7       180.422          45.000    23176617.281 7  93322628.569 7       138.203          47.000
E27  25663965.664 8 134865034.880 8     -2176.277          51.000    25663966.953 8 103338179.510 8     -1667.549          48.000
> 2020 05 13 17 02  0.0000000  0 17        .000000000000
G08  20540329.938 6 107940157.033 6      1064.504          39.000    20540329.711 6  84109210.694 6       829.484          39.000
G10  21251761.227 8 111678811.004 8     -1417.387          48.000    21251761.922 7  87022466.102 7     -1104.457          45.000
G11  21619377.430 5 113610594.301 5      2629.184          30.000
G16  23596913.016 6 124002616.586 6     -3637.504          39.000
G27  20551096.086 8 107996734.049 8     -1194.508          51.000    20551098.133 8  84153294.082 8      -930.785          51.000
G32  23647013.188 7 124265887.335 7      2742.789          46.000    23647017.266 7  96830583.643 7      2137.238          46.000
R02  20250450.875 8 108060354.367 8      2594.934          51.000    20250453.625 7  84046953.673 7      2018.285          47.000
R15  22732981.242 7 121478250.150 7     -3481.562          42.000    22732986.648 7  94482986.014 7     -2707.882          45.000
R17  19541650.609 4 104571318.685 4       575.574          29.000
R24  21359877.898 5 114220878.703 5     -2370.109          30.000
C05  39633193.047 5 206380434.900 5       -20.391          35.000    39633192.727 5 159586442.978 5       -15.529          35.000
C11  21988599.375 8 114500453.373 8      -698.801          51.000    21988599.258 8  88538959.596 8      -540.236          51.000
C14  23262616.117 7 121134540.386 7      2796.133          47.000    23262613.977 8  93668959.300 8      2162.099          48.000
C23  26345716.328 4 137189090.214 4     -2547.566          29.000
E03  25535310.758 8 134189044.442 8      2189.750          51.000    25535316.000 8 102820195.313 8      1677.866          51.000
E15  23175599.062 7 121788571.703 7       175.539          46.000    23175601.906 7  93318542.478 7       134.486          47.000
E27  25676417.938 8 134930471.243 8     -2185.645          51.000    25676419.125 8 103388319.024 8     -1674.703          49.000
> 2020 05 13 17 02 30.0000000  0 15        .000000000000
G08  20534294.789 6 107908442.202 6      1054.207          38.000    20534294.469 6  84084497.872 6       821.463          39.000
G10  21259901.445 7 111721588.919 7     -1430.137          46.000    21259901.812 7  87055799.577 7     -1114.389          46.000
G16  23617695.227 6 124111827.115 6     -3638.645          41.000    23617686.680 4  96710468.972 4     -2835.307          25.000
G27  20557960.898 8 108032809.097 8     -1206.113          51.000    20557963.023 8  84181404.494 8      -939.829          51.000
G32  23631379.664 7 124183733.674 7      2738.680          47.000    23631383.422 7  96766567.840 7      2134.036          47.000
R02  20235926.625 8 107982850.113 8      2576.527          51.000    20235929.133 7  83986672.605 7      2003.969          47.000
R15  22752561.078 7 121582878.890 7     -3489.141          44.000    22752566.680 7  94564363.913 7     -2713.779          45.000
C05  39633311.539 5 206381052.082 5       -16.891          35.000    39633311.258 5 159586920.223 5       -12.777          35.000
C11  21992655.312 8 114521574.200 8      -704.969          51.000    21992655.062 8  88555291.561 8      -545.133          51.000
C12  25168829.789 5 131060706.148 5     -2635.516          32.000
C14  23246538.602 8 121050820.541 8      2789.625          48.000    23246536.867 8  93604221.814 8      2157.121          50.000
C21  23600745.016 4 122895288.453 4     -1595.324          28.000
E03  25522839.695 8 134123507.632 8      2183.777          51.000    25522844.805 8 102769978.822 8      1673.290          51.000
E15  23174615.195 7 121783401.970 7       173.566          46.000    23174617.555 7  93314581.263 7       133.055          46.000
E27  25688926.422 8 134996204.057 8     -2192.066          51.000    25688927.898 8 103438685.712 8     -1679.629          49.000
> 2020 05 13 17 03  0.0000000  0 15        .000000000000
G01  23468347.203 5 123326996.736 5      2951.270          31.000
G08  20528334.289 6 107877121.754 6      1036.867          37.000    20528334.680 6  84060092.296 6       807.948          37.000
G10  21268127.711 7 111764818.712 7     -1448.844          45.000    21268128.836 7  87089485.183 7     -1128.969          46.000
G16  23638496.914 6 124221141.372 6     -3645.840          41.000    23638493.477 4  96795672.734 4     -2840.914          29.000
G27  20564906.125 8 108069306.828 8     -1223.758          51.000    20564908.352 8  84209844.281 8      -953.578          51.000
G32  23615784.133 8 124101777.445 8      2728.289          48.000    23615787.367 7  96702705.897 7      2125.940          47.000
R02  20221520.039 8 107905976.249 8      2551.711          49.000    20221523.188 8  83926881.817 8      1984.667          48.000
R15  22772196.820 7 121687805.127 7     -3502.555          44.000    22772202.398 7  94645973.174 7     -2724.212          45.000
C05  39633425.172 5 206381644.429 5       -19.516          35.000    39633424.844 5 159587376.981 5       -14.616          35.000
C11  21996760.734 8 114542953.043 8      -717.164          51.000    21996760.570 8  88571823.031 8      -554.496          51.000
C12  25184047.055 5 131139936.952 5     -2642.965          31.000
C14  23230512.859 8 120967367.692 8      2777.074          49.000    23230511.625 8  93539690.784 8      2147.461          51.000
E03  25510416.945 8 134058225.248 8      2171.746          51.000    25510421.383 8 102719957.259 8      1664.017          51.000
E15  23173656.219 7 121778362.224 7       165.656          47.000    23173658.367 7  93310719.655 7       126.952          47.000
E27  25701484.492 8 135062198.368 8     -2204.305          51.000    25701486.531 8 103489252.776 8     -1689.019          49.000
> 2020 05 13 17 03 30.0000000  0 16        .000000000000
G08  20522455.930 6 107846233.877 6      1023.656          36.000    20522456.820 6  84036023.778 6       797.654          36.000
G10  21276446.742 7 111808535.211 7     -1464.297          45.000    21276447.734 7  87123550.024 7     -1141.008          45.000
G16  23659324.680 6 124330593.243 6     -3649.633          41.000    23659321.656 5  96880990.985 5     -2843.861          31.000
G27  20571938.664 8 108106263.632 8     -1238.387          51.000    20571941.039 8  84238641.805 8      -964.977          51.000
G32  23600233.828 7 124020058.372 7      2720.844          47.000    23600236.820 7  96639028.777 7      2120.141          47.000
R02  20207238.898 8 107829772.981 8      2529.973          50.000    20207242.930 8  83867612.613 8      1967.760          48.000
R15  22791894.562 7 121793061.470 7     -3512.992          46.000    22791899.852 7  94727839.160 7     -2732.330          45.000
R17  19532265.695 5 104521079.801 5       541.738          32.000    19532296.891 4  81294239.194 4       421.358          28.000
C05  39633540.820 5 206382246.188 5       -19.289          35.000    39633540.508 5 159587843.811 5       -14.577          35.000
C11  22000922.797 8 114564626.587 8      -726.355          51.000    22000922.742 8  88588582.364 8      -561.625          51.000
C12  25199289.078 4 131219310.139 4     -2645.812          28.000    25199289.312 5 101467091.822 5     -2046.865          30.000
C14  23214545.758 8 120884220.053 8      2767.594          49.000    23214545.039 8  93475395.767 8      2140.055          51.000
C21  23619361.531 4 122992157.457 4     -1627.203          28.000
E03  25498049.703 8 133993235.580 8      2162.457          50.000    25498053.680 8 102670160.020 8      1656.963          50.000
E15  23172728.852 7 121773489.210 7       160.738          47.000    23172731.445 8  93306985.788 8       123.142          48.000
E27  25714099.141 8 135128488.880 8     -2213.520          51.000    25714101.797 8 103540046.769 8     -1696.064          50.000
> 2020 05 13 17 04  0.0000000  0 17        .000000000000
G08  20516661.758 6 107815787.895 6      1007.668          39.000    20516663.117 6  84012299.608 6       785.199          38.000
G10  21284859.523 7 111852744.546 7     -1481.371          47.000    21284859.625 7  87157998.883 7     -1154.315          45.000
G16  23680179.469 6 124440187.839 6     -3654.938          41.000    23680177.078 4  96966389.326 4     -2847.997          29.000
G20  23120839.312 5 121500828.577 5     -3110.797          35.000    23120842.023 5  94675981.479 5     -2423.998          33.000
G27  20579059.961 8 108143687.341 8     -1254.711          51.000    20579062.734 8  84267803.141 8      -977.697          51.000
G32  23584730.750 7 123938587.283 7      2712.055          47.000    23584733.398 7  96575544.900 7      2113.292          47.000
R01  21339581.016 4 114072289.100 4     -2470.477          29.000
R02  20193086.258 8 107754251.787 8      2506.449          51.000    20193090.195 7  83808873.900 7      1949.464          47.000
R15  22811654.797 7 121898651.380 7     -3524.660          47.000    22811659.820 7  94809964.584 7     -2741.405          44.000
R17  19529263.180 5 104505030.109 5       529.340          32.000    19529295.461 4  81281755.934 4       411.694          25.000
C05                                                                  39633659.562 5 159588322.780 5       -15.776          35.000
C11  22005143.227 8 114586603.039 8      -737.141          51.000    22005143.094 8  88605575.949 8      -570.058          51.000
C14  23198639.258 8 120801387.469 8      2756.285          50.000    23198638.633 8  93411344.370 8      2131.344          51.000
C21  23628794.125 4 123041331.274 4     -1643.230          29.000
E03  25485740.055 8 133928548.336 8      2151.512          51.000    25485742.953 8 102620594.513 8      1648.606          50.000
E15  23171834.758 7 121768791.047 7       154.141          47.000    23171838.102 8  93303385.892 8       118.126          49.000
E27  25726771.461 8 135195081.806 8     -2224.383          51.000    25726774.703 8 103591072.494 8     -1704.364          50.000
> 2020 05 13 17 04 30.0000000  0 17        .000000000000
G08  20510943.930 6 107785741.049 6       995.234          38.000    20510945.406 6  83988886.486 6       775.507          39.000
G10  21293357.344 7 111897400.521 7     -1495.590          47.000    21293358.156 7  87192795.740 7     -1165.395          46.000
G16  23701052.570 6 124549877.799 6     -3657.578          38.000    23701051.000 4  97051861.911 4     -2850.070          29.000
G20  23138617.211 5 121594248.302 5     -3116.582          35.000
G22  24114003.383 5 126719933.487 5      3515.926          32.000
G27  20586261.641 8 108181533.208 8     -1268.098          51.000    20586264.602 8  84297293.435 8      -988.128          51.000
G32  23569266.766 7 123857322.832 7      2705.418          46.000    23569268.867 7  96512222.021 7      2108.121          46.000
R02  20179053.977 8 107679370.297 8      2485.676          51.000    20179057.453 7  83750632.747 7      1933.306          47.000
R15  22831468.133 7 122004525.037 7     -3533.492          47.000    22831472.961 7  94892310.714 7     -2748.272          44.000
R17  19526324.078 5 104489300.682 5       519.395          35.000
R24  21426986.836 5 114579666.559 5     -2412.004          31.000
C05  39633774.086 5 206383460.607 5       -18.836          35.000    39633773.789 5 159588782.403 5       -14.755          35.000
C11  22009413.250 8 114608838.782 8      -745.172          51.000    22009413.180 8  88622770.019 8      -576.193          51.000
C14  23182785.141 8 120718827.836 8      2747.734          50.000    23182784.000 8  93347504.068 8      2124.780          51.000
E03  25473480.117 8 133864120.752 8      2143.648          51.000    25473482.617 8 102571227.975 8      1642.524          51.000
E15  23170965.609 8 121764223.348 8       150.379          48.000    23170969.594 8  93299885.948 8       115.318          49.000
E27  25739492.227 8 135261930.694 8     -2232.156          50.000    25739496.203 8 103642294.351 8     -1710.380          50.000
> 2020 05 13 17 05  0.0000000  0 17        .000000000000
G08  20505307.984 6 107756121.978 6       980.082          39.000    20505309.250 6  83965806.675 6       763.700          39.000
G10  21301944.984 7 111942528.418 7     -1512.316          45.000    21301946.641 7  87227960.351 7     -1178.428          45.000
G16  23721947.953 5 124659687.446 5     -3662.539          33.000
G20  23156434.555 5 121687883.789 5     -3125.070          35.000
G22  24093947.836 5 126614556.904 5      3509.629          34.000    24093945.906 5  98660679.529 5      2734.776          31.000
G27  20593548.984 8 108219828.227 8     -1284.168          51.000    20593551.898 8  84327133.710 8     -1000.650          51.000
G32  23553847.453 7 123776295.125 7      2697.055          44.000    23553849.125 7  96449083.616 7      2101.604          44.000
R02  20165147.320 8 107605159.607 8      2462.340          51.000    20165150.203 7  83692913.384 7      1915.153          46.000
R15  22851338.547 7 122110705.517 7     -3544.711          46.000    22851343.281 7  94974895.480 7     -2757.000          43.000
R17  19523450.984 5 104473919.843 5       507.102          33.000
C05  39633888.531 5 206384057.054 5       -19.430          35.000    39633888.211 5 159589242.865 5       -15.381          35.000
C11  22013738.234 8 114631361.143 8      -755.727          51.000    22013738.398 8  88640185.725 8      -584.300          51.000
C14  23166988.641 8 120636570.087 8      2736.707          49.000    23166986.602 8  93283897.204 8      2116.186          50.000
C21  23647877.867 5 123140693.545 5     -1670.906          30.000
E03  25461275.172 8 133799981.713 8      2132.977          51.000    25461277.727 8 102522082.521 8      1634.335          51.000
E15  23170126.594 8 121759813.455 8       144.156          49.000    23170130.844 8  93296506.927 8       110.532          50.000
E27  25752266.281 8 135329060.839 8     -2242.559          50.000    25752270.914 8 103693731.710 8     -1718.303          50.000
> 2020 05 13 17 05 30.0000000  0 17        .000000000000
G08  20499754.984 6 107726938.934 6       965.961          40.000    20499756.648 6  83943066.648 6       752.697          41.000
G10  21310623.383 7 111988133.684 7     -1527.625          44.000    21310624.641 7  87263496.934 7     -1190.354          44.000
G16  23742866.922 5 124769621.384 5     -3665.535          32.000
G20  23174294.008 5 121781739.870 5     -3131.020          34.000
G22  24073930.867 6 126509359.282 6      3503.777          37.000    24073931.867 4  98578724.587 4      2730.216          25.000
G27  20600923.297 8 108258579.421 8     -1298.992          51.000    20600926.086 8  84357329.417 8     -1012.202          51.000
G32  23538475.344 7 123695514.504 7      2688.996          45.000    23538476.578 7  96386137.686 7      2095.322          44.000
R02  20151368.305 8 107531630.164 8      2440.086          51.000    20151369.633 7  83635723.889 7      1897.848          44.000
R15  22871266.336 7 122217195.482 7     -3554.336          45.000    22871270.891 7  95057720.927 7     -2764.487          42.000
R17  19520643.500 5 104458896.526 5       495.062          33.000    19520670.633 4  81245885.216 4       385.049          26.000
C05  39634004.516 5 206384660.952 5       -19.594          35.000    39634004.375 5 159589711.313 5       -15.357          35.000
C11  22018119.773 8 114654177.656 8      -765.047          50.000    22018120.234 8  88657828.892 8      -591.580          51.000
C14  23151251.766 8 120554623.363 8      2726.684          48.000    23151248.562 8  93220530.850 8      2108.481          49.000
C21  23657546.180 5 123191050.521 5     -1684.785          31.000
E03  25449126.672 8 133736140.175 8      2123.477          51.000    25449129.766 8 102473165.018 8      1627.020          51.000
E15  23169318.977 8 121755568.767 8       139.121          49.000    23169323.078 8  93293254.496 8       106.644          50.000
E27  25765095.086 8 135396477.669 8     -2251.609          51.000    25765099.734 8 103745388.753 8     -1725.265          49.000
> 2020 05 13 17 06  0.0000000  0 18        .000000000000
G08  20494283.852 6 107698186.513 6       950.660          41.000    20494285.648 7  83920662.154 7       740.774          42.000
G10  21319390.789 7 112034206.971 7     -1544.035          43.000    21319391.938 7  87299398.221 7     -1203.141          43.000
G14  24713239.086 6 129868946.439 6      2991.777          40.000    24713241.750 5 101196592.921 5      2331.255          35.000
G16  23763808.562 5 124879669.712 5     -3670.918          32.000
G20  23192193.633 4 121875806.852 4     -3140.262          29.000
G22  24053944.344 6 126404323.868 6      3497.715          38.000    24053945.727 4  98496887.700 4      2725.483          27.000
G27  20608382.938 8 108297779.048 8     -1314.828          51.000    20608385.383 8  84387874.549 8     -1024.541          51.000
G32  23523149.477 7 123614976.351 7      2680.062          45.000    23523150.969 7  96323380.725 7      2088.360          45.000
R02  20137715.836 8 107458777.659 8      2416.480          51.000    20137715.992 7  83579060.897 7      1879.488          45.000
R15  22891249.727 7 122323982.890 7     -3565.102          45.000    22891253.930 7  95140777.710 7     -2772.860          42.000
R17  19517901.875 5 104444224.043 5       482.574          32.000
C05  39634120.734 5 206385265.719 5       -20.676          35.000    39634120.508 5 159590178.468 5       -16.175          34.000
C11  22022556.656 8 114677281.244 8      -775.410          51.000    22022557.352 8  88675694.039 8      -599.614          51.000
C14  23135573.359 8 120472982.199 8      2715.590          48.000    23135569.367 8  93157400.770 8      2099.948          49.000
C21  23667290.570 5 123241792.885 5     -1699.188          30.000
E03  25437033.297 8 133672590.308 8      2112.918          51.000    25437036.898 8 102424471.000 8      1618.986          51.000
E15  23168541.430 8 121751481.955 8       132.922          50.000    23168545.000 8  93290123.043 8       101.876          49.000
E27  25777977.070 8 135464171.801 8     -2261.637          51.000    25777980.867 8 103797258.242 8     -1732.927          49.000
> 2020 05 13 17 06 30.0000000  0 18        .000000000000
G08  20488895.586 7 107669870.576 7       936.738          43.000    20488897.000 7  83898597.823 7       729.929          42.000
G10  21328247.742 7 112080751.341 7     -1559.145          44.000    21328249.484 7  87335666.567 7     -1214.918          44.000
G14  24696158.945 6 129779186.392 6      2991.855          41.000    24696159.438 5 101126650.171 5      2331.316          35.000
G16  23784773.273 5 124989834.189 5     -3674.238          34.000
G20  23210133.773 5 121970076.397 5     -3146.648          31.000
G22  24033990.164 6 126299457.528 6      3492.742          39.000    24033991.633 5  98415173.721 5      2721.614          30.000
G27  20615928.766 8 108337431.677 8     -1329.133          51.000    20615930.844 8  84418772.672 8     -1035.688          51.000
G32  23507871.250 7 123534688.570 7      2672.289          44.000    23507873.320 7  96260818.832 7      2082.303          44.000
R02  20124191.344 8 107386609.813 8      2394.309          51.000    20124191.945 7  83522930.415 7      1862.243          47.000
R15  22911289.000 7 122431068.150 7     -3574.320          43.000    22911293.328 6  95224066.174 6     -2780.027          41.000
R17  19515226.180 5 104429908.686 5       471.359          35.000    19515246.695 4  81223312.043 4       366.610          26.000
R24  21481503.820 5 114871221.793 5     -2446.348          33.000    21481512.477 4  89344343.662 4     -1902.715          24.000
C05  39634238.008 5 206385876.837 5       -20.406          35.000    39634237.734 5 159590650.619 5       -15.610          35.000
C11  22027049.688 8 114700677.180 8      -784.551          50.000    22027050.484 8  88693785.256 8      -606.782          51.000
C14  23119954.719 8 120391653.321 8      2705.953          48.000    23119950.750 8  93094512.146 8      2092.400          50.000
E03  25424996.555 8 133609338.769 8      2103.691          51.000    25425000.492 8 102376005.525 8      1611.866          51.000
E15  23167794.828 8 121747557.999 8       128.266          49.000    23167797.844 8  93287116.388 8        98.293          49.000
E27  25790912.484 8 135532146.262 8     -2270.285          51.000    25790914.898 8 103849342.528 8     -1739.623          49.000
> 2020 05 13 17 07  0.0000000  0 19        .000000000000
G08  20483589.289 6 107641987.150 6       923.508          41.000    20483590.891 6  83876870.468 6       719.616          41.000
G10  21337193.055 7 112127759.340 7     -1573.785          42.000    21337194.461 7  87372296.123 7     -1226.329          42.000
G14  24679083.062 6 129689446.523 6      2992.031          41.000    24679081.773 5 101056723.195 5      2331.459          33.000
G16  23805758.594 5 125100106.441 5     -3675.777          32.000
G20  23228113.148 5 122064562.687 5     -3151.922          33.000
G22  24014067.516 6 126194756.409 6      3488.281          39.000    24014067.289 4  98333591.493 4      2718.150          26.000
G27  20623559.539 8 108377531.439 8     -1342.945          51.000    20623561.469 8  84450019.205 8     -1046.454          51.000
G32  23492639.992 7 123454648.570 7      2665.094          43.000    23492642.906 7  96198450.031 7      2076.696          42.000
R02  20110794.852 8 107315124.862 8      2372.504          51.000    20110796.484 8  83467331.022 8      1845.281          49.000
R15  22931382.008 7 122538440.778 7     -3582.809          44.000    22931386.945 6  95307578.183 6     -2786.632          40.000
R17  19512617.211 5 104415945.621 5       460.504          34.000
R24  21495248.625 5 114944738.295 5     -2454.133          30.000
C05  39634355.406 5 206386488.088 5       -19.094          35.000    39634355.047 5 159591123.394 5       -14.589          35.000
C11  22031597.688 8 114724360.221 8      -793.184          50.000    22031598.430 8  88712098.468 8      -613.186          51.000
C14  23104395.383 8 120310633.128 8      2696.621          48.000    23104392.031 8  93031862.208 8      2085.244          50.000
C21  23687001.391 4 123344392.632 4     -1725.953          29.000
E03  25413015.453 8 133546381.524 8      2094.711          50.000    25413020.477 8 102327765.576 8      1605.065          51.000
E15  23167078.148 8 121743791.457 8       124.023          50.000    23167080.758 8  93284230.345 8        95.112          49.000
E27  25803899.836 8 135600393.459 8     -2278.316          51.000    25803901.203 8 103901635.789 8     -1745.651          49.000
> 2020 05 13 17 07 30.0000000  0 17        .000000000000
G08  20478365.805 7 107614539.230 7       908.008          42.000    20478368.094 7  83855482.469 7       707.539          42.000
G10  21346226.422 6 112175230.600 6     -1589.762          37.000    21346228.156 6  87409286.771 6     -1238.769          37.000
G14  24662011.102 6 129599731.262 6      2989.969          41.000    24662009.805 5 100986815.349 5      2329.849          35.000
G16  23826763.836 6 125210485.433 6     -3681.016          36.000
G20  23246131.977 5 122159254.333 5     -3159.668          33.000
G22  23994176.797 6 126090224.388 6      3481.691          40.000    23994175.234 5  98252137.978 5      2713.018          33.000
G27  20631275.547 8 108418079.755 8     -1358.992          51.000    20631277.609 8  84481615.263 8     -1058.958          51.000
G32  23477456.773 7 123374861.041 7      2655.469          42.000    23477460.164 7  96136277.934 7      2069.196          42.000
R02  20097526.484 8 107244326.426 8      2348.422          50.000    20097529.570 8  83412265.572 8      1826.550          49.000
R15  22951528.305 7 122646098.082 7     -3593.258          44.000    22951532.836 6  95391311.605 6     -2794.756          39.000
C05  39634473.141 5 206387100.793 5       -20.918          35.000    39634472.672 5 159591596.664 5       -15.770          35.000
C11  22036201.102 8 114748332.568 8      -803.797          50.000    22036201.828 8  88730635.395 8      -621.550          51.000
C14  23088895.938 8 120229925.191 8      2685.188          48.000    23088893.617 8  92969453.754 8      2076.357          51.000
C21  23696999.195 5 123396406.771 5     -1740.297          31.000
E03  25401091.156 8 133483722.013 8      2083.742          50.000    25401097.039 8 102279753.755 8      1596.682          51.000
E15  23166391.812 8 121740184.235 8       117.668          51.000    23166394.094 8  93281466.377 8        90.176          49.000
E27  25816938.867 8 135668913.272 8     -2288.387          51.000    25816940.188 8 103954137.942 8     -1753.445          50.000
> 2020 05 13 17 08  0.0000000  0 19        .000000000000
G08  20473221.461 7 107587505.936 7       896.156          44.000    20473223.438 7  83834417.555 7       698.304          44.000
G10  21355343.727 6 112223141.251 6     -1602.336          41.000    21355345.727 6  87446619.756 6     -1248.573          41.000
G14  24644939.617 7 129510021.022 7      2992.148          42.000    24644938.805 5 100916911.402 5      2331.544          34.000
G16  23847784.281 5 125320945.884 5     -3680.703          32.000
G22  23974313.641 6 125985841.014 6      3478.996          39.000    23974310.625 4  98170800.360 4      2710.909          29.000
G27  20639072.562 8 108459054.100 8     -1370.887          51.000    20639074.672 8  84513543.307 8     -1068.223          51.000
G32  23462318.094 7 123295306.627 7      2650.105          42.000    23462321.070 7  96074287.508 7      2065.017          42.000
R02  20084382.727 8 107174195.603 8      2328.418          48.000    20084387.477 8  83357719.366 8      1810.992          49.000
R15  22971722.656 7 122754012.625 7     -3599.410          45.000    22971725.070 6  95475245.068 6     -2799.544          37.000
R17  19507591.688 5 104389084.690 5       439.113          32.000    19507595.328 4  81191524.839 4       341.539          26.000
R24  21522887.000 5 115092535.689 5     -2468.340          30.000    21522898.727 4  89516448.440 4     -1919.823          27.000
C05  39634586.992 6 206387694.291 6       -17.848          36.000
C11  22040856.234 8 114772572.357 8      -810.535          50.000    22040856.617 8  88749379.124 8      -626.676          51.000
C12  25337604.828 4 131939533.634 4     -2683.539          29.000
C14  23073452.594 8 120149509.419 8      2677.621          49.000    23073451.258 8  92907271.210 8      2070.506          51.000
C21  23707070.898 5 123448815.843 5     -1751.664          33.000
E03  25389220.109 8 133421339.616 8      2076.855          51.000    25389226.273 8 102231954.285 8      1591.381          51.000
E15  23165731.602 8 121736714.251 8       115.391          51.000    23165733.586 8  93278807.555 8        88.455          50.000
E27  25830024.992 8 135737681.510 8     -2294.383          51.000    25830026.656 8 104006830.431 8     -1757.983          51.000
> 2020 05 13 17 08 30.0000000  0 18        .000000000000
G01  23284788.578 4 122362389.266 4      2893.102          29.000
G08  20468171.586 7 107560968.751 7       877.262          43.000    20468173.156 7  83813739.231 7       683.581          43.000
G10  21364559.148 5 112271569.023 5     -1622.027          34.000    21364560.836 5  87484355.588 5     -1263.917          34.000
G14  24627884.734 7 129420398.445 7      2987.109          44.000    24627883.844 5 100847075.750 5      2327.621          33.000
G16  23868834.742 5 125431564.917 5     -3688.879          34.000
G22  23954493.820 6 125881687.728 6      3469.141          41.000    23954485.422 4  98089613.217 4      2703.226          28.000
G27  20646965.766 8 108500533.768 8     -1390.039          51.000    20646967.648 8  84545865.120 8     -1083.147          51.000
G32  23447239.250 6 123216068.046 6      2637.188          40.000    23447241.695 6  96012543.199 6      2054.951          40.000
R02  20071380.336 8 107104816.272 8      2301.098          49.000    20071386.195 8  83303757.666 8      1789.746          49.000
R15  22991980.047 7 122862261.136 7     -3612.707          47.000    22991980.102 6  95559438.277 6     -2809.886          37.000
R17  19505190.812 5 104376226.638 5       423.395          34.000    19505192.547 4  81181524.103 4       329.310          29.000
C05  39634711.953 5 206388344.525 5       -21.801          35.000    39634711.602 5 159592558.434 5       -16.809          35.000
C11  22045578.125 8 114797159.026 8      -824.332          51.000    22045578.156 8  88768391.084 8      -637.284          51.000
C14  23058081.070 8 120069466.672 8      2662.828          49.000    23058080.328 8  92845377.104 8      2059.161          51.000
C21  23717234.367 4 123501696.257 4     -1769.641          28.000
E03  25377417.547 8 133359315.674 8      2062.582          51.000    25377422.945 8 102184429.444 8      1580.396          51.000
E15  23165112.578 8 121733461.299 8       105.902          51.000    23165114.445 8  93276315.025 8        81.155          50.000
E27  25843173.320 8 135806775.886 8     -2307.461          51.000    25843175.258 8 104059772.852 8     -1768.048          51.000
> 2020 05 13 17 09  0.0000000  0 16        .000000000000
G01  23268293.141 5 122275701.765 5      2890.395          34.000
G08  20463196.398 7 107534823.795 7       865.785          45.000    20463198.117 7  83793366.538 7       674.638          45.000
G14  24610826.969 7 129330761.542 7      2988.633          43.000    24610825.617 5 100777228.890 5      2328.805          32.000
G16  23889894.008 5 125542235.001 5     -3689.078          35.000
G22  23934697.836 6 125777661.604 6      3465.930          40.000
G27  20654935.305 8 108542413.522 8     -1401.973          51.000    20654937.031 8  84578498.696 8     -1092.446          51.000
G32  23432201.148 7 123137043.295 7      2631.559          42.000    23432203.250 6  95950965.477 6      2050.565          41.000
R02  20058499.641 8 107036084.279 8      2280.844          49.000    20058505.945 8  83250299.486 8      1773.990          48.000
R15  23012279.969 8 122970732.117 8     -3618.598          49.000    23012278.945 6  95643804.482 6     -2814.468          37.000
R17  19502846.219 5 104363679.017 5       413.531          34.000    19502850.422 5  81171764.802 5       321.632          31.000
C05  39634828.352 5 206388950.574 5       -18.918          35.000
C11  22050346.648 8 114821988.913 8      -831.180          51.000    22050346.414 8  88787591.123 8      -642.760          51.000
C14  23042761.562 8 119989694.877 8      2655.113          48.000    23042761.031 8  92783692.496 8      2053.102          51.000
E03  25365663.609 8 133297546.863 8      2055.246          51.000    25365667.531 8 102137100.129 8      1574.793          49.000
E15  23164514.773 8 121730320.610 8       103.379          51.000    23164516.914 8  93273908.515 8        79.173          50.000
E27  25856363.422 8 135876089.599 8     -2313.543          51.000    25856365.523 8 104112883.335 8     -1772.661          51.000
> 2020 05 13 17 09 30.0000000  0 17        .000000000000
G01  23251812.172 5 122189096.894 5      2882.527          35.000
G08  20458298.500 7 107509084.431 7       848.445          46.000    20458299.961 7  83773309.889 7       661.126          46.000
G14  24593768.852 7 129241124.903 7      2985.156          42.000    24593766.930 5 100707382.195 5      2326.093          31.000
G16  23910964.539 6 125652964.675 6     -3694.594          37.000
G22  23914928.078 6 125673775.970 6      3457.605          37.000
G27  20662983.133 8 108584704.841 8     -1419.195          51.000    20662984.711 8  84611452.953 8     -1105.866          51.000
G32  23417206.734 7 123058247.137 7      2620.125          43.000    23417208.672 7  95889565.884 7      2041.656          43.000
R02  20045743.695 8 106968015.186 8      2255.117          50.000    20045749.648 7  83197356.892 7      1753.983          47.000
R15  23032623.086 8 123079433.042 8     -3629.840          49.000    23032621.922 6  95728349.574 6     -2823.209          38.000
R17  19500559.070 5 104351454.719 5       399.406          31.000    19500565.211 5  81162257.035 5       310.643          31.000
C05  39634938.320 5 206389523.096 5       -21.238          34.000    39634938.062 6 159593470.756 6       -16.649          36.000
C11  22055164.109 8 114847074.020 8      -843.070          51.000    22055163.734 8  88806988.513 8      -652.003          51.000
C14  23027496.578 8 119910207.552 8      2642.055          48.000    23027496.461 8  92722227.850 8      2043.065          51.000
C21  23737725.273 5 123608556.953 5     -1796.055          31.000
E03  25353960.812 8 133236046.595 8      2042.930          51.000    25353962.992 8 102089976.612 8      1565.323          49.000
E15  23163940.594 8 121727304.125 8        95.703          51.000    23163943.273 8  93271597.174 8        73.394          51.000
E27  25869596.945 8 135945632.483 8     -2324.637          51.000    25869599.062 8 104166169.414 8     -1781.182          51.000
> 2020 05 13 17 10  0.0000000  0 16        .000000000000
G08  20453500.719 7 107483870.220 7       832.090          46.000    20453501.688 7  83753662.459 7       648.385          46.000
G10  21392703.312 5 112419413.860 5     -1667.914          35.000    21392703.008 6  87599539.678 6     -1299.673          36.000
G14  24576732.961 6 129151609.464 6      2982.316          37.000    24576731.031 6 100637629.965 6      2323.871          36.000
G16  23932068.414 6 125763869.761 6     -3699.473          37.000
G22  23895207.453 5 125570151.551 5      3450.020          33.000
G27  20671131.648 8 108627525.546 8     -1435.914          51.000    20671132.945 8  84644819.723 8     -1118.897          51.000
G32  23402279.078 7 122979800.640 7      2609.320          45.000    23402280.820 7  95828438.823 7      2033.240          45.000
R02  20033135.312 8 106900731.620 8      2229.918          51.000    20033140.664 8  83145025.252 8      1734.381          49.000
R15  23053030.266 7 123188479.545 7     -3640.398          47.000    23053029.586 6  95813163.461 6     -2831.424          39.000
R17  19498359.742 5 104339675.529 5       385.465          34.000    19498361.633 5  81153095.386 5       299.809          30.000
C05  39635064.352 5 206390179.729 5       -23.148          35.000    39635064.086 5 159593978.084 5       -17.531          35.000
C11  22060053.156 8 114872531.887 8      -854.531          51.000    22060052.570 8  88826674.138 8      -660.720          51.000
C14  23012309.047 8 119831123.764 8      2629.527          48.000    23012309.328 8  92661075.257 8      2033.499          50.000
E03  25342332.039 8 133174934.731 8      2030.828          51.000    25342332.953 8 102043150.740 8      1556.107          50.000
E15  23163412.633 8 121724530.205 8        88.738          51.000    23163415.914 8  93269471.713 8        67.955          51.000
E27  25882895.938 8 136015520.824 8     -2335.062          50.000    25882898.250 8 104219720.197 8     -1789.192          51.000
> 2020 05 13 17 10 30.0000000  0 17        .000000000000
G08  20448785.461 8 107459089.463 8       820.703          48.000    20448786.172 8  83734352.789 8       639.512          48.000
G10  21402262.906 6 112469649.556 6     -1679.578          36.000    21402262.719 6  87638684.381 6     -1308.762          36.000
G14  24559702.258 5 129062124.986 5      2984.148          35.000    24559701.586 5 100567901.838 5      2325.304          33.000
G16  23953187.781 6 125874854.614 6     -3698.836          39.000
G27  20679363.109 8 108670782.191 8     -1447.336          51.000    20679364.414 8  84678526.181 8     -1127.794          51.000
G32  23387400.820 7 122901613.841 7      2603.480          44.000    23387402.148 7  95767514.136 7      2028.689          44.000
R02  20020657.109 8 106834141.879 8      2210.043          51.000    20020662.094 8  83093233.260 8      1718.925          50.000
R15  23073482.234 7 123297772.496 7     -3645.227          44.000    23073483.461 6  95898169.028 6     -2835.176          39.000
R17  19496224.258 6 104328247.376 6       376.984          37.000    19496225.180 5  81144206.841 5       293.213          32.000
R24  21592812.703 5 115466476.922 5     -2511.781          32.000
C05  39635188.781 5 206390827.779 5       -19.609          35.000    39635188.609 5 159594478.832 5       -14.891          35.000
C11  22064996.117 8 114898270.556 8      -860.750          51.000    22064995.375 8  88846576.908 8      -665.617          51.000
C14  22997182.023 8 119752353.127 8      2622.301          50.000    22997182.336 8  92600164.842 8      2027.781          51.000
C21  23758579.453 5 123717160.925 5     -1821.469          30.000
E03  25330759.844 8 133114119.871 8      2024.062          51.000    25330760.617 8 101996552.425 8      1550.848          51.000
E15  23162913.242 8 121721905.977 8        86.898          51.000    23162916.758 8  93267460.949 8        66.593          51.000
E27  25896242.500 8 136085659.636 8     -2340.188          49.000    25896245.234 8 104273462.909 8     -1793.161          51.000
> 2020 05 13 17 11  0.0000000  0 16        .000000000000
G08  20444145.148 7 107434704.026 7       805.133          47.000    20444146.148 7  83715351.163 7       627.376          47.000
G10  21411897.680 7 112520285.302 7     -1695.480          42.000    21411899.047 7  87678140.826 7     -1321.157          42.000
G14  24542672.195 6 128972635.014 6      2981.984          37.000    24542671.695 5 100498169.460 5      2323.627          31.000
G16  23974314.469 6 125985876.604 6     -3701.891          38.000
G27  20687669.789 8 108714434.983 8     -1462.859          50.000    20687671.227 8  84712541.338 8     -1139.890          50.000
G32  23372564.703 7 122823650.274 7      2593.566          42.000    23372565.867 6  95706763.377 6      2020.961          41.000
R02  20008302.031 8 106768209.052 8      2185.645          51.000    20008306.258 8  83041952.191 8      1699.949          49.000
R15  23093971.523 7 123407267.113 7     -3654.473          44.000    23093975.234 6  95983331.460 6     -2842.368          39.000
R17  19494146.695 6 104317131.605 6       364.016          39.000    19494148.328 5  81135561.266 5       283.123          32.000
C05  39635304.047 5 206391427.715 5       -20.422          35.000    39635303.891 5 159594943.726 5       -15.607          35.000
C11  22069985.641 8 114924251.419 8      -871.188          51.000    22069984.719 8  88866666.949 8      -673.606          51.000
C14  22982108.180 8 119673858.464 8      2610.680          50.000    22982108.484 8  92539467.880 8      2018.752          51.000
C21  23769124.617 5 123772027.367 5     -1835.902          35.000
E03  25319236.852 8 133053564.188 8      2013.027          51.000    25319237.883 8 101950152.646 8      1542.485          51.000
E15  23162434.773 8 121719392.258 8        80.742          51.000    23162438.531 8  93265534.855 8        61.885          51.000
E27  25909629.062 8 136156007.587 8     -2349.559          49.000    25909632.062 8 104327365.877 8     -1800.239          51.000
> 2020 05 13 17 11 30.0000000  0 19        .000000000000
G08  20439592.703 7 107410782.088 7       790.184          46.000    20439594.023 7  83696710.684 7       615.727          46.000
G10  21421621.453 7 112571385.865 7     -1710.930          42.000    21421623.445 7  87717959.381 7     -1333.195          42.000
G14  24525655.383 7 128883208.849 7      2979.992          42.000    24525655.844 5 100428486.776 5      2322.072          35.000
G16  23995460.492 6 126097000.177 6     -3705.242          36.000
G22  23836223.078 5 125260199.044 5      3434.445          33.000
G27  20696064.344 8 108758550.252 8     -1477.863          50.000    20696065.930 8  84746916.875 8     -1151.579          50.000
G32  23357783.734 6 122745979.556 6      2584.371          41.000    23357786.172 6  95646240.768 6      2013.799          40.000
R02  19996082.992 8 106703003.076 8      2161.707          51.000    19996086.281 8  82991236.439 8      1681.328          49.000
R15  23114511.016 7 123517026.591 7     -3662.609          46.000    23114516.000 6  96068699.888 6     -2848.696          40.000
R17  19492139.469 6 104306397.394 6       352.039          38.000    19492141.844 5  81127212.400 5       273.805          31.000
R24  21621107.953 5 115617796.779 5     -2529.465          35.000    21621111.695 4  89924944.578 4     -1967.362          27.000
C05                                                                  39635422.609 5 159595420.819 5       -16.066          35.000
C11  22075034.250 8 114950540.835 8      -881.152          51.000    22075033.344 8  88886995.578 8      -681.357          51.000
C12  25446566.633 4 132506948.491 4     -2716.645          28.000
C14  22967100.758 8 119595707.743 8      2599.641          51.000    22967100.594 8  92479036.872 8      2010.201          51.000
C21  23779745.281 5 123827314.578 5     -1849.426          35.000
E03  25307775.805 8 132993335.985 8      2002.512          51.000    25307777.562 8 101904003.799 8      1534.398          51.000
E15  23161990.016 8 121717055.887 8        75.246          51.000    23161994.023 8  93263744.650 8        57.626          51.000
E27  25923068.000 8 136226629.380 8     -2358.301          50.000    25923071.250 8 104381478.652 8     -1806.953          51.000
> 2020 05 13 17 12  0.0000000  0 18        .000000000000
G08  20435128.062 7 107387321.077 7       773.539          47.000    20435129.539 7  83678429.371 7       602.761          47.000
G10  21431432.328 6 112622945.356 6     -1726.617          36.000    21431434.258 5  87758135.607 5     -1345.413          34.000
G14  24508651.070 7 128793845.893 7      2976.984          43.000    24508652.109 6 100358853.398 6      2319.731          40.000
G16  24016624.742 5 126208218.184 5     -3710.051          35.000
G22  23816639.844 6 125157273.932 6      3426.539          37.000
G27  20704546.281 8 108803123.832 8     -1494.246          51.000    20704548.156 8  84781649.521 8     -1164.348          51.000
G32  23343058.469 6 122668600.822 6      2573.430          40.000    23343062.445 6  95585945.666 6      2005.270          40.000
R02  19983999.898 8 106638523.806 8      2136.312          51.000    19984002.664 8  82941085.927 8      1661.576          48.000
R15  23135099.336 7 123627043.028 7     -3672.250          47.000    23135104.453 6  96154268.173 6     -2856.194          41.000
R17  19490204.180 6 104296041.948 6       338.039          40.000    19490205.078 5  81119158.171 5       262.919          31.000
R24  21635323.266 4 115693837.149 4     -2540.445          29.000
C05  39635544.578 5 206392680.032 5       -22.375          35.000    39635544.164 5 159595911.305 5       -17.172          35.000
C11  22080141.461 8 114977135.476 8      -892.352          50.000    22080140.555 8  88907560.231 8      -690.011          51.000
C12  25462233.141 4 132588528.495 4     -2722.391          28.000    25462221.836 4 102525815.132 4     -2104.554          29.000
C14  22952159.023 8 119517899.111 8      2587.008          50.000    22952158.273 8  92418870.353 8      2000.547          51.000
E03  25296376.562 8 132933433.181 8      1990.469          51.000    25296378.953 8 101858104.258 8      1525.200          51.000
E15  23161578.438 8 121714893.281 8        68.453          51.000    23161582.672 8  93262087.588 8        52.436          51.000
E27  25936558.281 8 136297519.306 8     -2368.211          51.000    25936561.445 8 104435796.869 8     -1814.609          51.000
> 2020 05 13 17 12 30.0000000  0 18        .000000000000
G08  20430755.258 8 107364341.972 8       758.648          48.000    20430756.945 8  83660523.573 8       591.155          48.000
G10  21441334.219 7 112674981.071 7     -1741.570          42.000    21441336.266 7  87798682.968 7     -1357.071          42.000
G14  24491662.859 7 128704567.980 7      2975.309          43.000    24491663.797 6 100289286.291 6      2318.425          39.000
G16  24037810.227 5 126319547.390 5     -3712.258          31.000
G22  23797094.969 6 125054567.838 6      3420.660          37.000    23797101.352 5  97445145.616 5      2665.413          32.000
G27  20713119.242 8 108848174.486 8     -1508.910          51.000    20713121.273 8  84816753.900 8     -1175.774          51.000
G32  23328393.875 7 122591536.271 7      2564.207          42.000    23328398.203 7  95525895.382 7      1998.083          42.000
R02  19972056.578 8 106574792.823 8      2112.641          51.000    19972059.242 7  82891517.435 7      1643.165          47.000
R15  23155738.352 7 123737330.534 7     -3680.066          47.000    23155743.727 7  96240047.251 7     -2862.277          42.000
R17  19488344.094 6 104286085.739 6       325.914          40.000    19488344.406 5  81111414.495 5       253.492          33.000
R24  21649606.086 5 115770136.490 5     -2547.793          34.000    21649595.016 4  90043423.526 4     -1981.617          24.000
C05  39635672.688 5 206393346.701 5       -22.336          35.000    39635672.258 5 159596426.801 5       -17.000          35.000
C11  22085310.922 8 115004054.737 8      -902.051          51.000    22085310.094 8  88928375.901 8      -697.514          51.000
C14  22937286.516 8 119440453.491 8      2576.109          48.000    22937285.719 8  92358984.520 8      1992.008          51.000
C21  23801210.141 5 123939153.720 5     -1877.555          31.000
E03  25285043.055 8 132873876.525 8      1980.137          51.000    25285046.312 8 101812469.933 8      1517.263          51.000
E15  23161203.758 8 121712923.848 8        63.086          51.000    23161207.977 8  93260578.543 8        48.324          51.000
E27  25950102.898 8 136368694.658 8     -2376.531          51.000    25950105.680 8 104490333.792 8     -1821.023          51.000
> 2020 05 13 17 13  0.0000000  0 19        .000000000000
G01  23137362.289 5 121587659.219 5      2845.824          34.000
G08  20426462.289 8 107341782.587 8       745.488          48.000    20426464.430 8  83642944.837 8       580.903          48.000
G10  21451314.492 6 112727428.095 6     -1754.543          41.000    21451316.742 6  87839550.717 6     -1367.179          41.000
G14  24474678.867 7 128615314.892 7      2974.988          42.000    24474679.656 6 100219738.530 6      2318.179          39.000
G22  23777578.938 5 124952019.904 5      3415.652          35.000    23777583.805 5  97365238.146 5      2661.556          35.000
G27  20721770.992 8 108893638.692 8     -1521.824          51.000    20721772.953 8  84852180.520 8     -1185.837          51.000
G32  23313777.953 7 122514725.611 7      2556.691          43.000    23313782.328 7  95466043.014 7      1992.230          43.000
R01  21608314.664 5 115508797.286 5     -2843.094          30.000
R02  19960241.781 8 106511748.689 8      2090.566          51.000    19960244.352 7  82842483.125 7      1625.996          46.000
R15  23176415.250 8 123847820.867 8     -3685.727          48.000    23176421.094 7  96325984.099 7     -2866.679          43.000
R17  19486546.891 6 104276465.885 6       315.508          41.000    19486548.812 6  81103932.396 6       245.398          36.000
R24  21663923.352 5 115846677.927 5     -2555.090          32.000
C05  39635795.273 5 206393985.631 5       -20.137          35.000    39635794.836 5 159596920.118 5       -16.042          35.000
C11  22090531.008 8 115031236.224 8      -909.992          51.000    22090530.023 8  88949394.350 8      -703.612          51.000
C14  22922470.586 7 119363310.085 7      2566.961          45.000    22922470.938 8  92299332.341 8      1984.892          51.000
C21  23812062.781 5 123995656.659 5     -1888.609          33.000
E03  25273763.406 8 132814604.477 8      1971.461          51.000    25273767.805 8 101767053.698 8      1510.648          51.000
E15  23160853.953 8 121711084.594 8        59.660          51.000    23160857.711 8  93259169.248 8        45.717          51.000
E27  25963689.148 8 136440090.314 8     -2383.059          49.000    25963691.836 8 104545039.515 8     -1825.986          51.000
> 2020 05 13 17 13 30.0000000  0 17        .000000000000
G08  20422249.703 8 107319645.868 8       728.832          48.000    20422251.977 8  83625695.442 8       567.921          48.000
G10  21461372.953 6 112780285.585 6     -1770.844          38.000    21461374.797 6  87880738.427 6     -1379.875          38.000
G14  24457700.203 7 128526090.876 7      2971.480          42.000    24457700.844 6 100150213.409 6      2315.442          40.000
G27  20730501.594 8 108939517.454 8     -1538.297          51.000    20730503.609 8  84887930.194 8     -1198.673          51.000
