     3.02           OBSERVATION DATA    M (MIXED)           RINEX VERSION / TYPE
SAVERINEX           SC600               20200510 015932 LCL PGM / RUN BY / DATE
       G = GPS       R = GLONASS       C = COMPASS          COMMENT
       S = SBAS      J = QZSS          E = GALILEO          COMMENT
BEAN                                                        MARKER NAME
1                                                           MARKER NUMBER
GEODETIC                                                    MARKER TYPE
Unige DICCA         GTER                                    OBSERVER / AGENCY
SC60291900056       SC600               2.12(191226)        REC # / TYPE / VERS
                    HEMA45          NONE                    ANT # / TYPE
  4509407.8091   693652.4678  4442337.6214                  APPROX POSITION XYZ
        0.0000        0.0000        0.0000                  ANTENNA: DELTA H/E/N
G    8 C1C L1C D1C S1C C2Y L2Y D2Y S2Y                      SYS / # / OBS TYPES
R    8 C1C L1C D1C S1C C2P L2P D2P S2P                      SYS / # / OBS TYPES
C    8 C1I L1I D1I S1I C7I L7I D7I S7I                      SYS / # / OBS TYPES
E    8 C1C L1C D1C S1C C7Q L7Q D7Q S7Q                      SYS / # / OBS TYPES
DBHZ                                                        COMMENT
     30.000                                                 INTERVAL
  2020    05    09    23    00    0.0000000     GPS         TIME OF FIRST OBS
  2020    05    09    23    59   30.0000000     GPS         TIME OF LAST OBS
     0                                                      RCV CLOCK OFFS APPL
G L1C  0.00000                                              SYS / PHASE SHIFT
G L2Y  0.00000                                              SYS / PHASE SHIFT
R L1C  0.00000                                              SYS / PHASE SHIFT
R L2P  0.25000                                              SYS / PHASE SHIFT
C L1I  0.00000                                              SYS / PHASE SHIFT
C L7I  0.00000                                              SYS / PHASE SHIFT
E L1C  0.50000                                              SYS / PHASE SHIFT
E L7Q -0.25000                                              SYS / PHASE SHIFT
 11 R01  1 R02 -4 R07  5 R08  6 R09 -2 R10 -5 R11  0 R16 -1 GLONASS SLOT / FRQ #
    R21  4 R22 -3 R23  3                                    GLONASS SLOT / FRQ #
 C1C   71.950 C2C   71.950 C2P   71.950                     GLONASS COD/PHS/BIS
    18                                                      LEAP SECONDS
*** Above antenna height is from mark to ANTENNA BOTTOM.    COMMENT
    17     4        0.0000        ANT MEASURE TYPE/HEIGT    COMMENT
    0.0000    0.0000    0.0458    0.0405    0.0000          COMMENT
                    BASE STATION                            COMMENT
                                                            END OF HEADER
> 2020 05 09 23 00  0.0000000  0 14        .000000000000
G03  21694866.086 6 114007276.249 6     -2091.082          36.000    21694866.680 6  88836841.099 6     -1629.412          37.000
G04  20346404.688 8 106921103.496 8      -722.770          51.000    20346404.805 8  83315182.367 8      -563.194          51.000
G09  20791299.625 8 109259120.574 8      1618.047          51.000    20791299.289 8  85136955.699 8      1260.816          51.000
G17  23420301.344 7 123074501.817 7     -2590.016          43.000    23420302.070 7  95902198.787 7     -2018.194          44.000
G19  22848287.820 6 120068556.831 6     -2123.707          36.000    22848286.281 6  93559916.181 6     -1654.837          37.000
R08  21109864.023 5 113042376.797 5     -2478.855          30.000    21109868.445 4  87921851.691 4     -1927.999          29.000
R11  23497213.719 7 125561983.910 7      3974.707          44.000    23497217.141 6  97659343.394 6      3091.439          41.000
R23  21402152.047 7 114487099.488 7     -4007.855          45.000    21402157.555 6  89045528.984 6     -3117.221          38.000
R24  19977675.617 7 106829606.009 7     -1301.762          46.000    19977677.477 7  83089687.693 7     -1012.481          44.000
C12  23788148.406 7 123871153.738 7     -2748.043          47.000    23788147.781 8  95785022.638 8     -2124.919          51.000
C21  21910262.469 6 114092470.460 6       493.707          41.000
E04  27303079.898 7 143478661.779 7      2393.918          46.000    27303084.172 7 109938217.665 7      1834.307          47.000
E19  24014244.742 8 126195712.572 8       576.395          49.000    24014245.031 8  96695433.631 8       441.644          49.000
E33  25083358.273 8 131813930.814 8     -2557.102          51.000    25083359.273 8 101000296.564 8     -1959.323          51.000
> 2020 05 09 23 00 30.0000000  0 15        .000000000000
G03  21706830.367 6 114070146.950 6     -2098.887          37.000    21706830.352 6  88885831.221 6     -1635.496          37.000
G04  20350576.312 8 106943024.953 8      -737.305          51.000    20350576.398 8  83332264.022 8      -574.523          51.000
G09  20782105.797 8 109210807.467 8      1604.297          51.000    20782106.180 8  85099309.128 8      1250.101          51.000
G17  23435115.305 6 123152351.767 6     -2598.684          40.000    23435117.164 6  95962861.054 6     -2024.948          40.000
G19  22860459.195 6 120132516.407 6     -2138.949          37.000    22860456.906 5  93609754.720 5     -1666.720          34.000
R02  22542678.109 5 120292053.930 5      2869.816          30.000
R08  21123776.375 5 113116852.243 5     -2483.773          32.000    21123774.750 4  87979775.748 4     -1931.824          28.000
R11  23474912.227 7 125442815.654 7      3971.230          45.000    23474916.656 7  97566656.966 7      3088.735          43.000
R23  21424667.570 7 114607546.335 7     -4020.473          46.000    21424673.672 6  89139209.858 6     -3127.034          38.000
R24  19985056.961 7 106869079.502 7     -1328.402          44.000    19985058.945 7  83120389.327 7     -1033.202          44.000
C12  23804010.758 7 123953754.357 7     -2757.172          46.000    23804009.508 8  95848894.665 8     -2132.099          51.000
C21  21907443.523 7 114077791.395 7       486.281          43.000
E04  27289427.172 7 143406916.116 7      2390.457          46.000    27289432.016 7 109883243.743 7      1831.673          47.000
E19  24010979.883 8 126178555.959 8       568.828          49.000    24010980.203 8  96682287.670 8       435.760          49.000
E33  25097984.570 8 131890795.186 8     -2565.773          51.000    25097986.742 8 101059192.647 8     -1965.979          51.000
> 2020 05 09 23 01  0.0000000  0 16        .000000000000
G01  24790874.180 5 130276921.864 5     -3798.383          31.000    24790880.164 5 101514502.816 5     -2959.776          32.000
G03  21718829.875 6 114133206.046 6     -2106.410          37.000    21718829.508 6  88934968.064 6     -1641.362          37.000
G04  20354822.977 8 106965342.093 8      -751.543          50.000    20354823.273 8  83349654.003 8      -585.618          50.000
G09  20772982.430 8 109162864.572 8      1590.750          51.000    20772983.727 8  85061951.024 8      1239.545          51.000
G17  23449970.453 6 123230417.054 6     -2606.801          41.000    23449972.797 7  96023691.181 7     -2031.273          42.000
G19  22872710.453 6 120196892.282 6     -2154.074          39.000    22872706.461 5  93659917.713 5     -1678.499          32.000
R02  22526548.758 5 120206006.433 5      2863.785          30.000    22526569.594 5  93493592.060 5      2227.388          31.000
R11  23452621.422 7 125323704.801 7      3968.191          45.000    23452627.406 7  97474015.165 7      3086.368          42.000
R23  21447246.602 7 114728330.288 7     -4032.945          46.000    21447253.023 6  89233152.920 6     -3136.735          37.000
R24  19992578.531 7 106909303.533 7     -1354.590          47.000    19992580.719 7  83151674.695 7     -1053.567          44.000
C12  23819917.258 7 124036586.268 7     -2766.047          45.000    23819915.531 8  95912945.551 8     -2138.880          51.000
C21  21904658.555 6 114063291.539 6       479.191          41.000
C22  23428943.516 5 122000726.422 5     -1930.043          35.000
E04  27275785.266 7 143335226.086 7      2387.359          46.000    27275789.773 7 109828312.445 7      1829.347          47.000
E19  24007749.859 8 126161582.081 8       561.516          49.000    24007750.211 8  96669281.700 8       430.237          49.000
E33  25112651.938 8 131967875.012 8     -2574.082          51.000    25112654.781 8 101118253.833 8     -1972.364          51.000
> 2020 05 09 23 01 30.0000000  0 16        .000000000000
G01  24812578.281 5 130390979.304 5     -3803.008          30.000    24812583.195 5 101603378.676 5     -2963.383          30.000
G03  21730890.719 7 114196588.792 7     -2116.492          43.000    21730890.367 7  88984357.216 7     -1649.215          43.000
G04  20359170.477 8 106988189.471 8      -768.730          50.000    20359171.125 8  83367457.161 8      -599.011          50.000
G09  20763955.570 8 109115428.191 8      1574.535          51.000    20763957.102 8  85024987.620 8      1226.911          51.000
G17  23464892.203 7 123308830.761 7     -2617.863          46.000    23464893.992 7  96084792.771 7     -2039.893          46.000
G19  22885065.711 6 120261816.983 6     -2171.383          39.000    22885061.523 5  93710508.345 5     -1691.996          30.000
R02  22510479.141 5 120120232.041 5      2856.863          31.000    22510494.039 5  93426878.198 5      2222.008          31.000
R11  23430369.125 7 125204793.843 7      3962.168          47.000    23430375.227 6  97381528.824 6      3081.683          40.000
R23  21469913.789 7 114849585.143 7     -4047.832          46.000    21469920.789 6  89327462.246 6     -3148.314          38.000
R24  20000266.773 8 106950414.552 8     -1383.363          48.000    20000268.727 7  83183649.950 7     -1075.946          45.000
C12  23835893.188 7 124119781.624 7     -2777.398          44.000    23835891.984 8  95977277.495 8     -2147.646          51.000
C21  21901933.320 6 114049105.482 6       469.371          40.000
C22  23440076.180 4 122058762.572 4     -1937.516          27.000
E04  27262179.852 7 143263727.862 7      2381.879          46.000    27262183.516 8 109773528.125 8      1825.121          48.000
E19  24004580.148 8 126144926.308 8       551.777          48.000    24004580.570 8  96656519.496 8       422.755          49.000
E33  25127386.234 8 132045304.742 8     -2584.977          51.000    25127389.039 8 101177583.102 8     -1980.699          51.000
> 2020 05 09 23 02  0.0000000  0 16        .000000000000
G01  24834290.695 5 130505079.447 5     -3803.262          31.000    24834295.859 5 101692290.191 5     -2963.581          32.000
G03  21742992.281 7 114260184.849 7     -2123.148          42.000    21742992.164 7  89033912.553 7     -1654.404          42.000
G04  20363597.734 8 107011455.684 8      -782.375          49.000    20363598.766 8  83385586.663 8      -609.643          49.000
G09  20755004.344 8 109068388.680 8      1561.547          51.000    20755005.891 8  84988333.481 8      1216.793          51.000
G17  23479858.758 7 123387479.695 7     -2625.352          46.000    23479859.172 7  96146077.663 7     -2045.728          46.000
G19  22897503.797 6 120327177.605 6     -2185.684          39.000    22897500.523 5  93761438.725 5     -1703.133          35.000
R02  22494436.242 6 120034604.790 6      2851.828          37.000    22494446.430 4  93360279.320 4      2218.098          26.000
R11  23408134.852 8 125085975.304 8      3959.152          48.000    23408139.516 6  97289114.373 6      3079.344          37.000
R23  21492648.008 7 114971194.593 7     -4059.402          47.000    21492655.258 6  89422047.369 6     -3157.313          39.000
R24  20008099.148 7 106992298.366 7     -1408.832          47.000    20008101.188 7  83216226.272 7     -1095.758          45.000
C12  23851918.219 7 124203229.077 7     -2785.637          45.000    23851917.539 8  96041804.361 8     -2154.046          50.000
C21  21899248.266 6 114035124.290 6       462.949          41.000
C22  23451238.883 5 122116747.745 5     -1939.238          30.000
E04  27248589.906 7 143192311.622 7      2379.285          45.000    27248592.672 8 109718806.651 8      1823.143          48.000
E19  24001449.992 8 126128478.173 8       544.926          48.000    24001450.266 8  96643916.393 8       417.606          48.000
E33  25142166.156 8 132122972.850 8     -2592.703          51.000    25142168.398 8 101237095.035 8     -1986.635          51.000
> 2020 05 09 23 02 30.0000000  0 16        .000000000000
G01  24856012.297 5 130619227.164 5     -3805.832          32.000    24856018.242 5 101781238.747 5     -2965.580          31.000
G03  21755134.883 6 114323997.650 6     -2130.918          41.000    21755134.266 6  89083636.780 6     -1660.459          41.000
G04  20368105.094 8 107035143.231 8      -797.012          49.000    20368106.359 8  83404044.492 8      -621.048          49.000
G09  20746129.594 8 109021750.289 8      1547.555          51.000    20746131.258 8  84951991.874 8      1205.887          51.000
G17  23494870.086 7 123466364.813 7     -2633.477          44.000    23494869.141 7  96207546.582 7     -2052.060          44.000
G19  22910025.086 6 120392975.132 6     -2200.852          39.000    22910022.352 5  93812709.571 5     -1714.946          34.000
R02  22478420.414 5 119949128.185 5      2846.188          35.000
R11  23385919.398 8 124967257.709 8      3955.094          48.000    23385920.961 5  97196778.502 5      3076.187          33.000
R23  21515449.000 7 115093158.231 7     -4071.707          47.000    21515456.211 6  89516907.975 6     -3166.883          39.000
R24  20016076.023 7 107034957.536 7     -1435.211          47.000    20016078.953 7  83249405.629 7     -1116.275          45.000
C12  23867992.719 7 124286929.937 7     -2794.512          47.000    23867992.070 8  96106527.174 8     -2160.897          50.000
C21  21896603.500 7 114021351.734 7       455.074          43.000
C22  23462431.555 5 122175015.323 5     -1944.609          32.000
E04  27235016.133 7 143120981.502 7      2375.957          45.000    27235018.414 8 109664151.156 8      1820.503          48.000
E19  23998360.312 8 126112241.173 8       537.426          48.000    23998360.312 8  96631475.073 8       411.800          48.000
E33  25156991.922 8 132200881.689 8     -2601.258          51.000    25156993.656 8 101296791.422 8     -1993.151          51.000
> 2020 05 09 23 03  0.0000000  0 15        .000000000000
G01  24877751.398 5 130733466.059 5     -3809.891          32.000    24877757.977 5 101870258.338 5     -2968.746          34.000
G03  21767327.289 6 114388072.488 6     -2140.586          39.000    21767325.172 6  89133565.139 6     -1667.992          39.000
G04  20372701.242 8 107059296.295 8      -813.242          50.000    20372702.531 8  83422865.051 8      -633.698          50.000
G09  20737339.805 8 108975558.940 8      1531.891          51.000    20737341.828 8  84915998.605 8      1193.681          51.000
G17  23509934.086 7 123545528.617 7     -2643.754          43.000    23509932.734 7  96269232.624 7     -2060.068          42.000
G19  22922637.906 6 120459252.525 6     -2217.543          41.000    22922633.867 5  93864354.174 5     -1727.965          33.000
R11  23363731.648 7 124848691.516 7      3949.281          46.000    23363729.977 5  97104560.457 5      3071.666          33.000
R23  21538324.055 7 115215517.890 7     -4085.496          47.000    21538330.570 6  89612076.592 6     -3177.608          38.000
R24  20024206.859 8 107078436.099 8     -1463.270          49.000    20024210.133 7  83283222.309 7     -1138.099          45.000
C12  23884124.461 7 124370926.919 7     -2805.086          47.000    23884123.500 8  96171478.955 8     -2169.049          49.000
C21  21894006.641 6 114007832.867 6       445.871          39.000
C22  23473646.219 4 122233444.962 4     -1950.582          29.000
E04  27221467.133 7 143049783.305 7      2370.754          45.000    27221469.469 7 109609596.721 7      1816.624          47.000
E19  23995319.312 8 126096260.541 8       528.078          48.000    23995319.352 8  96619230.177 8       404.685          49.000
E33  25171871.727 8 132279075.351 8     -2611.488          50.000    25171873.227 8 101356706.031 8     -2000.939          51.000
> 2020 05 09 23 03 30.0000000  0 15        .000000000000
G01  24899500.055 5 130847755.619 5     -3810.391          34.000    24899507.570 5 101959315.076 5     -2969.136          32.000
G03  21779561.828 6 114452367.136 6     -2146.398          39.000    21779557.859 6  89183664.727 6     -1672.521          40.000
G04  20377377.938 8 107083871.923 8      -826.098          50.000    20377379.219 8  83442014.881 8      -643.712          50.000
G09  20728627.180 8 108929773.435 8      1519.414          51.000    20728629.391 8  84880321.601 8      1183.959          51.000
G17  23525042.742 7 123624926.556 7     -2650.309          42.000    23525041.781 7  96331101.125 7     -2065.176          42.000
G19  22935333.266 7 120525965.066 7     -2230.910          42.000    22935326.102 5  93916338.021 5     -1738.365          34.000
R11  23341564.648 7 124730238.783 7      3946.461          45.000    23341564.000 6  97012430.601 6      3069.470          37.000
R23  21561264.336 7 115338227.339 7     -4095.965          46.000    21561269.797 6  89707517.245 6     -3185.750          37.000
R24  20032482.977 8 107122690.073 8     -1487.930          49.000    20032486.297 7  83317642.032 7     -1157.282          46.000
C12  23900304.539 7 124455176.380 7     -2812.422          47.000    23900303.312 8  96236625.945 8     -2174.634          49.000
C21  21891449.289 5 113994526.501 5       439.656          34.000
C22  23484892.820 5 122291995.169 5     -1953.836          33.000
E04  27207935.492 7 142978675.696 7      2368.777          45.000    27207937.906 7 109555111.701 7      1815.118          47.000
E19  23992318.969 8 126080494.241 8       522.199          48.000    23992319.289 8  96607149.532 8       400.058          49.000
E33  25186797.344 8 132357510.748 8     -2618.410          49.000    25186798.766 8 101416805.873 8     -2006.266          51.000
> 2020 05 09 23 04  0.0000000  0 15        .000000000000
G01  24921259.906 5 130962104.683 5     -3812.289          32.000
G03  21791840.609 5 114516895.197 5     -2155.262          35.000    21791838.344 5  89233946.283 5     -1679.431          35.000
G04  20382137.289 8 107108882.671 8      -840.973          49.000    20382138.594 8  83461503.780 8      -655.303          49.000
G09  20719994.586 8 108884408.089 8      1505.137          51.000    20719996.438 8  84844971.982 8      1172.834          51.000
G17  23540198.438 7 123704569.590 7     -2658.840          43.000    23540198.289 7  96393160.642 7     -2071.823          43.000
G19  22948112.617 6 120593123.411 6     -2245.926          39.000    22948105.102 5  93968669.175 5     -1750.075          33.000
R11  23319422.375 7 124611918.414 7      3941.699          43.000    23319423.523 6  96920403.677 6      3065.766          39.000
R23  21584270.961 7 115461296.298 7     -4108.430          44.000    21584275.922 6  89803237.564 6     -3195.445          37.000
R24  20040905.938 8 107167731.590 8     -1514.613          49.000    20040909.383 7  83352674.297 7     -1178.033          46.000
C12  23916535.070 7 124539689.565 7     -2821.527          46.000    23916533.680 8  96301976.859 8     -2181.814          49.000
C21  21888937.648 6 113981446.407 6       432.191          39.000
C22  23496164.320 5 122350679.232 5     -1958.711          31.000
E04  27194423.938 7 142907672.841 7      2364.980          45.000    27194426.398 7 109500706.948 7      1812.134          46.000
E19  23989362.219 8 126064955.892 8       514.035          49.000    23989362.539 8  96595243.518 8       393.916          49.000
E33  25201771.359 8 132436200.296 8     -2627.262          49.000    25201772.680 8 101477100.451 8     -2013.118          51.000
> 2020 05 09 23 04 30.0000000  0 16        .000000000000
G01  24943035.945 5 131076534.861 5     -3815.742          32.000
G03  21804168.250 5 114581676.795 5     -2163.098          32.000    21804168.328 5  89284427.656 5     -1685.528          32.000
G04  20386983.633 8 107134350.582 8      -856.285          49.000    20386984.875 8  83481348.900 8      -667.235          49.000
G09  20711446.383 8 108839486.614 8      1490.246          51.000    20711447.547 8  84809968.248 8      1161.231          51.000
G17  23555404.852 7 123784478.208 7     -2667.781          46.000    23555405.688 7  96455427.106 7     -2078.791          46.000
G19  22960979.953 5 120660748.289 5     -2261.613          35.000    22960974.188 5  94021363.925 5     -1762.293          34.000
R02  22414681.852 5 119609077.692 5      2822.180          32.000    22414707.406 4  93029346.956 4      2195.035          25.000
R11  23297310.148 7 124493758.472 7      3936.281          44.000    23297312.203 6  96828501.503 6      3061.552          39.000
R23  21607347.375 7 115584744.084 7     -4120.910          43.000    21607353.375 6  89899252.525 6     -3205.152          38.000
R24  20049480.188 8 107213582.412 8     -1541.598          49.000    20049483.641 7  83388336.025 7     -1199.020          45.000
C12  23932820.266 7 124624487.255 7     -2831.000          45.000    23932818.320 8  96367547.771 8     -2189.012          48.000
C21  21886474.742 7 113968615.881 7       423.809          42.000
C22  23507461.266 5 122409520.127 5     -1962.926          30.000
E04  27180936.867 7 142836798.355 7      2360.836          45.000    27180939.047 7 109446400.545 7      1808.943          46.000
E19  23986453.352 8 126049668.252 8       505.828          49.000    23986453.406 8  96583529.616 8       387.601          49.000
E33  25216798.000 8 132515165.892 8     -2636.379          50.000    25216799.375 8 101537606.546 8     -2020.032          51.000
> 2020 05 09 23 05  0.0000000  0 17        .000000000000
G01  24964815.594 5 131190990.503 5     -3813.184          30.000    24964818.008 4 102226756.040 4     -2971.312          27.000
G04  20391905.055 8 107160212.839 8      -865.965          48.000    20391906.328 8  83501501.301 8      -674.778          48.000
G09  20702970.797 8 108794947.974 8      1480.867          51.000    20702971.633 8  84775262.844 8      1153.926          51.000
G17  23570649.578 7 123864588.016 7     -2670.996          47.000    23570651.102 7  96517850.343 7     -2081.293          47.000
G19  22973924.070 6 120728775.442 6     -2271.777          36.000    22973920.398 4  94074372.006 4     -1770.216          28.000
R02  22398820.648 6 119524451.485 6      2821.227          36.000    22398845.859 4  92963534.567 4      2194.287          26.000
R09  22878939.414 5 122172182.958 5     -1371.785          35.000
R11  23275217.234 7 124375700.977 7      3936.219          44.000    23275219.844 6  96736679.019 6      3061.503          40.000
R23  21630482.828 7 115708504.138 7     -4127.773          43.000    21630489.445 6  89995510.329 6     -3210.493          37.000
R24  20058194.336 8 107260177.937 8     -1562.926          51.000    20058196.258 7  83424576.985 7     -1215.609          44.000
C12  23949147.758 7 124709506.244 7     -2835.188          43.000    23949145.328 8  96433289.821 8     -2192.277          49.000
C21  21884047.836 7 113955974.010 7       420.859          42.000
C22  23518781.211 4 122468456.419 4     -1963.379          29.000
E04  27167462.547 7 142765991.214 7      2361.734          44.000    27167464.336 7 109392145.719 7      1809.518          46.000
E12  22271563.180 6 117037855.302 6       -57.180          39.000    22271556.500 6  89678333.031 6       -43.936          37.000
E19  23983580.328 8 126034569.652 8       502.719          48.000    23983580.242 8  96571960.561 8       385.200          49.000
E33  25231865.266 8 132594344.687 8     -2640.293          50.000    25231866.914 8 101598276.008 8     -2023.058          51.000
> 2020 05 09 23 05 30.0000000  0 15        .000000000000
G04  20396907.664 8 107186501.264 8      -883.934          49.000    20396908.797 8  83521985.803 8      -688.779          49.000
G09  20694574.352 8 108750825.734 8      1463.164          51.000    20694575.289 8  84740881.884 8      1140.128          51.000
G17  23585938.383 8 123944929.531 8     -2682.500          48.000    23585940.016 8  96580454.129 8     -2090.260          48.000
G19  22986951.180 6 120797235.145 6     -2289.922          36.000    22986947.469 5  94127717.175 5     -1784.367          32.000
R09  22886729.930 6 122213790.358 6     -1399.383          37.000
R11  23253151.031 7 124257784.211 7      3927.625          46.000    23253153.547 6  96644965.996 6      3054.819          40.000
R23  21653682.898 6 115832605.514 6     -4142.871          41.000    21653688.930 6  90092033.599 6     -3222.233          36.000
R24  20067053.820 8 107307550.020 8     -1592.531          51.000    20067054.633 7  83461421.941 7     -1238.635          44.000
C12  23965523.258 6 124794776.847 6     -2847.215          39.000    23965520.633 8  96499226.418 8     -2201.557          49.000
C21  21881662.133 6 113943553.662 6       409.805          40.000
C22  23530126.664 5 122527536.432 5     -1971.887          31.000
E04  27154007.211 7 142695284.727 7      2354.668          43.000    27154009.117 7 109337968.037 7      1804.247          46.000
E12  22271947.391 6 117039880.202 6       -75.352          38.000    22271941.789 6  89679884.544 6       -57.800          37.000
E19  23980749.211 7 126019692.975 7       491.523          47.000    23980749.484 8  96560561.559 8       376.676          50.000
E33  25246979.164 8 132673768.346 8     -2652.102          51.000    25246980.984 8 101659133.103 8     -2032.115          51.000
> 2020 05 09 23 06  0.0000000  0 16        .000000000000
G04  20401996.758 8 107213244.124 8      -898.066          50.000    20401997.562 8  83542824.399 8      -699.792          50.000
G09  20686262.680 8 108707149.875 8      1449.273          51.000    20686263.859 8  84706848.750 8      1129.307          51.000
G17  23601276.344 8 124025529.251 8     -2690.125          49.000    23601277.359 8  96643259.107 8     -2096.201          49.000
G19  23000065.891 5 120866153.852 5     -2304.418          34.000    23000062.039 4  94181420.095 4     -1795.656          29.000
R02  22367222.789 6 119355780.057 6      2806.355          38.000    22367219.680 4  92832263.727 4      2182.721          25.000
R09  22894660.156 5 122256141.294 5     -1423.078          34.000
R11  23231117.680 7 124140042.701 7      3922.578          46.000    23231119.648 6  96553389.295 6      3050.894          39.000
R23  21676952.023 5 115957074.350 5     -4154.625          35.000    21676956.648 5  90188842.671 5     -3231.375          34.000
R24  20076063.344 8 107355726.620 8     -1618.449          50.000    20076064.367 7  83498892.636 7     -1258.794          46.000
C12  23981951.711 5 124880326.025 5     -2856.016          33.000    23981949.602 8  96565378.452 8     -2208.069          50.000
C21  21879324.625 6 113931384.295 6       402.207          41.000
C22  23541504.555 5 122586757.501 5     -1975.570          33.000
E04  27140576.797 7 142624708.836 7      2351.227          45.000    27140579.008 7 109283890.447 7      1801.472          46.000
E12  22272420.711 6 117042366.721 6       -89.727          39.000    22272416.273 6  89681789.776 6       -68.811          38.000
E19  23977965.875 8 126005067.370 8       484.199          48.000    23977966.594 8  96549354.944 8       370.929          50.000
E33  25262145.031 8 132753465.062 8     -2660.305          51.000    25262146.750 8 101720199.416 8     -2038.403          51.000
> 2020 05 09 23 06 30.0000000  0 17        .000000000000
G01  25030227.531 5 131534738.349 5     -3827.012          31.000
G03  21853899.227 5 114843030.878 5     -2198.430          30.000
G04  20407167.906 8 107240417.608 8      -917.395          50.000    20407168.516 8  83563998.550 8      -714.853          50.000
G09  20678031.836 8 108663898.339 8      1430.152          51.000    20678033.266 8  84673146.253 8      1114.404          51.000
G17  23616658.625 8 124106361.786 8     -2702.754          49.000    23616658.344 8  96706245.466 8     -2106.045          49.000
G19  23013263.117 6 120935506.218 6     -2323.820          38.000    23013260.125 5  94235460.944 5     -1810.772          34.000
R02  22351462.555 6 119271691.127 6      2795.848          38.000
R09  22902721.844 5 122299211.339 5     -1452.031          35.000
R11  23209113.312 7 124022458.348 7      3912.285          45.000    23209115.094 6  96461934.820 6      3042.891          39.000
R23  21700281.297 5 116081883.166 5     -4170.023          32.000    21700287.812 5  90285916.346 5     -3243.342          30.000
R24  20085218.602 8 107404682.822 8     -1649.398          51.000    20085219.617 7  83536969.684 7     -1282.865          45.000
C12                                                                  23998427.266 8  96631726.843 8     -2218.417          50.000
C21  21877032.312 7 113919443.712 7       389.742          42.000
E04  27127167.477 7 142554241.410 7      2342.547          46.000    27127169.688 7 109229895.940 7      1795.022          47.000
E12  22272977.914 6 117045292.793 6      -109.387          39.000    22272974.695 6  89684031.827 6       -83.882          39.000
E19  23975226.266 7 125990670.477 7       471.480          47.000    23975227.125 8  96538323.546 8       361.354          50.000
E33  25277358.266 8 132833410.910 8     -2673.602          51.000    25277359.523 8 101781456.628 8     -2048.625          51.000
> 2020 05 09 23 07  0.0000000  0 17        .000000000000
G03  21866457.398 5 114909008.523 5     -2202.414          30.000    21866454.398 5  89539477.454 5     -1716.170          30.000
G04  20412432.383 8 107268081.767 8      -928.066          50.000    20412433.008 8  83585555.047 8      -723.169          50.000
G09  20669893.844 8 108621132.827 8      1419.660          51.000    20669895.266 8  84639822.491 8      1106.229          51.000
G17  23632096.297 8 124187485.518 8     -2706.695          49.000    23632094.445 8  96769458.728 8     -2109.113          49.000
G19  23026554.078 6 121005350.879 6     -2334.305          41.000    23026553.953 4  94289885.285 4     -1818.942          29.000
R02  22335743.438 5 119187839.705 5      2792.941          34.000    22335761.039 4  92701704.560 4      2172.288          29.000
R09  22910933.562 6 122343061.584 6     -1472.449          37.000    22910938.758 4  95155757.707 4     -1145.229          26.000
R11  23187150.336 7 123905097.928 7      3910.465          44.000    23187152.195 6  96370654.518 6      3041.476          40.000
R23  21723685.344 6 116207090.962 6     -4177.715          36.000    21723692.180 4  90383300.201 4     -3249.337          26.000
R24  20094530.570 8 107454479.010 8     -1671.551          50.000    20094530.875 7  83575700.052 7     -1300.095          43.000
C12  24014963.703 5 125052256.108 5     -2873.727          34.000    24014964.734 8  96698316.674 8     -2221.879          50.000
C21  21874795.781 7 113907792.828 7       385.734          43.000
C22  23564325.805 4 122705617.916 4     -1985.750          29.000
E04  27113790.617 7 142483944.113 7      2342.699          45.000    27113793.062 7 109176031.816 7      1795.040          47.000
E12  22273629.969 6 117048720.087 6      -120.355          37.000    22273627.258 6  89686657.934 6       -92.140          39.000
E19  23972541.352 7 125976562.769 7       467.715          46.000    23972542.570 8  96527513.753 8       358.373          50.000
E33  25292630.344 8 132913665.757 8     -2677.980          51.000    25292631.016 8 101842950.608 8     -2052.004          51.000
> 2020 05 09 23 07 30.0000000  0 17        .000000000000
G03  21879051.508 5 114975184.980 5     -2209.391          32.000    21879041.828 5  89591043.310 5     -1721.612          30.000
G04  20417768.938 8 107296124.971 8      -941.516          49.000    20417769.430 8  83607406.893 8      -733.649          49.000
G09  20661827.734 8 108578743.465 8      1406.266          51.000    20661828.727 8  84606791.824 8      1095.791          51.000
G17  23647567.656 7 124268787.273 7     -2713.520          46.000    23647564.711 7  96832810.721 7     -2114.431          46.000
G19  23039917.250 7 121075574.236 7     -2347.395          43.000    23039919.516 5  94344604.782 5     -1829.145          33.000
R08  21321545.695 5 114175884.183 5     -2556.980          31.000
R09  22919270.961 5 122387577.776 5     -1495.422          35.000    22919275.938 5  95190381.521 5     -1163.103          33.000
R11  23165209.039 7 123787853.849 7      3905.684          42.000    23165210.820 6  96279464.711 6      3037.754          40.000
R23  21747144.766 5 116332580.739 5     -4187.852          35.000
R24  20103977.805 8 107505000.769 8     -1696.523          50.000    20103976.617 7  83614994.707 7     -1319.521          42.000
C12  24031541.594 6 125138572.147 6     -2880.934          40.000    24031540.445 8  96765061.699 8     -2227.727          49.000
C21  21872592.875 7 113896322.371 7       378.832          43.000
C22  23575780.555 4 122765268.107 4     -1989.781          28.000
E04  27100425.391 7 142413707.020 7      2339.859          46.000    27100427.797 7 109122213.830 7      1792.804          47.000
E12  22274355.984 5 117052538.718 5      -134.086          35.000    22274353.781 6  89689583.852 6      -102.621          40.000
E19  23969890.445 7 125962634.029 7       460.891          46.000    23969892.062 8  96516841.101 8       353.150          50.000
E33  25307940.094 8 132994117.944 8     -2685.387          51.000    25307939.922 8 101904595.778 8     -2057.595          50.000
> 2020 05 09 23 08  0.0000000  0 16        .000000000000
G04  20423185.172 8 107324587.670 8      -956.266          48.000    20423185.781 8  83629585.619 8      -745.142          48.000
G09  20653841.375 8 108536772.431 8      1391.527          51.000    20653842.047 8  84574087.130 8      1084.307          51.000
G17  23663079.781 7 124350306.349 7     -2721.402          44.000    23663077.070 7  96896332.073 7     -2120.573          44.000
G19  23053360.172 7 121146215.484 7     -2362.211          42.000    23053364.438 5  94399649.873 5     -1840.687          34.000
R02  22304401.508 5 119020527.633 5      2782.621          32.000
R09  22927740.570 6 122432800.851 6     -1519.574          37.000    22927745.977 5  95225555.176 5     -1181.888          32.000
R11  23143298.539 7 123670773.108 7      3899.305          44.000    23143300.664 7  96188401.975 7      3032.793          42.000
R23  21770664.570 6 116458390.770 6     -4199.211          37.000    21770679.562 4  90578743.383 4     -3266.053          29.000
R24  20113568.641 8 107556288.342 8     -1722.758          51.000    20113567.258 7  83654885.011 7     -1339.923          44.000
C12  24048165.500 7 125225127.952 7     -2889.742          43.000    24048161.938 8  96831992.099 8     -2234.420          48.000
C21  21870432.234 7 113885073.947 7       370.762          44.000
C22  23587257.648 6 122825030.805 6     -1994.527          38.000
E04  27087079.688 7 142343572.278 7      2335.582          47.000    27087081.469 7 109068474.239 7      1789.578          47.000
E12  22275164.305 5 117056779.670 5      -149.125          35.000    22275162.992 6  89692841.869 6      -114.558          40.000
E19  23967281.930 7 125948925.642 7       452.707          47.000    23967283.289 8  96506337.276 8       346.930          50.000
E33  25323295.156 8 133074807.835 8     -2694.137          51.000    25323293.695 8 101966423.088 8     -2064.342          49.000
> 2020 05 09 23 08 30.0000000  0 16        .000000000000
G04  20428683.766 8 107353483.391 8      -970.695          50.000    20428684.609 8  83652101.773 8      -756.386          50.000
G09  20645937.297 8 108495234.935 8      1377.168          51.000    20645938.125 8  84541720.279 8      1073.118          51.000
G17  23678634.992 7 124432054.251 7     -2729.039          43.000    23678633.758 7  96960031.726 7     -2126.524          43.000
G19  23066884.906 7 121217286.195 7     -2376.336          43.000    23066889.984 6  94455029.629 6     -1851.690          36.000
R02  22288785.641 5 118937232.757 5      2776.008          33.000
R09  22936345.320 6 122478744.391 6     -1543.648          38.000    22936350.609 5  95261289.168 5     -1200.609          30.000
R11  23121422.664 7 123553875.706 7      3893.285          46.000    23121425.570 7  96097481.772 7      3028.111          44.000
R23  21794246.953 6 116584532.188 6     -4210.816          36.000    21794260.469 5  90676853.383 5     -3275.079          32.000
R24  20123305.195 8 107608354.692 8     -1748.707          50.000    20123305.234 7  83695381.054 7     -1360.105          47.000
C12  24064837.164 7 125311935.707 7     -2897.887          44.000    24064831.469 7  96899117.350 7     -2240.963          46.000
C21  21868317.578 7 113874062.387 7       362.777          45.000
C22  23598763.695 6 122884934.572 6     -1999.609          39.000
E04  27073756.094 7 142273555.009 7      2331.809          47.000    27073757.117 7 109014824.667 7      1786.690          46.000
E12  22276057.898 5 117061475.265 5      -164.574          33.000    22276057.133 6  89696443.646 6      -125.914          39.000
E19  23964718.258 7 125935452.098 7       445.020          47.000    23964718.930 8  96496013.384 8       340.947          50.000
E33  25338698.078 8 133155748.835 8     -2702.367          51.000    25338695.555 8 102028442.809 8     -2070.723          48.000
> 2020 05 09 23 09  0.0000000  0 16        .000000000000
G04  20434261.977 8 107382796.543 8      -983.855          51.000    20434262.711 8  83674943.183 8      -766.641          51.000
G09  20638113.039 8 108454117.074 8      1363.812          51.000    20638113.641 8  84509680.396 8      1062.711          51.000
G17  23694231.109 7 124514014.316 7     -2735.355          45.000    23694231.273 7  97023896.684 7     -2131.449          45.000
G19  23080488.180 7 121288769.906 7     -2389.562          43.000    23080491.820 6  94510731.233 6     -1861.997          37.000
R02  22273175.773 5 118853914.050 5      2771.016          30.000    22273167.656 4  92441915.247 4      2155.234          28.000
R09  22945081.961 6 122525391.979 6     -1566.352          37.000
R11  23099578.906 7 123437151.558 7      3888.031          46.000    23099583.352 7  96006696.319 7      3024.024          45.000
R23  21817888.422 5 116710985.744 5     -4220.355          34.000    21817899.180 5  90775206.139 5     -3282.502          31.000
R24  20133184.078 8 107661183.014 8     -1773.508          51.000    20133185.586 7  83736469.768 7     -1379.395          47.000
C12  24081553.438 7 125398978.968 7     -2905.145          43.000    24081546.078 7  96966424.697 7     -2246.508          45.000
C21  21866246.102 7 113863273.684 7       356.129          46.000
C22  23610294.055 6 122944964.941 6     -2002.945          40.000
E04  27060452.102 8 142203641.278 8      2328.953          48.000    27060452.945 7 108961254.449 7      1784.469          47.000
E12  22277033.938 5 117066606.486 5      -178.113          34.000    22277033.734 6  89700378.432 6      -136.440          40.000
E19  23962196.125 7 125922198.909 7       438.211          46.000    23962196.766 8  96485858.329 8       335.814          50.000
E33  25354145.742 8 133236925.213 8     -2709.605          51.000    25354142.531 7 102090642.873 7     -2076.200          47.000
> 2020 05 09 23 09 30.0000000  0 15        .000000000000
G04  20439920.914 8 107412534.111 8      -998.246          51.000    20439921.359 8  83698115.340 8      -777.854          51.000
G09  20630370.359 8 108413427.601 8      1349.242          51.000    20630370.352 8  84477974.313 8      1051.361          51.000
G17  23709868.969 7 124596191.619 7     -2742.680          47.000    23709870.172 7  97087930.893 7     -2137.153          47.000
G19  23094170.656 6 121360671.554 6     -2403.500          40.000    23094172.125 6  94566758.543 6     -1872.854          36.000
R02  22257619.875 5 118770888.463 5      2764.637          35.000    22257610.516 5  92377336.494 5      2150.285          30.000
R09  22953951.789 6 122572750.568 6     -1590.227          37.000
R11  23077770.289 7 123320613.708 7      3881.555          47.000    23077775.555 7  95916055.777 7      3018.987          45.000
R24  20143207.344 8 107714779.815 8     -1799.145          51.000    20143209.148 7  83778156.150 7     -1399.335          46.000
C12  24098315.562 7 125486263.711 7     -2913.387          43.000    24098307.250 7  97033918.734 7     -2252.755          44.000
C21  21864218.977 7 113852716.295 7       348.086          46.000
C22  23621848.289 6 123005130.037 6     -2006.902          36.000
E04  27047169.672 8 142133839.873 8      2324.992          49.000    27047170.875 7 108907770.290 7      1781.494          47.000
E12  22278095.531 6 117072181.109 6      -193.559          37.000    22278095.445 6  89704652.942 6      -148.006          40.000
E19  23959717.477 7 125909173.988 7       430.598          47.000    23959718.562 8  96475878.218 8       329.822          50.000
E33  25369639.227 8 133318343.953 8     -2717.930          51.000    25369635.836 7 102153028.651 7     -2082.570          47.000
> 2020 05 09 23 10  0.0000000  0 14        .000000000000
G04  20445661.664 8 107442701.481 8     -1012.785          51.000    20445661.930 8  83721622.379 8      -789.183          51.000
G09  20622710.125 8 108373173.537 8      1334.484          51.000    20622710.320 8  84446607.540 8      1039.861          51.000
G17  23725549.180 8 124678590.178 8     -2750.230          48.000    23725550.727 8  97152137.521 8     -2143.040          48.000
G19  23107932.945 6 121432994.791 6     -2417.750          40.000    23107932.984 6  94623114.264 6     -1883.961          36.000
R02  22242100.305 4 118688048.643 4      2757.629          29.000    22242087.500 5  92312905.758 5      2144.835          31.000
R11  23055999.047 8 123204273.754 8      3874.523          48.000    23056004.008 7  95825569.161 7      3013.518          44.000
R24  20153375.164 8 107769149.250 8     -1825.254          50.000    20153376.070 7  83820443.458 7     -1419.645          45.000
C12  24115124.523 6 125573794.052 6     -2921.820          41.000    24115116.273 7  97101602.668 7     -2259.370          43.000
C21  21862237.047 7 113842396.864 7       340.047          46.000
C22  23633427.734 6 123065436.365 6     -2012.598          41.000
E04  27033910.086 8 142064157.744 8      2320.695          48.000    27033911.633 7 108854377.497 7      1778.213          47.000
E12  22279243.672 6 117078209.938 6      -208.664          38.000    22279242.711 6  89709272.468 6      -159.586          39.000
E19  23957283.953 7 125896383.973 7       422.348          47.000    23957285.125 8  96466078.069 8       323.701          50.000
E33  25385179.422 8 133400010.232 8     -2726.336          51.000    25385176.516 7 102215604.106 7     -2089.041          47.000
> 2020 05 09 23 10 30.0000000  0 13        .000000000000
G04  20451488.883 8 107473323.222 8     -1024.672          51.000    20451489.133 8  83745483.480 8      -798.446          51.000
G09  20615137.375 8 108333381.143 8      1322.199          51.000    20615138.273 8  84415600.506 8      1030.285          51.000
G17  23741275.992 8 124761232.831 8     -2755.195          48.000    23741276.992 8  97216534.374 8     -2146.905          48.000
G19  23121780.297 7 121505762.788 7     -2429.539          44.000    23121779.391 6  94679816.567 6     -1893.147          36.000
R11  23034270.812 8 123088162.427 8      3870.258          48.000    23034274.898 7  95735260.379 7      3010.204          44.000
R24  20163690.781 8 107824315.624 8     -1848.543          49.000    20163692.320 7  83863350.638 7     -1437.756          46.000
C12  24131984.938 6 125661593.401 6     -2927.535          38.000    24131977.891 7  97169494.627 7     -2263.795          44.000
C21  21860305.648 7 113832341.317 7       334.410          46.000
C22  23645041.258 7 123125909.072 7     -2014.934          42.000
E04  27020678.234 8 141994621.195 8      2319.090          48.000    27020680.258 7 108801096.253 7      1776.902          47.000
E12  22280481.883 5 117084715.379 5      -220.934          35.000    22280480.539 6  89714257.154 6      -169.418          39.000
E19  23954899.844 7 125883854.473 7       416.832          47.000    23954900.711 8  96456477.559 8       319.352          50.000
E33  25400771.219 8 133481948.595 8     -2732.270          50.000    25400769.281 8 102278388.038 8     -2093.539          48.000
> 2020 05 09 23 11  0.0000000  0 14        .000000000000
G04  20457384.031 8 107504302.780 8     -1039.988          51.000    20457384.219 8  83769623.401 8      -810.384          51.000
G09  20607634.430 8 108293955.612 8      1306.691          51.000    20607635.742 8  84384879.301 8      1018.201          51.000
G17  23757030.562 7 124844021.832 7     -2763.383          47.000    23757030.328 7  97281045.280 7     -2153.285          47.000
G19  23135694.125 7 121578877.264 7     -2444.371          45.000    23135691.883 6  94736788.848 6     -1904.705          38.000
R01  19588205.094 6 104710182.293 6      -344.945          37.000    19588204.633 4  81441246.024 4      -268.291          27.000
R11  23012568.000 8 122972187.810 8      3862.070          48.000    23012571.578 7  95645057.946 7      3003.832          44.000
R24  20174137.422 8 107880179.553 8     -1875.168          51.000    20174139.984 7  83906800.369 7     -1458.467          47.000
C12  24148877.781 5 125749564.994 5     -2936.672          34.000    24148873.414 7  97237519.780 7     -2270.667          44.000
C21  21858407.312 7 113822455.477 7       325.230          47.000
C22  23656668.180 6 123186453.757 6     -2020.500          40.000
E04  27007455.945 8 141925135.396 8      2314.086          48.000    27007458.812 8 108747853.907 8      1773.128          48.000
E12  22281792.773 6 117091602.465 6      -237.219          38.000    22281792.109 6  89719534.249 6      -181.633          39.000
E19  23952546.859 7 125871489.865 7       408.102          47.000    23952547.234 8  96447003.380 8       312.713          49.000
E33  25416396.609 8 133564062.384 8     -2741.336          50.000    25416395.789 8 102341306.396 8     -2100.486          49.000
> 2020 05 09 23 11 30.0000000  0 15        .000000000000
G04  20463361.031 8 107535712.327 8     -1052.629          51.000    20463361.117 8  83794098.361 8      -820.230          51.000
G09  20600215.453 8 108254970.738 8      1293.598          51.000    20600216.992 8  84354501.473 8      1007.998          51.000
G17  23772825.922 7 124927027.607 7     -2768.906          45.000    23772824.633 7  97345725.094 7     -2157.589          44.000
G19  23149687.422 7 121652408.890 7     -2456.457          45.000    23149683.602 6  94794086.207 6     -1914.122          38.000
R01  19590169.844 5 104720693.490 5      -354.461          33.000    19590171.898 4  81449428.337 4      -275.692          26.000
R08  21437030.734 5 114794260.500 5     -2593.914          31.000
R11  22990905.500 8 122856429.299 8      3856.570          48.000    22990909.156 7  95555023.553 7      2999.555          45.000
R24  20184728.633 8 107936813.377 8     -1899.051          51.000    20184730.758 7  83950848.860 7     -1477.043          45.000
C12  24165815.961 5 125837779.155 5     -2942.910          32.000    24165815.695 7  97305732.618 7     -2275.603          44.000
C21  21856555.891 7 113812812.329 7       318.812          47.000
C22  23668321.836 5 123247143.055 5     -2023.836          33.000
E04  26994257.250 8 141855774.165 8      2311.457          48.000    26994260.344 7 108694707.015 7      1771.078          47.000
E12  22283190.766 6 117098944.871 6      -251.059          38.000    22283190.109 6  89725160.277 6      -192.280          38.000
E19  23950239.484 8 125859363.467 8       401.715          49.000    23950239.398 8  96437711.737 8       307.757          50.000
E33  25432069.391 8 133646423.690 8     -2748.027          51.000    25432069.914 8 102404414.398 8     -2105.628          51.000
> 2020 05 09 23 12  0.0000000  0 15        .000000000000
G04  20469423.008 8 107567568.511 8     -1068.250          51.000    20469423.156 8  83818921.360 8      -832.403          51.000
G09  20592884.156 8 108216444.831 8      1277.500          51.000    20592885.727 8  84324481.300 8       995.455          51.000
G17  23788664.867 7 125010265.226 7     -2777.668          42.000    23788663.750 6  97410585.579 6     -2164.417          41.000
G19  23163762.523 7 121726372.277 7     -2471.758          44.000    23163757.094 6  94851720.005 6     -1926.048          36.000
R01  19592201.320 5 104731544.166 5      -368.148          30.000    19592207.070 4  81457891.847 4      -286.338          27.000
R11  22969287.750 8 122740909.805 8      3847.516          48.000    22969291.477 7  95465175.031 7      2992.512          45.000
R23  21960952.320 5 117476305.006 5     -4280.668          31.000
R24  20195466.547 8 107994233.132 8     -1926.098          50.000    20195466.898 7  83995508.632 7     -1498.076          43.000
C12  24182803.812 5 125926251.591 5     -2952.801          34.000    24182807.062 7  97374145.108 7     -2282.918          44.000
C21  21854754.000 7 113803429.816 7       309.508          46.000
C22  23680003.484 5 123307994.796 5     -2029.961          34.000
E04  26981085.859 8 141786555.828 8      2305.820          48.000    26981088.297 7 108641669.610 7      1766.830          47.000
E12  22284677.828 5 117106760.923 5      -267.609          34.000    22284678.289 6  89731149.230 6      -205.021          38.000
E19  23947980.844 8 125847492.858 8       392.328          48.000    23947980.633 8  96428616.075 8       300.636          50.000
E33  25447792.547 8 133729049.046 8     -2757.645          51.000    25447794.391 8 102467724.718 8     -2112.932          51.000
> 2020 05 09 23 12 30.0000000  0 17        .000000000000
G04  20475552.883 8 107599781.153 8     -1076.809          51.000    20475552.938 8  83844022.129 8      -839.072          51.000
G09  20585623.883 8 108178289.433 8      1268.523          51.000    20585625.031 8  84294749.827 8       988.460          51.000
G17  23804530.352 7 125093643.194 7     -2778.457          42.000    23804530.562 7  97475555.442 7     -2165.031          42.000
G19  23177902.141 7 121800676.056 7     -2479.512          44.000    23177895.859 6  94909619.016 6     -1932.090          39.000
R01  19594288.609 5 104742705.443 5      -373.551          34.000
R02  22164977.070 5 118276528.362 5      2733.770          34.000
R09  23009941.633 5 122871763.362 5     -1725.398          33.000    23009938.273 5  95566924.648 5     -1341.974          31.000
R11  22947698.586 8 122625543.560 8      3845.863          48.000    22947702.453 7  95375445.744 7      2991.227          45.000
R23  21984979.578 5 117604843.399 5     -4284.977          30.000
R24  20206333.359 8 108052345.679 8     -1945.656          51.000    20206333.305 7  84040707.266 7     -1513.288          44.000
C12  24199825.188 5 126014891.780 5     -2954.195          32.000    24199829.953 7  97442687.356 7     -2284.764          44.000
C21  21852984.891 7 113794220.126 7       307.059          46.000
C22  23691702.898 5 123368920.287 5     -2028.602          31.000
E04  26967924.898 8 141717391.953 8      2307.320          48.000    26967926.234 7 108588673.945 7      1767.932          47.000
E12  22286237.711 5 117114969.137 5      -276.953          35.000    22286240.117 6  89737433.238 6      -212.295          37.000
E19  23945753.648 8 125835789.081 8       390.250          48.000    23945753.695 8  96419648.258 8       298.948          50.000
E33  25463548.750 8 133811848.232 8     -2759.953          50.000    25463551.523 8 102531168.256 8     -2114.817          51.000
> 2020 05 09 23 13  0.0000000  0 18        .000000000000
G04  20481759.242 8 107632395.245 8     -1094.160          51.000    20481759.062 8  83869435.714 8      -852.592          50.000
G09  20578443.047 8 108140551.183 8      1250.621          51.000    20578443.648 8  84265343.400 8       974.513          51.000
G17  23820431.492 7 125177204.811 7     -2788.801          45.000    23820432.820 7  97540668.375 7     -2173.092          45.000
G19  23192114.648 7 121875363.481 7     -2496.316          45.000    23192108.203 6  94967816.985 6     -1945.185          38.000
G22  24227987.398 5 127318932.844 5     -2828.305          31.000
R01  19596437.117 5 104754193.009 5      -388.930          32.000    19596445.383 4  81475512.628 4      -302.501          25.000
R02  22149638.703 5 118194725.569 5      2724.629          34.000
R08  21480753.297 4 115028457.350 4     -2608.289          29.000
R09  23019720.086 5 122923988.350 5     -1752.770          30.000    23019718.180 5  95607544.032 5     -1363.268          30.000
R11  22926147.547 7 122510382.477 7      3834.840          47.000    22926151.383 7  95285876.026 7      2982.653          45.000
R23  22009058.133 5 117733655.293 5     -4298.449          35.000
R24  20217338.508 8 108111195.965 8     -1974.270          51.000    20217339.297 7  84086479.713 7     -1535.543          46.000
C12  24216887.219 5 126103743.378 5     -2964.965          31.000    24216893.430 7  97511393.014 7     -2293.113          45.000
C21  21851258.219 7 113785229.432 7       295.527          46.000
E04  26954782.930 7 141648329.220 7      2300.059          47.000    26954783.312 7 108535755.782 7      1762.395          47.000
E12  22287881.055 6 117123601.969 6      -295.121          38.000    22287883.641 5  89744048.000 5      -226.353          35.000
E19  23943566.953 8 125824298.348 8       379.023          48.000    23943567.172 8  96410843.652 8       290.465          50.000
E33  25479346.438 8 133894866.107 8     -2771.262          50.000    25479349.812 8 102594779.357 8     -2123.422          51.000
> 2020 05 09 23 13 30.0000000  0 15        .000000000000
G04  20488068.773 8 107665551.747 8     -1108.348          51.000    20488068.406 8  83895271.949 8      -863.648          50.000
G09  20571368.406 8 108103372.664 8      1235.883          51.000    20571368.477 8  84236373.118 8       963.026          51.000
G17  23836394.625 7 125261089.690 7     -2795.656          47.000    23836396.430 7  97606033.202 7     -2178.433          47.000
G19  23206426.398 7 121950573.680 7     -2509.945          43.000    23206420.812 6  95026422.305 6     -1955.802          40.000
R01  19598674.172 5 104766142.785 5      -401.320          30.000
R11  22904663.000 7 122395576.091 7      3826.887          47.000    22904666.688 7  95196582.179 7      2976.470          46.000
R23  22033215.508 6 117862881.425 6     -4308.215          39.000
R24  20228508.562 8 108170926.291 8     -1999.590          51.000    20228509.820 7  84132936.649 7     -1555.237          47.000
C12  24234017.266 5 126192945.009 5     -2973.363          34.000    24234024.539 7  97580369.338 7     -2299.196          47.000
C21  21849601.219 7 113776598.776 7       287.562          46.000
C22  23715197.406 5 123491250.768 5     -2041.918          30.000
E04  26941686.945 7 141579510.271 7      2295.879          47.000    26941687.188 7 108483024.411 7      1759.114          46.000
E12  22289633.906 6 117132809.040 6      -310.742          38.000    22289635.461 5  89751102.743 5      -237.703          35.000
E19  23941447.906 8 125813162.530 8       371.184          48.000    23941448.078 8  96402310.995 8       284.386          50.000
E33  25495212.727 8 133978243.534 8     -2779.395          50.000    25495216.148 8 102658665.960 8     -2129.624          51.000
> 2020 05 09 23 14  0.0000000  0 16        .000000000000
G04  20494430.438 8 107698982.787 8     -1121.113          51.000    20494430.148 8  83921322.112 8      -873.595          51.000
G09  20564349.523 8 108066487.742 8      1222.414          51.000    20564349.195 8  84207631.598 8       952.530          51.000
G17  23852368.164 8 125345028.123 8     -2800.977          48.000    23852369.953 8  97671439.757 8     -2182.579          48.000
G19  23220785.906 6 122026037.316 6     -2521.836          41.000    23220782.000 6  95085225.150 6     -1965.064          41.000
R01  19600949.312 5 104778299.289 5      -410.352          34.000
R02  22119102.500 5 118031768.332 5      2712.824          32.000    22119097.930 5  91802467.291 5      2109.974          31.000
R11  22883195.414 8 122280857.872 8      3820.102          49.000    22883198.570 7  95107356.916 7      2971.187          45.000
R23  22057399.352 6 117992246.245 6     -4316.777          40.000
R24  20239792.016 8 108231262.743 8     -2023.648          51.000    20239792.977 7  84179864.997 7     -1573.949          46.000
C12  24251164.547 6 126282230.162 6     -2979.664          36.000    24251172.102 7  97649410.292 7     -2304.150          47.000
C21  21847962.672 7 113768064.484 7       280.633          46.000
C22  23726978.562 5 123552553.016 5     -2045.926          35.000
E04  26928586.406 7 141510669.068 7      2292.805          47.000    26928587.250 7 108430275.941 7      1756.806          46.000
E12  22291445.289 6 117142324.103 6      -324.434          37.000    22291445.898 6  89758393.499 6      -248.840          37.000
E19  23939345.570 8 125802114.834 8       364.660          48.000    23939345.711 8  96393845.881 8       279.364          50.000
E33  25511096.773 8 134061712.631 8     -2786.062          50.000    25511099.609 8 102722622.797 8     -2134.733          51.000
> 2020 05 09 23 14 30.0000000  0 15        .000000000000
G04  20500876.648 8 107732857.977 8     -1136.430          51.000    20500876.406 8  83947718.354 8      -885.530          50.000
G09  20557419.125 8 108030067.609 8      1206.344          51.000    20557418.766 8  84179252.271 8       940.008          51.000
G17  23868383.984 8 125429188.599 8     -2808.848          48.000    23868385.375 8  97737019.324 8     -2188.712          48.000
G19  23235225.570 7 122101922.214 7     -2536.309          42.000    23235222.797 6  95144356.240 6     -1976.344          41.000
R01  19603293.852 5 104790827.830 5      -424.008          35.000
R11  22861777.836 8 122166406.503 8      3810.535          48.000    22861780.289 7  95018339.191 7      2963.750          44.000
R23  22081640.633 6 118121919.591 6     -4327.457          40.000
R24  20251220.852 8 108292376.750 8     -2049.930          51.000    20251221.344 7  84227398.060 7     -1594.390          47.000
C12  24268360.164 6 126371765.990 6     -2988.586          38.000    24268367.789 7  97718645.065 7     -2310.937          47.000
C21  21846374.750 7 113759795.982 7       271.246          46.000
C22  23738784.773 5 123614021.029 5     -2051.941          35.000
E04  26915513.906 7 141441976.827 7      2287.125          45.000    26915515.859 7 108377641.637 7      1752.595          46.000
E12  22293347.484 6 117152318.272 6      -341.125          36.000    22293348.359 6  89766051.332 6      -261.265          38.000
E19  23937292.414 8 125791326.072 8       355.426          48.000    23937292.633 8  96385579.185 8       272.249          50.000
E33  25527030.578 8 134145442.900 8     -2795.246          50.000    25527032.711 8 102786779.749 8     -2141.845          51.000
> 2020 05 09 23 15  0.0000000  0 15        .000000000000
G04  20507402.539 8 107767151.697 8     -1149.605          51.000    20507402.141 8  83974440.756 8      -895.796          50.000
