     3.04           OBSERVATION DATA    M (MIXED)           RINEX VERSION / TYPE
Convert 2.6.2       NovAtel             20200515 160151 UTC PGM / RUN BY / DATE 
Rinex Version 3.04 Observation File                         COMMENT             
                                                            MARKER NAME         
                                                            MARKER NUMBER       
                                                            MARKER TYPE         
                                                            OBSERVER / AGENCY   
                    NovAtel GPSCard                         REC # / TYPE / VERS 
                                                            ANT # / TYPE        
        0.0000        0.0000        0.0000                  APPROX POSITION XYZ 
        0.0000        0.0000        0.0000                  ANTENNA: DELTA H/E/N
G    8 C1C L1C D1C S1C C2W L2W D2W S2W                      SYS / # / OBS TYPES 
R    8 C1C L1C D1C S1C C2P L2P D2P S2P                      SYS / # / OBS TYPES 
E    8 C1C L1C D1C S1C C7Q L7Q D7Q S7Q                      SYS / # / OBS TYPES 
C    8 C2I L2I D2I S2I C7I L7I D7I S7I                      SYS / # / OBS TYPES 
DBHZ                                                        SIGNAL STRENGTH UNIT
    30.000                                                  INTERVAL            
  2020    05    10    11    00    0.0000000     GPS         TIME OF FIRST OBS   
  2020    05    10    11    59   30.0000000     GPS         TIME OF LAST OBS    
G L1C  0.00000  08 G32 G25 G29 G12 G02 G18 G14 G21          SYS / PHASE SHIFT   
G L2W  0.00000  08 G32 G25 G29 G12 G18 G02 G21 G14          SYS / PHASE SHIFT   
R L1C  0.00000  05 R19 R16 R18 R09 R20                      SYS / PHASE SHIFT   
R L2P  0.25000  05 R19 R16 R18 R09 R20                      SYS / PHASE SHIFT   
E L1C  0.50000  05 E24 E25 E12 E11 E36                      SYS / PHASE SHIFT   
E L7Q -0.25000  04 E24 E25 E11 E36                          SYS / PHASE SHIFT   
C L2I  0.00000  04 C28 C27 C23 C11                          SYS / PHASE SHIFT   
C L7I  0.00000  01 C11                                      SYS / PHASE SHIFT   
  5 R19  3 R16 -1 R18 -3 R09 -2 R20  2                      GLONASS SLOT / FRQ #
 C1C  -71.950 C2C  -71.950 C2P  -71.950                     GLONASS COD/PHS/BIS 
     0     0     0     0GPS                                 LEAP SECONDS        
                                                            END OF HEADER       
> 2020 05 10 11 00  0.0000000  0 12      -0.000000000000
G32  23641749.273 7 124238214.115 7     -2682.070          45.000    23641753.055 7  96809012.224 7     -2089.926          45.000  
G25  20408825.430 8 107249103.824 8     -1015.969          51.000    20408827.367 8  83570735.427 8      -791.667          51.000  
G29  20332013.109 8 106845476.582 8       835.789          51.000    20332012.633 8  83256203.366 8       651.264          51.000  
R19  19291943.797 6 103198515.290 6       862.828          40.000    19291944.523 7  80265521.420 7       671.089          45.000  
R16  20397276.297 7 108958181.479 7     -2292.605          43.000    20397279.695 7  84745267.296 7     -1783.141          42.000  
E24  23313897.875 7 122515342.934 7     -1768.816          42.000    23313911.578 7  93875448.216 7     -1355.435          45.000  
E25  23525452.398 8 123627077.300 8       542.738          50.000    23525455.148 8  94727286.451 8       415.844          51.000  
E12  23448281.242 5 123221546.546 5     -1563.836          34.000                                                                  
E11  23117916.672 8 121485459.038 8      1407.816          49.000    23117915.609 8  93086250.582 8      1078.864          50.000  
C28  21711275.086 8 113056346.150 8      1106.539          51.000                                                                  
C27  24914573.734 5 129736737.397 5      3231.734          35.000                                                                  
C23  23006682.312 8 119801814.647 8     -2122.516          51.000                                                                  
> 2020 05 10 11 00 30.0000000  0 12      -0.000000000000
G32  23657084.352 8 124318798.042 8     -2690.441          48.000    23657087.898 8  96871804.830 8     -2096.448          48.000  
G25  20414657.297 8 107279750.368 8     -1027.414          51.000    20414659.328 8  83594615.831 8      -800.583          51.000  
G29  20327287.922 8 106820644.995 8       819.242          51.000    20327287.445 8  83236854.093 8       638.371          51.000  
R19  19287177.133 6 103173016.570 6       836.602          40.000    19287178.172 7  80245689.096 7       650.690          44.000  
R16  20410194.680 7 109027190.721 7     -2308.570          45.000    20410198.109 6  84798941.145 6     -1795.555          41.000  
E24  23324012.867 6 122568498.159 6     -1774.992          40.000    23324028.203 7  93916177.474 7     -1360.206          44.000  
E25  23522373.852 8 123610899.868 8       535.344          50.000    23522376.664 8  94714890.739 8       410.211          51.000  
E12  23457240.156 5 123268628.321 5     -1575.555          33.000                                                                  
E11  23109916.164 8 121443417.066 8      1394.457          49.000    23109915.195 8  93054036.615 8      1068.457          50.000  
C28  21704942.258 8 113023369.991 8      1091.547          51.000                                                                  
C27  24895969.539 5 129639865.019 5      3226.043          31.000                                                                  
C23  23018939.898 8 119865645.908 8     -2133.465          51.000                                                                  
> 2020 05 10 11 01  0.0000000  0 10      -0.000000000000
G32  23672470.242 7 124399648.689 7     -2699.379          47.000    23672473.297 7  96934805.249 7     -2103.416          47.000  
G25  20420557.969 8 107310758.790 8     -1039.543          51.000    20420559.938 8  83618778.230 8      -810.034          51.000  
G29  20322660.023 8 106796323.546 8       802.359          51.000    20322659.828 8  83217902.311 8       625.215          51.000  
R19  19282562.789 6 103148332.916 6       809.207          40.000    19282563.766 7  80226490.707 7       629.380          43.000  
R16  20423206.047 7 109096692.475 7     -2324.805          46.000    20423208.500 6  84852998.048 6     -1808.182          39.000  
E24  23334167.680 7 122621860.276 7     -1782.027          43.000    23334182.070 6  93957065.309 6     -1365.477          39.000  
E25  23519340.406 8 123594958.803 8       527.660          51.000    23519343.086 8  94702676.157 8       404.338          51.000  
E11  23101996.656 8 121401800.731 8      1380.430          50.000    23101995.742 8  93022148.786 8      1057.703          50.000  
C28  21698698.492 8 112990858.608 8      1076.039          51.000                                                                  
C23  23031263.547 8 119929819.096 8     -2144.660          51.000                                                                  
> 2020 05 10 11 01 30.0000000  0 10      -0.000000000000
G32  23687899.234 7 124480726.933 7     -2706.082          46.000    23687901.992 7  96997983.021 7     -2108.639          46.000  
G25  20426520.547 8 107342092.924 8     -1049.664          51.000    20426522.570 8  83643194.424 8      -817.920          51.000  
G29  20318121.961 8 106772475.025 8       787.410          51.000    20318121.922 8  83199319.052 8       613.567          51.000  
R19  19278093.984 6 103124427.555 6       784.082          39.000    19278095.008 7  80207897.669 7       609.845          44.000  
R16  20436302.641 7 109166649.269 7     -2339.180          46.000    20436304.422 6  84907408.819 6     -1819.365          39.000  
E24  23344354.977 6 122675393.361 6     -1786.902          41.000    23344365.211 6  93998084.228 6     -1369.033          37.000  
E25  23516345.305 8 123579218.915 8       521.629          51.000    23516347.852 8  94690615.725 8       399.714          51.000  
E11  23094151.719 8 121360574.793 8      1367.980          50.000    23094150.750 8  92990560.104 8      1048.167          50.000  
C28  21692537.352 8 112958776.575 8      1062.547          51.000                                                                  
C23  23043646.141 8 119994297.873 8     -2154.113          51.000                                                                  
> 2020 05 10 11 02  0.0000000  0 13      -0.000000000000
G32  23703367.625 7 124562014.352 7     -2712.711          42.000    23703370.852 7  97061323.842 7     -2113.798          43.000  
G25  20432542.086 8 107373737.270 8     -1059.828          50.000    20432544.156 8  83667852.354 8      -825.840          50.000  
G29  20313671.078 8 106749084.618 8       772.258          51.000    20313670.898 8  83181092.763 8       601.760          51.000  
R19  19273767.625 6 103101285.233 6       758.934          39.000    19273768.867 7  80189898.124 7       590.285          44.000  
R18  20830361.094 5 111193377.127 5     -3088.793          30.000    20830337.438 5  86483736.775 5     -2402.401          31.000  
R16  20449480.969 7 109237044.615 7     -2353.641          46.000    20449482.445 6  84962160.673 6     -1830.613          41.000  
E24  23354571.656 7 122729082.190 7     -1792.027          43.000    23354582.875 6  94039222.347 6     -1373.334          39.000  
E25  23513385.617 8 123563665.683 8       515.574          51.000    23513388.133 8  94678698.317 8       395.054          51.000  
E12  23484525.570 5 123412014.350 5     -1609.781          33.000                                                                  
E11  23086378.531 8 121319724.747 8      1355.430          51.000    23086377.297 8  92959259.435 8      1038.592          50.000  
C28  21686456.000 8 112927109.008 8      1048.902          51.000                                                                  
C27  24840338.234 5 129350154.273 5      3210.996          30.000                                                                  
C23  23056084.617 8 120059066.385 8     -2163.539          50.000                                                                  
> 2020 05 10 11 02 30.0000000  0 12      -0.000000000000
G32  23718883.664 7 124643553.745 7     -2722.191          43.000    23718888.039 7  97124861.000 7     -2121.189          42.000  
G25  20438631.297 8 107405737.505 8     -1072.512          50.000    20438633.516 8  83692787.592 8      -835.724          50.000  
G29  20309316.164 8 106726198.267 8       754.379          51.000    20309315.898 8  83163259.264 8       587.828          51.000  
R19  19269592.406 6 103078952.754 6       730.723          39.000    19269593.797 7  80172528.416 7       568.340          43.000  
R09  19805431.328 5 105759526.82425      2097.883          32.000                                                                  
R16  20462749.945 7 109307924.407 7     -2370.742          46.000    20462751.773 7  85017289.380 7     -1843.911          43.000  
E24  23364827.266 7 122782972.438 7     -1799.684          44.000    23364837.383 5  94080514.794 5     -1378.928          35.000  
E25  23510470.117 8 123548345.697 8       506.750          51.000    23510472.711 8  94666959.627 8       388.268          51.000  
E11  23078685.570 8 121279297.066 8      1340.633          50.000    23078684.281 8  92928282.385 8      1027.293          50.000  
C28  21680462.781 8 112895901.480 8      1032.559          51.000                                                                  
C27  24821864.781 5 129253928.375 5      3204.402          32.000                                                                  
C23  23068587.227 8 120124169.263 8     -2175.633          49.000                                                                  
> 2020 05 10 11 03  0.0000000  0 13      -0.000000000000
G32  23734440.250 7 124725304.454 7     -2728.625          45.000    23734445.344 7  97188562.805 7     -2126.205          45.000  
G25  20444781.164 8 107438055.876 8     -1082.785          50.000    20444783.641 8  83717970.736 8      -843.729          50.000  
G29  20305049.477 8 106703777.712 8       739.586          51.000    20305049.516 8  83145788.714 8       576.301          51.000  
R19  19265561.016 6 103057391.777 6       705.793          38.000    19265563.023 7  80155758.792 7       548.950          44.000  
R09  19793680.102 5 105696765.993 5      2086.066          31.000    19793673.484 4  82208568.08224      1622.496          26.000  
R16  20476102.016 7 109379249.458 7     -2384.969          47.000    20476104.523 7  85072764.388 7     -1854.976          43.000  
E24  23375113.695 6 122837026.690 6     -1804.664          41.000    23375119.359 5  94121932.963 5     -1382.834          32.000  
E25  23507592.062 8 123533222.202 8       500.734          51.000    23507594.672 8  94655371.489 8       383.617          51.000  
E12  23503050.086 5 123509361.154 5     -1633.492          32.000                                                                  
E11  23071065.797 8 121239254.994 8      1328.305          49.000    23071064.773 8  92897600.819 8      1017.745          50.000  
C28  21674551.141 8 112865117.027 8      1019.059          51.000                                                                  
C27  24803424.500 5 129157848.129 5      3200.621          32.000                                                                  
C23  23081146.375 8 120189568.658 8     -2184.965          48.000                                                                  
> 2020 05 10 11 03 30.0000000  0 13      -0.000000000000
G32  23750019.164 8 124807171.420 8     -2723.953          48.000    23750023.969 7  97252355.208 7     -2122.562          47.000  
G12  22174090.711 5 116525621.889 5     -2519.422          32.000    22174077.836 5  90799150.180 5     -1963.190          31.000  
G25  20450974.273 8 107470600.285 8     -1081.781          51.000    20450976.688 8  83743330.018 8      -842.947          51.000  
G29  20300853.555 8 106681730.534 8       735.453          51.000    20300853.945 8  83128609.096 8       573.081          51.000  
R19  19261656.695 6 103036509.183 6       691.613          38.000    19261659.359 7  80139516.784 7       537.922          44.000  
R16  20489520.281 7 109450925.698 7     -2388.203          47.000    20489522.820 7  85128512.574 7     -1857.495          44.000  
E24  23385412.750 6 122891153.032 6     -1798.746          41.000    23385416.523 5  94163406.292 5     -1378.183          33.000  
E25  23504734.188 8 123518204.029 8       505.527          51.000    23504736.656 8  94643864.052 8       387.307          51.000  
E12  23512387.812 5 123558430.495 5     -1633.387          32.000                                                                  
E11  23063501.609 7 121199507.325 7      1326.594          47.000    23063501.078 8  92867144.814 8      1016.446          49.000  
C28  21668703.555 8 112834664.776 8      1016.277          51.000                                                                  
C27  24784991.289 5 129061823.901 5      3206.711          34.000                                                                  
C23  23093744.477 8 120255172.681 8     -2183.586          49.000                                                                  
> 2020 05 10 11 04  0.0000000  0 13      -0.000000000000
G02  23629015.406 4 124171313.32624     -1958.215          29.000                                                                  
G32  23765694.703 8 124889546.194 8     -2743.426          49.000    23765697.852 8  97316543.300 8     -2137.738          49.000  
G12  22188581.961 5 116601768.357 5     -2537.641          33.000                                                                  
G25  20457285.484 8 107503765.130 8     -1104.879          51.000    20457287.797 8  83769172.756 8      -860.945          51.000  
G29  20296804.117 8 106660451.322 8       707.531          51.000    20296804.305 8  83112027.879 8       551.323          51.000  
R19  19257954.391 6 103016706.295 6       653.184          39.000    19257956.992 7  80124114.542 7       508.032          44.000  
R16  20503078.789 7 109523353.684 7     -2415.738          45.000    20503081.812 7  85184845.404 7     -1878.908          43.000  
E24  23395800.703 6 122945745.966 6     -1816.484          41.000    23395806.648 6  94205237.202 6     -1391.993          36.000  
E25  23501971.594 8 123503686.563 8       486.559          51.000    23501973.906 8  94632740.273 8       372.869          51.000  
E11  23056068.320 7 121160449.412 7      1301.285          46.000    23056068.516 8  92837217.299 8       997.143          49.000  
C28  21662994.500 8 112804935.881 8       989.781          50.000                                                                  
C27  24766639.781 5 128966248.152 5      3189.723          33.000                                                                  
C23  23106456.219 8 120321371.663 8     -2205.758          48.000                                                                  
> 2020 05 10 11 04 30.0000000  0 12      -0.000000000000
G32  23781371.141 8 124971925.921 8     -2752.926          50.000    23781372.312 8  97380735.251 8     -2145.138          50.000  
G12  22203081.180 5 116677954.203 5     -2545.883          35.000    22203096.102 5  90917971.886 5     -1983.815          35.000  
G25  20463619.672 8 107537050.547 8     -1118.367          51.000    20463621.898 8  83795109.431 8      -871.455          51.000  
G29  20292805.586 8 106639440.089 8       688.988          50.000    20292805.828 8  83095655.499 8       536.874          50.000  
R19  19254359.125 6 102997474.309 6       624.465          39.000    19254361.625 7  80109156.341 7       485.695          44.000  
R16  20516682.609 7 109596024.121 7     -2433.664          43.000    20516685.562 6  85241366.862 6     -1892.850          41.000  
E24  23406182.789 6 123000305.851 6     -1825.000          39.000    23406192.695 6  94247042.763 6     -1398.279          39.000  
E25  23499209.266 8 123489170.877 8       476.973          51.000    23499211.625 8  94621617.868 8       365.473          51.000  
E11  23048671.578 7 121121582.164 7      1285.594          45.000    23048672.070 8  92807435.862 8       985.120          48.000  
C28  21657329.289 8 112775435.418 8       972.707          50.000                                                                  
C27  24748277.180 5 128870627.245 5      3181.422          35.000                                                                  
C23  23119187.250 8 120387669.651 8     -2218.418          48.000                                                                  
> 2020 05 10 11 05  0.0000000  0 14      -0.000000000000
G32  23797063.445 8 125054389.229 8     -2753.438          49.000    23797063.812 8  97444992.340 8     -2145.536          49.000  
G12  22217590.477 5 116754202.146 5     -2545.992          31.000    22217596.438 5  90977385.497 5     -1983.903          31.000  
G25  20469992.281 8 107570538.012 8     -1123.031          51.000    20469994.344 8  83821203.545 8      -875.090          51.000  
G29  20288873.664 8 106618778.231 8       679.410          51.000    20288873.641 8  83079555.356 8       529.408          51.000  
R19  19250886.359 6 102978896.629 6       604.965          39.000    19250888.484 7  80094707.038 7       470.525          44.000  
R18  20936139.500 5 111758125.025 5     -3180.504          32.000    20936142.062 4  86923000.655 4     -2473.726          29.000  
R16  20530347.281 6 109669019.600 6     -2441.941          41.000    20530350.383 7  85298141.110 7     -1899.291          42.000  
E24  23416574.062 6 123054914.483 6     -1824.391          40.000    23416587.883 6  94288885.678 6     -1397.917          41.000  
E25  23496463.016 8 123474739.492 8       476.309          51.000    23496465.438 8  94610560.054 8       364.925          51.000  
E11  23041327.469 7 121082988.019 7      1278.766          47.000    23041327.219 8  92777863.742 8       979.735          48.000  
C28  21651723.477 8 112746244.440 8       964.539          50.000                                                                  
C11  25133055.953 5 130874373.703 5     -2957.914          30.000    25133056.094 6 101200393.232 6     -2286.972          37.000  
C27  24729919.711 5 128775181.99225      3181.812          31.000                                                                  
C23  23131953.539 8 120454146.862 8     -2222.250          48.000                                                                  
> 2020 05 10 11 05 30.0000000  0 15      -0.000000000000
G02  23662879.672 5 124349292.322 5     -2010.316          32.000                                                                  
G32  23812829.023 8 125137237.791 8     -2777.211          48.000    23812829.734 8  97509549.645 8     -2164.061          48.000  
G25  20476461.227 8 107604532.169 8     -1150.641          51.000    20476463.133 8  83847692.479 8      -896.603          51.000  
G29  20285066.312 8 106598769.997 8       646.938          51.000    20285065.383 8  83063964.534 8       504.110          51.000  
R19  19247593.781 6 102961283.506 6       561.840          39.000    19247595.609 7  80081007.930 7       436.987          45.000  
R18  20954079.344 5 111853895.127 5     -3212.535          32.000    20954077.000 4  86997488.723 4     -2498.630          26.000  
R09  19736067.406 5 105389199.107 5      2002.281          32.000    19736067.781 4  81969313.16524      1557.330          26.000  
R16  20544130.914 7 109742648.859 7     -2474.113          46.000    20544133.883 7  85355408.257 7     -1924.308          42.000  
E24  23427033.344 7 123109876.622 7     -1847.191          42.000    23427048.977 6  94330999.511 6     -1415.339          41.000  
E25  23493791.023 8 123460697.992 8       452.383          51.000    23493793.297 8  94599800.976 8       346.631          51.000  
E11  23034093.742 8 121044972.402 8      1248.324          49.000    23034091.945 7  92748734.942 7       956.458          47.000  
C28  21646235.125 8 112717665.176 8       933.543          51.000                                                                  
C11  25150133.766 5 130963304.424 5     -2978.504          33.000    25150134.398 6 101269160.079 6     -2303.305          38.000  
C27  24711629.500 4 128679938.83124      3161.133          29.000                                                                  
C23  23144812.742 8 120521104.578 8     -2248.887          50.000                                                                  
> 2020 05 10 11 06  0.0000000  0 13      -0.000000000000
G02  23674354.672 5 124409572.64725     -2012.418          30.000                                                                  
G32  23828674.883 7 125220508.213 7     -2772.527          47.000    23828676.727 7  97574435.652 7     -2160.415          47.000  
G25  20483034.148 8 107639072.506 8     -1150.188          51.000    20483035.938 8  83874607.006 8      -896.250          51.000  
G29  20281390.938 8 106579455.250 8       642.500          51.000    20281389.680 8  83048914.084 8       500.650          51.000  
R19  19244489.258 6 102944675.114 6       547.293          40.000    19244491.078 7  80068090.286 7       425.672          44.000  
R09  19724830.969 5 105329200.349 5      1999.199          31.000    19724832.008 4  81922645.410 4      1554.930          28.000  
R16  20558041.344 7 109816951.345 7     -2477.586          47.000    20558043.234 7  85413199.058 7     -1927.015          42.000  
E24  23437567.844 6 123165231.978 6     -1841.605          41.000    23437584.766 7  94373414.622 7     -1411.026          43.000  
E25  23491201.008 8 123447086.824 8       456.762          51.000    23491202.969 8  94589371.643 8       349.980          51.000  
E11  23026978.141 8 121007575.717 8      1246.340          51.000    23026974.766 7  92720080.363 7       955.057          47.000  
C28  21640871.852 8 112689737.062 8       930.270          51.000                                                                  
C11  25167278.711 5 131052582.671 5     -2971.191          34.000    25167280.211 6 101338195.661 6     -2297.738          39.000  
C23  23157771.945 8 120588581.345 8     -2247.703          51.000                                                                  
> 2020 05 10 11 06 30.0000000  0 13      -0.000000000000
G32  23844514.367 7 125303745.555 7     -2778.387          46.000    23844517.547 7  97639295.879 7     -2164.980          46.000  
G25  20489624.961 8 107673706.988 8     -1160.527          51.000    20489626.438 8  83901594.893 8      -904.307          51.000  
G29  20277761.312 8 106560381.747 8       627.324          51.000    20277760.359 8  83034051.621 8       488.824          51.000  
R19  19241486.445 6 102928611.047 6       522.035          38.000    19241487.922 7  80055596.006 7       406.027          44.000  
R18  20990248.953 5 112046976.10125     -3229.805          32.000                                                                  
R16  20571991.461 7 109891466.963 7     -2491.961          47.000    20571993.023 7  85471155.610 7     -1938.192          43.000  
E24  23448091.047 7 123220528.668 7     -1846.715          42.000    23448109.055 7  94415784.727 7     -1414.896          43.000  
E25  23488607.031 8 123433454.913 8       450.484          51.000    23488608.727 8  94578926.417 8       345.206          51.000  
E11  23019894.273 8 120970346.744 8      1233.875          51.000    23019890.477 8  92691554.306 8       945.482          48.000  
C28  21635547.461 8 112662012.463 8       916.391          51.000                                                                  
C11  25184403.445 5 131141759.010 5     -2975.469          33.000    25184406.367 6 101407152.403 6     -2300.387          39.000  
C27  24675170.750 5 128490053.233 5      3160.688          32.000                                                                  
C23  23170744.297 8 120656128.636 8     -2257.082          51.000                                                                  
> 2020 05 10 11 07  0.0000000  0 14      -0.000000000000
G18  24180902.031 5 127071497.34425      3755.238          35.000                                                                  
G32  23860400.305 7 125387227.166 7     -2780.172          46.000    23860404.633 7  97704346.449 7     -2166.368          46.000  
G25  20496286.898 8 107708715.834 8     -1166.547          51.000    20496288.422 8  83928874.505 8      -908.998          51.000  
G29  20274231.070 8 106541829.435 8       616.418          51.000    20274230.094 8  83019595.253 8       480.326          51.000  
R19  19238638.773 6 102913376.852 6       501.051          38.000    19238639.906 7  80043747.195 7       389.709          44.000  
R18  21008454.820 5 112144124.644 5     -3239.484          31.000                                                                  
R16  20586034.242 7 109966479.741 7     -2501.867          46.000    20586036.031 7  85529498.845 7     -1945.900          44.000  
E24  23458656.023 6 123276047.145 6     -1847.797          39.000    23458673.203 6  94458324.826 6     -1415.630          39.000  
E25  23486062.641 8 123420083.565 8       448.039          51.000    23486064.211 8  94568680.838 8       343.321          51.000  
E11  23012895.570 8 120933566.602 8      1225.449          51.000    23012892.070 8  92663372.157 8       938.990          49.000  
C28  21630315.664 8 112634769.411 8       906.730          51.000                                                                  
C11  25201561.461 5 131231109.241 5     -2974.125          32.000    25201565.562 6 101476243.693 6     -2300.372          38.000  
C27  24656983.477 5 128395341.263 5      3160.230          34.000                                                                  
C23  23183782.438 8 120724023.590 8     -2262.230          48.000                                                                  
> 2020 05 10 11 07 30.0000000  0 13      -0.000000000000
G18  24159502.883 5 126959060.666 5      3746.344          34.000                                                                  
G32  23876329.500 7 125470935.794 7     -2794.059          46.000    23876334.484 7  97769573.913 7     -2177.189          46.000  
G25  20503017.258 8 107744084.765 8     -1185.078          51.000    20503019.141 8  83956434.696 8      -923.438          51.000  
G29  20270797.203 8 106523783.910 8       593.008          51.000    20270796.273 8  83005533.801 8       462.084          51.000  
R19  19235943.180 6 102898957.713 6       466.957          38.000    19235944.352 7  80032532.318 7       363.189          43.000  
R16  20600166.828 7 110041974.464 7     -2524.645          45.000    20600169.102 7  85588216.949 7     -1963.613          43.000  
E24  23469259.695 6 123331773.325 6     -1860.812          37.000    23469275.578 6  94501024.080 6     -1425.830          39.000  
E25  23483565.172 8 123406959.391 8       433.355          51.000    23483566.680 8  94558624.653 8       332.091          51.000  
E11  23005979.641 8 120897221.820 8      1204.172          51.000    23005976.477 8  92635523.587 8       922.633          50.000  
C28  21625173.523 8 112607994.023 8       884.664          51.000                                                                  
C11  25218750.344 5 131320617.653 5     -2985.926          33.000    25218755.047 6 101545457.239 6     -2309.216          37.000  
C27  24638835.219 5 128300831.294 5      3146.188          34.000                                                                  
C23  23196883.516 8 120792251.413 8     -2279.793          48.000                                                                  
> 2020 05 10 11 08  0.0000000  0 14      -0.000000000000
G18  24138091.164 5 126846539.880 5      3746.820          34.000                                                                  
G32  23892271.555 7 125554711.172 7     -2799.012          45.000    23892276.477 7  97834853.378 7     -2181.052          45.000  
G14  23242716.773 5 122141312.346 5     -1619.348          34.000                                                                  
G25  20509786.266 8 107779656.354 8     -1194.488          51.000    20509788.234 8  83984152.815 8      -930.773          51.000  
G29  20267429.789 8 106506087.393 8       578.625          51.000    20267428.766 8  82991744.326 8       450.880          51.000  
R19  19233370.266 6 102885193.272 6       442.508          38.000    19233371.148 7  80021826.635 7       344.173          43.000  
R16  20614359.023 7 110117790.237 7     -2538.191          43.000    20614362.070 7  85647184.774 7     -1974.149          42.000  
E24  23479873.125 5 123387565.782 5     -1865.168          33.000    23479889.492 6  94543761.985 6     -1429.410          40.000  
E25  23481084.930 8 123393925.994 8       427.465          51.000    23481086.422 8  94548638.025 8       327.565          51.000  
E11  22999116.773 8 120861155.767 8      1191.992          51.000    22999113.805 8  92607888.557 8       913.384          50.000  
C28  21620091.109 8 112581530.543 8       871.527          51.000                                                                  
C11  25235940.047 5 131410126.627 5     -2988.715          34.000    25235944.703 6 101614671.281 6     -2311.375          37.000  
C27  24620695.086 5 128206368.759 5      3142.617          32.000                                                                  
C23  23210018.445 8 120860655.525 8     -2288.453          48.000                                                                  
> 2020 05 10 11 08 30.0000000  0 14      -0.000000000000
G18  24116734.414 6 126734309.781 6      3740.211          36.000    24116732.656 5  98753987.959 5      2914.451          35.000  
G32  23908296.820 7 125638922.679 7     -2810.238          45.000    23908300.906 7  97900472.692 7     -2189.797          45.000  
G14  23252027.539 5 122190247.878 5     -1637.582          32.000                                                                  
G25  20516664.695 8 107815802.962 8     -1210.363          51.000    20516666.758 8  84012319.005 8      -943.141          51.000  
G29  20264199.734 8 106489112.387 8       557.934          51.000    20264198.461 8  82978517.048 8       434.754          51.000  
R19  19230990.570 6 102872462.516 6       411.293          38.000    19230991.453 7  80011924.965 7       319.898          44.000  
R18  21063559.766 5 112438316.712 5     -3294.301          32.000                                                                  
R16  20628682.391 7 110194304.995 7     -2557.867          45.000    20628686.094 7  85706696.218 7     -1989.453          42.000  
E24                                                                  23490582.883 6  94586823.980 6     -1437.644          39.000  
E25  23478692.945 8 123381356.714 8       415.418          51.000    23478694.781 8  94539007.018 8       318.340          51.000  
E11  22992377.781 8 120825741.636 8      1173.824          51.000    22992375.203 8  92580753.051 8       899.472          51.000  
C28  21615139.648 8 112555748.247 8       852.117          51.000                                                                  
C11  25253200.367 5 131500003.455 5     -2997.980          33.000    25253204.727 6 101684169.699 6     -2318.290          37.000  
C23  23223258.914 8 120929604.241 8     -2303.273          49.000                                                                  
> 2020 05 10 11 09  0.0000000  0 14      -0.000000000000
G18  24095358.977 6 126621980.778 6      3742.648          37.000    24095355.539 5  98666453.882 5      2916.344          33.000  
G32  23924329.930 7 125723174.828 7     -2811.902          45.000    23924332.930 7  97966123.656 7     -2191.094          45.000  
G14  23261391.477 5 122239459.376 5     -1647.754          30.000                                                                  
G25  20523577.867 8 107852131.969 8     -1217.141          51.000    20523580.039 8  84040627.300 8      -948.422          51.000  
G29  20261031.875 8 106472465.556 8       546.320          51.000    20261030.719 8  82965545.467 8       425.704          51.000  
R19  19228729.281 6 102860365.680 6       389.594          39.000    19228730.188 7  80002516.332 7       303.017          43.000  
R18  21082083.633 4 112537214.022 4     -3304.691          28.000                                                                  
R16  20643062.250 7 110271118.910 7     -2568.516          46.000    20643065.695 6  85766440.352 6     -1997.735          40.000  
E24  23501267.008 6 123499985.453 6     -1877.664          38.000    23501281.273 6  94629909.353 6     -1438.994          40.000  
E25  23476314.695 8 123368859.940 8       412.180          51.000    23476317.047 8  94529431.563 8       315.859          51.000  
E11  22985688.000 8 120790587.502 8      1164.531          50.000    22985685.898 8  92553816.776 8       892.259          51.000  
C28  21610244.406 8 112530258.334 8       841.781          51.000                                                                  
C11  25270455.977 5 131589857.433 5     -2997.953          32.000    25270460.367 6 101753650.494 6     -2318.078          37.000  
C23  23236529.906 8 120998707.929 8     -2309.078          49.000                                                                  
> 2020 05 10 11 09 30.0000000  0 14      -0.000000000000
G18  24073969.375 6 126509576.909 6      3740.605          37.000    24073968.211 5  98578866.551 5      2914.758          32.000  
G02  23756592.688 4 124841715.28724     -2103.254          29.000                                                                  
G32  23940374.227 7 125807485.857 7     -2819.043          47.000    23940376.445 7  98031820.502 7     -2196.657          46.000  
G25  20530529.852 8 107888664.468 8     -1228.785          51.000    20530531.898 8  84069094.168 8      -957.495          51.000  
G29  20257930.555 8 106456168.356 8       529.719          51.000    20257929.820 8  82952846.355 8       412.768          51.000  
R19  19226590.312 6 102848924.120 6       362.488          38.000    19226591.344 7  79993617.351 7       281.938          43.000  
R16  20657501.984 7 110348252.443 7     -2584.297          46.000    20657504.727 6  85826433.041 6     -2010.009          39.000  
E24  23511978.172 6 123556267.396 6     -1884.508          38.000    23511990.219 6  94673034.455 6     -1444.130          39.000  
E25  23473954.594 8 123356457.725 8       404.145          51.000    23473957.141 8  94519928.574 8       309.618          51.000  
E11  22979051.844 8 120755715.364 8      1149.828          50.000    22979049.797 8  92527096.562 8       881.068          50.000  
C28  21605409.516 8 112505081.943 8       826.426          51.000                                                                  
C11  25287710.375 5 131679743.826 5     -3001.465          31.000    25287715.125 6 101823128.490 6     -2321.990          37.000  
C27  24566539.594 5 127924428.202 5      3123.273          33.000                                                                  
C23  23249835.414 8 121067986.851 8     -2319.848          51.000                                                                  
> 2020 05 10 11 10  0.0000000  0 13      -0.000000000000
G18  24052627.766 6 126397427.616 6      3738.633          36.000    24052626.180 5  98491477.524 5      2913.224          34.000  
G32  23956491.234 7 125892179.319 7     -2825.129          47.000    23956492.953 7  98097815.347 7     -2201.400          47.000  
G25  20537582.672 8 107925726.929 8     -1240.043          51.000    20537584.602 8  84097974.004 8      -966.268          51.000  
G29  20254957.906 8 106440546.786 8       513.684          51.000    20254957.414 8  82940673.708 8       400.273          51.000  
R19  19224635.812 6 102838469.727 6       336.387          39.000    19224636.898 7  79985486.177 7       261.634          43.000  
R16  20672063.453 7 110426036.893 7     -2599.285          45.000    20672065.406 6  85886931.964 6     -2021.673          38.000  
E24  23522759.320 6 123612927.901 6     -1890.559          38.000    23522771.578 6  94716449.610 6     -1448.638          40.000  
E25  23471674.820 8 123344477.583 8       396.609          51.000    23471677.445 8  94510748.983 8       303.887          51.000  
E11  22972531.461 8 120721452.463 8      1136.062          49.000    22972529.734 8  92500843.173 8       870.508          50.000  
C28  21600697.258 8 112480542.833 8       811.559          51.000                                                                  
C11  25305025.797 5 131769912.622 5     -3006.312          30.000    25305030.914 6 101892852.652 6     -2324.841          38.000  
C27  24548567.312 5 127830846.257 5      3117.012          35.000                                                                  
C23  23263236.969 8 121137763.923 8     -2330.051          51.000                                                                  
> 2020 05 10 11 10 30.0000000  0 16      -0.000000000000
G18  24031289.211 5 126285296.316 5      3733.883          34.000                                                                  
G32  23972634.539 7 125977012.652 7     -2832.727          47.000    23972636.234 7  98163919.179 7     -2207.323          46.000  
G14  23289973.531 5 122389635.54525     -1692.043          34.000                                                                  
G12  22380017.445 5 117607800.481 5     -2623.254          32.000    22380031.664 5  91642483.037 5     -2044.095          31.000  
G25  20544690.711 8 107963079.744 8     -1252.680          51.000    20544692.570 8  84127080.080 8      -976.114          51.000  
G29  20252068.156 8 106425361.352 8       496.199          51.000    20252067.789 8  82928840.909 8       386.652          51.000  
R19  19222820.594 6 102828758.332 6       308.641          38.000    19222821.281 7  79977932.886 7       240.054          43.000  
R16  20686700.867 7 110504227.788 7     -2615.734          44.000    20686702.766 6  85947747.056 6     -2034.464          39.000  
E36  26197724.453 6 137669969.668 6      3091.047          41.000    26197731.922 5 105487412.102 5      2368.319          34.000  
E24  23533567.859 6 123669727.489 6     -1898.598          39.000    23533580.531 6  94759971.368 6     -1454.797          41.000  
E25  23469429.883 8 123332680.912 8       387.355          51.000    23469432.750 8  94501709.966 8       296.751          51.000  
E11  22966081.703 8 120687559.878 8      1120.770          49.000    22966080.227 8  92474873.536 8       858.826          50.000  
C28  21596062.023 8 112456403.790 8       795.242          51.000                                                                  
C11  25322357.516 5 131860160.668 5     -3012.391          31.000    25322361.641 6 101962638.115 6     -2329.263          38.000  
C27  24530622.656 5 127737406.843 5      3109.281          35.000                                                                  
C23  23276688.406 8 121207801.033 8     -2341.523          51.000                                                                  
> 2020 05 10 11 11  0.0000000  0 17      -0.000000000000
G18  24009959.961 5 126173211.241 5      3733.832          34.000                                                                  
G02  23792960.336 5 125032848.792 5     -2143.559          33.000                                                                  
G32  23988808.547 7 126062008.509 7     -2837.914          46.000    23988810.648 7  98230149.657 7     -2211.362          46.000  
G14  23299662.422 5 122440579.588 5     -1705.488          35.000                                                                  
G12  22394998.633 5 117686506.63325     -2628.703          33.000    22395009.453 5  91703812.34625     -2048.335          33.000  
G25  20551858.797 8 108000748.388 8     -1262.887          51.000    20551860.633 8  84156432.262 8      -984.068          51.000  
G29  20249266.047 8 106410636.609 8       481.156          51.000    20249266.031 8  82917367.106 8       374.927          51.000  
R19  19221149.141 6 102819815.727 6       283.309          39.000    19221149.344 7  79970977.513 7       220.351          44.000  
R16  20701418.883 7 110582850.241 7     -2630.035          43.000    20701421.633 6  86008897.827 6     -2045.583          41.000  
E36  26180076.547 7 137577230.442 7      3087.219          43.000    26180080.945 5 105416338.155 5      2365.622          31.000  
E24  23544408.156 6 123726691.827 6     -1903.484          40.000    23544421.438 6  94803619.335 6     -1458.497          41.000  
E25  23467224.969 8 123321094.148 8       380.852          51.000    23467228.070 8  94492831.788 8       291.836          51.000  
E11  22959707.500 8 120654063.908 8      1108.180          49.000    22959705.969 8  92449207.802 8       849.101          49.000  
C28  21591508.352 8 112432690.293 8       781.371          51.000                                                                  
C11  25339709.016 5 131950511.619 5     -3014.719          31.000    25339712.273 6 102032503.174 6     -2331.529          37.000  
C27  24512710.727 5 127644136.847 5      3104.227          33.000                                                                  
C23  23290193.680 8 121278122.859 8     -2350.797          50.000                                                                  
> 2020 05 10 11 11 30.0000000  0 16      -0.000000000000
G18  23988660.898 5 126061263.41325      3742.430          32.000                                                                  
G02  23805236.039 5 125097356.593 5     -2144.383          34.000    23805230.750 5  97478440.036 5     -1670.948          32.000  
G32  24005028.930 7 126147250.129 7     -2832.234          44.000    24005031.836 7  98296571.645 7     -2206.937          44.000  
G12  22410026.062 5 117765481.607 5     -2623.504          34.000                                                                  
G25  20559103.297 8 108038819.026 8     -1262.508          51.000    20559105.359 8  84186097.668 8      -983.773          51.000  
G29  20246567.977 8 106396458.803 8       476.711          51.000    20246568.273 8  82906319.493 8       371.463          51.000  
R19  19219637.594 6 102811728.994 6       268.578          38.000    19219637.688 7  79964687.848 7       208.897          44.000  
R16  20716234.258 7 110661990.775 7     -2633.230          43.000    20716237.273 7  86070451.575 7     -2048.069          42.000  
E36  26162468.727 7 137484701.111 7      3093.984          45.000    26162470.836 5 105345431.101 5      2370.618          32.000  
E24  23555295.734 6 123783907.293 6     -1897.953          39.000    23555309.898 7  94847459.746 7     -1454.561          42.000  
E25  23465076.680 8 123309804.531 8       384.457          51.000    23465079.773 8  94484181.288 8       294.617          51.000  
E11  22953425.227 8 120621051.464 8      1105.570          49.000    22953424.000 8  92423912.561 8       847.027          50.000  
C28  21587052.820 8 112409487.896 8       777.914          51.000                                                                  
C11  25357096.414 5 132041049.302 5     -3008.305          31.000    25357098.875 6 102102512.639 6     -2326.016          37.000  
C27  24494845.234 5 127551123.300 5      3109.246          32.000                                                                  
C23  23303768.789 8 121348814.104 8     -2349.305          49.000                                                                  
> 2020 05 10 11 12  0.0000000  0 15      -0.000000000000
G02  23817558.164 5 125162104.500 5     -2168.254          35.000                                                                  
G32  24021256.320 7 126232527.988 7     -2849.684          44.000    24021259.570 7  98363021.880 7     -2220.533          44.000  
G12  22425064.406 6 117844507.131 6     -2641.699          37.000    22425073.453 6  91826964.552 6     -2058.480          37.000  
G25  20566385.039 8 108077084.988 8     -1285.246          51.000    20566387.062 8  84215915.279 8     -1001.491          51.000  
G29  20243934.688 8 106382621.151 8       449.137          51.000    20243934.812 8  82895536.928 8       349.980          51.000  
R19  19218246.758 6 102804287.648 6       230.684          39.000    19218246.562 7  79958900.108 7       179.418          43.000  
R16  20731107.367 7 110741438.404 7     -2659.957          45.000    20731110.586 7  86132244.155 7     -2068.856          43.000  
E36  26144861.812 7 137392176.898 7      3077.469          45.000    26144861.586 5 105274535.973 5      2357.541          34.000  
E24  23566191.609 6 123841167.478 6     -1915.809          40.000    23566207.570 6  94891334.321 6     -1468.018          41.000  
E25  23462945.812 8 123298606.348 8       365.258          51.000    23462948.805 8  94475600.852 8       279.912          51.000  
E11  22947195.609 8 120588316.632 8      1079.777          48.000    22947195.008 8  92398830.041 8       827.392          50.000  
C28  21582656.203 8 112386592.039 8       751.672          51.000                                                                  
C11  25374479.477 4 132131572.298 4     -3023.625          28.000    25374481.281 5 102172506.899 5     -2338.150          35.000  
C27  24476987.180 5 127458162.966 5      3091.625          32.000                                                                  
C23  23317374.891 8 121419669.364 8     -2370.941          49.000                                                                  
> 2020 05 10 11 12 30.0000000  0 14      -0.000000000000
G02  23829990.859 5 125227435.299 5     -2180.871          33.000                                                                  
G32  24037555.922 7 126318183.611 7     -2855.301          45.000    24037558.695 7  98429766.490 7     -2224.910          45.000  
G25  20573769.555 8 108115890.749 8     -1296.473          51.000    20573771.375 8  84246153.522 8     -1010.239          51.000  
G29  20241431.711 8 106369467.964 8       433.070          51.000    20241431.688 8  82885287.709 8       337.457          51.000  
R19  19217041.875 6 102797841.881 6       204.426          39.000    19217041.578 7  79953886.751 7       158.998          43.000  
R16  20746103.398 7 110821542.970 7     -2674.941          45.000    20746106.547 7  86194547.694 7     -2080.510          43.000  
E36  26127321.305 7 137300004.040 7      3072.535          45.000    26127319.898 5 105203910.027 5      2354.395          35.000  
E24  23577162.445 7 123898816.890 7     -1922.219          42.000    23577178.781 6  94935507.182 6     -1472.921          40.000  
E25  23460898.281 8 123287845.116 8       357.367          51.000    23460901.055 8  94467355.226 8       273.818          51.000  
E11  22941084.570 8 120556204.524 8      1066.074          49.000    22941084.406 8  92374224.673 8       816.857          49.000  
C28  21578383.680 8 112364344.214 8       736.719          51.000                                                                  
C11                                                                  25391925.250 5 102242748.633 5     -2341.077          35.000  
C27  24459205.180 6 127365598.865 6      3085.188          36.000                                                                  
C23  23331078.109 8 121491029.225 8     -2381.020          48.000                                                                  
> 2020 05 10 11 13  0.0000000  0 16      -0.000000000000
G02  23842461.742 5 125292964.557 5     -2189.125          34.000                                                                  
G32  24053854.367 7 126403831.367 7     -2856.312          46.000    24053856.242 7  98496504.931 7     -2225.699          47.000  
G12  22455294.180 5 118003368.339 5     -2649.148          35.000    22455305.406 5  91950722.039 5     -2064.266          34.000  
G25  20581183.867 8 108154853.476 8     -1302.832          51.000    20581185.688 8  84276514.064 8     -1015.197          51.000  
G29  20238985.758 8 106356615.874 8       421.949          51.000    20238986.125 8  82875273.108 8       328.792          51.000  
R19  19215950.094 6 102792001.141 6       183.074          40.000    19215949.938 7  79949343.960 7       142.391          43.000  
R18  21233174.641 5 113343736.603 5     -3411.719          32.000    21233179.359 5  88156248.263 5     -2653.560          30.000  
R16  20761148.867 7 110901913.948 7     -2684.734          45.000    20761152.211 7  86257058.419 7     -2088.127          42.000  
E36  26109775.125 7 137207801.515 7      3072.551          45.000    26109773.836 6 105133261.380 6      2354.428          37.000  
E24  23588134.062 6 123956472.910 6     -1923.531          40.000    23588150.016 6  94979685.097 6     -1473.959          39.000  
E25  23458861.227 8 123277138.946 8       354.668          51.000    23458863.719 8  94459151.794 8       271.750          51.000  
E11  22935019.578 8 120524333.073 8      1057.082          49.000    22935019.430 8  92349803.673 8       810.050          49.000  
C28  21574162.711 8 112342365.196 8       726.789          51.000                                                                  
C11                                                                  25409357.516 5 102312943.282 5     -2339.956          34.000  
C27  24441430.031 6 127273053.229 6      3083.359          37.000                                                                  
C23  23344805.586 8 121562513.710 8     -2386.254          48.000                                                                  
> 2020 05 10 11 13 30.0000000  0 14      -0.000000000000
G02  23855006.766 5 125358886.080 5     -2204.688          31.000                                                                  
G32  24070187.992 7 126489664.066 7     -2864.484          47.000    24070189.375 7  98563387.481 7     -2232.070          46.000  
G25  20588665.320 8 108194168.833 8     -1316.680          51.000    20588667.266 8  84307149.398 8     -1025.984          51.000  
G29  20236634.508 8 106344260.303 8       403.250          51.000    20236634.938 8  82865645.400 8       314.221          51.000  
R19  19215008.672 6 102786964.633 6       154.180          39.000    19215008.352 7  79945426.668 7       119.918          43.000  
R16  20776281.469 7 110982749.305 7     -2702.676          45.000    20776284.789 7  86319930.333 7     -2102.082          42.000  
E36  26092260.805 7 137115766.900 7      3064.844          43.000    26092260.898 6 105062741.421 6      2348.283          39.000  
E24  23599144.094 6 124014331.512 6     -1932.562          39.000    23599159.820 6  95024018.245 6     -1480.631          39.000  
E25  23456871.945 8 123266684.671 8       343.773          51.000    23456874.109 8  94451141.367 8       263.393          51.000  
E11  22929038.164 8 120492898.693 8      1040.035          49.000    22929037.602 8  92325717.584 8       796.914          49.000  
C28  21570030.797 8 112320849.156 8       709.133          51.000                                                                  
C11                                                                  25426815.352 5 102383239.693 5     -2345.324          34.000  
C27  24423698.062 6 127180721.540 6      3074.059          38.000                                                                  
C23  23358594.227 8 121634316.204 8     -2399.082          50.000                                                                  
> 2020 05 10 11 14  0.0000000  0 14      -0.000000000000
G18  23882296.234 5 125502307.971 5      3720.773          33.000                                                                  
G32  24086563.250 7 126575716.362 7     -2869.375          47.000    24086564.961 7  98630441.138 7     -2235.880          47.000  
G25  20596220.961 8 108233874.380 8     -1327.266          51.000    20596223.047 8  84338088.769 8     -1034.233          51.000  
G29  20234385.055 8 106332438.621 8       387.840          51.000    20234385.203 8  82856433.700 8       302.213          51.000  
R19  19214224.000 6 102782769.476 6       128.520          39.000    19214224.477 7  79942163.795 7        99.960          43.000  
R16  20791508.227 7 111064086.736 7     -2716.875          45.000    20791511.438 6  86383192.759 6     -2113.125          41.000  
E36  26074786.023 7 137023939.494 7      3060.102          43.000    26074788.039 6 104992380.193 6      2344.766          39.000  
E24  23610200.430 6 124072430.250 6     -1937.918          41.000    23610215.812 6  95068535.515 6     -1485.028          40.000  
E25  23454937.875 8 123256520.742 8       336.672          51.000    23454939.695 8  94443353.418 8       257.958          51.000  
E11  22923147.227 8 120461939.588 8      1026.617          49.000    22923146.352 8  92301995.692 8       786.638          49.000  
C28  21565994.922 8 112299833.334 8       694.863          51.000                                                                  
C11                                                                  25444305.430 5 102453665.324 5     -2347.583          33.000  
C27  24406015.828 6 127088642.599 6      3067.910          38.000                                                                  
C23  23372451.438 8 121706473.115 8     -2408.504          51.000                                                                  
> 2020 05 10 11 14 30.0000000  0 15      -0.000000000000
G18  23861066.422 6 125390732.411 6      3717.430          36.000                                                                  
G21  23597193.727 6 124004088.804 6      3438.371          36.000                                                                  
G32  24102957.719 7 126661869.523 7     -2874.621          46.000    24102960.164 7  98697573.387 7     -2239.968          45.000  
G25  20603828.859 8 108273854.244 8     -1338.480          51.000    20603830.953 8  84369241.900 8     -1042.972          51.000  
G29  20232214.977 8 106321034.408 8       372.066          51.000    20232214.922 8  82847547.303 8       289.922          51.000  
R19  19213574.922 6 102779297.803 6       102.367          39.000    19213575.602 7  79939463.610 7        79.619          42.000  
R16  20806806.711 7 111145807.508 7     -2731.641          43.000    20806809.594 6  86446753.345 6     -2124.613          40.000  
E36  26057329.141 7 136932205.257 7      3055.008          44.000    26057333.289 6 104922090.338 6      2340.959          41.000  
E24  23621280.844 6 124130653.619 6     -1944.082          41.000    23621295.742 6  95113148.219 6     -1489.434          41.000  
E25  23453037.156 8 123246532.362 8       328.898          51.000    23453038.875 8  94435699.974 8       252.034          51.000  
E11  22917324.789 8 120431340.550 8      1012.934          50.000    22917323.531 8  92278549.684 8       776.210          49.000  
C28  21562033.164 8 112279203.093 8       680.168          51.000                                                                  
C11                                                                  25461805.242 5 102524130.334 5     -2350.277          34.000  
C27  24388362.203 6 126996703.220 6      3060.660          37.000                                                                  
C23  23386355.062 8 121778868.955 8     -2418.344          51.000                                                                  
> 2020 05 10 11 15  0.0000000  0 16      -0.000000000000
G18  23839843.234 5 125279199.849 5      3720.539          35.000                                                                  
G21  23577567.922 6 123900951.548 6      3439.309          36.000                                                                  
G32  24119373.469 7 126748134.671 7     -2873.941          43.000    24119376.656 7  98764792.930 7     -2239.438          43.000  
G25  20611491.703 8 108314122.457 8     -1343.699          51.000    20611493.906 8  84400619.722 8     -1047.039          51.000  
G29  20230127.094 8 106310061.666 8       361.957          51.000    20230126.680 8  82838997.104 8       282.045          51.000  
R19  19213063.242 6 102776563.107 6        82.160          39.000    19213064.570 7  79937336.636 7        63.902          44.000  
R18  21310529.727 5 113756642.362 5     -3461.930          31.000    21310537.914 5  88477407.866 5     -2692.615          30.000  
R16  20822178.375 6 111227924.641 6     -2740.520          40.000    20822181.711 6  86510622.149 6     -2131.519          38.000  
E36  26039893.336 7 136840580.009 7      3055.719          44.000    26039898.945 6 104851884.010 6      2341.390          40.000  
E24  23632387.383 7 124189015.794 7     -1944.723          42.000    23632401.664 7  95157867.291 7     -1489.775          43.000  
