     3.02           OBSERVATION DATA    M (MIXED)           RINEX VERSION / TYPE
SAVERINEX           SC600               20200517 005931 LCL PGM / RUN BY / DATE
       G = GPS       R = GLONASS       C = COMPASS          COMMENT
       S = SBAS      J = QZSS          E = GALILEO          COMMENT
BEAN                                                        MARKER NAME
1                                                           MARKER NUMBER
GEODETIC                                                    MARKER TYPE
Unige DICCA         GTER                                    OBSERVER / AGENCY
SC60291900056       SC600               2.12(191202)        REC # / TYPE / VERS
                    HEMA45          NONE                    ANT # / TYPE
  4509407.8091   693652.4678  4442337.6214                  APPROX POSITION XYZ
        0.0000        0.0000        0.0000                  ANTENNA: DELTA H/E/N
G    8 C1C L1C D1C S1C C2Y L2Y D2Y S2Y                      SYS / # / OBS TYPES
R    8 C1C L1C D1C S1C C2P L2P D2P S2P                      SYS / # / OBS TYPES
C    8 C1I L1I D1I S1I C7I L7I D7I S7I                      SYS / # / OBS TYPES
E    8 C1C L1C D1C S1C C7Q L7Q D7Q S7Q                      SYS / # / OBS TYPES
DBHZ                                                        COMMENT
     30.000                                                 INTERVAL
  2020    05    16    22    00    0.0000000     GPS         TIME OF FIRST OBS
  2020    05    16    22    59   30.0000000     GPS         TIME OF LAST OBS
     0                                                      RCV CLOCK OFFS APPL
G L1C  0.00000                                              SYS / PHASE SHIFT
G L2Y  0.00000                                              SYS / PHASE SHIFT
R L1C  0.00000                                              SYS / PHASE SHIFT
R L2P  0.25000                                              SYS / PHASE SHIFT
C L1I  0.00000                                              SYS / PHASE SHIFT
C L7I  0.00000                                              SYS / PHASE SHIFT
E L1C  0.50000                                              SYS / PHASE SHIFT
E L7Q -0.25000                                              SYS / PHASE SHIFT
 13 R01  1 R06 -4 R07  5 R08  6 R09 -2 R10 -7 R15  0 R16 -1 GLONASS SLOT / FRQ #
    R19  3 R20  2 R21  4 R22 -3 R23  3                      GLONASS SLOT / FRQ #
 C1C   71.950 C2C   71.950 C2P   71.950                     GLONASS COD/PHS/BIS
    18                                                      LEAP SECONDS
*** Above antenna height is from mark to ANTENNA BOTTOM.    COMMENT
    17     4        0.0000        ANT MEASURE TYPE/HEIGT    COMMENT
    0.0000    0.0000    0.0458    0.0405    0.0000          COMMENT
                    BASE STATION                            COMMENT
                                                            END OF HEADER
> 2020 05 16 22 00  0.0000000  0 15        .000000000000
G01  23446632.938 8 123212873.734 8     -3509.043          48.000    23446634.852 8  96010051.693 8     -2734.319          48.000
G03  21059719.703 7 110669599.545 7     -1583.469          45.000    21059721.781 7  86236056.002 7     -1233.872          44.000
G04  20266037.594 8 106498770.162 8       287.633          51.000    20266037.969 8  82986092.952 8       224.129          51.000
G09  21536631.625 8 113175793.703 8      2462.211          51.000    21536632.016 8  88188941.207 8      1918.609          51.000
G17  22613337.000 6 118833881.398 6     -1839.062          40.000    22613336.227 6  92597825.456 6     -1433.036          40.000
R07  20154603.312 6 107889153.592 6     -1886.148          36.000    20154605.180 5  83913797.802 5     -1467.004          34.000
R08  20015895.516 5 107184177.129 5      1200.398          35.000
R22  20745143.477 8 110738981.774 8     -3418.094          51.000    20745144.789 7  86130307.594 7     -2658.517          47.000
C12  22911773.258 8 119307588.390 8     -1993.727          48.000    22911773.508 8  92256237.571 8     -1541.618          51.000
C21  22188952.781 6 115543704.269 6       983.559          39.000
C22  22760086.789 6 118517740.015 6     -1589.684          38.000
E07  24345978.039 8 127939085.612 8     -1603.355          51.000    24345981.461 8  98031196.815 8     -1228.509          51.000
E19  27291099.008 7 143415687.060 7      2414.141          43.000    27291099.648 7 109889971.497 7      1850.050          44.000
E26  23611456.969 8 124079059.364 8     -2293.410          51.000    23611461.742 8  95073562.712 8     -1757.315          51.000
E33  23989485.109 6 126065594.722 6       415.918          41.000    23989485.656 6  96595715.458 6       318.601          41.000
> 2020 05 16 22 00 30.0000000  0 16        .000000000000
G01  23466681.984 7 123318229.910 7     -3514.598          47.000    23466683.578 7  96092147.393 7     -2738.648          47.000
G03  21068782.195 7 110717223.080 7     -1591.367          46.000    21068784.180 7  86273165.250 7     -1240.026          46.000
G04  20264441.766 8 106490384.503 8       271.605          51.000    20264442.273 8  82979558.689 8       211.641          51.000
G09  21522608.094 8 113102101.299 8      2450.781          50.000    21522608.922 8  88131518.574 8      1909.700          50.000
G17  22623873.602 7 118889249.861 7     -1852.340          44.000    22623872.438 7  92640969.653 7     -1443.382          44.000
R01  22851833.742 5 122156081.182 5      3075.949          32.000    22851834.062 4  95010336.395 4      2392.408          24.000
R07  20165196.617 6 107945862.279 6     -1894.414          36.000    20165197.266 5  83957904.547 5     -1473.433          33.000
R08  20009193.047 4 107148319.626 4      1188.812          28.000
R22  20764401.000 8 110841779.189 8     -3434.770          51.000    20764401.852 7  86210261.105 7     -2671.487          47.000
C12  22923297.945 7 119367600.103 7     -2006.934          47.000    22923298.242 8  92302642.468 8     -1551.834          51.000
C21  22183304.281 6 115514289.428 6       977.344          41.000
C22  22769259.664 6 118565507.888 6     -1594.449          41.000
E07  24355145.695 8 127987261.473 8     -1608.086          51.000    24355148.750 8  98068110.795 8     -1232.122          51.000
E19  27277327.188 7 143343314.504 7      2410.691          44.000    27277327.125 7 109834517.270 7      1847.171          43.000
E26  23624576.711 8 124148001.637 8     -2302.391          51.000    23624580.352 8  95126388.612 8     -1764.160          51.000
E33  23987149.055 7 126053316.417 7       402.703          42.000    23987149.383 6  96586307.382 6       308.813          41.000
> 2020 05 16 22 01  0.0000000  0 17        .000000000000
G01  23486764.484 7 123423763.821 7     -3521.199          46.000    23486765.797 7  96174381.621 7     -2743.792          46.000
G03  21077891.516 7 110765092.453 7     -1600.281          46.000    21077893.977 7  86310466.024 7     -1246.972          46.000
G04  20262939.297 8 106482488.951 8       254.504          51.000    20262939.789 8  82973406.311 8       198.315          51.000
G09  21508651.453 8 113028762.696 8      2438.270          50.000    21508653.000 8  88074371.591 8      1899.950          50.000
G17  22634490.062 7 118945036.701 7     -1866.941          45.000    22634487.531 7  92684439.874 7     -1454.760          45.000
G22  22971529.914 6 120716177.141 6     -2428.621          36.000
R01  22834594.133 6 122063905.341 6      3069.496          36.000
R07  20175838.312 6 108002830.512 6     -1903.414          39.000    20175838.305 5  84002213.172 5     -1480.433          33.000
R08  20002571.633 4 107112862.233 4      1175.508          29.000
R22  20783753.211 8 110945085.530 8     -3452.512          50.000    20783755.219 7  86290610.483 7     -2685.287          47.000
C12  22934900.109 7 119428015.716 7     -2021.066          47.000    22934900.516 8  92349359.652 8     -1562.793          51.000
C21  22177697.023 6 115485090.637 6       969.039          40.000
C22  22778463.320 6 118613432.481 6     -1600.727          41.000
E07  24364342.398 8 128035589.779 8     -1613.914          51.000    24364345.047 8  98105141.586 8     -1236.674          51.000
E19  27263577.898 7 143271061.490 7      2406.051          44.000    27263577.539 7 109779154.625 7      1843.367          43.000
E26  23637749.211 8 124217221.670 8     -2312.496          51.000    23637751.828 8  95179427.334 8     -1771.916          50.000
E33  23984887.375 6 126041435.654 6       388.848          41.000    23984886.812 6  96577203.984 6       297.840          40.000
> 2020 05 16 22 01 30.0000000  0 17        .000000000000
G01  23506888.797 7 123529522.016 7     -3528.680          44.000    23506890.516 7  96256790.584 7     -2749.621          44.000
G03  21087056.719 7 110813255.554 7     -1610.066          47.000    21087059.078 7  86347995.705 7     -1254.597          46.000
G04  20261539.031 8 106475131.316 8       236.586          51.000    20261539.469 8  82967673.089 8       184.353          51.000
G09  21494772.070 8 112955827.402 8      2424.785          51.000    21494773.680 8  88017538.874 8      1889.443          51.000
G17  22645194.852 7 119001288.528 7     -1882.410          44.000    22645191.875 7  92728272.490 7     -1466.810          44.000
G22  22985416.938 5 120789145.567 5     -2435.652          35.000
R01  22817396.758 6 121971952.398 6      3062.039          36.000
R07  20186538.281 6 108060106.129 6     -1914.012          40.000    20186538.336 5  84046760.893 5     -1488.676          35.000
R08  19996034.641 5 107077814.798 5      1161.789          33.000    19996036.109 4  83282779.902 4       903.614          27.000
R22  20803209.398 8 111048946.393 8     -3470.926          51.000    20803212.445 8  86371391.183 8     -2699.609          48.000
C12  22946588.648 7 119488881.357 7     -2036.047          47.000    22946588.875 8  92396424.828 8     -1574.343          51.000
C21  22172140.305 6 115456155.591 6       960.547          39.000
C22  22787706.039 6 118661561.102 6     -1607.602          40.000
E07  24373577.102 8 128084117.863 8     -1620.605          51.000    24373579.539 8  98142325.437 8     -1241.760          51.000
E19  27249860.516 7 143198976.629 7      2400.273          44.000    27249860.312 7 109723920.802 7      1839.156          44.000
E26  23650983.469 8 124286766.579 8     -2323.219          51.000    23650985.273 8  95232714.988 8     -1780.174          49.000
E33  23982711.094 6 126030001.582 6       374.078          41.000    23982710.336 6  96568442.826 6       286.512          41.000
> 2020 05 16 22 02  0.0000000  0 17        .000000000000
G01  23527050.875 7 123635479.193 7     -3535.898          45.000    23527053.070 7  96339354.604 7     -2755.246          44.000
G03  21096273.211 7 110861688.585 7     -1619.441          45.000    21096274.383 7  86385735.696 7     -1261.905          44.000
G04  20260236.688 8 106468287.620 8       218.793          51.000    20260237.078 8  82962340.333 8       170.488          51.000
G09  21480965.820 8 112883273.049 8      2411.406          51.000    21480966.742 8  87961003.021 8      1879.018          51.000
G17  22655982.539 7 119057979.009 7     -1897.703          45.000    22655980.805 7  92772446.915 7     -1478.730          45.000
G22  22999332.664 6 120862280.026 6     -2441.285          36.000
R01  22800236.094 5 121880198.853 5      3054.426          35.000
R07  20197291.086 6 108117663.263 6     -1923.613          40.000    20197292.203 6  84091527.587 6     -1496.141          37.000
R08  19989565.070 5 107043159.464 5      1147.301          33.000
R22  20822764.906 8 111153334.120 8     -3488.988          51.000    20822768.023 8  86452581.672 8     -2713.655          48.000
C12  22958358.430 7 119550171.766 7     -2050.773          46.000    22958358.727 8  92443818.455 8     -1585.743          51.000
C21  22166630.531 7 115427461.060 7       951.672          42.000
C22  22796983.305 6 118709869.765 6     -1614.074          41.000
E07  24382845.031 8 128132821.211 8     -1626.984          51.000    24382847.531 8  98179643.585 8     -1246.671          51.000
E19  27236170.625 7 143127036.920 7      2394.895          44.000    27236170.984 7 109668798.219 7      1834.932          44.000
E26  23664274.828 8 124356611.820 8     -2333.840          51.000    23664275.695 8  95286232.738 8     -1788.231          49.000
E33  23980615.742 6 126018991.420 6       359.398          41.000    23980615.930 6  96560006.480 6       275.249          41.000
> 2020 05 16 22 02 30.0000000  0 16        .000000000000
G01  23547257.883 7 123741668.511 7     -3542.547          46.000    23547260.461 7  96422099.547 7     -2760.426          46.000
G03  21105547.664 7 110910426.158 7     -1628.617          46.000    21105547.648 7  86423712.963 7     -1269.052          44.000
G04  20259038.664 8 106461992.306 8       201.672          51.000    20259039.047 8  82957434.905 8       157.147          51.000
G09  21467239.086 8 112811135.799 8      2398.723          51.000    21467239.328 8  87904792.203 8      1869.138          51.000
G17  22666859.898 7 119115140.937 7     -1912.180          46.000    22666859.195 7  92816988.733 7     -1490.010          46.000
G22  23013284.945 5 120935615.075 5     -2447.289          31.000    23013292.812 5  94235585.033 5     -1906.978          32.000
R07  20208102.391 6 108175535.858 6     -1933.289          39.000    20208105.344 6  84136539.646 6     -1503.669          37.000
R08  19983167.688 4 107008955.194 4      1134.918          28.000
R22  20842425.266 8 111258280.574 8     -3506.543          51.000    20842428.164 8  86534206.726 8     -2727.308          49.000
C12  22970215.750 7 119611919.809 7     -2064.898          45.000    22970216.039 8  92491565.955 8     -1596.683          51.000
C21  22161174.203 6 115399041.793 6       943.543          41.000
C22  22806301.617 6 118758392.633 6     -1620.125          40.000
E07  24392152.797 8 128181733.857 8     -1632.820          51.000    24392155.305 8  98217122.112 8     -1251.146          51.000
E19  27222514.953 7 143055277.625 7      2390.066          44.000    27222516.188 7 109613813.854 7      1831.287          45.000
E26  23677629.742 8 124426791.194 8     -2343.848          51.000    23677629.367 8  95340006.513 8     -1795.932          48.000
E33  23978607.602 6 126008441.036 6       345.105          40.000    23978608.945 7  96551922.386 7       264.551          42.000
> 2020 05 16 22 03  0.0000000  0 15        .000000000000
G01  23567491.492 7 123847996.512 7     -3546.984          47.000    23567494.555 7  96504952.543 7     -2763.884          47.000
G03  21114862.547 7 110959376.172 7     -1635.473          45.000    21114862.969 7  86461855.791 7     -1274.397          44.000
G04  20257927.484 8 106456153.133 8       186.863          51.000    20257927.508 8  82952884.908 8       145.608          51.000
G09  21453574.055 8 112739325.160 8      2387.902          50.000    21453573.781 8  87848835.868 8      1860.703          50.000
G17  22677809.711 8 119172680.642 8     -1924.539          48.000    22677808.914 8  92861824.879 8     -1499.641          48.000
G22  23027260.789 5 121009058.481 5     -2450.066          34.000
R07  20218954.281 6 108233628.875 6     -1940.621          40.000    20218957.664 6  84181723.150 6     -1509.372          36.000
R22  20862171.914 8 111363688.826 8     -3521.500          51.000    20862174.680 8  86616190.944 8     -2738.944          49.000
C12  22982143.250 7 119674032.773 7     -2076.852          46.000    22982143.656 8  92539595.622 8     -1605.941          51.000
C21  22155752.328 6 115370806.808 6       938.051          38.000
C22  22815643.422 6 118807038.261 6     -1623.906          41.000
E07  24401482.750 8 128230763.110 8     -1636.543          51.000    24401485.094 8  98254689.983 8     -1254.025          51.000
E19  27208876.484 7 142983607.529 7      2387.285          44.000    27208878.609 7 109558897.816 7      1829.081          45.000
E26  23691030.383 8 124497211.846 8     -2351.691          51.000    23691029.141 8  95393965.165 8     -1802.005          48.000
E33  23976669.711 6 125998259.384 6       332.695          41.000    23976671.773 7  96544120.864 7       255.045          42.000
> 2020 05 16 22 03 30.0000000  0 17        .000000000000
G01  23587761.914 7 123954517.859 7     -3553.531          47.000    23587765.312 7  96587956.184 7     -2768.985          47.000
G03  21124228.461 7 111008594.857 7     -1644.672          44.000    21124229.289 7  86500207.946 7     -1281.562          43.000
G04  20256913.750 8 106450826.058 8       169.309          51.000    20256913.656 8  82948733.949 8       131.929          51.000
G09  21439981.641 8 112667898.738 8      2374.699          50.000    21439981.500 8  87793178.917 8      1850.415          49.000
G17  22688841.648 8 119230651.746 8     -1939.113          48.000    22688839.727 8  92906997.146 8     -1510.997          48.000
G22  23041267.617 5 121082666.322 5     -2456.152          32.000
R01  22748941.234 4 121606131.456 4      3036.383          29.000
R07  20229857.648 6 108291998.135 6     -1949.879          40.000    20229859.359 5  84227121.448 5     -1516.576          35.000
R08  19970577.375 4 106941523.187 4      1110.812          29.000    19970584.117 4  83176776.598 4       863.965          27.000
R22  20882014.523 8 111469612.277 8     -3538.980          51.000    20882017.609 8  86698575.869 8     -2752.540          49.000
C12  22994151.719 7 119736564.865 7     -2090.926          46.000    22994151.969 8  92587949.401 8     -1616.984          51.000
C21  22150374.375 6 115342812.034 6       929.738          36.000
C22  22825020.156 6 118855862.006 6     -1630.121          41.000
E07  24410845.422 8 128279964.503 8     -1642.676          51.000    24410847.641 8  98292389.756 8     -1258.668          51.000
E19  27195266.156 7 142912083.584 7      2381.980          44.000    27195269.031 7 109504093.788 7      1825.151          46.000
E26  23704487.039 8 124567929.192 8     -2361.938          51.000    23704486.258 8  95448151.177 8     -1809.769          50.000
E33  23974813.391 6 125988503.709 6       318.277          41.000    23974815.672 7  96536645.756 7       243.926          43.000
> 2020 05 16 22 04  0.0000000  0 16        .000000000000
G01  23608061.195 7 124061190.948 7     -3557.184          47.000    23608064.664 7  96671078.072 7     -2771.831          47.000
G03  21133637.883 7 111058042.044 7     -1650.750          43.000    21133638.945 7  86538738.215 7     -1286.299          43.000
G04  20255989.656 8 106445970.801 8       155.148          51.000    20255989.719 8  82944950.639 8       120.895          51.000
G09  21426455.445 8 112596817.858 8      2364.777          51.000    21426455.758 8  87737791.242 8      1842.684          51.000
G17  22699947.445 7 119289012.232 7     -1950.633          47.000    22699944.672 7  92952472.821 7     -1519.974          47.000
G19  22330203.789 5 117346008.724 5     -1130.715          35.000
R07  20240805.727 6 108350601.827 6     -1956.203          39.000    20240805.812 6  84272702.024 6     -1521.494          36.000
R08  19964378.906 4 106908365.436 4      1100.969          29.000    19964391.922 4  83150986.555 4       856.309          26.000
R22  20901944.883 8 111576007.063 8     -3553.164          50.000    20901948.320 8  86781327.346 8     -2763.575          48.000
C12  23006233.023 7 119799474.758 7     -2102.023          46.000    23006233.109 8  92636595.307 8     -1625.436          51.000
C21  22145035.750 6 115315018.177 6       924.172          38.000
C22  22834423.281 7 118904823.947 7     -1632.996          42.000
E07  24420233.156 8 128329297.327 8     -1645.316          51.000    24420235.328 8  98330190.219 8     -1260.694          51.000
E19  27181676.305 7 142840666.464 7      2379.957          45.000    27181679.742 7 109449371.621 7      1823.681          46.000
E26  23717991.906 8 124638902.248 8     -2368.746          49.000    23717992.773 8  95502533.151 8     -1815.010          51.000
E33  23973030.938 6 125979135.027 6       307.047          41.000    23973033.453 7  96529467.154 7       235.371          43.000
> 2020 05 16 22 04 30.0000000  0 15        .000000000000
G01  23628406.617 7 124168107.585 7     -3570.930          46.000    23628409.938 7  96754389.751 7     -2782.540          46.000
G03  21143108.383 6 111107810.976 6     -1667.902          40.000    21143110.062 6  86577519.201 6     -1299.664          41.000
G04  20255173.070 8 106441680.367 8       130.391          51.000    20255173.109 8  82941607.446 8       101.603          51.000
G09  21413013.219 8 112526177.234 8      2344.188          51.000    21413014.164 8  87682746.616 8      1826.643          51.000
G17  22711144.469 7 119347853.504 7     -1972.617          47.000    22711142.062 7  92998323.179 7     -1537.104          47.000
R01  22714939.000 4 121424364.634 4      3017.938          28.000
R07  20251815.086 6 108409533.330 6     -1973.051          40.000    20251815.742 6  84318537.670 6     -1534.595          37.000
R22  20921981.734 8 111682964.301 8     -3577.863          51.000    20921983.734 7  86864516.281 7     -2782.783          47.000
C12  23018404.781 7 119862853.328 7     -2123.598          46.000    23018404.703 8  92685603.639 8     -1642.061          51.000
C21  22139754.938 6 115287517.866 6       908.566          38.000
C22  22843870.203 7 118954016.223 7     -1646.801          42.000
E07  24429663.594 8 128378854.212 8     -1658.773          51.000    24429665.875 8  98368162.364 8     -1270.972          51.000
E19  27168124.531 7 142769450.182 7      2367.316          44.000    27168128.266 7 109394803.340 7      1814.067          46.000
E26  23731563.148 8 124710223.562 8     -2386.348          49.000    23731565.844 8  95557181.944 8     -1828.449          51.000
E33  23971340.047 7 125970247.656 7       285.027          42.000    23971342.859 7  96522657.380 7       218.392          43.000
> 2020 05 16 22 05  0.0000000  0 16        .000000000000
G01  23648788.078 7 124275214.533 7     -3571.855          45.000    23648791.133 7  96837849.742 7     -2783.261          45.000
G03  21152630.391 6 111157849.988 6     -1670.949          39.000    21152632.211 6  86616510.553 6     -1302.038          39.000
G04  20254454.141 8 106437902.787 8       118.996          51.000    20254454.172 8  82938663.875 8        92.724          51.000
G09  21399644.938 8 112455926.626 8      2336.809          51.000    21399646.172 8  87628005.891 8      1820.890          51.000
G17  22722422.328 8 119407122.018 8     -1981.055          48.000    22722421.336 7  93044506.443 7     -1543.679          47.000
R01  22698002.773 5 121333821.390 5      3016.531          33.000    22698016.141 4  94370767.571 4      2346.188          28.000
R07  20262874.695 7 108468739.066 7     -1976.387          42.000    20262876.367 6  84364586.580 6     -1537.190          36.000
R08  19952240.703 4 106843341.891 4      1072.957          26.000
R22  20942114.156 8 111790428.214 8     -3588.875          51.000    20942114.844 7  86948099.280 7     -2791.347          47.000
C12  23030656.477 7 119926647.647 7     -2131.688          47.000    23030655.859 8  92734933.481 8     -1648.395          51.000
C21  22134521.367 6 115260260.217 6       906.223          39.000
C22  22853351.398 7 119003387.363 7     -1646.930          43.000
E07  24439126.586 8 128428582.752 8     -1658.836          50.000    24439129.281 8  98406266.064 8     -1271.053          51.000
E19  27154601.055 7 142698383.554 7      2367.984          44.000    27154604.508 7 109340349.756 7      1814.439          45.000
E26  23745191.023 8 124781840.489 8     -2390.496          51.000    23745195.078 8  95612057.263 8     -1831.655          51.000
E33  23969730.633 6 125961790.985 6       276.172          40.000    23969733.734 7  96516177.601 7       211.777          43.000
> 2020 05 16 22 05 30.0000000  0 15        .000000000000
G01  23669196.898 7 124382463.961 7     -3577.832          45.000    23669199.562 7  96921420.744 7     -2787.921          46.000
G03  21162195.109 5 111208112.548 5     -1679.707          35.000    21162196.844 5  86655676.216 5     -1308.860          35.000
G04  20253824.000 8 106434591.417 8       102.059          51.000    20253824.258 8  82936083.607 8        79.526          51.000
G09  21386341.953 8 112386021.140 8      2323.859          50.000    21386343.109 8  87573534.095 8      1810.800          50.000
G17  22733772.516 8 119466768.780 8     -1995.004          48.000    22733772.562 8  93090984.439 8     -1554.548          48.000
R01  22681096.695 5 121243430.484 5      3009.180          32.000    22681103.414 4  94300463.580 4      2340.476          26.000
R07  20273977.211 7 108528170.290 7     -1985.207          43.000    20273978.500 5  84410810.802 5     -1544.053          35.000
R22  20962331.688 8 111898348.056 8     -3605.383          51.000    20962331.609 7  87032036.918 7     -2804.187          47.000
C12  23042978.852 8 119990810.355 8     -2145.414          48.000    23042977.586 8  92784548.185 8     -1658.961          51.000
C21  22129325.914 7 115233199.590 7       898.246          42.000
C22  22862858.016 7 119052891.177 7     -1652.793          44.000
E07  24448613.305 8 128478435.995 8     -1664.246          50.000    24448616.344 8  98444465.314 8     -1275.220          51.000
E19  27141097.273 7 142627421.148 7      2363.180          43.000    27141099.930 7 109285976.001 7      1810.820          45.000
E26  23758866.688 8 124853705.898 8     -2400.180          51.000    23758871.148 8  95667122.971 8     -1839.078          51.000
E33  23968194.344 6 125953719.633 6       262.305          40.000    23968197.805 7  96509993.097 7       200.936          44.000
> 2020 05 16 22 06  0.0000000  0 14        .000000000000
G01  23689641.188 7 124489898.322 7     -3583.934          46.000    23689643.125 7  97005135.836 7     -2792.676          46.000
G04  20253290.984 8 106431789.898 8        85.164          51.000    20253291.281 8  82933900.623 8        66.365          51.000
G09  21373113.062 8 112316506.073 8      2310.996          50.000    21373113.867 8  87519366.549 8      1800.776          50.000
G17  22745203.031 8 119526836.034 8     -2009.051          49.000    22745203.180 8  93137790.050 8     -1565.494          49.000
R01  22664223.227 4 121153244.467 4      3003.785          29.000    22664229.195 4  94230318.849 4      2336.280          24.000
R07  20285130.555 7 108587870.509 7     -1993.969          43.000    20285130.891 5  84457244.277 5     -1550.865          35.000
R22  20982641.211 8 112006765.049 8     -3621.820          50.000    20982641.797 7  87116361.255 7     -2816.971          47.000
C12  23055379.727 8 120055383.249 8     -2159.008          48.000    23055378.195 8  92834480.035 8     -1669.449          51.000
C21  22124176.922 6 115206379.907 6       890.375          39.000
C22  22872398.523 7 119102571.019 7     -1658.629          43.000
E07  24458132.039 8 128528457.262 8     -1669.879          50.000    24458135.211 8  98482793.313 8     -1279.518          51.000
E19  27127621.688 7 142556607.508 7      2358.293          43.000    27127623.477 7 109231716.259 7      1806.938          44.000
E26  23772598.016 8 124925862.808 8     -2409.770          51.000    23772602.250 8  95722412.030 8     -1846.393          51.000
E33  23966739.273 6 125946078.624 6       247.758          39.000    23966743.992 7  96504138.281 7       189.921          44.000
> 2020 05 16 22 06 30.0000000  0 16        .000000000000
G01  23710115.750 7 124597491.981 7     -3584.980          46.000    23710116.523 7  97088975.039 7     -2793.491          46.000
G04  20252850.352 8 106429473.790 8        73.289          51.000    20252850.516 8  82932095.873 8        57.108          51.000
G09  21359954.594 8 112247358.738 8      2302.914          51.000    21359955.148 8  87465485.544 8      1794.478          51.000
G17  22756708.648 8 119587297.676 8     -2017.891          50.000    22756707.828 8  93184902.963 8     -1572.382          50.000
G19  22364008.281 5 117523674.843 5     -1228.039          33.000
R01  22647380.805 5 121063233.593 5      3001.523          32.000
R07  20296328.359 7 108647813.773 7     -1997.953          42.000    20296329.023 6  84503866.836 6     -1553.964          36.000
R08  19934547.438 5 106748599.137 5      1038.379          30.000    19934550.023 4  83026685.356 4       807.628          29.000
R22  21003037.984 8 112115651.052 8     -3633.086          49.000    21003040.141 7  87201050.405 7     -2825.734          46.000
C12  23067853.586 7 120120340.903 7     -2167.445          47.000    23067852.883 8  92884709.380 8     -1676.073          51.000
C21  22119066.930 5 115179777.499 5       887.113          33.000
C22  22881968.102 7 119152402.669 7     -1659.531          42.000
E07  24467678.094 8 128578621.794 8     -1670.414          51.000    24467681.062 8  98521231.090 8     -1279.946          51.000
E19  27114169.961 7 142485919.306 7      2358.152          43.000    27114171.031 7 109177552.623 7      1807.055          43.000
E26  23786380.180 8 124998286.262 8     -2414.445          51.000    23786383.438 8  95777905.318 8     -1850.065          51.000
E33  23965362.086 6 125938844.783 6       238.367          41.000    23965367.203 7  96498595.446 7       182.633          44.000
> 2020 05 16 22 07  0.0000000  0 17        .000000000000
G01  23730611.508 7 124705196.335 7     -3595.816          45.000    23730610.250 7  97172900.487 7     -2801.935          46.000
G04  20252493.008 8 106427595.766 8        51.598          51.000    20252493.281 8  82930632.495 8        40.206          51.000
G09  21346857.969 8 112178533.475 8      2285.184          51.000    21346858.469 8  87411855.495 8      1780.663          51.000
G17  22768279.859 8 119648104.163 8     -2036.289          49.000    22768278.352 8  93232284.636 8     -1586.719          49.000
G19  22371091.641 5 117560902.692 5     -1253.613          32.000
G22  23140149.227 5 121602282.713 5     -2492.605          32.000
R01  22630566.469 5 120973362.638 5      2989.113          33.000
R07  20307561.094 7 108707951.085 7     -2011.664          43.000    20307563.336 6  84550640.322 6     -1564.625          37.000
R08  19928780.648 5 106717697.229 5      1021.398          34.000    19928777.586 4  83002650.458 4       794.415          25.000
R22  21023514.188 8 112224954.858 8     -3654.109          51.000    21023516.492 7  87286064.468 7     -2842.085          45.000
C12  23080391.562 7 120185635.016 7     -2185.684          46.000    23080392.250 8  92935198.938 8     -1690.170          51.000
C21  22113987.102 5 115153346.109 5       874.219          30.000
C22  22891557.742 6 119202339.339 6     -1670.094          40.000
E07  24477242.336 8 128628881.913 8     -1680.629          51.000    24477245.117 8  98559742.092 8     -1287.758          51.000
E19  27100733.336 7 142415310.158 7      2348.527          42.000    27100733.984 7 109123449.559 7      1799.587          43.000
E26  23800203.828 8 125070928.352 8     -2428.781          51.000    23800205.867 8  95833566.134 8     -1861.038          50.000
E33  23964054.336 7 125931972.003 7       219.355          42.000    23964057.984 7  96493329.338 7       168.033          43.000
> 2020 05 16 22 07 30.0000000  0 17        .000000000000
G01  23751168.445 7 124813222.909 7     -3604.965          45.000    23751166.391 7  97257076.968 7     -2809.064          45.000
G04  20252259.539 8 106426368.420 8        31.488          51.000    20252259.867 8  82929676.133 8        24.536          51.000
G09  21333863.461 8 112110244.638 8      2268.785          51.000    21333863.977 8  87358643.422 8      1767.885          51.000
G17  22779956.609 8 119709466.530 8     -2053.199          50.000    22779955.656 8  93280099.481 8     -1599.892          50.000
G19  22378318.625 5 117598870.728 5     -1276.316          34.000
G31  24228952.289 5 127324026.947 5     -2410.938          30.000
R01  22613818.914 5 120883843.183 5      2979.590          32.000
R07  20318870.789 7 108768497.951 7     -2023.586          45.000    20318874.531 6  84597732.354 6     -1573.897          38.000
R08  19923110.945 5 106687328.772 5      1004.859          33.000    19923108.844 4  82979030.691 4       781.566          25.000
R22  21044109.547 8 112334889.497 8     -3673.508          51.000    21044111.258 7  87371569.169 7     -2857.173          45.000
C12  23093034.617 7 120251474.956 7     -2202.289          46.000    23093036.805 8  92986110.575 8     -1702.886          51.000
C21  22108982.750 5 115127277.152 5       863.410          31.000
C22  22901208.289 6 119252591.789 6     -1678.871          40.000
E07  24486865.023 8 128679449.960 8     -1689.195          50.000    24486868.016 8  98598489.037 8     -1294.345          51.000
E19  27087352.023 7 142344993.613 7      2340.441          42.000    27087353.000 7 109069570.699 7      1793.418          43.000
E26  23814109.180 8 125144001.147 8     -2441.355          50.000    23814110.648 8  95889556.967 8     -1870.625          49.000
E33  23962855.859 6 125925674.325 6       201.922          40.000    23962858.102 7  96488503.877 7       154.758          42.000
> 2020 05 16 22 08  0.0000000  0 18        .000000000000
G01  23771729.648 7 124921271.965 7     -3588.922          45.000    23771729.164 7  97341271.006 7     -2796.559          45.000
G03  21210746.773 5 111463226.899 5     -1704.859          34.000    21210748.906 5  86854467.717 5     -1328.462          33.000
G04  20252093.000 8 106425493.200 8        36.512          50.000    20252093.148 8  82928994.150 8        28.454          51.000
G09  21320914.125 8 112042195.416 8      2277.422          51.000    21320915.047 8  87305618.062 8      1774.617          51.000
G17  22791682.062 8 119771084.605 8     -2044.996          50.000    22791682.016 8  93328113.545 8     -1593.503          50.000
G19  22385628.508 5 117637279.403 5     -1274.480          34.000
G22  23168671.797 5 121752176.269 5     -2485.352          31.000
G31  24242764.633 5 127396597.960 5     -2404.379          33.000    24242762.445 5  99270062.700 5     -1873.542          31.000
R07  20330201.156 7 108829149.689 7     -2009.949          43.000    20330205.258 6  84644905.962 6     -1563.294          38.000
R08  19917484.695 5 106657190.583 5      1014.117          35.000
R22  21064765.688 8 112445148.072 8     -3667.246          51.000    21064766.969 7  87457325.820 7     -2852.303          46.000
C12  23105726.547 7 120317563.753 7     -2193.949          47.000    23105729.055 8  93037214.657 8     -1696.498          51.000
C21  22103999.508 6 115101315.160 6       877.293          36.000
C22  22910863.328 6 119302864.348 6     -1663.055          40.000
E07  24496489.422 8 128730027.131 8     -1672.949          50.000    24496492.594 8  98637242.969 8     -1281.753          51.000
E19  27073969.758 7 142274672.371 7      2357.266          42.000    27073971.266 7 109015688.232 7      1806.249          44.000
E26  23828039.383 8 125217205.605 8     -2429.137          50.000    23828041.031 8  95945648.699 8     -1861.272          50.000
E33  23961710.531 6 125919654.518 6       209.469          40.000    23961712.219 7  96483891.311 7       160.248          43.000
> 2020 05 16 22 08 30.0000000  0 16        .000000000000
G01  23792349.164 7 125029629.123 7     -3616.805          45.000    23792350.750 7  97425705.183 7     -2818.289          45.000
G03  21220621.641 6 111515115.304 6     -1735.934          40.000    21220622.906 6  86894900.249 6     -1352.672          40.000
G04  20252047.984 8 106425256.942 8        -2.594          51.000    20252048.000 8  82928810.046 8        -2.021          51.000
G09  21308064.766 8 111974674.363 8      2242.105          50.000    21308066.383 8  87253004.259 8      1747.095          50.000
G17  22803510.477 8 119833243.461 8     -2080.734          50.000    22803510.641 8  93376548.993 8     -1621.351          50.000
G31  24256651.969 5 127469575.151 5     -2443.023          33.000    24256650.633 5  99326928.036 5     -1903.652          31.000
R01  22580411.312 5 120705245.446 5      2964.883          32.000
R07  20341605.977 7 108890197.305 7     -2041.312          42.000    20341609.867 6  84692387.463 6     -1587.684          38.000
R22  21085536.484 8 112556019.059 8     -3705.648          51.000    21085537.836 7  87543558.814 7     -2882.171          47.000
C12  23118521.219 8 120384184.294 8     -2229.379          48.000    23118522.867 8  93088729.887 8     -1723.891          51.000
C21  22099087.945 6 115075725.272 6       846.949          39.000
C22  22920576.914 6 119353441.381 6     -1690.758          38.000
E07  24506170.203 8 128780899.972 8     -1700.484          50.000    24506173.203 8  98676223.479 8     -1302.963          50.000
E19  27060641.648 7 142204634.179 7      2330.035          43.000    27060643.453 7 108962022.617 7      1785.420          44.000
E26  23842049.000 8 125290827.987 8     -2460.910          50.000    23842051.602 8  96002060.662 8     -1885.650          51.000
E33  23960673.219 6 125914200.712 6       172.645          39.000    23960674.141 7  96479712.428 7       132.095          42.000
> 2020 05 16 22 09  0.0000000  0 17        .000000000000
G01  23812983.273 7 125138065.728 7     -3616.535          44.000    23812986.859 7  97510201.275 7     -2818.079          44.000
G03  21230528.781 6 111567174.711 6     -1738.551          41.000    21230529.312 6  86935466.034 6     -1354.715          40.000
G04  20252081.344 8 106425432.026 8       -13.395          51.000    20252081.383 8  82928946.485 8       -10.437          51.000
G09  21295273.148 8 111907455.559 8      2234.910          51.000    21295275.109 8  87200626.010 8      1741.491          51.000
G17  22815398.109 8 119895713.608 8     -2088.227          50.000    22815397.867 8  93425227.010 8     -1627.190          50.000
G31  24270607.883 5 127542911.742 5     -2450.969          33.000    24270606.211 5  99384073.375 5     -1909.846          31.000
R01  22563765.820 5 120616228.616 5      2965.059          35.000
R07  20353040.648 6 108951408.263 6     -2043.555          40.000    20353044.375 5  84739996.026 5     -1589.431          35.000
R08  19906467.516 5 106598232.956 5       971.820          34.000    19906479.266 4  82909769.081 4       755.854          29.000
R22  21106377.688 8 112667267.892 8     -3715.199          51.000    21106379.305 7  87630085.692 7     -2889.599          47.000
C12  23131374.555 8 120451109.665 8     -2236.582          49.000    23131374.531 8  93140480.790 8     -1729.389          51.000
C21  22094204.023 6 115050282.593 6       845.031          39.000
C22  22930304.500 6 119404097.478 6     -1690.637          37.000
E07  24515863.906 8 128831840.669 8     -1699.699          51.000    24515866.594 8  98715255.960 8     -1302.400          50.000
E19  27047324.695 7 142134652.344 7      2331.121          44.000    27047326.594 7 108908400.240 7      1786.118          44.000
E26  23856094.828 8 125364640.182 8     -2464.078          50.000    23856098.516 8  96058618.070 8     -1888.084          51.000
E33  23959699.836 6 125909086.646 6       164.262          39.000    23959700.352 7  96475793.853 7       125.803          43.000
> 2020 05 16 22 09 30.0000000  0 17        .000000000000
G01  23833651.062 7 125246678.023 7     -3623.582          44.000    23833655.836 7  97594834.262 7     -2823.567          44.000
G03  21240486.969 7 111619502.866 7     -1748.941          43.000    21240486.664 7  86976241.212 7     -1362.811          43.000
G04  20252211.453 8 106426115.848 8       -31.582          51.000    20252211.445 8  82929479.341 8       -24.609          51.000
G09  21282558.250 8 111840638.189 8      2220.230          51.000    21282560.109 8  87148560.565 8      1730.050          51.000
G17  22827363.133 8 119958590.608 8     -2103.012          50.000    22827362.328 8  93474222.089 8     -1638.710          50.000
G31  24284650.375 5 127616703.512 5     -2467.836          34.000    24284648.539 5  99441573.432 5     -1922.980          32.000
R01  22547154.867 5 120527424.275 5      2956.164          31.000    22547157.094 4  93743572.907 4      2299.242          27.000
R07  20364523.078 7 109012880.751 7     -2053.746          42.000    20364526.078 5  84787807.983 5     -1597.358          33.000
R08  19901070.914 5 106569298.549 5       957.688          32.000    19901072.438 4  82887264.508 4       744.871          28.000
R22  21127307.055 8 112778990.375 8     -3732.227          51.000    21127308.641 7  87716980.960 7     -2902.843          46.000
C12  23144304.195 7 120518435.139 7     -2251.191          47.000    23144301.625 8  93192541.058 8     -1740.649          48.000
C21  22089364.922 5 115025084.479 5       835.922          34.000
C22  22940065.680 6 119454929.334 6     -1697.570          37.000
E07  24525588.953 8 128882946.412 8     -1706.426          51.000    24525591.586 8  98754414.888 8     -1307.473          50.000
E19  27034037.422 7 142064825.736 7      2324.770          44.000    27034039.422 7 108854896.793 7      1781.329          45.000
E26  23870195.258 8 125438739.102 8     -2475.000          51.000    23870199.523 8  96115395.160 8     -1896.381          51.000
E33  23958810.094 6 125904411.058 6       148.465          41.000    23958810.547 7  96472211.253 7       113.684          44.000
> 2020 05 16 22 10  0.0000000  0 18        .000000000000
G01  23854307.609 7 125355228.475 7     -3628.324          45.000    23854312.539 7  97679419.048 7     -2827.266          45.000
G03  21250451.047 7 111671863.752 7     -1757.105          45.000    21250450.211 7  87017041.882 7     -1369.173          45.000
G04  20252393.344 8 106427071.964 8       -47.578          51.000    20252393.211 8  82930224.373 8       -37.074          51.000
G09  21269875.148 8 111773987.517 8      2207.703          51.000    21269876.680 8  87096625.010 8      1720.288          51.000
G17  22839360.180 8 120021636.339 8     -2115.457          50.000    22839359.367 8  93523348.640 8     -1648.408          50.000
G19  22415995.219 5 117796845.024 5     -1369.500          31.000
G22  23226037.375 4 122053671.577 4     -2523.641          29.000
G31  24298734.297 5 127690712.665 5     -2481.051          31.000    24298732.539 5  99499242.870 5     -1933.280          30.000
R07  20376010.656 7 109074373.391 7     -2061.391          43.000    20376011.250 5  84835635.501 5     -1603.307          32.000
R08  19895696.125 5 106540513.689 5       945.730          35.000    19895696.242 4  82864876.324 4       735.571          26.000
R22  21148278.578 8 112890943.385 8     -3746.879          49.000    21148280.664 7  87804055.544 7     -2914.239          46.000
C12  23157264.953 7 120585925.097 7     -2263.453          47.000    23157260.680 8  93244728.551 8     -1750.291          49.000
C21  22084525.727 5 114999897.241 5       828.133          32.000
C22  22949816.039 6 119505702.892 6     -1702.398          37.000
E07  24535300.438 8 128933980.561 8     -1711.211          50.000    24535303.180 8  98793518.960 8     -1311.158          49.000
E19  27020734.672 7 141994918.654 7      2320.332          44.000    27020736.953 7 108801331.677 7      1777.935          44.000
E26  23884305.070 8 125512887.815 8     -2483.770          51.000    23884309.055 8  96172210.413 8     -1903.121          50.000
E33  23957959.312 6 125899938.838 6       134.387          40.000    23957959.719 7  96468784.478 7       102.942          43.000
> 2020 05 16 22 10 30.0000000  0 18        .000000000000
G01  23875079.484 7 125464383.894 7     -3641.305          45.000    23875084.359 7  97764475.228 7     -2837.377          45.000
G03  21260548.281 7 111724925.605 7     -1773.105          43.000    21260547.953 7  87058388.797 7     -1381.641          43.000
G04  20252754.203 8 106428968.311 8       -71.477          51.000    20252754.148 8  82931702.054 8       -55.693          51.000
G09  21257351.227 8 111708173.263 8      2187.184          51.000    21257352.445 8  87045341.198 8      1704.299          51.000
G17  22851516.109 8 120085516.919 8     -2135.840          50.000    22851515.633 8  93573125.698 8     -1664.291          50.000
G19  22423911.594 6 117838449.458 6     -1396.230          36.000
G22  23240500.148 5 122129651.943 5     -2535.984          31.000
R01  22514055.680 5 120350554.225 5      2935.859          32.000
R07  20387629.664 6 109136565.922 6     -2077.281          41.000    20387630.539 5  84884007.409 5     -1615.666          35.000
R08  19890476.984 5 106512559.720 5       925.770          30.000
R22  21169419.102 8 113003802.122 8     -3769.488          48.000    21169422.219 7  87891834.570 7     -2931.824          45.000
C12  23170383.922 7 120654240.159 7     -2283.512          47.000    23170379.586 8  93297554.059 8     -1765.898          50.000
C21  22079817.016 6 114975383.245 6       813.199          36.000
C22  22959682.406 6 119557080.275 6     -1715.156          37.000
E07  24545125.281 8 128985610.877 8     -1723.668          50.000    24545128.242 8  98833079.850 8     -1320.676          49.000
E19  27007543.578 7 141925600.333 7      2308.156          43.000    27007546.172 7 108748217.670 7      1768.575          44.000
E26  23898551.383 8 125587753.736 8     -2500.129          51.000    23898554.578 8  96229575.210 8     -1915.647          50.000
E33  23957274.289 6 125896339.259 6       112.777          40.000    23957274.680 7  96466026.347 7        86.453          43.000
> 2020 05 16 22 11  0.0000000  0 15        .000000000000
G01  23895833.078 7 125573442.817 7     -3643.207          44.000    23895837.734 7  97849456.216 7     -2838.863          44.000
G03  21270645.578 7 111777988.629 7     -1778.094          43.000    21270646.016 7  87099736.557 7     -1385.528          43.000
G04  20253160.672 8 106431104.539 8       -84.633          51.000    20253160.656 8  82933366.665 8       -65.948          51.000
G09  21244853.625 8 111642496.841 8      2177.516          51.000    21244854.453 8  86994164.769 8      1696.765          51.000
G17  22863697.461 8 120149530.343 8     -2145.434          50.000    22863697.016 8  93623006.281 8     -1671.766          50.000
G19  22431887.758 4 117880367.821 4     -1411.918          29.000
R07  20399245.523 6 109198743.824 6     -2081.965          39.000    20399248.227 5  84932368.005 5     -1619.306          35.000
R22  21190596.367 8 113116851.925 8     -3781.137          48.000    21190599.328 7  87979762.187 7     -2940.884          45.000
C12  23183527.750 7 120722684.996 7     -2292.953          46.000    23183523.859 8  93350479.949 8     -1773.066          50.000
C21  22075107.133 6 114950849.617 6       808.824          36.000
C22  22969531.016 6 119608367.658 6     -1717.305          39.000
E07  24554930.242 8 129037136.797 8     -1725.211          49.000    24554933.398 8  98872560.740 8     -1321.870          49.000
E19  26994331.133 7 141856171.536 7      2306.816          43.000    26994333.867 7 108695019.003 7      1767.504          43.000
E26  23912801.047 8 125662636.006 8     -2505.758          51.000    23912803.141 8  96286952.520 8     -1919.894          50.000
E33  23956622.227 6 125892913.269 6       101.793          41.000    23956623.359 7  96463401.249 7        78.063          44.000
> 2020 05 16 22 11 30.0000000  0 14        .000000000000
G01  23916627.906 7 125682719.322 7     -3645.332          43.000    23916632.344 7  97934606.735 7     -2840.522          43.000
G03  21280803.352 7 111831368.265 7     -1783.703          45.000    21280803.875 7  87141331.088 7     -1389.895          45.000
G04  20253672.711 8 106433795.754 8       -97.980          51.000    20253672.742 8  82935463.722 8       -76.348          51.000
G09  21232442.578 8 111577275.043 8      2167.496          51.000    21232443.234 8  86943342.601 8      1688.958          51.000
G17  22875963.641 8 120213989.945 8     -2155.039          50.000    22875963.039 8  93673234.520 8     -1679.251          49.000
R07  20410918.016 6 109261227.406 6     -2086.785          36.000    20410921.797 6  84980966.387 6     -1623.052          36.000
R22  21211869.484 8 113230409.835 8     -3792.617          49.000    21211872.414 7  88068084.967 7     -2949.816          46.000
C12  23196756.188 7 120791570.650 7     -2302.473          46.000    23196753.086 8  93403746.714 8     -1780.439          50.000
C21  22070453.086 5 114926609.213 5       803.977          33.000
C22  22979423.195 6 119659877.567 6     -1719.516          40.000
E07  24564775.383 8 129088873.347 8     -1727.129          49.000    24564778.414 8  98912203.024 8     -1323.331          49.000
E19  26981158.141 7 141786948.583 7      2305.035          44.000    26981160.547 7 108641978.051 7      1766.202          43.000
E26  23927113.812 8 125737849.309 8     -2511.613          50.000    23927115.125 8  96344583.491 8     -1924.513          50.000
E33  23956063.281 6 125889977.349 6        90.547          41.000    23956065.727 7  96461151.642 7        69.605          44.000
> 2020 05 16 22 12  0.0000000  0 17        .000000000000
G01  23937441.109 7 125792091.162 7     -3646.211          44.000    23937445.078 7  98019831.535 7     -2841.203          43.000
G03  21290998.234 6 111884943.786 6     -1787.820          41.000    21290998.836 6  87183078.282 6     -1393.107          41.000
G04  20254267.266 8 106436920.793 8      -110.141          51.000    20254267.391 8  82937898.819 8       -85.824          51.000
G09  21220095.172 8 111512388.441 8      2158.539          51.000    21220096.102 8  86892781.627 8      1681.982          51.000
G17  22888291.211 8 120278772.468 8     -2163.605          49.000    22888290.383 8  93723714.437 8     -1685.926          49.000
G22  23283922.359 5 122357811.650 5     -2539.945          32.000
R07  20422622.586 6 109323892.707 6     -2090.465          38.000    20422628.281 5  85029706.107 5     -1625.920          35.000
R08  19875105.133 5 106430240.816 5       899.094          34.000
R22  21233214.258 8 113344349.633 8     -3803.117          49.000    21233217.359 7  88156704.804 7     -2957.983          47.000
R23  19958884.641 5 106766561.376 5       800.449          32.000
C12  23210045.859 7 120860775.750 7     -2311.008          46.000    23210043.820 8  93457260.491 8     -1786.951          51.000
C21  22065832.094 6 114902542.756 6       801.012          37.000
C22  22989335.797 6 119711490.226 6     -1721.066          40.000
E07  24574637.664 8 129140699.200 8     -1727.738          49.000    24574640.242 8  98951913.742 8     -1323.854          49.000
E19  26968002.141 7 141717811.150 7      2304.398          45.000    26968003.734 7 108589002.647 7      1765.750          43.000
E26  23941466.117 8 125813271.954 8     -2516.340          49.000    23941467.641 8  96402374.848 8     -1928.015          51.000
E33  23955574.836 7 125887411.670 7        80.668          42.000    23955577.789 7  96459185.742 7        61.796          44.000
> 2020 05 16 22 12 30.0000000  0 16        .000000000000
G01  23958295.625 7 125901679.194 7     -3654.125          43.000    23958298.961 7  98105224.789 7     -2847.373          43.000
G03  21301253.609 6 111938837.751 6     -1799.363          41.000    21301254.031 7  87225073.540 7     -1402.098          42.000
G04  20254967.586 8 106440601.615 8      -129.570          51.000    20254967.719 8  82940766.982 8      -100.964          50.000
G09  21207834.875 8 111447960.816 8      2142.262          51.000    21207836.258 8  86842578.294 8      1669.295          51.000
G17  22900702.984 8 120343998.227 8     -2179.195          49.000    22900702.336 8  93774539.692 8     -1698.074          49.000
R01  22448280.797 4 119998928.017 4      2916.730          29.000    22448285.758 4  93332517.852 4      2268.568          26.000
R07  20434385.695 6 109386863.197 6     -2101.797          40.000    20434390.508 5  85078683.160 5     -1634.734          33.000
R08  19870131.844 5 106403599.836 5       883.230          34.000
R22  21254653.344 8 113458791.965 8     -3820.637          50.000    21254656.344 7  88245715.511 7     -2971.606          47.000
C12  23223419.727 7 120930419.813 7     -2326.414          45.000    23223419.133 8  93511113.709 8     -1798.958          51.000
C21  22061267.930 6 114878771.972 6       789.887          37.000
C22  22999291.039 6 119763326.649 6     -1729.301          38.000
E07  24584540.078 8 129192736.232 8     -1735.727          48.000    24584542.391 8  98991786.277 8     -1329.963          49.000
E19  26954886.016 7 141648882.482 7      2296.609          45.000    26954887.188 7 108536187.221 7      1759.659          44.000
E26  23955880.625 7 125889025.461 7     -2528.301          46.000    23955883.750 8  96460419.755 8     -1937.204          51.000
E33  23955180.547 6 125885339.531 6        63.266          41.000    23955183.188 7  96457598.023 7        48.371          44.000
> 2020 05 16 22 13  0.0000000  0 16        .000000000000
G01  23979163.438 6 126011338.754 6     -3654.742          40.000    23979166.203 6  98190673.777 6     -2847.851          40.000
G03  21311542.586 6 111992906.868 6     -1803.426          40.000    21311543.086 6  87267205.379 6     -1405.267          40.000
G04  20255746.414 8 106444694.571 8      -141.504          51.000    20255746.523 8  82943956.311 8      -110.260          51.000
G09  21195634.844 8 111383850.286 8      2133.320          51.000    21195636.336 8  86792622.042 8      1662.328          51.000
G17  22913171.922 8 120409522.330 8     -2187.352          50.000    22913171.117 8  93825597.465 8     -1704.430          50.000
G19  22464907.852 5 118053890.470 5     -1479.543          31.000
G22  23313010.414 5 122510686.670 5     -2549.309          34.000
R07  20446179.492 6 109449991.984 6     -2105.145          40.000    20446182.070 5  85127783.306 5     -1637.335          32.000
R22  21276159.094 8 113573587.788 8     -3830.652          50.000    21276161.594 7  88335001.134 7     -2979.396          47.000
C12  23236850.297 7 121000359.343 7     -2334.527          44.000    23236851.000 8  93565195.449 8     -1805.208          51.000
C21  22056732.523 6 114855155.226 6       786.570          37.000
C22  23009261.711 5 119815244.917 5     -1729.977          32.000
E07  24594455.359 7 129244840.716 7     -1736.137          47.000    24594457.672 8  99031710.483 8     -1330.311          49.000
E19  26941782.445 7 141580020.156 7      2296.004          44.000    26941783.539 7 108483422.607 7      1759.300          44.000
E26  23970330.523 7 125964965.768 7     -2532.770          45.000    23970335.828 8  96518607.800 8     -1940.673          51.000
E33  23954852.875 6 125883618.697 6        53.344          41.000    23954855.359 7  96456279.422 7        40.802          45.000
> 2020 05 16 22 13 30.0000000  0 16        .000000000000
G01  24000072.562 6 126121219.291 6     -3664.414          36.000    24000075.672 6  98276295.000 6     -2855.385          36.000
G03  21321893.586 6 112047302.161 6     -1816.828          40.000    21321894.766 6  87309591.346 6     -1415.710          40.000
G04  20256632.320 8 106449350.179 8      -162.625          51.000    20256632.383 8  82947584.061 8      -126.721          51.000
G09  21183524.195 8 111320209.092 8      2115.594          51.000    21183525.312 8  86743031.523 8      1648.515          51.000
G17  22925725.906 8 120475493.163 8     -2204.477          51.000    22925724.828 8  93877003.301 8     -1717.774          51.000
G22  23327607.586 5 122587397.112 5     -2559.102          34.000
R07  20458031.359 6 109513431.594 6     -2118.141          39.000    20458030.953 5  85177125.270 5     -1647.440          31.000
R08  19860360.320 4 106351326.903 4       857.316          29.000
R22  21297759.242 8 113688887.227 8     -3849.770          50.000    21297761.203 8  88424678.451 8     -2994.265          48.000
C12  23250366.117 7 121070742.283 7     -2351.617          43.000    23250367.977 8  93619620.040 8     -1818.350          51.000
C21  22052255.508 6 114831842.508 6       774.078          38.000
C22  23019276.156 4 119867394.544 4     -1740.176          29.000
E07  24604411.977 7 129297163.062 7     -1745.750          46.000    24604414.484 8  99071801.636 8     -1337.653          49.000
E19  26928720.109 7 141511375.996 7      2286.480          44.000    26928721.266 7 108430825.163 7      1751.823          44.000
E26  23984845.656 8 126041242.934 8     -2546.215          48.000    23984852.102 8  96577053.966 8     -1951.023          51.000
E33  23954621.305 7 125882400.991 7        34.227          43.000    23954622.891 7  96455346.360 7        26.166          44.000
> 2020 05 16 22 14  0.0000000  0 14        .000000000000
G01  24021002.711 5 126231217.603 5     -3668.984          32.000    24021007.914 5  98362008.077 5     -2858.943          31.000
G03  21332286.844 6 112101921.837 6     -1823.801          37.000    21332287.914 6  87352152.244 6     -1421.143          36.000
G04  20257605.883 8 106454466.243 8      -178.113          51.000    20257606.016 8  82951570.611 8      -138.787          51.000
G09  21171483.930 8 111256936.828 8      2102.984          51.000    21171484.359 8  86693728.472 8      1638.692          51.000
G17  22938345.109 8 120541806.609 8     -2216.094          50.000    22938343.688 8  93928676.098 8     -1726.826          50.000
G22  23342227.688 5 122664228.504 5     -2562.785          35.000    23342229.555 5  95582555.990 5     -1996.975          30.000
R07  20469921.469 5 109577077.534 5     -2124.688          34.000    20469919.328 4  85226627.663 4     -1652.535          28.000
R22  21319432.906 8 113804582.812 8     -3863.047          49.000    21319435.242 8  88514663.890 8     -3004.592          48.000
C12  23263947.180 7 121141466.063 7     -2363.289          43.000    23263950.398 8  93674308.117 8     -1827.212          51.000
C21  22047817.820 6 114808733.387 6       767.074          40.000
E07  24614390.461 7 129349601.013 7     -1749.766          45.000    24614393.234 8  99111981.383 8     -1340.712          49.000
E19  26915679.734 7 141442848.865 7      2282.387          43.000    26915681.133 7 108378317.366 7      1748.803          44.000
E26  23999406.352 8 126117754.339 8     -2554.137          50.000    23999412.750 8  96635679.586 8     -1957.078          51.000
E33  23954466.508 7 125881585.506 7        20.672          44.000    23954466.602 7  96454721.525 7        15.693          44.000
> 2020 05 16 22 14 30.0000000  0 14        .000000000000
G01  24041962.688 5 126341368.443 5     -3675.801          33.000    24041969.305 5  98447839.952 5     -2864.257          33.000
G03  21342729.523 6 112156802.443 6     -1835.410          37.000    21342731.586 6  87394916.373 6     -1430.190          37.000
G04  20258673.922 8 106460078.485 8      -196.914          51.000    20258674.008 8  82955943.802 8      -153.436          51.000
G09  21159521.125 8 111194070.929 8      2087.141          51.000    21159521.172 8  86644742.094 8      1626.343          51.000
G17  22951035.773 8 120608496.861 8     -2230.871          49.000    22951034.367 8  93980642.508 8     -1738.341          49.000
R07  20481856.148 6 109640965.598 6     -2135.352          36.000    20481846.969 4  85276276.879 4     -1660.826          25.000
R22  21341185.945 8 113920708.098 8     -3879.602          48.000    21341189.328 8  88604983.557 8     -3017.468          48.000
C12  23277600.617 7 121212564.775 7     -2377.668          43.000    23277603.781 8  93729286.158 8     -1838.636          51.000
